[
  {
    "service_request": "2025-1165516",
    "request_type": "Trash/Recycling",
    "request_reason": "Request a Large Item Pick Up",
    "date_created": "2025-01-30T23:53:39.000",
    "date_modified": "2025-01-30T23:53:42.000",
    "request_status": "Pending",
    "responsible_agency": "Department of Sanitation",
    "final_address": "11341 N Parkwood Ct",
    "address_councildis": "E",
    "status": "Assigned to Contractor",
    "contractor": "Waste Pro",
    "rowid": "1165516",
    "final_x": "3716932.57445",
    "final_y": "559625.744285",
    "longitude": "-89.95512089138047",
    "latitude": "30.031652271027017",
    "geocoded_column": {
      "latitude": "30.031652271027017",
      "longitude": "-89.95512089138047"
    }
  },
  {
    "service_request": "2025-1165515",
    "request_type": "Trash/Recycling",
    "request_reason": "Replace Trash Cart",
    "date_created": "2025-01-30T23:38:48.000",
    "date_modified": "2025-01-30T23:38:50.000",
    "request_status": "Pending",
    "responsible_agency": "Department of Sanitation",
    "final_address": "2005 Octavia St",
    "address_councildis": "A",
    "status": "Assigned to Contractor",
    "contractor": "IV Waste",
    "rowid": "1165515",
    "final_x": "3667456.82573",
    "final_y": "523091.881595",
    "longitude": "-90.11269726831613",
    "latitude": "29.9327399952079",
    "geocoded_column": {
      "latitude": "29.9327399952079",
      "longitude": "-90.11269726831613"
    }
  },
  {
    "service_request": "2025-1165514",
    "request_type": "Trash/Recycling",
    "request_reason": "Missed Trash Pick-Up",
    "date_created": "2025-01-30T23:22:28.000",
    "date_modified": "2025-01-30T23:22:31.000",
    "request_status": "Pending",
    "responsible_agency": "Department of Sanitation",
    "final_address": "2329 General Meyer Ave",
    "address_councildis": "C",
    "status": "Assigned to Contractor",
    "contractor": "Richards Disposal",
    "rowid": "1165514",
    "final_x": "3692652.05296",
    "final_y": "527621.965631",
    "longitude": "-90.03299598049206",
    "latitude": "29.944434123735533",
    "geocoded_column": {
      "latitude": "29.944434123735533",
      "longitude": "-90.03299598049206"
    }
  },
  {
    "service_request": "2025-1165513",
    "request_type": "Utility Poles",
    "request_reason": "Utility Pole Leaning",
    "date_created": "2025-01-30T22:58:37.000",
    "date_modified": "2025-01-30T22:58:39.000",
    "request_status": "Pending",
    "responsible_agency": "Utility Company Collective",
    "final_address": "1013 Thalia St",
    "address_councildis": "B",
    "status": "Pending",
    "rowid": "1165513",
    "final_x": "3680797.64757",
    "final_y": "525202.070909",
    "longitude": "-90.07050796174185",
    "latitude": "29.938144802079158",
    "geocoded_column": {
      "latitude": "29.938144802079158",
      "longitude": "-90.07050796174185"
    }
  },
  {
    "service_request": "2025-1165512",
    "request_type": "Trash/Recycling",
    "request_reason": "Missed Trash Pick-Up",
    "date_created": "2025-01-30T22:58:24.000",
    "date_modified": "2025-01-30T22:58:26.000",
    "request_status": "Pending",
    "responsible_agency": "Department of Sanitation",
    "final_address": "2013 Napoleon Ave",
    "address_councildis": "B",
    "status": "Assigned to Contractor",
    "contractor": "IV Waste",
    "rowid": "1165512",
    "final_x": "3670829.40225",
    "final_y": "522433.27929",
    "longitude": "-90.10207262868725",
    "latitude": "29.930829831510085",
    "geocoded_column": {
      "latitude": "29.930829831510085",
      "longitude": "-90.10207262868725"
    }
  },
  {
    "service_request": "2025-1165511",
    "request_type": "Trash/Recycling",
    "request_reason": "Missed Trash Pick-Up",
    "date_created": "2025-01-30T22:03:53.000",
    "date_modified": "2025-01-30T22:03:55.000",
    "request_status": "Pending",
    "responsible_agency": "Department of Sanitation",
    "final_address": "2431 Milan St",
    "address_councildis": "B",
    "status": "Assigned to Contractor",
    "contractor": "IV Waste",
    "rowid": "1165511",
    "final_x": "3671333.8066",
    "final_y": "524039.28454",
    "longitude": "-90.10042573942604",
    "latitude": "29.935230915296785",
    "geocoded_column": {
      "latitude": "29.935230915296785",
      "longitude": "-90.10042573942604"
    }
  },
  {
    "service_request": "2025-1165510",
    "request_type": "Streetlights",
    "request_reason": "Streetlight Outage/Malfunction",
    "date_created": "2025-01-30T21:37:38.000",
    "date_modified": "2025-01-30T21:37:39.000",
    "request_status": "Pending",
    "responsible_agency": "Department of Public Works",
    "final_address": "2621 Valentine Ct",
    "address_councildis": "C",
    "status": "Pending",
    "contractor": "Legacy Professional Services",
    "rowid": "1165510",
    "final_x": "3699038.92055",
    "final_y": "521306.971705",
    "longitude": "-90.01306064551032",
    "latitude": "29.926869237697055",
    "geocoded_column": {
      "latitude": "29.926869237697055",
      "longitude": "-90.01306064551032"
    }
  },
  {
    "service_request": "2025-1165509",
    "request_type": "Streetlights",
    "request_reason": "Streetlight Outage/Malfunction",
    "date_created": "2025-01-30T21:36:06.000",
    "date_modified": "2025-01-30T21:36:07.000",
    "request_status": "Pending",
    "responsible_agency": "Department of Public Works",
    "final_address": "2621 Valentine Ct",
    "address_councildis": "C",
    "status": "Pending",
    "contractor": "Legacy Professional Services",
    "rowid": "1165509",
    "final_x": "3699038.92055",
    "final_y": "521306.971705",
    "longitude": "-90.01306064551032",
    "latitude": "29.926869237697055",
    "geocoded_column": {
      "latitude": "29.926869237697055",
      "longitude": "-90.01306064551032"
    }
  },
  {
    "service_request": "2025-1165508",
    "request_type": "Trash/Recycling",
    "request_reason": "Missed Trash Pick-Up",
    "date_created": "2025-01-30T21:33:58.000",
    "date_modified": "2025-01-30T21:34:00.000",
    "request_status": "Pending",
    "responsible_agency": "Department of Sanitation",
    "final_address": "2503 Ap Tureaud Ave",
    "address_councildis": "D",
    "status": "Assigned to Contractor",
    "contractor": "IV Waste",
    "rowid": "1165508",
    "final_x": "3681655.93564",
    "final_y": "541266.097612",
    "longitude": "-90.0672378890003",
    "latitude": "29.982289358728462",
    "geocoded_column": {
      "latitude": "29.982289358728462",
      "longitude": "-90.0672378890003"
    }
  },
  {
    "service_request": "2025-1165507",
    "request_type": "Alley Ways",
    "request_reason": "Alley Way Regrading",
    "date_created": "2025-01-30T21:27:05.000",
    "date_modified": "2025-01-30T21:27:08.000",
    "request_status": "Pending",
    "responsible_agency": "Department of Public Works",
    "final_address": "6853 Argonne Blvd",
    "address_councildis": "A",
    "status": "Pending",
    "rowid": "1165507",
    "final_x": "3670747.60724",
    "final_y": "552949.186903",
    "longitude": "-90.10129503024318",
    "latitude": "30.014740703962044",
    "geocoded_column": {
      "latitude": "30.014740703962044",
      "longitude": "-90.10129503024318"
    }
  },
  {
    "service_request": "2025-1165506",
    "request_type": "Abandoned Vehicles",
    "request_reason": "Vehicle Blocking Your Driveway",
    "date_created": "2025-01-30T21:09:18.000",
    "date_modified": "2025-01-30T21:09:20.000",
    "request_status": "Pending",
    "responsible_agency": "Department of Public Works",
    "final_address": " & BALDWIN ST",
    "address_councildis": "D",
    "status": "Pending",
    "rowid": "1165506",
    "final_x": "3687880.8",
    "final_y": "560035.64",
    "longitude": "-90.04691121641319",
    "latitude": "30.03370814054373",
    "geocoded_column": {
      "latitude": "30.03370814054373",
      "longitude": "-90.04691121641319"
    }
  },
  {
    "service_request": "2025-1165505",
    "request_type": "Trash/Recycling",
    "request_reason": "Missed Trash Pick-Up",
    "date_created": "2025-01-30T20:33:34.000",
    "date_modified": "2025-01-30T20:33:36.000",
    "request_status": "Pending",
    "responsible_agency": "Department of Sanitation",
    "final_address": "ST FERDINAND ST & URQUHART ST",
    "address_councildis": "C",
    "status": "Assigned to Contractor",
    "contractor": "IV Waste",
    "rowid": "1165505",
    "final_x": "3687910.0",
    "final_y": "537051.18",
    "longitude": "-90.04763393137445",
    "latitude": "29.970508326922374",
    "geocoded_column": {
      "latitude": "29.970508326922374",
      "longitude": "-90.04763393137445"
    }
  },
  {
    "service_request": "2025-1165504",
    "request_type": "Trash/Recycling",
    "request_reason": "Missed Trash Pick-Up",
    "date_created": "2025-01-30T20:18:20.000",
    "date_modified": "2025-01-30T20:18:23.000",
    "request_status": "Pending",
    "responsible_agency": "Department of Sanitation",
    "final_address": "1711 Milan St, New Orleans, Louisiana, 70115",
    "address_councildis": "B",
    "status": "Assigned to Contractor",
    "contractor": "IV Waste",
    "rowid": "1165504",
    "final_x": "3671586.28251",
    "final_y": "521441.770361",
    "longitude": "-90.09971695679681",
    "latitude": "29.92808111550677",
    "geocoded_column": {
      "latitude": "29.92808111550677",
      "longitude": "-90.09971695679681"
    }
  },
  {
    "service_request": "2025-1165503",
    "request_type": "Trash/Recycling",
    "request_reason": "Missed Trash Pick-Up",
    "date_created": "2025-01-30T20:09:11.000",
    "date_modified": "2025-01-30T20:09:13.000",
    "request_status": "Pending",
    "responsible_agency": "Department of Sanitation",
    "final_address": "1921 Hope St",
    "address_councildis": "D",
    "status": "Assigned to Contractor",
    "contractor": "IV Waste",
    "rowid": "1165503",
    "final_x": "3681338.79349",
    "final_y": "541976.766284",
    "longitude": "-90.0682147950255",
    "latitude": "29.984253080582118",
    "geocoded_column": {
      "latitude": "29.984253080582118",
      "longitude": "-90.0682147950255"
    }
  },
  {
    "service_request": "2025-1165502",
    "request_type": "Trash/Recycling",
    "request_reason": "Illegal Dumping",
    "date_created": "2025-01-30T20:05:22.000",
    "date_modified": "2025-01-30T20:05:23.000",
    "request_status": "Pending",
    "responsible_agency": "Department of Sanitation",
    "final_address": "2918 St Philip St",
    "address_councildis": "A",
    "status": "Pending",
    "rowid": "1165502",
    "final_x": "3676521.94574",
    "final_y": "538464.630089",
    "longitude": "-90.08355005807645",
    "latitude": "29.974741270131023",
    "geocoded_column": {
      "latitude": "29.974741270131023",
      "longitude": "-90.08355005807645"
    }
  },
  {
    "service_request": "2025-1165501",
    "request_type": "Trash/Recycling",
    "request_reason": "Missed Trash Pick-Up",
    "date_created": "2025-01-30T20:03:39.000",
    "date_modified": "2025-01-30T20:03:40.000",
    "request_status": "Pending",
    "responsible_agency": "Department of Sanitation",
    "final_address": "1435 N Roman St",
    "address_councildis": "D",
    "status": "Assigned to Contractor",
    "contractor": "IV Waste",
    "rowid": "1165501",
    "final_x": "3680848.44514",
    "final_y": "537283.845512",
    "longitude": "-90.06992702088534",
    "latitude": "29.971364055614522",
    "geocoded_column": {
      "latitude": "29.971364055614522",
      "longitude": "-90.06992702088534"
    }
  },
  {
    "service_request": "2025-1165500",
    "request_type": "Property Maintenance",
    "request_reason": "Property Maintenance",
    "date_created": "2025-01-30T20:02:32.000",
    "date_modified": "2025-01-30T20:02:35.000",
    "request_status": "Pending",
    "responsible_agency": "Department of Code Enforcement",
    "final_address": "4637 Annunciation St",
    "address_councildis": "B",
    "status": "Pending",
    "rowid": "1165500",
    "final_x": "3670104.50106",
    "final_y": "517677.453814",
    "longitude": "-90.10452205245879",
    "latitude": "29.917774222967886",
    "geocoded_column": {
      "latitude": "29.917774222967886",
      "longitude": "-90.10452205245879"
    }
  },
  {
    "service_request": "2025-1165499",
    "request_type": "Trash/Recycling",
    "request_reason": "Request a Large Item Pick Up",
    "date_created": "2025-01-30T19:56:55.000",
    "date_modified": "2025-01-30T19:56:57.000",
    "request_status": "Pending",
    "responsible_agency": "Department of Sanitation",
    "final_address": "4390 Trieste St",
    "address_councildis": "E",
    "status": "Assigned to Contractor",
    "contractor": "Waste Pro",
    "rowid": "1165499",
    "final_x": "3760158.04451",
    "final_y": "574001.513386",
    "longitude": "-89.81792905634154",
    "latitude": "30.069678741555546",
    "geocoded_column": {
      "latitude": "30.069678741555546",
      "longitude": "-89.81792905634154"
    }
  },
  {
    "service_request": "2025-1165497",
    "request_type": "Trash/Recycling",
    "request_reason": "Order Recycling Cart",
    "date_created": "2025-01-30T19:29:37.000",
    "date_modified": "2025-01-30T19:29:39.000",
    "request_status": "Pending",
    "responsible_agency": "Department of Sanitation",
    "final_address": "2801 Onzaga St",
    "address_councildis": "D",
    "status": "Pending",
    "rowid": "1165497",
    "final_x": "3678731.89819",
    "final_y": "540948.135627",
    "longitude": "-90.07648444301478",
    "latitude": "29.981503588504616",
    "geocoded_column": {
      "latitude": "29.981503588504616",
      "longitude": "-90.07648444301478"
    }
  },
  {
    "service_request": "2025-1165496",
    "request_type": "Trash/Recycling",
    "request_reason": "MIssed Recycling Pick-Up",
    "date_created": "2025-01-30T19:28:22.000",
    "date_modified": "2025-01-30T19:28:23.000",
    "request_status": "Pending",
    "responsible_agency": "Department of Sanitation",
    "final_address": "1937 Peniston St",
    "address_councildis": "B",
    "status": "Assigned to Contractor",
    "contractor": "IV Waste",
    "rowid": "1165496",
    "final_x": "3672619.59739",
    "final_y": "522450.578554",
    "longitude": "-90.09642063321705",
    "latitude": "29.930824383389847",
    "geocoded_column": {
      "latitude": "29.930824383389847",
      "longitude": "-90.09642063321705"
    }
  },
  {
    "service_request": "2025-1165495",
    "request_type": "Trash/Recycling",
    "request_reason": "Missed Trash Pick-Up",
    "date_created": "2025-01-30T19:27:32.000",
    "date_modified": "2025-01-30T19:27:34.000",
    "request_status": "Pending",
    "responsible_agency": "Department of Sanitation",
    "final_address": "1937 Peniston St",
    "address_councildis": "B",
    "status": "Assigned to Contractor",
    "contractor": "IV Waste",
    "rowid": "1165495",
    "final_x": "3672619.59739",
    "final_y": "522450.578554",
    "longitude": "-90.09642063321705",
    "latitude": "29.930824383389847",
    "geocoded_column": {
      "latitude": "29.930824383389847",
      "longitude": "-90.09642063321705"
    }
  },
  {
    "service_request": "2025-1165494",
    "request_type": "Trash/Recycling",
    "request_reason": "Missed Trash Pick-Up",
    "date_created": "2025-01-30T19:24:43.000",
    "date_modified": "2025-01-30T19:24:46.000",
    "request_status": "Pending",
    "responsible_agency": "Department of Sanitation",
    "final_address": "1711 Milan St",
    "address_councildis": "B",
    "status": "Assigned to Contractor",
    "contractor": "IV Waste",
    "rowid": "1165494",
    "final_x": "3671586.28251",
    "final_y": "521441.770361",
    "longitude": "-90.09971695679681",
    "latitude": "29.92808111550677",
    "geocoded_column": {
      "latitude": "29.92808111550677",
      "longitude": "-90.09971695679681"
    }
  },
  {
    "service_request": "2025-1165493",
    "request_type": "Trash/Recycling",
    "request_reason": "Replace Recycling Cart",
    "date_created": "2025-01-30T19:21:20.000",
    "date_modified": "2025-01-30T19:21:22.000",
    "request_status": "Pending",
    "responsible_agency": "Department of Sanitation",
    "final_address": "5801 Marcia Ave",
    "address_councildis": "A",
    "status": "Pending",
    "rowid": "1165493",
    "final_x": "3664856.64474",
    "final_y": "546396.05864",
    "longitude": "-90.12012691816523",
    "latitude": "29.99689471755044",
    "geocoded_column": {
      "latitude": "29.99689471755044",
      "longitude": "-90.12012691816523"
    }
  },
  {
    "service_request": "2025-1165492",
    "request_type": "Trash/Recycling",
    "request_reason": "Illegal Dumping",
    "date_created": "2025-01-30T19:12:15.000",
    "date_modified": "2025-01-30T19:12:17.000",
    "request_status": "Pending",
    "responsible_agency": "Department of Sanitation",
    "final_address": "6300 BLK Pines Blvd",
    "address_councildis": "D",
    "status": "Pending",
    "rowid": "1165492",
    "final_x": "3697129.07716",
    "final_y": "556428.354451",
    "longitude": "-90.01781661849235",
    "latitude": "30.023500750625637",
    "geocoded_column": {
      "latitude": "30.023500750625637",
      "longitude": "-90.01781661849235"
    }
  },
  {
    "service_request": "2025-1165491",
    "request_type": "Roads and Streets",
    "request_reason": "Pothole",
    "date_created": "2025-01-30T19:10:45.000",
    "date_modified": "2025-01-30T19:10:47.000",
    "request_status": "Pending",
    "responsible_agency": "Department of Public Works",
    "final_address": "0 BLK Agriculture Pl",
    "address_councildis": "D",
    "status": "Pending",
    "rowid": "1165491",
    "final_x": "3689891.40135",
    "final_y": "543419.290574",
    "longitude": "-90.04114966127275",
    "latitude": "29.987957086684915",
    "geocoded_column": {
      "latitude": "29.987957086684915",
      "longitude": "-90.04114966127275"
    }
  },
  {
    "service_request": "2025-1165490",
    "request_type": "Roads and Streets",
    "request_reason": "Pothole",
    "date_created": "2025-01-30T19:06:06.000",
    "date_modified": "2025-01-30T19:06:08.000",
    "request_status": "Pending",
    "responsible_agency": "Department of Public Works",
    "final_address": "0 BLK Agriculture Pl",
    "address_councildis": "D",
    "status": "Pending",
    "rowid": "1165490",
    "final_x": "3689891.40135",
    "final_y": "543419.290574",
    "longitude": "-90.04114966127275",
    "latitude": "29.987957086684915",
    "geocoded_column": {
      "latitude": "29.987957086684915",
      "longitude": "-90.04114966127275"
    }
  },
  {
    "service_request": "2025-1165489",
    "request_type": "Streetlights",
    "request_reason": "Streetlight Outage/Malfunction",
    "date_created": "2025-01-30T19:03:43.000",
    "date_modified": "2025-01-30T19:03:44.000",
    "request_status": "Pending",
    "responsible_agency": "Department of Public Works",
    "final_address": "6100 BLK Pines Blvd",
    "address_councildis": "D",
    "status": "Pending",
    "contractor": "Legacy Professional Services",
    "rowid": "1165489",
    "final_x": "3696528.52128",
    "final_y": "556229.3683",
    "longitude": "-90.01972144881142",
    "latitude": "30.02297255893479",
    "geocoded_column": {
      "latitude": "30.02297255893479",
      "longitude": "-90.01972144881142"
    }
  },
  {
    "service_request": "2025-1165488",
    "request_type": "Streetlights",
    "request_reason": "Streetlight Outage/Malfunction",
    "date_created": "2025-01-30T19:03:21.000",
    "date_modified": "2025-01-30T19:03:22.000",
    "request_status": "Pending",
    "responsible_agency": "Department of Public Works",
    "final_address": "6201 Oxford St",
    "address_councildis": "C",
    "status": "Pending",
    "contractor": "Legacy Professional Services",
    "rowid": "1165488",
    "final_x": "3707040.25502",
    "final_y": "519673.730616",
    "longitude": "-89.98786331672554",
    "latitude": "29.922122468502515",
    "geocoded_column": {
      "latitude": "29.922122468502515",
      "longitude": "-89.98786331672554"
    }
  },
  {
    "service_request": "2025-1165487",
    "request_type": "Roads and Streets",
    "request_reason": "Curb Damage",
    "date_created": "2025-01-30T19:00:51.000",
    "date_modified": "2025-01-30T19:00:52.000",
    "request_status": "Pending",
    "responsible_agency": "Department of Public Works",
    "final_address": "2299 Mercedes Blvd",
    "address_councildis": "C",
    "status": "Pending",
    "rowid": "1165487",
    "final_x": "3698000.79722",
    "final_y": "522427.280698",
    "longitude": "-90.01629705716772",
    "latitude": "29.929982552588324",
    "geocoded_column": {
      "latitude": "29.929982552588324",
      "longitude": "-90.01629705716772"
    }
  },
  {
    "service_request": "2025-1165486",
    "request_type": "Roads and Streets",
    "request_reason": "Pothole",
    "date_created": "2025-01-30T18:59:16.000",
    "date_modified": "2025-01-30T18:59:19.000",
    "request_status": "Pending",
    "responsible_agency": "Department of Public Works",
    "final_address": "2299 Mercedes Blvd",
    "address_councildis": "C",
    "status": "Pending",
    "rowid": "1165486",
    "final_x": "3698000.79722",
    "final_y": "522427.280698",
    "longitude": "-90.01629705716772",
    "latitude": "29.929982552588324",
    "geocoded_column": {
      "latitude": "29.929982552588324",
      "longitude": "-90.01629705716772"
    }
  },
  {
    "service_request": "2025-1165485",
    "request_type": "Trash/Recycling",
    "request_reason": "Missed Trash Pick-Up",
    "date_created": "2025-01-30T18:46:29.000",
    "date_modified": "2025-01-30T18:46:32.000",
    "request_status": "Pending",
    "responsible_agency": "Department of Sanitation",
    "final_address": "2730 General Pershing St, New Orleans, Louisiana, 70115",
    "address_councildis": "B",
    "status": "Assigned to Contractor",
    "contractor": "IV Waste",
    "rowid": "1165485",
    "final_x": "3670789.86247",
    "final_y": "525025.897149",
    "longitude": "-90.10210950637928",
    "latitude": "29.937959863109544",
    "geocoded_column": {
      "latitude": "29.937959863109544",
      "longitude": "-90.10210950637928"
    }
  },
  {
    "service_request": "2025-1165484",
    "request_type": "Trash/Recycling",
    "request_reason": "Missed Trash Pick-Up",
    "date_created": "2025-01-30T18:30:32.000",
    "date_modified": "2025-01-30T18:30:37.000",
    "request_status": "Pending",
    "responsible_agency": "Department of Sanitation",
    "final_address": "2101 Franklin Ave",
    "address_councildis": "D",
    "status": "Assigned to Contractor",
    "contractor": "IV Waste",
    "rowid": "1165484",
    "final_x": "3687699.77193",
    "final_y": "540256.436171",
    "longitude": "-90.04818432170761",
    "latitude": "29.979328137839293",
    "geocoded_column": {
      "latitude": "29.979328137839293",
      "longitude": "-90.04818432170761"
    }
  },
  {
    "service_request": "2025-1165483",
    "request_type": "Trash/Recycling",
    "request_reason": "Order Recycling Cart",
    "date_created": "2025-01-30T18:09:23.000",
    "date_modified": "2025-01-30T18:09:26.000",
    "request_status": "Pending",
    "responsible_agency": "Department of Sanitation",
    "final_address": "2500 DAbadie St",
    "address_councildis": "D",
    "status": "Pending",
    "rowid": "1165483",
    "final_x": "3679946.97506",
    "final_y": "540383.983627",
    "longitude": "-90.07266627264517",
    "latitude": "29.979915663539174",
    "geocoded_column": {
      "latitude": "29.979915663539174",
      "longitude": "-90.07266627264517"
    }
  },
  {
    "service_request": "2025-1165482",
    "request_type": "Trash/Recycling",
    "request_reason": "Missed Trash Pick-Up",
    "date_created": "2025-01-30T18:06:13.000",
    "date_modified": "2025-01-30T18:06:16.000",
    "request_status": "Pending",
    "responsible_agency": "Department of Sanitation",
    "final_address": "918 Gordon St",
    "address_councildis": "E",
    "status": "Assigned to Contractor",
    "contractor": "Waste Pro",
    "rowid": "1165482",
    "final_x": "3698877.90666",
    "final_y": "532856.323972",
    "longitude": "-90.01314886637023",
    "latitude": "29.95863102426781",
    "geocoded_column": {
      "latitude": "29.95863102426781",
      "longitude": "-90.01314886637023"
    }
  },
  {
    "service_request": "2025-1165481",
    "request_type": "Family Reunification",
    "request_reason": "Misplaced Citizen",
    "date_created": "2025-01-30T18:04:28.000",
    "date_modified": "2025-01-30T18:04:30.000",
    "request_status": "Pending",
    "responsible_agency": "Health Department",
    "final_address": "0 BLK Downs St",
    "address_councildis": "A",
    "status": "Pending",
    "rowid": "1165481",
    "final_x": "3667484.28671",
    "final_y": "553136.896467",
    "longitude": "-90.11159925491211",
    "latitude": "30.01535291518968",
    "geocoded_column": {
      "latitude": "30.01535291518968",
      "longitude": "-90.11159925491211"
    }
  },
  {
    "service_request": "2025-1165480",
    "request_type": "Property Maintenance",
    "request_reason": "Property Maintenance",
    "date_created": "2025-01-30T17:59:39.000",
    "date_modified": "2025-01-30T17:59:41.000",
    "request_status": "Pending",
    "responsible_agency": "Department of Code Enforcement",
    "final_address": "537 Sixth St",
    "address_councildis": "B",
    "status": "Pending",
    "rowid": "1165480",
    "final_x": "3677641.45922",
    "final_y": "519061.340919",
    "longitude": "-90.08068428023418",
    "latitude": "29.92135506609098",
    "geocoded_column": {
      "latitude": "29.92135506609098",
      "longitude": "-90.08068428023418"
    }
  },
  {
    "service_request": "2025-1165479",
    "request_type": "Trash/Recycling",
    "request_reason": "Replace Trash Cart",
    "date_created": "2025-01-30T17:59:21.000",
    "date_modified": "2025-01-30T17:59:23.000",
    "request_status": "Pending",
    "responsible_agency": "Department of Sanitation",
    "final_address": "4834 Galahad Dr",
    "address_councildis": "E",
    "status": "Assigned to Contractor",
    "contractor": "Waste Pro",
    "rowid": "1165479",
    "final_x": "3707066.82033",
    "final_y": "556189.091482",
    "longitude": "-89.98642456659093",
    "latitude": "30.02252541231085",
    "geocoded_column": {
      "latitude": "30.02252541231085",
      "longitude": "-89.98642456659093"
    }
  },
  {
    "service_request": "2025-1165478",
    "request_type": "Mosquito, Termite & Rodent Control",
    "request_reason": "Non-Rodent Complaint (Mice, Possums, Snakes)",
    "date_created": "2025-01-30T17:54:38.000",
    "date_modified": "2025-01-30T17:54:40.000",
    "request_status": "Pending",
    "responsible_agency": "Mosquito, Termite & Rodent Control Board",
    "final_address": "2119 Brainard St",
    "address_councildis": "B",
    "status": "Pending",
    "rowid": "1165478",
    "final_x": "3677330.62037",
    "final_y": "524406.539772",
    "longitude": "-90.08148112764877",
    "latitude": "29.936061962340204",
    "geocoded_column": {
      "latitude": "29.936061962340204",
      "longitude": "-90.08148112764877"
    }
  },
  {
    "service_request": "2025-1165477",
    "request_type": "Trash/Recycling",
    "request_reason": "Missed Trash Pick-Up",
    "date_created": "2025-01-30T17:49:28.000",
    "date_modified": "2025-01-30T17:49:30.000",
    "request_status": "Pending",
    "responsible_agency": "Department of Sanitation",
    "final_address": "2603 General Pershing St",
    "address_councildis": "B",
    "status": "Assigned to Contractor",
    "contractor": "IV Waste",
    "rowid": "1165477",
    "final_x": "3670942.11899",
    "final_y": "524483.136572",
    "longitude": "-90.10164723759432",
    "latitude": "29.936462947707753",
    "geocoded_column": {
      "latitude": "29.936462947707753",
      "longitude": "-90.10164723759432"
    }
  },
  {
    "service_request": "2025-1165476",
    "request_type": "Trash/Recycling",
    "request_reason": "MIssed Recycling Pick-Up",
    "date_created": "2025-01-30T17:42:24.000",
    "date_modified": "2025-01-30T17:42:25.000",
    "request_status": "Pending",
    "responsible_agency": "Department of Sanitation",
    "final_address": "6101 Royal St",
    "address_councildis": "E",
    "status": "Assigned to Contractor",
    "contractor": "Waste Pro",
    "rowid": "1165476",
    "final_x": "3698982.58698",
    "final_y": "531941.000195",
    "longitude": "-90.01285162400603",
    "latitude": "29.956110891876367",
    "geocoded_column": {
      "latitude": "29.956110891876367",
      "longitude": "-90.01285162400603"
    }
  },
  {
    "service_request": "2025-1165475",
    "request_type": "Trash/Recycling",
    "request_reason": "Missed Trash Pick-Up",
    "date_created": "2025-01-30T17:41:43.000",
    "date_modified": "2025-01-30T17:41:44.000",
    "request_status": "Pending",
    "responsible_agency": "Department of Sanitation",
    "final_address": "6101 Royal St",
    "address_councildis": "E",
    "status": "Assigned to Contractor",
    "contractor": "Waste Pro",
    "rowid": "1165475",
    "final_x": "3698982.58698",
    "final_y": "531941.000195",
    "longitude": "-90.01285162400603",
    "latitude": "29.956110891876367",
    "geocoded_column": {
      "latitude": "29.956110891876367",
      "longitude": "-90.01285162400603"
    }
  },
  {
    "service_request": "2025-1165474",
    "request_type": "Trash/Recycling",
    "request_reason": "Missed Trash Pick-Up",
    "date_created": "2025-01-30T17:41:13.000",
    "date_modified": "2025-01-30T17:41:15.000",
    "request_status": "Pending",
    "responsible_agency": "Department of Sanitation",
    "final_address": "809 Marengo St",
    "address_councildis": "B",
    "status": "Assigned to Contractor",
    "contractor": "IV Waste",
    "rowid": "1165474",
    "final_x": "3672226.54203",
    "final_y": "518628.650679",
    "longitude": "-90.09779155456947",
    "latitude": "29.920326966914615",
    "geocoded_column": {
      "latitude": "29.920326966914615",
      "longitude": "-90.09779155456947"
    }
  },
  {
    "service_request": "2025-1165473",
    "request_type": "General Services",
    "request_reason": "General Service Request",
    "date_created": "2025-01-30T17:40:11.000",
    "date_modified": "2025-01-30T17:40:13.000",
    "request_status": "Pending",
    "responsible_agency": "Orleans Parish Communication District",
    "final_address": "1512 General Pershing St",
    "address_councildis": "B",
    "status": "Pending",
    "rowid": "1165473",
    "final_x": "3671215.61991",
    "final_y": "520705.571577",
    "longitude": "-90.10091205336771",
    "latitude": "29.92606777202637",
    "geocoded_column": {
      "latitude": "29.92606777202637",
      "longitude": "-90.10091205336771"
    }
  },
  {
    "service_request": "2025-1165472",
    "request_type": "Trash/Recycling",
    "request_reason": "Illegal Dumping",
    "date_created": "2025-01-30T17:36:33.000",
    "date_modified": "2025-01-30T17:36:34.000",
    "request_status": "Pending",
    "responsible_agency": "Department of Sanitation",
    "final_address": "1303 Jourdan Ave",
    "address_councildis": "E",
    "status": "Pending",
    "rowid": "1165472",
    "final_x": "3695303.16483",
    "final_y": "535253.39143",
    "longitude": "-90.02435044224983",
    "latitude": "29.965334877388504",
    "geocoded_column": {
      "latitude": "29.965334877388504",
      "longitude": "-90.02435044224983"
    }
  },
  {
    "service_request": "2025-1165471",
    "request_type": "Trash/Recycling",
    "request_reason": "Missed Trash Pick-Up",
    "date_created": "2025-01-30T17:35:05.000",
    "date_modified": "2025-01-30T17:35:09.000",
    "request_status": "Pending",
    "responsible_agency": "Department of Sanitation",
    "final_address": "2236 Jefferson Ave",
    "address_councildis": "A",
    "status": "Assigned to Contractor",
    "contractor": "IV Waste",
    "rowid": "1165471",
    "final_x": "3667813.19559",
    "final_y": "523963.293884",
    "longitude": "-90.11154290008324",
    "latitude": "29.935125656901313",
    "geocoded_column": {
      "latitude": "29.935125656901313",
      "longitude": "-90.11154290008324"
    }
  },
  {
    "service_request": "2025-1165470",
    "request_type": "General Services",
    "request_reason": "General Service Request",
    "date_created": "2025-01-30T17:23:47.000",
    "date_modified": "2025-01-30T17:23:48.000",
    "request_status": "Pending",
    "responsible_agency": "Orleans Parish Communication District",
    "final_address": "0 BLK Audubon Blvd",
    "address_councildis": "A",
    "status": "Pending",
    "rowid": "1165470",
    "final_x": "3665721.60225",
    "final_y": "527591.816651",
    "longitude": "-90.11802457989006",
    "latitude": "29.945164090388623",
    "geocoded_column": {
      "latitude": "29.945164090388623",
      "longitude": "-90.11802457989006"
    }
  },
  {
    "service_request": "2025-1165469",
    "request_type": "Trash/Recycling",
    "request_reason": "Missed Trash Pick-Up",
    "date_created": "2025-01-30T17:23:44.000",
    "date_modified": "2025-01-30T17:23:46.000",
    "request_status": "Pending",
    "responsible_agency": "Department of Sanitation",
    "final_address": "4910 Dauphine St",
    "address_councildis": "E",
    "status": "Assigned to Contractor",
    "contractor": "Waste Pro",
    "rowid": "1165469",
    "final_x": "3695174.76982",
    "final_y": "533223.825348",
    "longitude": "-90.02482909663985",
    "latitude": "29.959758320453343",
    "geocoded_column": {
      "latitude": "29.959758320453343",
      "longitude": "-90.02482909663985"
    }
  },
  {
    "service_request": "2025-1165468",
    "request_type": "Trash/Recycling",
    "request_reason": "Request a Large Item Pick Up",
    "date_created": "2025-01-30T17:20:23.000",
    "date_modified": "2025-01-30T17:20:25.000",
    "request_status": "Pending",
    "responsible_agency": "Department of Sanitation",
    "final_address": "2741 Dumaine St",
    "address_councildis": "A",
    "status": "Assigned to Contractor",
    "contractor": "IV Waste",
    "rowid": "1165468",
    "final_x": "3676864.56776",
    "final_y": "537796.12628",
    "longitude": "-90.08249101942967",
    "latitude": "29.97289283356405",
    "geocoded_column": {
      "latitude": "29.97289283356405",
      "longitude": "-90.08249101942967"
    }
  },
  {
    "service_request": "2025-1165467",
    "request_type": "Trash/Recycling",
    "request_reason": "Dead Animal Pick Up",
    "date_created": "2025-01-30T16:58:22.000",
    "date_modified": "2025-01-30T16:58:23.000",
    "request_status": "Pending",
    "responsible_agency": "Department of Sanitation",
    "final_address": "CAMP ST & CLIO ST",
    "address_councildis": "B",
    "status": "Assigned to Contractor",
    "contractor": "IV Waste",
    "rowid": "1165467",
    "final_x": "3680320.36",
    "final_y": "526005.82",
    "longitude": "-90.07198686850616",
    "latitude": "29.940369300325255",
    "geocoded_column": {
      "latitude": "29.940369300325255",
      "longitude": "-90.07198686850616"
    }
  },
  {
    "service_request": "2025-1165466",
    "request_type": "Abandoned Vehicles",
    "request_reason": "Abandoned/Junk Vehicles",
    "date_created": "2025-01-30T16:57:50.000",
    "date_modified": "2025-01-30T16:57:52.000",
    "request_status": "Pending",
    "responsible_agency": "Department of Public Works",
    "final_address": "3219 Deers St",
    "address_councildis": "D",
    "status": "Pending",
    "rowid": "1165466",
    "final_x": "3688001.81705",
    "final_y": "544944.343631",
    "longitude": "-90.04706413845393",
    "latitude": "29.99220889346181",
    "geocoded_column": {
      "latitude": "29.99220889346181",
      "longitude": "-90.04706413845393"
    }
  },
  {
    "service_request": "2025-1165465",
    "request_type": "Trash/Recycling",
    "request_reason": "Request a Large Item Pick Up",
    "date_created": "2025-01-30T16:54:29.000",
    "date_modified": "2025-01-30T16:54:31.000",
    "request_status": "Pending",
    "responsible_agency": "Department of Sanitation",
    "final_address": "4962 Tynecastle Dr",
    "address_councildis": "E",
    "status": "Assigned to Contractor",
    "contractor": "Waste Pro",
    "rowid": "1165465",
    "final_x": "3718314.95973",
    "final_y": "558311.10902",
    "longitude": "-89.95080266137903",
    "latitude": "30.02799176158061",
    "geocoded_column": {
      "latitude": "30.02799176158061",
      "longitude": "-89.95080266137903"
    }
  },
  {
    "service_request": "2025-1165464",
    "request_type": "Trash/Recycling",
    "request_reason": "Request a Large Item Pick Up",
    "date_created": "2025-01-30T16:53:53.000",
    "date_modified": "2025-01-30T16:53:56.000",
    "request_status": "Pending",
    "responsible_agency": "Department of Sanitation",
    "final_address": "1849 Esplanade Ave Apt 101",
    "address_councildis": "D",
    "status": "Assigned to Contractor",
    "contractor": "IV Waste",
    "rowid": "1165464",
    "final_x": "3680640.79496",
    "final_y": "537200.981128",
    "longitude": "-90.07058569334819",
    "latitude": "29.97114250096299",
    "geocoded_column": {
      "latitude": "29.97114250096299",
      "longitude": "-90.07058569334819"
    }
  },
  {
    "service_request": "2025-1165463",
    "request_type": "Trash/Recycling",
    "request_reason": "Repair Trash Cart",
    "date_created": "2025-01-30T16:42:30.000",
    "date_modified": "2025-01-30T16:42:32.000",
    "request_status": "Pending",
    "responsible_agency": "Department of Sanitation",
    "final_address": "943 Jackson Ave",
    "address_councildis": "B",
    "status": "Assigned to Contractor",
    "contractor": "IV Waste",
    "rowid": "1165463",
    "final_x": "3679138.58184",
    "final_y": "521786.00537",
    "longitude": "-90.07586413835388",
    "latitude": "29.928801917369434",
    "geocoded_column": {
      "latitude": "29.928801917369434",
      "longitude": "-90.07586413835388"
    }
  },
  {
    "service_request": "2025-1165462",
    "request_type": "Healthy Homes",
    "request_reason": "Healthy Homes",
    "date_created": "2025-01-30T16:39:36.000",
    "date_modified": "2025-01-30T16:39:38.000",
    "request_status": "Pending",
    "responsible_agency": "Department of Code Enforcement",
    "final_address": "1467 Foy St",
    "address_councildis": "D",
    "status": "Pending",
    "rowid": "1165462",
    "final_x": "3678657.8011",
    "final_y": "546583.175633",
    "longitude": "-90.07652325865695",
    "latitude": "29.997000210084327",
    "geocoded_column": {
      "latitude": "29.997000210084327",
      "longitude": "-90.07652325865695"
    }
  },
  {
    "service_request": "2025-1165461",
    "request_type": "Property Maintenance",
    "request_reason": "Property Maintenance",
    "date_created": "2025-01-30T16:38:54.000",
    "date_modified": "2025-01-30T16:38:56.000",
    "request_status": "Pending",
    "responsible_agency": "Department of Code Enforcement",
    "final_address": "1467 Foy St",
    "address_councildis": "D",
    "status": "Pending",
    "rowid": "1165461",
    "final_x": "3678657.8011",
    "final_y": "546583.175633",
    "longitude": "-90.07652325865695",
    "latitude": "29.997000210084327",
    "geocoded_column": {
      "latitude": "29.997000210084327",
      "longitude": "-90.07652325865695"
    }
  },
  {
    "service_request": "2025-1165460",
    "request_type": "Trash/Recycling",
    "request_reason": "Return Trash Cart",
    "date_created": "2025-01-30T16:37:32.000",
    "date_modified": "2025-01-30T16:37:34.000",
    "request_status": "Pending",
    "responsible_agency": "Department of Sanitation",
    "final_address": "5125 Painters St",
    "address_councildis": "D",
    "status": "Assigned to Contractor",
    "contractor": "IV Waste",
    "rowid": "1165460",
    "final_x": "3686151.5663",
    "final_y": "551742.881621",
    "longitude": "-90.0526686808385",
    "latitude": "30.010959395348674",
    "geocoded_column": {
      "latitude": "30.010959395348674",
      "longitude": "-90.0526686808385"
    }
  },
  {
    "service_request": "2025-1165459",
    "request_type": "Trash/Recycling",
    "request_reason": "Missed Trash Pick-Up",
    "date_created": "2025-01-30T16:35:44.000",
    "date_modified": "2025-01-30T16:48:27.000",
    "case_close_date": "2025-01-30T10:48:25.000",
    "request_status": "Closed",
    "responsible_agency": "Department of Sanitation",
    "final_address": "5403 Shirley Taylor St",
    "address_councildis": "E",
    "status": "Invalid Request",
    "contractor": "Waste Pro",
    "contractor_action": "Invalid Request",
    "rowid": "1165459",
    "final_x": "3698559.97712",
    "final_y": "538873.268105",
    "longitude": "-90.0139340209676",
    "latitude": "29.975185534204194",
    "geocoded_column": {
      "latitude": "29.975185534204194",
      "longitude": "-90.0139340209676"
    }
  },
  {
    "service_request": "2025-1165458",
    "request_type": "Trash/Recycling",
    "request_reason": "Request a Large Item Pick Up",
    "date_created": "2025-01-30T16:35:18.000",
    "date_modified": "2025-01-30T16:35:20.000",
    "request_status": "Pending",
    "responsible_agency": "Department of Sanitation",
    "final_address": "6529 Wuerpel St",
    "address_councildis": "A",
    "status": "Assigned to Contractor",
    "contractor": "IV Waste",
    "rowid": "1165458",
    "final_x": "3667102.01857",
    "final_y": "551076.166421",
    "longitude": "-90.11287639831295",
    "latitude": "30.009697831427466",
    "geocoded_column": {
      "latitude": "30.009697831427466",
      "longitude": "-90.11287639831295"
    }
  },
  {
    "service_request": "2025-1165457",
    "request_type": "Roads and Streets",
    "request_reason": "Curb Damage",
    "date_created": "2025-01-30T16:34:11.000",
    "date_modified": "2025-01-30T16:34:13.000",
    "request_status": "Pending",
    "responsible_agency": "Department of Public Works",
    "final_address": "19 Olympic Ct",
    "address_councildis": "C",
    "status": "Pending",
    "rowid": "1165457",
    "final_x": "3699730.34839",
    "final_y": "516237.403444",
    "longitude": "-90.01106267870188",
    "latitude": "29.91290773227042",
    "geocoded_column": {
      "latitude": "29.91290773227042",
      "longitude": "-90.01106267870188"
    }
  },
  {
    "service_request": "2025-1165456",
    "request_type": "Streetlights",
    "request_reason": "Streetlight Outage/Malfunction",
    "date_created": "2025-01-30T16:30:18.000",
    "date_modified": "2025-01-30T16:30:19.000",
    "request_status": "Pending",
    "responsible_agency": "Department of Public Works",
    "final_address": "6020 Curran Rd",
    "address_councildis": "E",
    "status": "Pending",
    "contractor": "Legacy Professional Services",
    "rowid": "1165456",
    "final_x": "3695273.61392",
    "final_y": "558783.21686",
    "longitude": "-90.0235944174248",
    "latitude": "30.030034169389214",
    "geocoded_column": {
      "latitude": "30.030034169389214",
      "longitude": "-90.0235944174248"
    }
  },
  {
    "service_request": "2025-1165455",
    "request_type": "Trash/Recycling",
    "request_reason": "Request a Large Item Pick Up",
    "date_created": "2025-01-30T16:30:09.000",
    "date_modified": "2025-01-30T16:30:10.000",
    "request_status": "Pending",
    "responsible_agency": "Department of Sanitation",
    "final_address": "5411 Royal St",
    "address_councildis": "E",
    "status": "Assigned to Contractor",
    "contractor": "Waste Pro",
    "rowid": "1165455",
    "final_x": "3696897.33898",
    "final_y": "532498.415428",
    "longitude": "-90.01941590777422",
    "latitude": "29.957709498503405",
    "geocoded_column": {
      "latitude": "29.957709498503405",
      "longitude": "-90.01941590777422"
    }
  },
  {
    "service_request": "2025-1165454",
    "request_type": "Trash/Recycling",
    "request_reason": "Replace Trash Cart",
    "date_created": "2025-01-30T16:28:14.000",
    "date_modified": "2025-01-30T16:28:16.000",
    "request_status": "Pending",
    "responsible_agency": "Department of Sanitation",
    "final_address": "1512 Audubon St",
    "address_councildis": "A",
    "status": "Assigned to Contractor",
    "contractor": "IV Waste",
    "rowid": "1165454",
    "final_x": "3665060.85274",
    "final_y": "527354.346751",
    "longitude": "-90.12011872023237",
    "latitude": "29.9445303779126",
    "geocoded_column": {
      "latitude": "29.9445303779126",
      "longitude": "-90.12011872023237"
    }
  },
  {
    "service_request": "2025-1165453",
    "request_type": "Streetlights",
    "request_reason": "Streetlight Outage/Malfunction",
    "date_created": "2025-01-30T16:26:59.000",
    "date_modified": "2025-01-30T16:27:00.000",
    "request_status": "Pending",
    "responsible_agency": "Department of Public Works",
    "final_address": "2721 N Dorgenois St",
    "address_councildis": "D",
    "status": "Pending",
    "contractor": "Legacy Professional Services",
    "rowid": "1165453",
    "final_x": "3687321.84374",
    "final_y": "541714.815308",
    "longitude": "-90.04932634948834",
    "latitude": "29.983349813631985",
    "geocoded_column": {
      "latitude": "29.983349813631985",
      "longitude": "-90.04932634948834"
    }
  },
  {
    "service_request": "2025-1165452",
    "request_type": "Trash/Recycling",
    "request_reason": "Repair Recycling Cart",
    "date_created": "2025-01-30T16:21:36.000",
    "date_modified": "2025-01-30T16:21:37.000",
    "request_status": "Pending",
    "responsible_agency": "Department of Sanitation",
    "final_address": "3009 Pine St",
    "address_councildis": "B",
    "status": "Pending",
    "rowid": "1165452",
    "final_x": "3667621.62407",
    "final_y": "532091.134403",
    "longitude": "-90.11187416292489",
    "latitude": "29.957480198616114",
    "geocoded_column": {
      "latitude": "29.957480198616114",
      "longitude": "-90.11187416292489"
    }
  },
  {
    "service_request": "2025-1165451",
    "request_type": "Property Maintenance",
    "request_reason": "Property Maintenance",
    "date_created": "2025-01-30T16:17:38.000",
    "date_modified": "2025-01-30T16:17:40.000",
    "request_status": "Pending",
    "responsible_agency": "Department of Code Enforcement",
    "final_address": "600 BLK Sixth St",
    "address_councildis": "B",
    "status": "Pending",
    "rowid": "1165451",
    "final_x": "3677527.69281",
    "final_y": "519177.088074",
    "longitude": "-90.08103939785128",
    "latitude": "29.921676752663668",
    "geocoded_column": {
      "latitude": "29.921676752663668",
      "longitude": "-90.08103939785128"
    }
  },
  {
    "service_request": "2025-1165450",
    "request_type": "Utility Poles",
    "request_reason": "Utility Pole Down",
    "date_created": "2025-01-30T16:16:46.000",
    "date_modified": "2025-01-30T16:16:49.000",
    "request_status": "Pending",
    "responsible_agency": "Utility Company Collective",
    "final_address": "4712 Lonely Oak Dr",
    "address_councildis": "E",
    "status": "Pending",
    "rowid": "1165450",
    "final_x": "3702280.83991",
    "final_y": "554140.39932",
    "longitude": "-90.00162225244308",
    "latitude": "30.01704611466784",
    "geocoded_column": {
      "latitude": "30.01704611466784",
      "longitude": "-90.00162225244308"
    }
  },
  {
    "service_request": "2025-1165449",
    "request_type": "Drainage",
    "request_reason": "Alley Way Drainage Issue",
    "date_created": "2025-01-30T16:11:43.000",
    "date_modified": "2025-01-30T16:11:45.000",
    "request_status": "Pending",
    "responsible_agency": "Department of Public Works",
    "final_address": "812 N Dorgenois St",
    "address_councildis": "D",
    "status": "Pending",
    "rowid": "1165449",
    "final_x": "3677463.5204",
    "final_y": "536937.858248",
    "longitude": "-90.08062904560428",
    "latitude": "29.970514898112313",
    "geocoded_column": {
      "latitude": "29.970514898112313",
      "longitude": "-90.08062904560428"
    }
  },
  {
    "service_request": "2025-1165448",
    "request_type": "Parks & Parkways",
    "request_reason": "Request Tree Service (Right of Way/Public Property)",
    "date_created": "2025-01-30T16:11:02.000",
    "date_modified": "2025-01-30T16:12:18.000",
    "request_status": "Pending",
    "responsible_agency": "Department of Parks & Parkway",
    "final_address": "3721 Pauger St",
    "address_councildis": "D",
    "status": "Pending",
    "rowid": "1165448",
    "final_x": "3683352.16591",
    "final_y": "543771.769294",
    "longitude": "-90.06179254978213",
    "latitude": "29.98912742805195",
    "geocoded_column": {
      "latitude": "29.98912742805195",
      "longitude": "-90.06179254978213"
    }
  },
  {
    "service_request": "2025-1165447",
    "request_type": "Drainage",
    "request_reason": "Alley Way Drainage Issue",
    "date_created": "2025-01-30T16:10:26.000",
    "date_modified": "2025-01-30T16:10:28.000",
    "request_status": "Pending",
    "responsible_agency": "Department of Public Works",
    "final_address": "812 N Dorgenois St",
    "address_councildis": "D",
    "status": "Pending",
    "rowid": "1165447",
    "final_x": "3677463.5204",
    "final_y": "536937.858248",
    "longitude": "-90.08062904560428",
    "latitude": "29.970514898112313",
    "geocoded_column": {
      "latitude": "29.970514898112313",
      "longitude": "-90.08062904560428"
    }
  },
  {
    "service_request": "2025-1165446",
    "request_type": "New Orleans Recreation Development Commission (NORDC)",
    "request_reason": "Facilities and Parks Maintenance/Clean Up",
    "date_created": "2025-01-30T16:10:01.000",
    "date_modified": "2025-01-30T16:10:03.000",
    "request_status": "Pending",
    "responsible_agency": "New Orleans Recreation Development Commission",
    "final_address": "ANNUNCIATION ST & LYONS ST",
    "address_councildis": "B",
    "status": "Pending",
    "rowid": "1165446",
    "final_x": "3669347.5",
    "final_y": "517576.08",
    "longitude": "-90.10691491790253",
    "latitude": "29.917517777558064",
    "geocoded_column": {
      "latitude": "29.917517777558064",
      "longitude": "-90.10691491790253"
    }
  },
  {
    "service_request": "2025-1165445",
    "request_type": "New Orleans Recreation Development Commission (NORDC)",
    "request_reason": "Facilities and Parks Maintenance/Clean Up",
    "date_created": "2025-01-30T16:08:42.000",
    "date_modified": "2025-01-30T16:08:44.000",
    "request_status": "Pending",
    "responsible_agency": "New Orleans Recreation Development Commission",
    "final_address": "ANNUNCIATION ST & LYONS ST",
    "address_councildis": "B",
    "status": "Pending",
    "rowid": "1165445",
    "final_x": "3669347.5",
    "final_y": "517576.08",
    "longitude": "-90.10691491790253",
    "latitude": "29.917517777558064",
    "geocoded_column": {
      "latitude": "29.917517777558064",
      "longitude": "-90.10691491790253"
    }
  },
  {
    "service_request": "2025-1165444",
    "request_type": "Trash/Recycling",
    "request_reason": "Replace Trash Cart",
    "date_created": "2025-01-30T16:07:34.000",
    "date_modified": "2025-01-30T16:07:36.000",
    "request_status": "Pending",
    "responsible_agency": "Department of Sanitation",
    "final_address": "4325 Woodland Dr",
    "address_councildis": "C",
    "status": "Assigned to Contractor",
    "contractor": "Richards Disposal",
    "rowid": "1165444",
    "final_x": "3705307.313",
    "final_y": "514445.695475",
    "longitude": "-89.99352641223399",
    "latitude": "29.907803012302956",
    "geocoded_column": {
      "latitude": "29.907803012302956",
      "longitude": "-89.99352641223399"
    }
  },
  {
    "service_request": "2025-1165443",
    "request_type": "Trash/Recycling",
    "request_reason": "Missed Trash Pick-Up",
    "date_created": "2025-01-30T16:05:12.000",
    "date_modified": "2025-01-30T16:24:17.000",
    "case_close_date": "2025-01-30T10:24:16.000",
    "request_status": "Closed",
    "responsible_agency": "Department of Sanitation",
    "final_address": "5715 Constance St",
    "address_councildis": "A",
    "status": "Invalid Request",
    "contractor": "IV Waste",
    "contractor_action": "Invalid Request",
    "rowid": "1165443",
    "final_x": "3665642.70656",
    "final_y": "518700.141303",
    "longitude": "-90.1185713039261",
    "latitude": "29.920717108476044",
    "geocoded_column": {
      "latitude": "29.920717108476044",
      "longitude": "-90.1185713039261"
    }
  },
  {
    "service_request": "2025-1165442",
    "request_type": "Health Related Request",
    "request_reason": "Noise Ordinance Complaint",
    "date_created": "2025-01-30T16:01:39.000",
    "date_modified": "2025-01-30T16:01:41.000",
    "request_status": "Pending",
    "responsible_agency": "Health Department",
    "final_address": "1726 N Rocheblave St",
    "address_councildis": "D",
    "status": "Pending",
    "rowid": "1165442",
    "final_x": "3680553.28751",
    "final_y": "540251.871179",
    "longitude": "-90.07075588620559",
    "latitude": "29.97953404416108",
    "geocoded_column": {
      "latitude": "29.97953404416108",
      "longitude": "-90.07075588620559"
    }
  },
  {
    "service_request": "2025-1165441",
    "request_type": "Safety & Permits",
    "request_reason": "Zoning Enforcement",
    "date_created": "2025-01-30T16:00:55.000",
    "date_modified": "2025-01-30T16:00:58.000",
    "request_status": "Pending",
    "responsible_agency": "Safety and Permits",
    "final_address": "1726 N Rocheblave St",
    "address_councildis": "D",
    "status": "Pending",
    "rowid": "1165441",
    "final_x": "3680553.28751",
    "final_y": "540251.871179",
    "longitude": "-90.07075588620559",
    "latitude": "29.97953404416108",
    "geocoded_column": {
      "latitude": "29.97953404416108",
      "longitude": "-90.07075588620559"
    }
  },
  {
    "service_request": "2025-1165440",
    "request_type": "Utility Poles",
    "request_reason": "Wires Sagging/Hanging Low",
    "date_created": "2025-01-30T16:00:13.000",
    "date_modified": "2025-01-30T16:00:18.000",
    "request_status": "Pending",
    "responsible_agency": "Utility Company Collective",
    "final_address": "LAUREL ST & STATE ST",
    "address_councildis": "A",
    "status": "Pending",
    "rowid": "1165440",
    "final_x": "3664368.9",
    "final_y": "518173.48",
    "longitude": "-90.12260970845585",
    "latitude": "29.919306025121383",
    "geocoded_column": {
      "latitude": "29.919306025121383",
      "longitude": "-90.12260970845585"
    }
  },
  {
    "service_request": "2025-1165439",
    "request_type": "Trash/Recycling",
    "request_reason": "Request a Large Item Pick Up",
    "date_created": "2025-01-30T16:00:03.000",
    "date_modified": "2025-01-30T16:00:06.000",
    "request_status": "Pending",
    "responsible_agency": "Department of Sanitation",
    "final_address": "2518 Amelia St",
    "address_councildis": "B",
    "status": "Assigned to Contractor",
    "contractor": "IV Waste",
    "rowid": "1165439",
    "final_x": "3672295.12244",
    "final_y": "524434.809532",
    "longitude": "-90.09737739140135",
    "latitude": "29.936290004282547",
    "geocoded_column": {
      "latitude": "29.936290004282547",
      "longitude": "-90.09737739140135"
    }
  },
  {
    "service_request": "2025-1165438",
    "request_type": "Abandoned Vehicles",
    "request_reason": "Abandoned/Junk Vehicles",
    "date_created": "2025-01-30T15:54:26.000",
    "date_modified": "2025-01-30T15:54:28.000",
    "request_status": "Pending",
    "responsible_agency": "Department of Public Works",
    "final_address": "2155 Mexico St",
    "address_councildis": "D",
    "status": "Pending",
    "rowid": "1165438",
    "final_x": "3683098.58991",
    "final_y": "556181.43113",
    "longitude": "-90.06215866004779",
    "latitude": "30.023257253408104",
    "geocoded_column": {
      "latitude": "30.023257253408104",
      "longitude": "-90.06215866004779"
    }
  },
  {
    "service_request": "2025-1165437",
    "request_type": "Streetlights",
    "request_reason": "Streetlight Outage/Malfunction",
    "date_created": "2025-01-30T15:52:16.000",
    "date_modified": "2025-01-30T15:52:21.000",
    "request_status": "Pending",
    "responsible_agency": "Department of Public Works",
    "final_address": "4132 Polk St",
    "address_councildis": "C",
    "status": "Pending",
    "contractor": "Legacy Professional Services",
    "rowid": "1165437",
    "final_x": "3712231.82187",
    "final_y": "515390.596148",
    "longitude": "-89.97163653811671",
    "latitude": "29.910176711677526",
    "geocoded_column": {
      "latitude": "29.910176711677526",
      "longitude": "-89.97163653811671"
    }
  },
  {
    "service_request": "2025-1165436",
    "request_type": "Trash/Recycling",
    "request_reason": "Illegal Dumping",
    "date_created": "2025-01-30T15:48:14.000",
    "date_modified": "2025-01-30T15:48:18.000",
    "request_status": "Pending",
    "responsible_agency": "Department of Sanitation",
    "final_address": "722 Allen Toussaint Blvd",
    "address_councildis": "A",
    "status": "Pending",
    "rowid": "1165436",
    "final_x": "3669386.1819",
    "final_y": "554558.352216",
    "longitude": "-90.10554200935324",
    "latitude": "30.01920551864214",
    "geocoded_column": {
      "latitude": "30.01920551864214",
      "longitude": "-90.10554200935324"
    }
  },
  {
    "service_request": "2025-1165435",
    "request_type": "Trash/Recycling",
    "request_reason": "Missed Trash Pick-Up",
    "date_created": "2025-01-30T15:45:53.000",
    "date_modified": "2025-01-30T16:42:39.000",
    "case_close_date": "2025-01-30T10:42:38.000",
    "request_status": "Closed",
    "responsible_agency": "Department of Sanitation",
    "final_address": "4801 Brittany Ct",
    "address_councildis": "E",
    "status": "Invalid Request",
    "contractor": "Waste Pro",
    "contractor_action": "Invalid Pick-Up",
    "rowid": "1165435",
    "final_x": "3726980.69401",
    "final_y": "561372.65475",
    "longitude": "-89.9233008729073",
    "latitude": "30.036119412675326",
    "geocoded_column": {
      "latitude": "30.036119412675326",
      "longitude": "-89.9233008729073"
    }
  },
  {
    "service_request": "2025-1165434",
    "request_type": "Trash/Recycling",
    "request_reason": "Return Trash Cart",
    "date_created": "2025-01-30T15:45:51.000",
    "date_modified": "2025-01-30T15:45:53.000",
    "request_status": "Pending",
    "responsible_agency": "Department of Sanitation",
    "final_address": "4121 Loyola Ave",
    "address_councildis": "B",
    "status": "Assigned to Contractor",
    "contractor": "IV Waste",
    "rowid": "1165434",
    "final_x": "3671552.51719",
    "final_y": "523130.650363",
    "longitude": "-90.09976615055388",
    "latitude": "29.93272599202827",
    "geocoded_column": {
      "latitude": "29.93272599202827",
      "longitude": "-90.09976615055388"
    }
  },
  {
    "service_request": "2025-1165433",
    "request_type": "Trash/Recycling",
    "request_reason": "Repair Trash Cart",
    "date_created": "2025-01-30T15:42:51.000",
    "date_modified": "2025-01-30T15:42:53.000",
    "request_status": "Pending",
    "responsible_agency": "Department of Sanitation",
    "final_address": "2516 Clover St",
    "address_councildis": "D",
    "status": "Assigned to Contractor",
    "contractor": "IV Waste",
    "rowid": "1165433",
    "final_x": "3686530.31286",
    "final_y": "546548.740817",
    "longitude": "-90.05165563069573",
    "latitude": "29.996665747732273",
    "geocoded_column": {
      "latitude": "29.996665747732273",
      "longitude": "-90.05165563069573"
    }
  },
  {
    "service_request": "2025-1165432",
    "request_type": "Trash/Recycling",
    "request_reason": "Request a Large Item Pick Up",
    "date_created": "2025-01-30T15:41:56.000",
    "date_modified": "2025-01-30T15:41:58.000",
    "request_status": "Pending",
    "responsible_agency": "Department of Sanitation",
    "final_address": "1237 St Andrew St",
    "address_councildis": "B",
    "status": "Assigned to Contractor",
    "contractor": "IV Waste",
    "rowid": "1165432",
    "final_x": "3679102.18139",
    "final_y": "523137.267003",
    "longitude": "-90.0759322374653",
    "latitude": "29.932518542234973",
    "geocoded_column": {
      "latitude": "29.932518542234973",
      "longitude": "-90.0759322374653"
    }
  },
  {
    "service_request": "2025-1165431",
    "request_type": "Trash/Recycling",
    "request_reason": "Request a Large Item Pick Up",
    "date_created": "2025-01-30T15:40:35.000",
    "date_modified": "2025-01-30T15:40:37.000",
    "request_status": "Pending",
    "responsible_agency": "Department of Sanitation",
    "final_address": "208 Walnut St",
    "address_councildis": "A",
    "status": "Assigned to Contractor",
    "contractor": "IV Waste",
    "rowid": "1165431",
    "final_x": "3661188.63885",
    "final_y": "521103.599225",
    "longitude": "-90.13255131702888",
    "latitude": "29.92745495833491",
    "geocoded_column": {
      "latitude": "29.92745495833491",
      "longitude": "-90.13255131702888"
    }
  },
  {
    "service_request": "2025-1165430",
    "request_type": "Trash/Recycling",
    "request_reason": "Illegal Dumping",
    "date_created": "2025-01-30T15:40:01.000",
    "date_modified": "2025-01-30T15:40:02.000",
    "request_status": "Pending",
    "responsible_agency": "Department of Sanitation",
    "final_address": "MARR AVE & DONNER RD",
    "address_councildis": "C",
    "status": "Pending",
    "rowid": "1165430",
    "final_x": "3691389.5",
    "final_y": "520636.08",
    "longitude": "-90.03723169979754",
    "latitude": "29.925264648070964",
    "geocoded_column": {
      "latitude": "29.925264648070964",
      "longitude": "-90.03723169979754"
    }
  },
  {
    "service_request": "2025-1165429",
    "request_type": "Abandoned Vehicles",
    "request_reason": "Abandoned/Junk Vehicles",
    "date_created": "2025-01-30T15:39:47.000",
    "date_modified": "2025-01-30T15:39:51.000",
    "request_status": "Pending",
    "responsible_agency": "Department of Public Works",
    "final_address": "1400 BLK Saint Mary St",
    "address_councildis": "B",
    "status": "Pending",
    "rowid": "1165429",
    "final_x": "3678897.43449",
    "final_y": "523755.609757",
    "longitude": "-90.07655719524031",
    "latitude": "29.934224958007146",
    "geocoded_column": {
      "latitude": "29.934224958007146",
      "longitude": "-90.07655719524031"
    }
  },
  {
    "service_request": "2025-1165428",
    "request_type": "Trash/Recycling",
    "request_reason": "Request a Large Item Pick Up",
    "date_created": "2025-01-30T15:34:25.000",
    "date_modified": "2025-01-30T15:34:27.000",
    "request_status": "Pending",
    "responsible_agency": "Department of Sanitation",
    "final_address": "9961 E Wheaton Cir",
    "address_councildis": "E",
    "status": "Assigned to Contractor",
    "contractor": "Waste Pro",
    "rowid": "1165428",
    "final_x": "3708719.47332",
    "final_y": "562280.114143",
    "longitude": "-89.98097547566817",
    "latitude": "30.03921980579114",
    "geocoded_column": {
      "latitude": "30.03921980579114",
      "longitude": "-89.98097547566817"
    }
  },
  {
    "service_request": "2025-1165427",
    "request_type": "Trash/Recycling",
    "request_reason": "Replace Trash Cart",
    "date_created": "2025-01-30T15:34:10.000",
    "date_modified": "2025-01-30T15:34:13.000",
    "request_status": "Pending",
    "responsible_agency": "Department of Sanitation",
    "final_address": "1251 Columbus St",
    "address_councildis": "C",
    "status": "Assigned to Contractor",
    "contractor": "IV Waste",
    "rowid": "1165427",
    "final_x": "3682734.11432",
    "final_y": "536351.427719",
    "longitude": "-90.06400443668593",
    "latitude": "29.96874292506862",
    "geocoded_column": {
      "latitude": "29.96874292506862",
      "longitude": "-90.06400443668593"
    }
  },
  {
    "service_request": "2025-1165426",
    "request_type": "Abandoned Vehicles",
    "request_reason": "Abandoned/Junk Vehicles",
    "date_created": "2025-01-30T15:28:08.000",
    "date_modified": "2025-01-30T15:40:18.000",
    "request_status": "Pending",
    "responsible_agency": "Department of Public Works",
    "final_address": "4041 Franklin Ave",
    "address_councildis": "D",
    "status": "Inspected",
    "rowid": "1165426",
    "final_x": "3687077.33487",
    "final_y": "547907.591762",
    "longitude": "-90.04987954291087",
    "latitude": "30.000385261613243",
    "geocoded_column": {
      "latitude": "30.000385261613243",
      "longitude": "-90.04987954291087"
    }
  },
  {
    "service_request": "2025-1165425",
    "request_type": "Healthy Homes",
    "request_reason": "Healthy Homes",
    "date_created": "2025-01-30T15:27:53.000",
    "date_modified": "2025-01-30T15:27:55.000",
    "request_status": "Pending",
    "responsible_agency": "Department of Code Enforcement",
    "final_address": "1420 St Ferdinand St",
    "address_councildis": "C",
    "status": "Pending",
    "rowid": "1165425",
    "final_x": "3688010.11151",
    "final_y": "537618.987016",
    "longitude": "-90.04729764258023",
    "latitude": "29.972066507976827",
    "geocoded_column": {
      "latitude": "29.972066507976827",
      "longitude": "-90.04729764258023"
    }
  },
  {
    "service_request": "2025-1165424",
    "request_type": "Trash/Recycling",
    "request_reason": "Dead Animal Pick Up",
    "date_created": "2025-01-30T15:25:41.000",
    "date_modified": "2025-01-30T15:25:48.000",
    "request_status": "Pending",
    "responsible_agency": "Department of Sanitation",
    "final_address": "8728 Green St",
    "address_councildis": "A",
    "status": "Assigned to Contractor",
    "contractor": "IV Waste",
    "rowid": "1165424",
    "final_x": "3661361.93062",
    "final_y": "531241.164034",
    "longitude": "-90.13166866545957",
    "latitude": "29.95532504969928",
    "geocoded_column": {
      "latitude": "29.95532504969928",
      "longitude": "-90.13166866545957"
    }
  },
  {
    "service_request": "2025-1165423",
    "request_type": "Trash/Recycling",
    "request_reason": "Request a Large Item Pick Up",
    "date_created": "2025-01-30T15:24:13.000",
    "date_modified": "2025-01-30T15:24:15.000",
    "request_status": "Pending",
    "responsible_agency": "Department of Sanitation",
    "final_address": "160 E Greenbrier Dr",
    "address_councildis": "E",
    "status": "Assigned to Contractor",
    "contractor": "Waste Pro",
    "rowid": "1165423",
    "final_x": "3717134.41298",
    "final_y": "565249.185698",
    "longitude": "-89.9542692064561",
    "latitude": "30.047107778389755",
    "geocoded_column": {
      "latitude": "30.047107778389755",
      "longitude": "-89.9542692064561"
    }
  },
  {
    "service_request": "2025-1165422",
    "request_type": "General Services",
    "request_reason": "General Service Request",
    "date_created": "2025-01-30T15:22:16.000",
    "date_modified": "2025-01-30T15:24:04.000",
    "case_close_date": "2025-01-30T09:24:02.000",
    "request_status": "Closed",
    "responsible_agency": "Orleans Parish Communication District",
    "final_address": "5025 St Bernard Ave",
    "address_councildis": "D",
    "status": "Referred to External Agency",
    "rowid": "1165422",
    "final_x": "3676795.66369",
    "final_y": "550715.236757",
    "longitude": "-90.08226315140675",
    "latitude": "30.008417944025044",
    "geocoded_column": {
      "latitude": "30.008417944025044",
      "longitude": "-90.08226315140675"
    }
  },
  {
    "service_request": "2025-1165421",
    "request_type": "Trash/Recycling",
    "request_reason": "Repair Trash Cart",
    "date_created": "2025-01-30T15:21:27.000",
    "date_modified": "2025-01-30T15:21:35.000",
    "request_status": "Pending",
    "responsible_agency": "Department of Sanitation",
    "final_address": "3860 S Pin Oak Ave",
    "address_councildis": "C",
    "status": "Assigned to Contractor",
    "contractor": "Richards Disposal",
    "rowid": "1165421",
    "final_x": "3704847.98699",
    "final_y": "513948.55013",
    "longitude": "-89.99499442045045",
    "latitude": "29.906450792394455",
    "geocoded_column": {
      "latitude": "29.906450792394455",
      "longitude": "-89.99499442045045"
    }
  },
  {
    "service_request": "2025-1165420",
    "request_type": "Trash/Recycling",
    "request_reason": "Repair Trash Cart",
    "date_created": "2025-01-30T15:18:04.000",
    "date_modified": "2025-01-30T15:18:07.000",
    "request_status": "Pending",
    "responsible_agency": "Department of Sanitation",
    "final_address": "8911 Curran Rd",
    "address_councildis": "E",
    "status": "Assigned to Contractor",
    "contractor": "Waste Pro",
    "rowid": "1165420",
    "final_x": "3705020.98411",
    "final_y": "563065.632864",
    "longitude": "-89.99263463816982",
    "latitude": "30.04149917636631",
    "geocoded_column": {
      "latitude": "30.04149917636631",
      "longitude": "-89.99263463816982"
    }
  },
  {
    "service_request": "2025-1165419",
    "request_type": "Mosquito, Termite & Rodent Control",
    "request_reason": "Non-Rodent Complaint (Mice, Possums, Snakes)",
    "date_created": "2025-01-30T15:13:30.000",
    "date_modified": "2025-01-30T15:13:32.000",
    "request_status": "Pending",
    "responsible_agency": "Mosquito, Termite & Rodent Control Board",
    "final_address": "8729 Green St",
    "address_councildis": "A",
    "status": "Pending",
    "rowid": "1165419",
    "final_x": "3661423.3392",
    "final_y": "531292.379458",
    "longitude": "-90.13147306232558",
    "latitude": "29.95546410465157",
    "geocoded_column": {
      "latitude": "29.95546410465157",
      "longitude": "-90.13147306232558"
    }
  },
  {
    "service_request": "2025-1165418",
    "request_type": "Streetlights",
    "request_reason": "Streetlight Outage/Malfunction",
    "date_created": "2025-01-30T15:12:13.000",
    "date_modified": "2025-01-30T15:12:14.000",
    "request_status": "Pending",
    "responsible_agency": "Department of Public Works",
    "final_address": "7716 Woodbine Dr",
    "address_councildis": "E",
    "status": "Pending",
    "contractor": "Legacy Professional Services",
    "rowid": "1165418",
    "final_x": "3701795.06865",
    "final_y": "561629.416031",
    "longitude": "-90.00288233441303",
    "latitude": "30.037653532652094",
    "geocoded_column": {
      "latitude": "30.037653532652094",
      "longitude": "-90.00288233441303"
    }
  },
  {
    "service_request": "2025-1165417",
    "request_type": "Trash/Recycling",
    "request_reason": "Request a Large Item Pick Up",
    "date_created": "2025-01-30T15:11:22.000",
    "date_modified": "2025-01-30T15:11:26.000",
    "request_status": "Pending",
    "responsible_agency": "Department of Sanitation",
    "final_address": "2322 Burgundy St",
    "address_councildis": "C",
    "status": "Assigned to Contractor",
    "contractor": "IV Waste",
    "rowid": "1165417",
    "final_x": "3685669.05775",
    "final_y": "535602.28807",
    "longitude": "-90.05476212883961",
    "latitude": "29.966593326740465",
    "geocoded_column": {
      "latitude": "29.966593326740465",
      "longitude": "-90.05476212883961"
    }
  },
  {
    "service_request": "2025-1165416",
    "request_type": "Trash/Recycling",
    "request_reason": "Repair Recycling Cart",
    "date_created": "2025-01-30T15:05:41.000",
    "date_modified": "2025-01-30T15:05:43.000",
    "request_status": "Pending",
    "responsible_agency": "Department of Sanitation",
    "final_address": "3636 Pin Oak Ave",
    "address_councildis": "C",
    "status": "Pending",
    "rowid": "1165416",
    "final_x": "3703932.12638",
    "final_y": "514836.103347",
    "longitude": "-89.99785228764887",
    "latitude": "29.908920643206336",
    "geocoded_column": {
      "latitude": "29.908920643206336",
      "longitude": "-89.99785228764887"
    }
  },
  {
    "service_request": "2025-1165415",
    "request_type": "Mosquito, Termite & Rodent Control",
    "request_reason": "Rodent Complaint (Rats)",
    "date_created": "2025-01-30T15:04:56.000",
    "date_modified": "2025-01-30T15:04:58.000",
    "request_status": "Pending",
    "responsible_agency": "Mosquito, Termite & Rodent Control Board",
    "final_address": "2437 Orleans Ave",
    "address_councildis": "D",
    "status": "Pending",
    "rowid": "1165415",
    "final_x": "3677680.99938",
    "final_y": "536420.847815",
    "longitude": "-90.07996008170355",
    "latitude": "29.96908675654216",
    "geocoded_column": {
      "latitude": "29.96908675654216",
      "longitude": "-90.07996008170355"
    }
  },
  {
    "service_request": "2025-1165414",
    "request_type": "Trash/Recycling",
    "request_reason": "Repair Trash Cart",
    "date_created": "2025-01-30T15:04:44.000",
    "date_modified": "2025-01-30T15:04:46.000",
    "request_status": "Pending",
    "responsible_agency": "Department of Sanitation",
    "final_address": "3741 Red Oak Ct",
    "address_councildis": "C",
    "status": "Assigned to Contractor",
    "contractor": "Richards Disposal",
    "rowid": "1165414",
    "final_x": "3703481.98865",
    "final_y": "514133.94757",
    "longitude": "-89.99929878763874",
    "latitude": "29.907004372172473",
    "geocoded_column": {
      "latitude": "29.907004372172473",
      "longitude": "-89.99929878763874"
    }
  },
  {
    "service_request": "2025-1165413",
    "request_type": "Trash/Recycling",
    "request_reason": "Request a Large Item Pick Up",
    "date_created": "2025-01-30T15:03:21.000",
    "date_modified": "2025-01-30T15:03:24.000",
    "request_status": "Pending",
    "responsible_agency": "Department of Sanitation",
    "final_address": "2239 General Taylor St",
    "address_councildis": "B",
    "status": "Assigned to Contractor",
    "contractor": "IV Waste",
    "rowid": "1165413",
    "final_x": "3672109.38203",
    "final_y": "523454.259899",
    "longitude": "-90.09799715525693",
    "latitude": "29.933599317727595",
    "geocoded_column": {
      "latitude": "29.933599317727595",
      "longitude": "-90.09799715525693"
    }
  },
  {
    "service_request": "2025-1165412",
    "request_type": "Abandoned Vehicles",
    "request_reason": "Abandoned/Junk Vehicles",
    "date_created": "2025-01-30T15:02:08.000",
    "date_modified": "2025-01-30T15:02:09.000",
    "request_status": "Pending",
    "responsible_agency": "Department of Public Works",
    "final_address": "1530 Gravier St",
    "address_councildis": "B",
    "status": "Pending",
    "rowid": "1165412",
    "final_x": "3678180.24955",
    "final_y": "531180.906178",
    "longitude": "-90.07856462654769",
    "latitude": "29.95466366682648",
    "geocoded_column": {
      "latitude": "29.95466366682648",
      "longitude": "-90.07856462654769"
    }
  },
  {
    "service_request": "2025-1165411",
    "request_type": "Trash/Recycling",
    "request_reason": "Request a Large Item Pick Up",
    "date_created": "2025-01-30T15:01:42.000",
    "date_modified": "2025-01-30T15:01:44.000",
    "request_status": "Pending",
    "responsible_agency": "Department of Sanitation",
    "final_address": "4769 Sherwood Dr",
    "address_councildis": "E",
    "status": "Assigned to Contractor",
    "contractor": "Waste Pro",
    "rowid": "1165411",
    "final_x": "3718060.67468",
    "final_y": "557055.41481",
    "longitude": "-89.9516540215596",
    "latitude": "30.02454753891973",
    "geocoded_column": {
      "latitude": "30.02454753891973",
      "longitude": "-89.9516540215596"
    }
  },
  {
    "service_request": "2025-1165410",
    "request_type": "Trash/Recycling",
    "request_reason": "Missed Trash Pick-Up",
    "date_created": "2025-01-30T15:01:26.000",
    "date_modified": "2025-01-30T15:15:57.000",
    "case_close_date": "2025-01-30T09:15:56.000",
    "request_status": "Closed",
    "responsible_agency": "Department of Sanitation",
    "final_address": "5214 Coliseum St",
    "address_councildis": "B",
    "status": "Invalid Request",
    "contractor": "IV Waste",
    "contractor_action": "Invalid",
    "rowid": "1165410",
    "final_x": "3667910.66733",
    "final_y": "519620.688696",
    "longitude": "-90.11138138368604",
    "latitude": "29.92318201589651",
    "geocoded_column": {
      "latitude": "29.92318201589651",
      "longitude": "-90.11138138368604"
    }
  },
  {
    "service_request": "2025-1165409",
    "request_type": "Trash/Recycling",
    "request_reason": "Request a Large Item Pick Up",
    "date_created": "2025-01-30T14:59:42.000",
    "date_modified": "2025-01-30T14:59:45.000",
    "request_status": "Pending",
    "responsible_agency": "Department of Sanitation",
    "final_address": "4237 S Galvez St",
    "address_councildis": "B",
    "status": "Assigned to Contractor",
    "contractor": "IV Waste",
    "rowid": "1165409",
    "final_x": "3670616.38471",
    "final_y": "527636.591999",
    "longitude": "-90.1025686611949",
    "latitude": "29.945143550261253",
    "geocoded_column": {
      "latitude": "29.945143550261253",
      "longitude": "-90.1025686611949"
    }
  },
  {
    "service_request": "2025-1165408",
    "request_type": "Trash/Recycling",
    "request_reason": "Request a Large Item Pick Up",
    "date_created": "2025-01-30T14:54:33.000",
    "date_modified": "2025-01-30T14:54:35.000",
    "request_status": "Pending",
    "responsible_agency": "Department of Sanitation",
    "final_address": "1306 Felicity St",
    "address_councildis": "B",
    "status": "Assigned to Contractor",
    "contractor": "IV Waste",
    "rowid": "1165408",
    "final_x": "3679413.50703",
    "final_y": "523591.990075",
    "longitude": "-90.0749336441885",
    "latitude": "29.93375948352876",
    "geocoded_column": {
      "latitude": "29.93375948352876",
      "longitude": "-90.0749336441885"
    }
  },
  {
    "service_request": "2025-1165407",
    "request_type": "Trash/Recycling",
    "request_reason": "Request a Large Item Pick Up",
    "date_created": "2025-01-30T14:51:14.000",
    "date_modified": "2025-01-30T14:51:17.000",
    "request_status": "Pending",
    "responsible_agency": "Department of Sanitation",
    "final_address": "2302 Treasure St",
    "address_councildis": "D",
    "status": "Assigned to Contractor",
    "contractor": "IV Waste",
    "rowid": "1165407",
    "final_x": "3685204.46908",
    "final_y": "544043.216462",
    "longitude": "-90.0559321236391",
    "latitude": "29.989817162066622",
    "geocoded_column": {
      "latitude": "29.989817162066622",
      "longitude": "-90.0559321236391"
    }
  },
  {
    "service_request": "2025-1165406",
    "request_type": "Streetlights",
    "request_reason": "Streetlight Outage/Malfunction",
    "date_created": "2025-01-30T14:46:13.000",
    "date_modified": "2025-01-30T14:46:14.000",
    "request_status": "Pending",
    "responsible_agency": "Department of Public Works",
    "final_address": "2117 Mandolin St",
    "address_councildis": "D",
    "status": "Pending",
    "contractor": "Legacy Professional Services",
    "rowid": "1165406",
    "final_x": "3683449.77634",
    "final_y": "548452.395026",
    "longitude": "-90.06132010062731",
    "latitude": "30.001994500248365",
    "geocoded_column": {
      "latitude": "30.001994500248365",
      "longitude": "-90.06132010062731"
    }
  },
  {
    "service_request": "2025-1165405",
    "request_type": "Trash/Recycling",
    "request_reason": "Request a Large Item Pick Up",
    "date_created": "2025-01-30T14:42:15.000",
    "date_modified": "2025-01-30T14:42:22.000",
    "request_status": "Pending",
    "responsible_agency": "Department of Sanitation",
    "final_address": "2239 Lamanche St",
    "address_councildis": "E",
    "status": "Assigned to Contractor",
    "contractor": "Waste Pro",
    "rowid": "1165405",
    "final_x": "3699627.07101",
    "final_y": "538084.078089",
    "longitude": "-90.01059265176518",
    "latitude": "29.9729817184542",
    "geocoded_column": {
      "latitude": "29.9729817184542",
      "longitude": "-90.01059265176518"
    }
  },
  {
    "service_request": "2025-1165404",
    "request_type": "Roads and Streets",
    "request_reason": "Debris in Driving Lanes",
    "date_created": "2025-01-30T14:40:13.000",
    "date_modified": "2025-01-30T14:40:15.000",
    "request_status": "Pending",
    "responsible_agency": "Department of Public Works",
    "final_address": "700 BLK Union St",
    "address_councildis": "B",
    "status": "Pending",
    "rowid": "1165404",
    "final_x": "3680661.29612",
    "final_y": "529957.168876",
    "longitude": "-90.0707730206389",
    "latitude": "29.951223863178644",
    "geocoded_column": {
      "latitude": "29.951223863178644",
      "longitude": "-90.0707730206389"
    }
  },
  {
    "service_request": "2025-1165403",
    "request_type": "Trash/Recycling",
    "request_reason": "Request a Large Item Pick Up",
    "date_created": "2025-01-30T14:37:05.000",
    "date_modified": "2025-01-30T14:37:07.000",
    "request_status": "Pending",
    "responsible_agency": "Department of Sanitation",
    "final_address": "47 Snipe St",
    "address_councildis": "D",
    "status": "Assigned to Contractor",
    "contractor": "IV Waste",
    "rowid": "1165403",
    "final_x": "3672426.57422",
    "final_y": "556745.497818",
    "longitude": "-90.09586076008335",
    "latitude": "30.025129454583134",
    "geocoded_column": {
      "latitude": "30.025129454583134",
      "longitude": "-90.09586076008335"
    }
  },
  {
    "service_request": "2025-1165402",
    "request_type": "Trash/Recycling",
    "request_reason": "Request a Large Item Pick Up",
    "date_created": "2025-01-30T14:35:07.000",
    "date_modified": "2025-01-30T14:35:25.000",
    "request_status": "Pending",
    "responsible_agency": "Department of Sanitation",
    "final_address": "2427 Annette St",
    "address_councildis": "D",
    "status": "Assigned to Contractor",
    "contractor": "IV Waste",
    "rowid": "1165402",
    "final_x": "3682781.3837",
    "final_y": "541158.003596",
    "longitude": "-90.06368696179666",
    "latitude": "29.98195789644161",
    "geocoded_column": {
      "latitude": "29.98195789644161",
      "longitude": "-90.06368696179666"
    }
  },
  {
    "service_request": "2025-1165401",
    "request_type": "Abandoned Vehicles",
    "request_reason": "Abandoned/Junk Vehicles",
    "date_created": "2025-01-30T14:34:21.000",
    "date_modified": "2025-01-30T14:34:22.000",
    "request_status": "Pending",
    "responsible_agency": "Department of Public Works",
    "final_address": "1516 Louisa St",
    "address_councildis": "D",
    "status": "Pending",
    "rowid": "1165401",
    "final_x": "3689932.84566",
    "final_y": "537508.242504",
    "longitude": "-90.04122929612527",
    "latitude": "29.97170252246018",
    "geocoded_column": {
      "latitude": "29.97170252246018",
      "longitude": "-90.04122929612527"
    }
  },
  {
    "service_request": "2025-1165400",
    "request_type": "Trash/Recycling",
    "request_reason": "Illegal Dumping",
    "date_created": "2025-01-30T14:33:49.000",
    "date_modified": "2025-01-30T14:33:50.000",
    "request_status": "Pending",
    "responsible_agency": "Department of Sanitation",
    "final_address": "1516 Louisa St",
    "address_councildis": "D",
    "status": "Pending",
    "rowid": "1165400",
    "final_x": "3689932.84566",
    "final_y": "537508.242504",
    "longitude": "-90.04122929612527",
    "latitude": "29.97170252246018",
    "geocoded_column": {
      "latitude": "29.97170252246018",
      "longitude": "-90.04122929612527"
    }
  },
  {
    "service_request": "2025-1165399",
    "request_type": "Road Striping",
    "request_reason": "Lane Striping or other Pavement Markings",
    "date_created": "2025-01-30T14:31:59.000",
    "date_modified": "2025-01-30T14:32:01.000",
    "request_status": "Pending",
    "responsible_agency": "Department of Public Works",
    "final_address": "6601 Chef Menteur Hwy",
    "address_councildis": "E",
    "status": "Pending",
    "rowid": "1165399",
    "final_x": "3699080.57975",
    "final_y": "551994.204438",
    "longitude": "-90.01181190335211",
    "latitude": "30.01124677130967",
    "geocoded_column": {
      "latitude": "30.01124677130967",
      "longitude": "-90.01181190335211"
    }
  },
  {
    "service_request": "2025-1165397",
    "request_type": "Roads and Streets",
    "request_reason": "Debris in Driving Lanes",
    "date_created": "2025-01-30T14:26:42.000",
    "date_modified": "2025-01-30T14:42:20.000",
    "request_status": "Pending",
    "responsible_agency": "Department of Public Works",
    "final_address": "1017 N Galvez St",
    "address_councildis": "D",
    "rowid": "1165397",
    "final_x": "3679100.6845",
    "final_y": "536739.366599",
    "longitude": "-90.07546557407653",
    "latitude": "29.969919797818687",
    "geocoded_column": {
      "latitude": "29.969919797818687",
      "longitude": "-90.07546557407653"
    }
  },
  {
    "service_request": "2025-1165396",
    "request_type": "Trash/Recycling",
    "request_reason": "Order Trash Cart",
    "date_created": "2025-01-30T14:26:08.000",
    "date_modified": "2025-01-30T14:26:10.000",
    "request_status": "Pending",
    "responsible_agency": "Department of Sanitation",
    "final_address": "1302 Jourdan Ave B",
    "address_councildis": "E",
    "status": "Assigned to Contractor",
    "contractor": "Waste Pro",
    "rowid": "1165396",
    "final_x": "3695175.64106",
    "final_y": "535292.28263",
    "longitude": "-90.02475175151756",
    "latitude": "29.96544581948931",
    "geocoded_column": {
      "latitude": "29.96544581948931",
      "longitude": "-90.02475175151756"
    }
  },
  {
    "service_request": "2025-1165395",
    "request_type": "Roads and Streets",
    "request_reason": "Pothole",
    "date_created": "2025-01-30T14:26:04.000",
    "date_modified": "2025-01-30T14:26:06.000",
    "request_status": "Pending",
    "responsible_agency": "Department of Public Works",
    "final_address": "2819 St Thomas St",
    "address_councildis": "B",
    "status": "Pending",
    "rowid": "1165395",
    "final_x": "3677857.59765",
    "final_y": "519286.967543",
    "longitude": "-90.07999423582415",
    "latitude": "29.9219689674454",
    "geocoded_column": {
      "latitude": "29.9219689674454",
      "longitude": "-90.07999423582415"
    }
  },
  {
    "service_request": "2025-1165394",
    "request_type": "Trash/Recycling",
    "request_reason": "Replace Trash Cart",
    "date_created": "2025-01-30T14:19:32.000",
    "date_modified": "2025-01-30T14:19:35.000",
    "request_status": "Pending",
    "responsible_agency": "Department of Sanitation",
    "final_address": "2318 Winthrop St",
    "address_councildis": "E",
    "status": "Assigned to Contractor",
    "contractor": "Waste Pro",
    "rowid": "1165394",
    "final_x": "3700432.66288",
    "final_y": "538113.881033",
    "longitude": "-90.00804736508508",
    "latitude": "29.973038070439333",
    "geocoded_column": {
      "latitude": "29.973038070439333",
      "longitude": "-90.00804736508508"
    }
  },
  {
    "service_request": "2025-1165393",
    "request_type": "Trash/Recycling",
    "request_reason": "Illegal Dumping",
    "date_created": "2025-01-30T14:17:51.000",
    "date_modified": "2025-01-30T14:17:55.000",
    "request_status": "Pending",
    "responsible_agency": "Department of Sanitation",
    "final_address": "4900 BLK Rhodes Dr",
    "address_councildis": "E",
    "status": "Pending",
    "rowid": "1165393",
    "final_x": "3702421.80575",
    "final_y": "555444.896116",
    "longitude": "-90.00112894133522",
    "latitude": "30.02062847565453",
    "geocoded_column": {
      "latitude": "30.02062847565453",
      "longitude": "-90.00112894133522"
    }
  },
  {
    "service_request": "2025-1165392",
    "request_type": "Streetlights",
    "request_reason": "Streetlight Outage/Malfunction",
    "date_created": "2025-01-30T14:15:41.000",
    "date_modified": "2025-01-30T14:15:42.000",
    "request_status": "Pending",
    "responsible_agency": "Department of Public Works",
    "final_address": "1229 Louisa St",
    "address_councildis": "C",
    "status": "Pending",
    "contractor": "Legacy Professional Services",
    "rowid": "1165392",
    "final_x": "3689744.44899",
    "final_y": "536447.147911",
    "longitude": "-90.0418620497067",
    "latitude": "29.968790725778756",
    "geocoded_column": {
      "latitude": "29.968790725778756",
      "longitude": "-90.0418620497067"
    }
  },
  {
    "service_request": "2025-1165391",
    "request_type": "Parks & Parkways",
    "request_reason": "Request Tree Service (Right of Way/Public Property)",
    "date_created": "2025-01-30T14:14:43.000",
    "date_modified": "2025-01-30T14:15:10.000",
    "request_status": "Pending",
    "responsible_agency": "Department of Parks & Parkway",
    "final_address": "4712 Lafaye St",
    "address_councildis": "D",
    "status": "Pending",
    "rowid": "1165391",
    "final_x": "3687394.87318",
    "final_y": "550490.596052",
    "longitude": "-90.0487849461686",
    "latitude": "30.00747780063052",
    "geocoded_column": {
      "latitude": "30.00747780063052",
      "longitude": "-90.0487849461686"
    }
  },
  {
    "service_request": "2025-1165390",
    "request_type": "Utility Poles",
    "request_reason": "Utility Pole Down",
    "date_created": "2025-01-30T14:11:53.000",
    "date_modified": "2025-01-30T16:14:36.000",
    "case_close_date": "2025-01-30T10:14:37.000",
    "request_status": "Closed",
    "responsible_agency": "Utility Company Collective",
    "final_address": "4712 Lonely Oak Dr",
    "address_councildis": "E",
    "contractor": "Waste Pro",
    "contractor_action": "Invalid Pick-Up",
    "rowid": "1165390",
    "final_x": "3702280.83991",
    "final_y": "554140.39932",
    "longitude": "-90.00162225244308",
    "latitude": "30.01704611466784",
    "geocoded_column": {
      "latitude": "30.01704611466784",
      "longitude": "-90.00162225244308"
    }
  },
  {
    "service_request": "2025-1165389",
    "request_type": "Property Maintenance",
    "request_reason": "Property Maintenance",
    "date_created": "2025-01-30T14:08:41.000",
    "date_modified": "2025-01-30T15:14:54.000",
    "case_close_date": "2025-01-30T09:14:53.000",
    "request_status": "Closed",
    "responsible_agency": "Department of Code Enforcement",
    "final_address": "4712 Lonely Oak Dr",
    "address_councildis": "E",
    "status": "Referred to Code Enforcement",
    "rowid": "1165389",
    "final_x": "3702280.83991",
    "final_y": "554140.39932",
    "longitude": "-90.00162225244308",
    "latitude": "30.01704611466784",
    "geocoded_column": {
      "latitude": "30.01704611466784",
      "longitude": "-90.00162225244308"
    }
  },
  {
    "service_request": "2025-1165388",
    "request_type": "Streetlights",
    "request_reason": "Streetlight Outage/Malfunction",
    "date_created": "2025-01-30T14:05:21.000",
    "date_modified": "2025-01-30T14:05:22.000",
    "request_status": "Pending",
    "responsible_agency": "Department of Public Works",
    "final_address": "214 Chartres St Unit 6",
    "address_councildis": "C",
    "status": "Pending",
    "contractor": "Legacy Professional Services",
    "rowid": "1165388",
    "final_x": "3681879.35996",
    "final_y": "530841.586818",
    "longitude": "-90.06689611680008",
    "latitude": "29.95361875282733",
    "geocoded_column": {
      "latitude": "29.95361875282733",
      "longitude": "-90.06689611680008"
    }
  },
  {
    "service_request": "2025-1165387",
    "request_type": "Trash/Recycling",
    "request_reason": "Request a Large Item Pick Up",
    "date_created": "2025-01-30T13:59:31.000",
    "date_modified": "2025-01-30T14:00:11.000",
    "request_status": "Pending",
    "responsible_agency": "Department of Sanitation",
    "final_address": "2115 Peniston St",
    "address_councildis": "B",
    "status": "Assigned to Contractor",
    "contractor": "IV Waste",
    "rowid": "1165387",
    "final_x": "3672471.85179",
    "final_y": "523000.174075",
    "longitude": "-90.09686832407532",
    "latitude": "29.9323399783098",
    "geocoded_column": {
      "latitude": "29.9323399783098",
      "longitude": "-90.09686832407532"
    }
  },
  {
    "service_request": "2025-1165386",
    "request_type": "Roads and Streets",
    "request_reason": "Debris in Driving Lanes",
    "date_created": "2025-01-30T13:58:21.000",
    "date_modified": "2025-01-30T13:58:23.000",
    "request_status": "Pending",
    "responsible_agency": "Department of Public Works",
    "final_address": "2213 Tennessee St",
    "address_councildis": "E",
    "status": "Pending",
    "rowid": "1165386",
    "final_x": "3696918.17008",
    "final_y": "538570.477705",
    "longitude": "-90.01913021905119",
    "latitude": "29.97440484923936",
    "geocoded_column": {
      "latitude": "29.97440484923936",
      "longitude": "-90.01913021905119"
    }
  },
  {
    "service_request": "2025-1165385",
    "request_type": "Trash/Recycling",
    "request_reason": "Request a Large Item Pick Up",
    "date_created": "2025-01-30T13:56:46.000",
    "date_modified": "2025-01-30T13:56:47.000",
    "request_status": "Pending",
    "responsible_agency": "Department of Sanitation",
    "final_address": "7610 Morrison Rd",
    "address_councildis": "E",
    "status": "Assigned to Contractor",
    "contractor": "Waste Pro",
    "rowid": "1165385",
    "final_x": "3701430.69725",
    "final_y": "559670.805341",
    "longitude": "-90.00410563112585",
    "latitude": "30.032279743753392",
    "geocoded_column": {
      "latitude": "30.032279743753392",
      "longitude": "-90.00410563112585"
    }
  },
  {
    "service_request": "2025-1165384",
    "request_type": "Roads and Streets",
    "request_reason": "Street Subsidence (Sinking)",
    "date_created": "2025-01-30T13:56:39.000",
    "date_modified": "2025-01-30T13:56:40.000",
    "request_status": "Pending",
    "responsible_agency": "Department of Public Works",
    "final_address": "136 N Alexander St",
    "address_councildis": "A",
    "status": "Pending",
    "rowid": "1165384",
    "final_x": "3670260.14977",
    "final_y": "539439.866442",
    "longitude": "-90.10329335801617",
    "latitude": "29.97760915139891",
    "geocoded_column": {
      "latitude": "29.97760915139891",
      "longitude": "-90.10329335801617"
    }
  },
  {
    "service_request": "2025-1165383",
    "request_type": "Trash/Recycling",
    "request_reason": "Repair Trash Cart",
    "date_created": "2025-01-30T13:56:18.000",
    "date_modified": "2025-01-30T13:56:20.000",
    "request_status": "Pending",
    "responsible_agency": "Department of Sanitation",
    "final_address": "802 N Carrollton Ave",
    "address_councildis": "A",
    "status": "Assigned to Contractor",
    "contractor": "IV Waste",
    "rowid": "1165383",
    "final_x": "3672872.90644",
    "final_y": "540129.836939",
    "longitude": "-90.09501781876081",
    "latitude": "29.979428955352773",
    "geocoded_column": {
      "latitude": "29.979428955352773",
      "longitude": "-90.09501781876081"
    }
  },
  {
    "service_request": "2025-1165382",
    "request_type": "Trash/Recycling",
    "request_reason": "Repair Trash Cart",
    "date_created": "2025-01-30T13:48:59.000",
    "date_modified": "2025-01-30T13:49:01.000",
    "request_status": "Pending",
    "responsible_agency": "Department of Sanitation",
    "final_address": "1216 Marengo St Apt 1B",
    "address_councildis": "B",
    "status": "Assigned to Contractor",
    "contractor": "IV Waste",
    "rowid": "1165382",
    "final_x": "3671972.77838",
    "final_y": "520090.723512",
    "longitude": "-90.09854283486204",
    "latitude": "29.924354722338432",
    "geocoded_column": {
      "latitude": "29.924354722338432",
      "longitude": "-90.09854283486204"
    }
  },
  {
    "service_request": "2025-1165381",
    "request_type": "Abandoned Vehicles",
    "request_reason": "Abandoned/Junk Vehicles",
    "date_created": "2025-01-30T13:46:17.000",
    "date_modified": "2025-01-30T13:46:18.000",
    "request_status": "Pending",
    "responsible_agency": "Department of Public Works",
    "final_address": "7821 Sycamore St",
    "address_councildis": "A",
    "status": "Pending",
    "rowid": "1165381",
    "final_x": "3665060.67693",
    "final_y": "530358.942978",
    "longitude": "-90.12001882511075",
    "latitude": "29.95279205213423",
    "geocoded_column": {
      "latitude": "29.95279205213423",
      "longitude": "-90.12001882511075"
    }
  },
  {
    "service_request": "2025-1165380",
    "request_type": "Trash/Recycling",
    "request_reason": "Order Recycling Cart",
    "date_created": "2025-01-30T13:45:31.000",
    "date_modified": "2025-01-30T13:45:33.000",
    "request_status": "Pending",
    "responsible_agency": "Department of Sanitation",
    "final_address": "4300 Fiesta St",
    "address_councildis": "C",
    "status": "Pending",
    "contractor": "Richards Disposal",
    "rowid": "1165380",
    "final_x": "3699545.95325",
    "final_y": "522150.216378",
    "longitude": "-90.01142937899466",
    "latitude": "29.929171796409875",
    "geocoded_column": {
      "latitude": "29.929171796409875",
      "longitude": "-90.01142937899466"
    }
  },
  {
    "service_request": "2025-1165379",
    "request_type": "Trash/Recycling",
    "request_reason": "Return Trash Cart",
    "date_created": "2025-01-30T13:45:28.000",
    "date_modified": "2025-01-30T13:47:33.000",
    "request_status": "Pending",
    "responsible_agency": "Department of Sanitation",
    "final_address": "6232 Annunciation St",
    "address_councildis": "A",
    "status": "Assigned to Contractor",
    "contractor": "IV Waste",
    "rowid": "1165379",
    "final_x": "3662996.1561",
    "final_y": "518293.514038",
    "longitude": "-90.12693879973762",
    "latitude": "29.919675893496493",
    "geocoded_column": {
      "latitude": "29.919675893496493",
      "longitude": "-90.12693879973762"
    }
  },
  {
    "service_request": "2025-1165378",
    "request_type": "Trash/Recycling",
    "request_reason": "Order Trash Cart",
    "date_created": "2025-01-30T13:44:36.000",
    "date_modified": "2025-01-30T13:44:37.000",
    "request_status": "Pending",
    "responsible_agency": "Department of Sanitation",
    "final_address": "4300 Fiesta St",
    "address_councildis": "C",
    "status": "Assigned to Contractor",
    "contractor": "Richards Disposal",
    "rowid": "1165378",
    "final_x": "3699545.95325",
    "final_y": "522150.216378",
    "longitude": "-90.01142937899466",
    "latitude": "29.929171796409875",
    "geocoded_column": {
      "latitude": "29.929171796409875",
      "longitude": "-90.01142937899466"
    }
  },
  {
    "service_request": "2025-1165377",
    "request_type": "Trash/Recycling",
    "request_reason": "Request a Large Item Pick Up",
    "date_created": "2025-01-30T13:42:45.000",
    "date_modified": "2025-01-30T13:42:47.000",
    "request_status": "Pending",
    "responsible_agency": "Department of Sanitation",
    "final_address": "2311 Valmont St",
    "address_councildis": "B",
    "status": "Assigned to Contractor",
    "contractor": "IV Waste",
    "rowid": "1165377",
    "final_x": "3668308.91354",
    "final_y": "524028.50662",
    "longitude": "-90.10997571761469",
    "latitude": "29.9352904276019",
    "geocoded_column": {
      "latitude": "29.9352904276019",
      "longitude": "-90.10997571761469"
    }
  },