[
  {
    "service_request": "2021-828142",
    "request_type": "COVID-19",
    "request_reason": "COVID-19 Business Non-Compliance",
    "date_created": "2021-10-01T00:20:01.000",
    "date_modified": "2021-10-01T00:20:02.000",
    "request_status": "Pending",
    "responsible_agency": "Safety and Permits",
    "final_address": "941 Bourbon St",
    "address_councildis": "C",
    "status": "Pending",
    "rowid": "828142",
    "final_x": "3682900.95292",
    "final_y": "533555.780869",
    "longitude": "-90.06357538722466",
    "latitude": "29.96105077470387",
    "geocoded_column": {
      "latitude": "29.96105077470387",
      "longitude": "-90.06357538722466"
    }
  },
  {
    "service_request": "2021-828141",
    "request_type": "Traffic Signals/Signs/Striping/Streetlights",
    "request_reason": "Street Light Outage/Malfunction",
    "date_created": "2021-09-30T23:51:04.000",
    "date_modified": "2021-09-30T23:51:05.000",
    "request_status": "Pending",
    "responsible_agency": "Department of Public Works",
    "final_address": "CHAPELLE ST & MEMPHIS ST",
    "address_councildis": "A",
    "status": "Pending",
    "contractor": "Royal Engineering",
    "rowid": "828141",
    "final_x": "3669685.0",
    "final_y": "552612.38",
    "longitude": "-90.10466377468207",
    "latitude": "30.013845977029533",
    "geocoded_column": {
      "latitude": "30.013845977029533",
      "longitude": "-90.10466377468207"
    }
  },
  {
    "service_request": "2021-828140",
    "request_type": "Abandoned Vehicles",
    "request_reason": "Abandoned/Junk Vehicles",
    "date_created": "2021-09-30T23:47:18.000",
    "date_modified": "2021-09-30T23:47:18.000",
    "request_status": "Pending",
    "responsible_agency": "Department of Public Works",
    "final_address": "3425 Cleveland Ave",
    "address_councildis": "B",
    "status": "Pending",
    "rowid": "828140",
    "final_x": "3672680.69486",
    "final_y": "536652.150151",
    "longitude": "-90.09574353475398",
    "latitude": "29.96987220688831",
    "geocoded_column": {
      "latitude": "29.96987220688831",
      "longitude": "-90.09574353475398"
    }
  },
  {
    "service_request": "2021-828139",
    "request_type": "Mosquito, Termite & Rodent Control",
    "request_reason": "Mosquito Complaint",
    "date_created": "2021-09-30T23:39:17.000",
    "date_modified": "2021-09-30T23:39:17.000",
    "request_status": "Pending",
    "responsible_agency": "Mosquito, Termite & Rodent Control Board",
    "final_address": "136 S Genois St",
    "address_councildis": "B",
    "status": "Pending",
    "rowid": "828139",
    "final_x": "3672404.98286",
    "final_y": "536874.575368",
    "longitude": "-90.09660667961087",
    "latitude": "29.970491986510382",
    "geocoded_column": {
      "latitude": "29.970491986510382",
      "longitude": "-90.09660667961087"
    }
  },
  {
    "service_request": "2021-828138",
    "request_type": "Safety & Permits",
    "request_reason": "Licenses & Permits",
    "date_created": "2021-09-30T23:35:12.000",
    "date_modified": "2021-09-30T23:35:12.000",
    "request_status": "Pending",
    "responsible_agency": "Safety and Permits",
    "final_address": "3522 Cleveland Ave",
    "address_councildis": "B",
    "status": "Pending",
    "rowid": "828138",
    "final_x": "3672421.34766",
    "final_y": "536745.486536",
    "longitude": "-90.09655939790119",
    "latitude": "29.970136550091482",
    "geocoded_column": {
      "latitude": "29.970136550091482",
      "longitude": "-90.09655939790119"
    }
  },
  {
    "service_request": "2021-828136",
    "request_type": "Trash/Recycling",
    "request_reason": "Missed Trash Pick-Up",
    "date_created": "2021-09-30T22:17:37.000",
    "date_modified": "2021-09-30T22:17:38.000",
    "request_status": "Pending",
    "responsible_agency": "Department of Sanitation",
    "final_address": "2120 Audubon St",
    "address_councildis": "A",
    "status": "Assigned to Contractor",
    "contractor": "Richards Disposal",
    "rowid": "828136",
    "final_x": "3666266.63655",
    "final_y": "529152.753856",
    "longitude": "-90.1162513814703",
    "latitude": "29.949440256306634",
    "geocoded_column": {
      "latitude": "29.949440256306634",
      "longitude": "-90.1162513814703"
    }
  },
  {
    "service_request": "2021-828134",
    "request_type": "Trash/Recycling",
    "request_reason": "MIssed Recycling Pick-Up",
    "date_created": "2021-09-30T21:28:27.000",
    "date_modified": "2021-09-30T21:28:28.000",
    "request_status": "Pending",
    "responsible_agency": "Department of Sanitation",
    "final_address": "623 Gallier St",
    "address_councildis": "C",
    "status": "Assigned to Contractor",
    "contractor": "Metro Disposal",
    "rowid": "828134",
    "final_x": "3690085.43952",
    "final_y": "533977.270469",
    "longitude": "-90.04087316542454",
    "latitude": "29.9619888555857",
    "geocoded_column": {
      "latitude": "29.9619888555857",
      "longitude": "-90.04087316542454"
    }
  },
  {
    "service_request": "2021-828133",
    "request_type": "Roads/Drainage",
    "request_reason": "Pothole",
    "date_created": "2021-09-30T21:04:22.000",
    "date_modified": "2021-09-30T21:04:22.000",
    "request_status": "Pending",
    "responsible_agency": "Department of Public Works",
    "final_address": "6132 Constance St",
    "address_councildis": "A",
    "status": "Pending",
    "rowid": "828133",
    "final_x": "3663813.7152",
    "final_y": "519142.300087",
    "longitude": "-90.12432988809304",
    "latitude": "29.92198609686308",
    "geocoded_column": {
      "latitude": "29.92198609686308",
      "longitude": "-90.12432988809304"
    }
  },
  {
    "service_request": "2021-828132",
    "request_type": "Trash/Recycling",
    "request_reason": "Replace Trash Cart",
    "date_created": "2021-09-30T21:00:21.000",
    "date_modified": "2021-09-30T21:00:21.000",
    "request_status": "Pending",
    "responsible_agency": "Department of Sanitation",
    "final_address": "1910 Washington Ave",
    "address_councildis": "B",
    "status": "Assigned to Contractor",
    "contractor": "Richards Disposal",
    "rowid": "828132",
    "final_x": "3675232.27937",
    "final_y": "523504.699387",
    "longitude": "-90.08813659093279",
    "latitude": "29.9336450642101",
    "geocoded_column": {
      "latitude": "29.9336450642101",
      "longitude": "-90.08813659093279"
    }
  },
  {
    "service_request": "2021-828131",
    "request_type": "Trash/Recycling",
    "request_reason": "Missed Trash Pick-Up",
    "date_created": "2021-09-30T20:58:36.000",
    "date_modified": "2021-09-30T20:58:37.000",
    "request_status": "Pending",
    "responsible_agency": "Department of Sanitation",
    "final_address": "2014 N Roman St",
    "address_councildis": "D",
    "status": "Assigned to Contractor",
    "contractor": "Metro Disposal",
    "rowid": "828131",
    "final_x": "3684166.55145",
    "final_y": "538797.082889",
    "longitude": "-90.05939485279828",
    "latitude": "29.97542391658076",
    "geocoded_column": {
      "latitude": "29.97542391658076",
      "longitude": "-90.05939485279828"
    }
  },
  {
    "service_request": "2021-828130",
    "request_type": "Trash/Recycling",
    "request_reason": "Missed Trash Pick-Up",
    "date_created": "2021-09-30T20:54:45.000",
    "date_modified": "2021-09-30T20:54:46.000",
    "request_status": "Pending",
    "responsible_agency": "Department of Sanitation",
    "final_address": "2019 N Roman St",
    "address_councildis": "D",
    "status": "Assigned to Contractor",
    "contractor": "Metro Disposal",
    "rowid": "828130",
    "final_x": "3684199.4493",
    "final_y": "538865.853897",
    "longitude": "-90.05928853765614",
    "latitude": "29.975612007094377",
    "geocoded_column": {
      "latitude": "29.975612007094377",
      "longitude": "-90.05928853765614"
    }
  },
  {
    "service_request": "2021-828129",
    "request_type": "Trash/Recycling",
    "request_reason": "Missed Trash Pick-Up",
    "date_created": "2021-09-30T20:52:52.000",
    "date_modified": "2021-09-30T20:52:52.000",
    "request_status": "Pending",
    "responsible_agency": "Department of Sanitation",
    "final_address": "2020 N Roman St",
    "address_councildis": "D",
    "status": "Assigned to Contractor",
    "contractor": "Metro Disposal",
    "rowid": "828129",
    "final_x": "3684218.5622",
    "final_y": "538801.831689",
    "longitude": "-90.05923042225932",
    "latitude": "29.97543538402635",
    "geocoded_column": {
      "latitude": "29.97543538402635",
      "longitude": "-90.05923042225932"
    }
  },
  {
    "service_request": "2021-828128",
    "request_type": "Trash/Recycling",
    "request_reason": "Start Trash Service",
    "date_created": "2021-09-30T20:50:58.000",
    "date_modified": "2021-09-30T20:50:59.000",
    "request_status": "Pending",
    "responsible_agency": "Department of Sanitation",
    "final_address": "2015 N Roman St",
    "address_councildis": "D",
    "status": "Assigned to Contractor",
    "contractor": "Metro Disposal",
    "rowid": "828128",
    "final_x": "3684166.24316",
    "final_y": "538862.940489",
    "longitude": "-90.05939351397049",
    "latitude": "29.975605011410398",
    "geocoded_column": {
      "latitude": "29.975605011410398",
      "longitude": "-90.05939351397049"
    }
  },
  {
    "service_request": "2021-828127",
    "request_type": "Trash/Recycling",
    "request_reason": "Replace Trash Cart",
    "date_created": "2021-09-30T20:39:38.000",
    "date_modified": "2021-09-30T20:39:38.000",
    "request_status": "Pending",
    "responsible_agency": "Department of Sanitation",
    "final_address": "6 Neron Pl",
    "address_councildis": "A",
    "status": "Assigned to Contractor",
    "contractor": "Richards Disposal",
    "rowid": "828127",
    "final_x": "3664807.88992",
    "final_y": "530955.848002",
    "longitude": "-90.12079707255954",
    "latitude": "29.9544407048297",
    "geocoded_column": {
      "latitude": "29.9544407048297",
      "longitude": "-90.12079707255954"
    }
  },
  {
    "service_request": "2021-828126",
    "request_type": "Traffic Signals/Signs/Striping/Streetlights",
    "request_reason": "Street Light Outage/Malfunction",
    "date_created": "2021-09-30T20:37:08.000",
    "date_modified": "2021-09-30T20:37:09.000",
    "request_status": "Pending",
    "responsible_agency": "Department of Public Works",
    "final_address": "3735 Ulloa St",
    "address_councildis": "B",
    "status": "Pending",
    "contractor": "Royal Engineering",
    "rowid": "828126",
    "final_x": "3670701.76308",
    "final_y": "535736.811207",
    "longitude": "-90.10202426846499",
    "latitude": "29.96741395419296",
    "geocoded_column": {
      "latitude": "29.96741395419296",
      "longitude": "-90.10202426846499"
    }
  },
  {
    "service_request": "2021-828125",
    "request_type": "Trash/Recycling",
    "request_reason": "Missed Trash Pick-Up",
    "date_created": "2021-09-30T20:35:39.000",
    "date_modified": "2021-09-30T20:35:40.000",
    "request_status": "Pending",
    "responsible_agency": "Department of Sanitation",
    "final_address": "3753 Gentilly Blvd",
    "address_councildis": "D",
    "status": "Assigned to Contractor",
    "contractor": "Metro Disposal",
    "rowid": "828125",
    "final_x": "3687493.31702",
    "final_y": "549019.750931",
    "longitude": "-90.04852603854562",
    "latitude": "30.003430477536895",
    "geocoded_column": {
      "latitude": "30.003430477536895",
      "longitude": "-90.04852603854562"
    }
  },
  {
    "service_request": "2021-828124",
    "request_type": "Trash/Recycling",
    "request_reason": "Request a Large Item Pick Up",
    "date_created": "2021-09-30T20:34:36.000",
    "date_modified": "2021-09-30T20:34:37.000",
    "request_status": "Pending",
    "responsible_agency": "Department of Sanitation",
    "final_address": "3753 Gentilly Blvd",
    "address_councildis": "D",
    "status": "Assigned to Contractor",
    "contractor": "Metro Disposal",
    "rowid": "828124",
    "final_x": "3687493.31702",
    "final_y": "549019.750931",
    "longitude": "-90.04852603854562",
    "latitude": "30.003430477536895",
    "geocoded_column": {
      "latitude": "30.003430477536895",
      "longitude": "-90.04852603854562"
    }
  },
  {
    "service_request": "2021-828123",
    "request_type": "Traffic Signals/Signs/Striping/Streetlights",
    "request_reason": "Street Light Outage/Malfunction",
    "date_created": "2021-09-30T20:33:12.000",
    "date_modified": "2021-09-30T20:33:12.000",
    "request_status": "Pending",
    "responsible_agency": "Department of Public Works",
    "final_address": "LEON C SIMON DR & FRANKLIN AVE",
    "address_councildis": "D",
    "status": "Pending",
    "contractor": "Royal Engineering",
    "rowid": "828123",
    "final_x": "3686222.9",
    "final_y": "557300.88",
    "longitude": "-90.05224698457064",
    "latitude": "30.02623964798306",
    "geocoded_column": {
      "latitude": "30.02623964798306",
      "longitude": "-90.05224698457064"
    }
  },
  {
    "service_request": "2021-828122",
    "request_type": "Traffic Signals/Signs/Striping/Streetlights",
    "request_reason": "Traffic Sign Missing/Damaged",
    "date_created": "2021-09-30T20:29:30.000",
    "date_modified": "2021-09-30T20:29:30.000",
    "request_status": "Pending",
    "responsible_agency": "Department of Public Works",
    "final_address": "N CLAIBORNE AVE & N ROBERTSON ST & MARIGNY ST",
    "address_councildis": "C",
    "status": "Pending",
    "rowid": "828122",
    "final_x": "3685303.0",
    "final_y": "537808.68",
    "longitude": "-90.05584045049869",
    "latitude": "29.97267136339053",
    "geocoded_column": {
      "latitude": "29.97267136339053",
      "longitude": "-90.05584045049869"
    }
  },
  {
    "service_request": "2021-828120",
    "request_type": "Trash/Recycling",
    "request_reason": "Missed Trash Pick-Up",
    "date_created": "2021-09-30T20:19:29.000",
    "date_modified": "2021-09-30T20:19:29.000",
    "request_status": "Pending",
    "responsible_agency": "Department of Sanitation",
    "final_address": "1400 Block of Lowerline St, New Orleans, Louisiana, 70118",
    "status": "Assigned to Contractor",
    "rowid": "828120",
    "longitude": "0.0",
    "latitude": "0.0",
    "geocoded_column": {
      "latitude": "0.0",
      "longitude": "0.0"
    }
  },
  {
    "service_request": "2021-828119",
    "request_type": "Abandoned Vehicles",
    "request_reason": "Abandoned/Junk Vehicles",
    "date_created": "2021-09-30T20:18:26.000",
    "date_modified": "2021-09-30T20:18:26.000",
    "request_status": "Pending",
    "responsible_agency": "Department of Public Works",
    "final_address": "324 N Roman St",
    "address_councildis": "B",
    "status": "Pending",
    "rowid": "828119",
    "final_x": "3678461.87131",
    "final_y": "534027.688069",
    "longitude": "-90.07757686045288",
    "latitude": "29.962482872777866",
    "geocoded_column": {
      "latitude": "29.962482872777866",
      "longitude": "-90.07757686045288"
    }
  },
  {
    "service_request": "2021-828118",
    "request_type": "Abandoned Vehicles",
    "request_reason": "Abandoned/Junk Vehicles",
    "date_created": "2021-09-30T20:16:41.000",
    "date_modified": "2021-09-30T20:16:41.000",
    "request_status": "Pending",
    "responsible_agency": "Department of Public Works",
    "final_address": "318 N Roman St",
    "address_councildis": "B",
    "status": "Pending",
    "rowid": "828118",
    "final_x": "3678431.20821",
    "final_y": "533984.281285",
    "longitude": "-90.07767519237994",
    "latitude": "29.962364442819165",
    "geocoded_column": {
      "latitude": "29.962364442819165",
      "longitude": "-90.07767519237994"
    }
  },
  {
    "service_request": "2021-828117",
    "request_type": "Abandoned Vehicles",
    "request_reason": "Abandoned/Junk Vehicles",
    "date_created": "2021-09-30T20:14:28.000",
    "date_modified": "2021-09-30T20:14:28.000",
    "request_status": "Pending",
    "responsible_agency": "Department of Public Works",
    "final_address": "324 N Roman St",
    "address_councildis": "B",
    "status": "Pending",
    "rowid": "828117",
    "final_x": "3678461.87131",
    "final_y": "534027.688069",
    "longitude": "-90.07757686045288",
    "latitude": "29.962482872777866",
    "geocoded_column": {
      "latitude": "29.962482872777866",
      "longitude": "-90.07757686045288"
    }
  },
  {
    "service_request": "2021-828116",
    "request_type": "Abandoned Vehicles",
    "request_reason": "Abandoned/Junk Vehicles",
    "date_created": "2021-09-30T20:12:29.000",
    "date_modified": "2021-09-30T20:12:29.000",
    "request_status": "Pending",
    "responsible_agency": "Department of Public Works",
    "final_address": "324 N Roman St",
    "address_councildis": "B",
    "status": "Pending",
    "rowid": "828116",
    "final_x": "3678461.87131",
    "final_y": "534027.688069",
    "longitude": "-90.07757686045288",
    "latitude": "29.962482872777866",
    "geocoded_column": {
      "latitude": "29.962482872777866",
      "longitude": "-90.07757686045288"
    }
  },
  {
    "service_request": "2021-828114",
    "request_type": "Traffic Signals/Signs/Striping/Streetlights",
    "request_reason": "Street Light Outage/Malfunction",
    "date_created": "2021-09-30T20:06:28.000",
    "date_modified": "2021-09-30T20:06:28.000",
    "request_status": "Pending",
    "responsible_agency": "Department of Public Works",
    "final_address": "3414 Clermont Dr",
    "address_councildis": "D",
    "status": "Pending",
    "rowid": "828114",
    "final_x": "3686085.08489",
    "final_y": "545208.124239",
    "longitude": "-90.05310939355999",
    "latitude": "29.992993218945013",
    "geocoded_column": {
      "latitude": "29.992993218945013",
      "longitude": "-90.05310939355999"
    }
  },
  {
    "service_request": "2021-828113",
    "request_type": "Trash/Recycling",
    "request_reason": "Request a Large Item Pick Up",
    "date_created": "2021-09-30T19:44:01.000",
    "date_modified": "2021-09-30T19:44:02.000",
    "request_status": "Pending",
    "responsible_agency": "Department of Sanitation",
    "final_address": "5085 Basinview Dr",
    "address_councildis": "E",
    "status": "Assigned to Contractor",
    "contractor": "Metro Disposal",
    "rowid": "828113",
    "final_x": "3698648.43741",
    "final_y": "556023.176473",
    "longitude": "-90.01303053543985",
    "latitude": "30.022338615150595",
    "geocoded_column": {
      "latitude": "30.022338615150595",
      "longitude": "-90.01303053543985"
    }
  },
  {
    "service_request": "2021-828112",
    "request_type": "Trash/Recycling",
    "request_reason": "Missed Trash Pick-Up",
    "date_created": "2021-09-30T19:37:12.000",
    "date_modified": "2021-09-30T19:37:13.000",
    "request_status": "Pending",
    "responsible_agency": "Department of Sanitation",
    "final_address": "1521 Mandeville St",
    "address_councildis": "C",
    "status": "Assigned to Contractor",
    "contractor": "Metro Disposal",
    "rowid": "828112",
    "final_x": "3685680.73724",
    "final_y": "538024.984905",
    "longitude": "-90.054639866008",
    "latitude": "29.97325454105964",
    "geocoded_column": {
      "latitude": "29.97325454105964",
      "longitude": "-90.054639866008"
    }
  },
  {
    "service_request": "2021-828111",
    "request_type": "Trash/Recycling",
    "request_reason": "Request a Large Item Pick Up",
    "date_created": "2021-09-30T19:22:45.000",
    "date_modified": "2021-09-30T19:30:04.000",
    "request_status": "Pending",
    "responsible_agency": "Department of Sanitation",
    "final_address": "7703 Willow St",
    "address_councildis": "A",
    "status": "Assigned to Contractor",
    "contractor": "Richards Disposal",
    "rowid": "828111",
    "final_x": "3663511.39891",
    "final_y": "527963.556159",
    "longitude": "-90.12499053895498",
    "latitude": "29.94625052755624",
    "geocoded_column": {
      "latitude": "29.94625052755624",
      "longitude": "-90.12499053895498"
    }
  },
  {
    "service_request": "2021-828110",
    "request_type": "Trash/Recycling",
    "request_reason": "Request a Large Item Pick Up",
    "date_created": "2021-09-30T19:21:13.000",
    "date_modified": "2021-09-30T19:21:13.000",
    "request_status": "Pending",
    "responsible_agency": "Department of Sanitation",
    "final_address": "5634 Abbey Dr",
    "address_councildis": "C",
    "status": "Assigned to Contractor",
    "contractor": "Richards Disposal",
    "rowid": "828110",
    "final_x": "3704503.25796",
    "final_y": "521285.939513",
    "longitude": "-89.99581209476429",
    "latitude": "29.926637151636374",
    "geocoded_column": {
      "latitude": "29.926637151636374",
      "longitude": "-89.99581209476429"
    }
  },
  {
    "service_request": "2021-828108",
    "request_type": "Trash/Recycling",
    "request_reason": "MIssed Recycling Pick-Up",
    "date_created": "2021-09-30T19:17:16.000",
    "date_modified": "2021-09-30T19:17:17.000",
    "request_status": "Pending",
    "responsible_agency": "Department of Sanitation",
    "final_address": "171 Audubon Blvd, New Orleans, Louisiana, 70118",
    "address_councildis": "A",
    "status": "Assigned to Contractor",
    "contractor": "Richards Disposal",
    "rowid": "828108",
    "final_x": "3666194.03809",
    "final_y": "528123.936959",
    "longitude": "-90.11651510485586",
    "latitude": "29.946613462979602",
    "geocoded_column": {
      "latitude": "29.946613462979602",
      "longitude": "-90.11651510485586"
    }
  },
  {
    "service_request": "2021-828106",
    "request_type": "Abandoned Vehicles",
    "request_reason": "Abandoned/Junk Vehicles",
    "date_created": "2021-09-30T19:08:39.000",
    "date_modified": "2021-09-30T19:08:39.000",
    "request_status": "Pending",
    "responsible_agency": "Department of Public Works",
    "final_address": "4725 Banks St",
    "address_councildis": "A",
    "status": "Pending",
    "rowid": "828106",
    "final_x": "3668252.12263",
    "final_y": "539075.558474",
    "longitude": "-90.10964769849264",
    "latitude": "29.9766665454641",
    "geocoded_column": {
      "latitude": "29.9766665454641",
      "longitude": "-90.10964769849264"
    }
  },
  {
    "service_request": "2021-828105",
    "request_type": "Trash/Recycling",
    "request_reason": "Missed Trash Pick-Up",
    "date_created": "2021-09-30T19:06:00.000",
    "date_modified": "2021-09-30T19:06:01.000",
    "request_status": "Pending",
    "responsible_agency": "Department of Sanitation",
    "final_address": "2518 Burgundy St, New Orleans, Louisiana, 70117",
    "address_councildis": "C",
    "status": "Assigned to Contractor",
    "contractor": "Metro Disposal",
    "rowid": "828105",
    "final_x": "3686725.2943",
    "final_y": "535693.927367",
    "longitude": "-90.05142331327858",
    "latitude": "29.966812853542237",
    "geocoded_column": {
      "latitude": "29.966812853542237",
      "longitude": "-90.05142331327858"
    }
  },
  {
    "service_request": "2021-828104",
    "request_type": "Trash/Recycling",
    "request_reason": "Missed Trash Pick-Up",
    "date_created": "2021-09-30T18:59:34.000",
    "date_modified": "2021-09-30T18:59:35.000",
    "request_status": "Pending",
    "responsible_agency": "Department of Sanitation",
    "final_address": "8817 Edinburgh St",
    "address_councildis": "A",
    "status": "Assigned to Contractor",
    "contractor": "Richards Disposal",
    "rowid": "828104",
    "final_x": "3665555.21127",
    "final_y": "536238.001543",
    "longitude": "-90.11826044885233",
    "latitude": "29.968943126331798",
    "geocoded_column": {
      "latitude": "29.968943126331798",
      "longitude": "-90.11826044885233"
    }
  },
  {
    "service_request": "2021-828101",
    "request_type": "Abandoned Vehicles",
    "request_reason": "Abandoned/Junk Vehicles",
    "date_created": "2021-09-30T18:53:09.000",
    "date_modified": "2021-09-30T18:53:09.000",
    "request_status": "Pending",
    "responsible_agency": "Department of Public Works",
    "final_address": "3501 Urquhart St",
    "address_councildis": "C",
    "status": "Pending",
    "rowid": "828101",
    "final_x": "3690687.62614",
    "final_y": "536395.305543",
    "longitude": "-90.03888529913037",
    "latitude": "29.968618913591953",
    "geocoded_column": {
      "latitude": "29.968618913591953",
      "longitude": "-90.03888529913037"
    }
  },
  {
    "service_request": "2021-828100",
    "request_type": "Trash/Recycling",
    "request_reason": "Missed Trash Pick-Up",
    "date_created": "2021-09-30T18:43:33.000",
    "date_modified": "2021-09-30T18:43:34.000",
    "request_status": "Pending",
    "responsible_agency": "Department of Sanitation",
    "final_address": "4820 N Roman St",
    "address_councildis": "E",
    "status": "Assigned to Contractor",
    "contractor": "Metro Disposal",
    "rowid": "828100",
    "final_x": "3695918.81251",
    "final_y": "537029.01972",
    "longitude": "-90.02234211166527",
    "latitude": "29.970197870086988",
    "geocoded_column": {
      "latitude": "29.970197870086988",
      "longitude": "-90.02234211166527"
    }
  },
  {
    "service_request": "2021-828099",
    "request_type": "Trash/Recycling",
    "request_reason": "Replace Trash Cart",
    "date_created": "2021-09-30T18:39:14.000",
    "date_modified": "2021-09-30T18:39:15.000",
    "request_status": "Pending",
    "responsible_agency": "Department of Sanitation",
    "final_address": "2701 Jackson Ave",
    "address_councildis": "B",
    "status": "Assigned to Contractor",
    "contractor": "Richards Disposal",
    "rowid": "828099",
    "final_x": "3675070.15163",
    "final_y": "527122.647423",
    "longitude": "-90.08852433857695",
    "latitude": "29.943598080319983",
    "geocoded_column": {
      "latitude": "29.943598080319983",
      "longitude": "-90.08852433857695"
    }
  },
  {
    "service_request": "2021-828098",
    "request_type": "Trash/Recycling",
    "request_reason": "Missed Trash Pick-Up",
    "date_created": "2021-09-30T18:33:02.000",
    "date_modified": "2021-09-30T18:33:03.000",
    "request_status": "Pending",
    "responsible_agency": "Department of Sanitation",
    "final_address": "6787 Deanne St",
    "address_councildis": "D",
    "status": "Assigned to Contractor",
    "contractor": "Metro Disposal",
    "rowid": "828098",
    "final_x": "3695912.3032",
    "final_y": "555893.526937",
    "longitude": "-90.02168069752959",
    "latitude": "30.022068532640876",
    "geocoded_column": {
      "latitude": "30.022068532640876",
      "longitude": "-90.02168069752959"
    }
  },
  {
    "service_request": "2021-828094",
    "request_type": "Roads/Drainage",
    "request_reason": "Debris in Roadway",
    "date_created": "2021-09-30T18:07:08.000",
    "date_modified": "2021-09-30T18:07:08.000",
    "request_status": "Pending",
    "responsible_agency": "Department of Public Works",
    "final_address": "1543 Henry Clay Ave",
    "address_councildis": "A",
    "status": "Pending",
    "rowid": "828094",
    "final_x": "3665037.47898",
    "final_y": "522451.41209",
    "longitude": "-90.12035638855383",
    "latitude": "29.93104955183953",
    "geocoded_column": {
      "latitude": "29.93104955183953",
      "longitude": "-90.12035638855383"
    }
  },
  {
    "service_request": "2021-828092",
    "request_type": "Traffic Signals/Signs/Striping/Streetlights",
    "request_reason": "Street Light Outage/Malfunction",
    "date_created": "2021-09-30T18:03:45.000",
    "date_modified": "2021-09-30T18:03:46.000",
    "request_status": "Pending",
    "responsible_agency": "Department of Public Works",
    "final_address": "1911 Valence St",
    "address_councildis": "B",
    "status": "Pending",
    "contractor": "Royal Engineering",
    "rowid": "828092",
    "final_x": "3669670.41735",
    "final_y": "521965.07257",
    "longitude": "-90.10574722688332",
    "latitude": "29.929576605971313",
    "geocoded_column": {
      "latitude": "29.929576605971313",
      "longitude": "-90.10574722688332"
    }
  },
  {
    "service_request": "2021-828091",
    "request_type": "Parks & Parkways",
    "request_reason": "Request Grass Cutting Service (City Owned Property)",
    "date_created": "2021-09-30T18:01:17.000",
    "date_modified": "2021-09-30T18:01:17.000",
    "request_status": "Pending",
    "responsible_agency": "Department of Parks & Parkway",
    "final_address": "5977 Laurel St",
    "address_councildis": "A",
    "status": "Pending",
    "rowid": "828091",
    "final_x": "3664447.349",
    "final_y": "518258.092534",
    "longitude": "-90.12235926086477",
    "latitude": "29.91953640372856",
    "geocoded_column": {
      "latitude": "29.91953640372856",
      "longitude": "-90.12235926086477"
    }
  },
  {
    "service_request": "2021-828090",
    "request_type": "Parks & Parkways",
    "request_reason": "Request Tree Service (Right of Way/Public Property)",
    "date_created": "2021-09-30T18:00:20.000",
    "date_modified": "2021-09-30T18:00:20.000",
    "request_status": "Pending",
    "responsible_agency": "Department of Parks & Parkway",
    "final_address": "1543 Henry Clay Ave",
    "address_councildis": "A",
    "status": "Pending",
    "rowid": "828090",
    "final_x": "3665037.47898",
    "final_y": "522451.41209",
    "longitude": "-90.12035638855383",
    "latitude": "29.93104955183953",
    "geocoded_column": {
      "latitude": "29.93104955183953",
      "longitude": "-90.12035638855383"
    }
  },
  {
    "service_request": "2021-828089",
    "request_type": "Abandoned Vehicles",
    "request_reason": "Abandoned/Junk Vehicles",
    "date_created": "2021-09-30T17:59:38.000",
    "date_modified": "2021-09-30T17:59:38.000",
    "request_status": "Pending",
    "responsible_agency": "Department of Public Works",
    "final_address": "5977 Laurel St",
    "address_councildis": "A",
    "status": "Pending",
    "rowid": "828089",
    "final_x": "3664447.349",
    "final_y": "518258.092534",
    "longitude": "-90.12235926086477",
    "latitude": "29.91953640372856",
    "geocoded_column": {
      "latitude": "29.91953640372856",
      "longitude": "-90.12235926086477"
    }
  },
  {
    "service_request": "2021-828088",
    "request_type": "Parks & Parkways",
    "request_reason": "Request Grass Cutting Service (City Owned Property)",
    "date_created": "2021-09-30T17:58:41.000",
    "date_modified": "2021-09-30T17:58:41.000",
    "request_status": "Pending",
    "responsible_agency": "Department of Parks & Parkway",
    "final_address": "4827 Downman Rd",
    "address_councildis": "D",
    "status": "Pending",
    "rowid": "828088",
    "final_x": "3696063.08739",
    "final_y": "554497.269464",
    "longitude": "-90.02125477878829",
    "latitude": "30.018224605600896",
    "geocoded_column": {
      "latitude": "30.018224605600896",
      "longitude": "-90.02125477878829"
    }
  },
  {
    "service_request": "2021-828087",
    "request_type": "Trash/Recycling",
    "request_reason": "Missed Trash Pick-Up",
    "date_created": "2021-09-30T17:55:28.000",
    "date_modified": "2021-09-30T17:55:28.000",
    "request_status": "Pending",
    "responsible_agency": "Department of Sanitation",
    "final_address": "632 N Pierce St, New Orleans, Louisiana, 70119",
    "address_councildis": "A",
    "status": "Assigned to Contractor",
    "contractor": "Richards Disposal",
    "rowid": "828087",
    "final_x": "3672798.33441",
    "final_y": "539638.443722",
    "longitude": "-90.09527011661471",
    "latitude": "29.978080007326213",
    "geocoded_column": {
      "latitude": "29.978080007326213",
      "longitude": "-90.09527011661471"
    }
  },
  {
    "service_request": "2021-828086",
    "request_type": "Traffic Signals/Signs/Striping/Streetlights",
    "request_reason": "Street Light Outage/Malfunction",
    "date_created": "2021-09-30T17:52:51.000",
    "date_modified": "2021-09-30T17:52:52.000",
    "request_status": "Pending",
    "responsible_agency": "Department of Public Works",
    "final_address": "6211 Wadsworth Dr",
    "address_councildis": "D",
    "status": "Pending",
    "contractor": "Royal Engineering",
    "rowid": "828086",
    "final_x": "3681702.67938",
    "final_y": "555793.119513",
    "longitude": "-90.06658299897734",
    "latitude": "30.022232045849172",
    "geocoded_column": {
      "latitude": "30.022232045849172",
      "longitude": "-90.06658299897734"
    }
  },
  {
    "service_request": "2021-828085",
    "request_type": "Mosquito, Termite & Rodent Control",
    "request_reason": "Mosquito Complaint",
    "date_created": "2021-09-30T17:51:52.000",
    "date_modified": "2021-09-30T17:51:52.000",
    "request_status": "Pending",
    "responsible_agency": "Mosquito, Termite & Rodent Control Board",
    "final_address": "3609 Red Oak Ct",
    "address_councildis": "C",
    "status": "Pending",
    "rowid": "828085",
    "final_x": "3703046.09758",
    "final_y": "513768.122738",
    "longitude": "-90.00068792408335",
    "latitude": "29.906012425108145",
    "geocoded_column": {
      "latitude": "29.906012425108145",
      "longitude": "-90.00068792408335"
    }
  },
  {
    "service_request": "2021-828083",
    "request_type": "Trash/Recycling",
    "request_reason": "Missed Trash Pick-Up",
    "date_created": "2021-09-30T17:44:27.000",
    "date_modified": "2021-09-30T17:44:33.000",
    "request_status": "Pending",
    "responsible_agency": "Department of Sanitation",
    "final_address": "208 Hillary St",
    "address_councildis": "A",
    "status": "Assigned to Contractor",
    "contractor": "Richards Disposal",
    "rowid": "828083",
    "final_x": "3660791.92806",
    "final_y": "524467.190908",
    "longitude": "-90.13369247583448",
    "latitude": "29.936715206414828",
    "geocoded_column": {
      "latitude": "29.936715206414828",
      "longitude": "-90.13369247583448"
    }
  },
  {
    "service_request": "2021-828082",
    "request_type": "Safety & Permits",
    "request_reason": "Licenses & Permits",
    "date_created": "2021-09-30T17:29:48.000",
    "date_modified": "2021-09-30T17:29:48.000",
    "request_status": "Pending",
    "responsible_agency": "Safety and Permits",
    "final_address": "6625 Elysian Fields Ave",
    "address_councildis": "D",
    "status": "Pending",
    "rowid": "828082",
    "final_x": "3683419.7773",
    "final_y": "558007.004123",
    "longitude": "-90.0610797300378",
    "latitude": "30.028267102833077",
    "geocoded_column": {
      "latitude": "30.028267102833077",
      "longitude": "-90.0610797300378"
    }
  },
  {
    "service_request": "2021-828081",
    "request_type": "Trash/Recycling",
    "request_reason": "Missed Trash Pick-Up",
    "date_created": "2021-09-30T17:24:05.000",
    "date_modified": "2021-09-30T17:24:06.000",
    "request_status": "Pending",
    "responsible_agency": "Department of Sanitation",
    "final_address": "702 Governor Nicholls St",
    "address_councildis": "C",
    "status": "Assigned to Contractor",
    "contractor": "Empire Services",
    "rowid": "828081",
    "final_x": "3683553.42825",
    "final_y": "533952.850757",
    "longitude": "-90.06150107568942",
    "latitude": "29.962122683438583",
    "geocoded_column": {
      "latitude": "29.962122683438583",
      "longitude": "-90.06150107568942"
    }
  },
  {
    "service_request": "2021-828080",
    "request_type": "Trash/Recycling",
    "request_reason": "Missed Trash Pick-Up",
    "date_created": "2021-09-30T17:24:03.000",
    "date_modified": "2021-09-30T17:24:04.000",
    "request_status": "Pending",
    "responsible_agency": "Department of Sanitation",
    "final_address": "1132 Cherokee St",
    "address_councildis": "A",
    "status": "Assigned to Contractor",
    "contractor": "Richards Disposal",
    "rowid": "828080",
    "final_x": "3663386.58579",
    "final_y": "526835.689726",
    "longitude": "-90.12542215895068",
    "latitude": "29.943152874552364",
    "geocoded_column": {
      "latitude": "29.943152874552364",
      "longitude": "-90.12542215895068"
    }
  },
  {
    "service_request": "2021-828078",
    "request_type": "Traffic Signals/Signs/Striping/Streetlights",
    "request_reason": "Street Light Outage/Malfunction",
    "date_created": "2021-09-30T17:22:14.000",
    "date_modified": "2021-09-30T17:22:15.000",
    "request_status": "Pending",
    "responsible_agency": "Department of Public Works",
    "final_address": "1132 Cherokee St",
    "address_councildis": "A",
    "status": "Pending",
    "contractor": "Royal Engineering",
    "rowid": "828078",
    "final_x": "3663386.58579",
    "final_y": "526835.689726",
    "longitude": "-90.12542215895068",
    "latitude": "29.943152874552364",
    "geocoded_column": {
      "latitude": "29.943152874552364",
      "longitude": "-90.12542215895068"
    }
  },
  {
    "service_request": "2021-828077",
    "request_type": "Trash/Recycling",
    "request_reason": "MIssed Recycling Pick-Up",
    "date_created": "2021-09-30T17:13:50.000",
    "date_modified": "2021-09-30T17:13:51.000",
    "request_status": "Pending",
    "responsible_agency": "Department of Sanitation",
    "final_address": "6016 St Charles Ave",
    "address_councildis": "A",
    "status": "Assigned to Contractor",
    "contractor": "Richards Disposal",
    "rowid": "828077",
    "final_x": "3665536.5257",
    "final_y": "522450.08089",
    "longitude": "-90.11878100278054",
    "latitude": "29.931031355859783",
    "geocoded_column": {
      "latitude": "29.931031355859783",
      "longitude": "-90.11878100278054"
    }
  },
  {
    "service_request": "2021-828076",
    "request_type": "Property Maintenance",
    "request_reason": "Property Maintenance",
    "date_created": "2021-09-30T17:12:48.000",
    "date_modified": "2021-09-30T17:12:48.000",
    "request_status": "Pending",
    "responsible_agency": "Department of Code Enforcement",
    "final_address": "3502 Roger Williams St",
    "address_councildis": "D",
    "status": "Pending",
    "rowid": "828076",
    "final_x": "3676250.54792",
    "final_y": "543896.900238",
    "longitude": "-90.08422017320487",
    "latitude": "29.989686274133977",
    "geocoded_column": {
      "latitude": "29.989686274133977",
      "longitude": "-90.08422017320487"
    }
  },
  {
    "service_request": "2021-828075",
    "request_type": "Trash/Recycling",
    "request_reason": "Illegal Dumping",
    "date_created": "2021-09-30T17:10:17.000",
    "date_modified": "2021-09-30T17:49:45.000",
    "request_status": "Pending",
    "responsible_agency": "Department of Sanitation",
    "final_address": "927 Toulouse St",
    "address_councildis": "C",
    "status": "Pending",
    "rowid": "828075",
    "final_x": "3681572.35688",
    "final_y": "532743.559492",
    "longitude": "-90.06779917329757",
    "latitude": "29.958857858525384",
    "geocoded_column": {
      "latitude": "29.958857858525384",
      "longitude": "-90.06779917329757"
    }
  },
  {
    "service_request": "2021-828074",
    "request_type": "Trash/Recycling",
    "request_reason": "Order Recycling Cart",
    "date_created": "2021-09-30T17:06:04.000",
    "date_modified": "2021-09-30T17:06:04.000",
    "request_status": "Pending",
    "responsible_agency": "Department of Sanitation",
    "final_address": "3720 Willow St",
    "address_councildis": "B",
    "status": "Pending",
    "rowid": "828074",
    "final_x": "3671840.01268",
    "final_y": "525578.888253",
    "longitude": "-90.09877527529356",
    "latitude": "29.939449339892615",
    "geocoded_column": {
      "latitude": "29.939449339892615",
      "longitude": "-90.09877527529356"
    }
  },
  {
    "service_request": "2021-828073",
    "request_type": "Trash/Recycling",
    "request_reason": "Order Recycling Cart",
    "date_created": "2021-09-30T17:05:05.000",
    "date_modified": "2021-09-30T17:05:05.000",
    "request_status": "Pending",
    "responsible_agency": "Department of Sanitation",
    "final_address": "3718 Willow St",
    "address_councildis": "B",
    "status": "Pending",
    "rowid": "828073",
    "final_x": "3671851.12379",
    "final_y": "525583.054909",
    "longitude": "-90.09874005423634",
    "latitude": "29.939460467663505",
    "geocoded_column": {
      "latitude": "29.939460467663505",
      "longitude": "-90.09874005423634"
    }
  },
  {
    "service_request": "2021-828072",
    "request_type": "Parks & Parkways",
    "request_reason": "Request Grass Cutting Service (City Owned Property)",
    "date_created": "2021-09-30T17:02:09.000",
    "date_modified": "2021-09-30T17:02:09.000",
    "request_status": "Pending",
    "responsible_agency": "Department of Parks & Parkway",
    "final_address": "8508 Pear St",
    "address_councildis": "A",
    "status": "Pending",
    "rowid": "828072",
    "final_x": "3667914.70004",
    "final_y": "537290.638472",
    "longitude": "-90.11077353502846",
    "latitude": "29.971768517782802",
    "geocoded_column": {
      "latitude": "29.971768517782802",
      "longitude": "-90.11077353502846"
    }
  },
  {
    "service_request": "2021-828070",
    "request_type": "Trash/Recycling",
    "request_reason": "Repair Trash Cart",
    "date_created": "2021-09-30T17:00:29.000",
    "date_modified": "2021-09-30T17:00:30.000",
    "request_status": "Pending",
    "responsible_agency": "Department of Sanitation",
    "final_address": "4775 Galahad Dr",
    "address_councildis": "E",
    "status": "Assigned to Contractor",
    "contractor": "Metro Disposal",
    "rowid": "828070",
    "final_x": "3707259.32203",
    "final_y": "555714.506649",
    "longitude": "-89.98583394717677",
    "latitude": "30.021214265170446",
    "geocoded_column": {
      "latitude": "30.021214265170446",
      "longitude": "-89.98583394717677"
    }
  },
  {
    "service_request": "2021-828069",
    "request_type": "Trash/Recycling",
    "request_reason": "Illegal Dumping",
    "date_created": "2021-09-30T16:58:35.000",
    "date_modified": "2021-09-30T16:58:35.000",
    "request_status": "Pending",
    "responsible_agency": "Department of Sanitation",
    "final_address": "6057 Woodland Hwy",
    "address_councildis": "C",
    "status": "Pending",
    "rowid": "828069",
    "final_x": "3706690.84132",
    "final_y": "514614.065139",
    "longitude": "-89.98915361857688",
    "latitude": "29.90822141626766",
    "geocoded_column": {
      "latitude": "29.90822141626766",
      "longitude": "-89.98915361857688"
    }
  },
  {
    "service_request": "2021-828068",
    "request_type": "Trash/Recycling",
    "request_reason": "Missed Trash Pick-Up",
    "date_created": "2021-09-30T16:55:03.000",
    "date_modified": "2021-09-30T16:55:04.000",
    "request_status": "Pending",
    "responsible_agency": "Department of Sanitation",
    "final_address": "1028 Bordeaux St",
    "address_councildis": "B",
    "status": "Assigned to Contractor",
    "contractor": "Richards Disposal",
    "rowid": "828068",
    "final_x": "3669495.92353",
    "final_y": "519235.606455",
    "longitude": "-90.10639033719454",
    "latitude": "29.92207658181533",
    "geocoded_column": {
      "latitude": "29.92207658181533",
      "longitude": "-90.10639033719454"
    }
  },
  {
    "service_request": "2021-828067",
    "request_type": "Property Maintenance",
    "request_reason": "Property Maintenance",
    "date_created": "2021-09-30T16:49:34.000",
    "date_modified": "2021-09-30T16:49:34.000",
    "request_status": "Pending",
    "responsible_agency": "Department of Code Enforcement",
    "final_address": "4537 Mark Twain Dr",
    "address_councildis": "D",
    "status": "Pending",
    "rowid": "828067",
    "final_x": "3691559.28899",
    "final_y": "550963.099221",
    "longitude": "-90.03561151114029",
    "latitude": "30.008647984865522",
    "geocoded_column": {
      "latitude": "30.008647984865522",
      "longitude": "-90.03561151114029"
    }
  },
  {
    "service_request": "2021-828066",
    "request_type": "Trash/Recycling",
    "request_reason": "Replace Trash Cart",
    "date_created": "2021-09-30T16:47:28.000",
    "date_modified": "2021-09-30T16:47:28.000",
    "request_status": "Pending",
    "responsible_agency": "Department of Sanitation",
    "final_address": "428 Lowerline St",
    "address_councildis": "A",
    "status": "Assigned to Contractor",
    "contractor": "Richards Disposal",
    "rowid": "828066",
    "final_x": "3661765.9849",
    "final_y": "524133.136508",
    "longitude": "-90.13062838757719",
    "latitude": "29.935768585404375",
    "geocoded_column": {
      "latitude": "29.935768585404375",
      "longitude": "-90.13062838757719"
    }
  },
  {
    "service_request": "2021-828065",
    "request_type": "Trash/Recycling",
    "request_reason": "Order Trash Cart",
    "date_created": "2021-09-30T16:46:27.000",
    "date_modified": "2021-09-30T16:46:28.000",
    "request_status": "Pending",
    "responsible_agency": "Department of Sanitation",
    "final_address": "6957 Catina St",
    "address_councildis": "A",
    "status": "Assigned to Contractor",
    "contractor": "Metro Disposal",
    "rowid": "828065",
    "final_x": "3667205.96423",
    "final_y": "554021.019608",
    "longitude": "-90.11244886397648",
    "latitude": "30.01779209916705",
    "geocoded_column": {
      "latitude": "30.01779209916705",
      "longitude": "-90.11244886397648"
    }
  },
  {
    "service_request": "2021-828063",
    "request_type": "Trash/Recycling",
    "request_reason": "Missed Trash Pick-Up",
    "date_created": "2021-09-30T16:40:33.000",
    "date_modified": "2021-09-30T16:40:33.000",
    "request_status": "Pending",
    "responsible_agency": "Department of Sanitation",
    "final_address": "3025 Fortin St",
    "address_councildis": "A",
    "status": "Assigned to Contractor",
    "contractor": "Metro Disposal",
    "rowid": "828063",
    "final_x": "3676969.08936",
    "final_y": "540983.964811",
    "longitude": "-90.08205097751642",
    "latitude": "29.98165515559762",
    "geocoded_column": {
      "latitude": "29.98165515559762",
      "longitude": "-90.08205097751642"
    }
  },
  {
    "service_request": "2021-828061",
    "request_type": "Traffic Signals/Signs/Striping/Streetlights",
    "request_reason": "Traffic Signal Malfunctioning/Damaged",
    "date_created": "2021-09-30T16:36:37.000",
    "date_modified": "2021-09-30T16:38:13.000",
    "request_status": "Pending",
    "responsible_agency": "Department of Public Works",
    "final_address": "ESPLANADE AVE & N BROAD ST",
    "address_councildis": "D",
    "status": "Pending",
    "rowid": "828061",
    "final_x": "3678205.46",
    "final_y": "538920.34",
    "longitude": "-90.07821733427264",
    "latitude": "29.975943718140513",
    "geocoded_column": {
      "latitude": "29.975943718140513",
      "longitude": "-90.07821733427264"
    }
  },
  {
    "service_request": "2021-828058",
    "request_type": "Roads/Drainage",
    "request_reason": "Pothole",
    "date_created": "2021-09-30T16:30:45.000",
    "date_modified": "2021-09-30T16:30:45.000",
    "request_status": "Pending",
    "responsible_agency": "Department of Public Works",
    "final_address": "2001 Elysian Fields Ave",
    "address_councildis": "D",
    "status": "Pending",
    "rowid": "828058",
    "final_x": "3684853.99407",
    "final_y": "539663.065098",
    "longitude": "-90.05719326657642",
    "latitude": "29.977784031051165",
    "geocoded_column": {
      "latitude": "29.977784031051165",
      "longitude": "-90.05719326657642"
    }
  },
  {
    "service_request": "2021-828057",
    "request_type": "Trash/Recycling",
    "request_reason": "Order Recycling Cart",
    "date_created": "2021-09-30T16:26:39.000",
    "date_modified": "2021-09-30T16:26:39.000",
    "request_status": "Pending",
    "responsible_agency": "Department of Sanitation",
    "final_address": "5835 Chamberlain Dr, New Orleans, Louisiana, 70122",
    "address_councildis": "D",
    "status": "Pending",
    "rowid": "828057",
    "final_x": "3679415.18024",
    "final_y": "554116.773592",
    "longitude": "-90.0738691515266",
    "latitude": "30.017692040966242",
    "geocoded_column": {
      "latitude": "30.017692040966242",
      "longitude": "-90.0738691515266"
    }
  },
  {
    "service_request": "2021-828056",
    "request_type": "Traffic Signals/Signs/Striping/Streetlights",
    "request_reason": "Street Light Outage/Malfunction",
    "date_created": "2021-09-30T16:24:37.000",
    "date_modified": "2021-09-30T16:24:38.000",
    "request_status": "Pending",
    "responsible_agency": "Department of Public Works",
    "final_address": "4749 Bonita Dr",
    "address_councildis": "E",
    "status": "Pending",
    "contractor": "Royal Engineering",
    "rowid": "828056",
    "final_x": "3704524.66218",
    "final_y": "555343.724825",
    "longitude": "-89.99448832912817",
    "latitude": "30.020282901024704",
    "geocoded_column": {
      "latitude": "30.020282901024704",
      "longitude": "-89.99448832912817"
    }
  },
  {
    "service_request": "2021-828055",
    "request_type": "Abandoned Vehicles",
    "request_reason": "Abandoned/Junk Vehicles",
    "date_created": "2021-09-30T16:24:14.000",
    "date_modified": "2021-09-30T16:24:14.000",
    "request_status": "Pending",
    "responsible_agency": "Department of Public Works",
    "final_address": "2912 Dumaine St",
    "address_councildis": "A",
    "status": "Pending",
    "rowid": "828055",
    "final_x": "3676320.15323",
    "final_y": "538101.404169",
    "longitude": "-90.08419987531909",
    "latitude": "29.97374857350157",
    "geocoded_column": {
      "latitude": "29.97374857350157",
      "longitude": "-90.08419987531909"
    }
  },
  {
    "service_request": "2021-828054",
    "request_type": "Trash/Recycling",
    "request_reason": "Order Trash Cart",
    "date_created": "2021-09-30T16:23:27.000",
    "date_modified": "2021-09-30T16:23:28.000",
    "request_status": "Pending",
    "responsible_agency": "Department of Sanitation",
    "final_address": "7711 Haney Dr",
    "address_councildis": "E",
    "status": "Assigned to Contractor",
    "contractor": "Metro Disposal",
    "rowid": "828054",
    "final_x": "3712463.91128",
    "final_y": "567548.2497",
    "longitude": "-89.96894384306853",
    "latitude": "30.05358300274704",
    "geocoded_column": {
      "latitude": "30.05358300274704",
      "longitude": "-89.96894384306853"
    }
  },
  {
    "service_request": "2021-828051",
    "request_type": "Trash/Recycling",
    "request_reason": "Missed Trash Pick-Up",
    "date_created": "2021-09-30T16:18:06.000",
    "date_modified": "2021-09-30T16:18:06.000",
    "request_status": "Pending",
    "responsible_agency": "Department of Sanitation",
    "final_address": "917 Thalia St",
    "address_councildis": "B",
    "status": "Assigned to Contractor",
    "contractor": "Richards Disposal",
    "rowid": "828051",
    "final_x": "3681183.92591",
    "final_y": "525116.528957",
    "longitude": "-90.06929142583014",
    "latitude": "29.937897878712683",
    "geocoded_column": {
      "latitude": "29.937897878712683",
      "longitude": "-90.06929142583014"
    }
  },
  {
    "service_request": "2021-828050",
    "request_type": "Trash/Recycling",
    "request_reason": "Replace Trash Cart",
    "date_created": "2021-09-30T16:17:44.000",
    "date_modified": "2021-09-30T16:17:44.000",
    "request_status": "Pending",
    "responsible_agency": "Department of Sanitation",
    "final_address": "1976 Mirabeau Ave",
    "address_councildis": "D",
    "status": "Assigned to Contractor",
    "contractor": "Metro Disposal",
    "rowid": "828050",
    "final_x": "3682277.69839",
    "final_y": "550496.520724",
    "longitude": "-90.0649513402242",
    "latitude": "30.007650835337788",
    "geocoded_column": {
      "latitude": "30.007650835337788",
      "longitude": "-90.0649513402242"
    }
  },
  {
    "service_request": "2021-828049",
    "request_type": "Trash/Recycling",
    "request_reason": "MIssed Recycling Pick-Up",
    "date_created": "2021-09-30T16:16:06.000",
    "date_modified": "2021-09-30T16:16:06.000",
    "request_status": "Pending",
    "responsible_agency": "Department of Sanitation",
    "final_address": "917 Thalia St",
    "address_councildis": "B",
    "status": "Assigned to Contractor",
    "contractor": "Richards Disposal",
    "rowid": "828049",
    "final_x": "3681183.92591",
    "final_y": "525116.528957",
    "longitude": "-90.06929142583014",
    "latitude": "29.937897878712683",
    "geocoded_column": {
      "latitude": "29.937897878712683",
      "longitude": "-90.06929142583014"
    }
  },
  {
    "service_request": "2021-828048",
    "request_type": "Property Maintenance",
    "request_reason": "Property Maintenance",
    "date_created": "2021-09-30T16:15:08.000",
    "date_modified": "2021-09-30T16:15:08.000",
    "request_status": "Pending",
    "responsible_agency": "Department of Code Enforcement",
    "final_address": "2001 Conti St",
    "address_councildis": "B",
    "status": "Pending",
    "rowid": "828048",
    "final_x": "3678226.50683",
    "final_y": "534433.019397",
    "longitude": "-90.07830608949355",
    "latitude": "29.96360448684487",
    "geocoded_column": {
      "latitude": "29.96360448684487",
      "longitude": "-90.07830608949355"
    }
  },
  {
    "service_request": "2021-828047",
    "request_type": "Trash/Recycling",
    "request_reason": "Missed Trash Pick-Up",
    "date_created": "2021-09-30T16:13:15.000",
    "date_modified": "2021-09-30T16:13:15.000",
    "request_status": "Pending",
    "responsible_agency": "Department of Sanitation",
    "final_address": "7731 Briarwood Dr",
    "address_councildis": "E",
    "status": "Assigned to Contractor",
    "contractor": "Metro Disposal",
    "rowid": "828047",
    "final_x": "3717170.55135",
    "final_y": "571443.72836",
    "longitude": "-89.95391930193396",
    "latitude": "30.064139016874286",
    "geocoded_column": {
      "latitude": "30.064139016874286",
      "longitude": "-89.95391930193396"
    }
  },
  {
    "service_request": "2021-828046",
    "request_type": "Trash/Recycling",
    "request_reason": "Repair Trash Cart",
    "date_created": "2021-09-30T16:07:49.000",
    "date_modified": "2021-09-30T16:07:50.000",
    "request_status": "Pending",
    "responsible_agency": "Department of Sanitation",
    "final_address": "4610 Camelot Dr",
    "address_councildis": "E",
    "status": "Assigned to Contractor",
    "contractor": "Metro Disposal",
    "rowid": "828046",
    "final_x": "3708382.50462",
    "final_y": "554784.71356",
    "longitude": "-89.98231967573038",
    "latitude": "30.0186213292772",
    "geocoded_column": {
      "latitude": "30.0186213292772",
      "longitude": "-89.98231967573038"
    }
  },
  {
    "service_request": "2021-828045",
    "request_type": "Traffic Signals/Signs/Striping/Streetlights",
    "request_reason": "Traffic Signal Malfunctioning/Damaged",
    "date_created": "2021-09-30T16:07:17.000",
    "date_modified": "2021-09-30T16:07:17.000",
    "request_status": "Pending",
    "responsible_agency": "Department of Public Works",
    "final_address": "ESPLANADE AVE & N BROAD ST",
    "address_councildis": "D",
    "status": "Pending",
    "rowid": "828045",
    "final_x": "3678205.46",
    "final_y": "538920.34",
    "longitude": "-90.07821733427264",
    "latitude": "29.975943718140513",
    "geocoded_column": {
      "latitude": "29.975943718140513",
      "longitude": "-90.07821733427264"
    }
  },
  {
    "service_request": "2021-828044",
    "request_type": "Property Maintenance",
    "request_reason": "Property Maintenance",
    "date_created": "2021-09-30T16:05:23.000",
    "date_modified": "2021-09-30T16:05:23.000",
    "request_status": "Pending",
    "responsible_agency": "Department of Code Enforcement",
    "final_address": "1301 S Derbigny St",
    "address_councildis": "B",
    "status": "Pending",
    "rowid": "828044",
    "final_x": "3675024.21384",
    "final_y": "528848.295616",
    "longitude": "-90.08861019143582",
    "latitude": "29.948344415377107",
    "geocoded_column": {
      "latitude": "29.948344415377107",
      "longitude": "-90.08861019143582"
    }
  },
  {
    "service_request": "2021-828043",
    "request_type": "Roads/Drainage",
    "request_reason": "Debris in Roadway",
    "date_created": "2021-09-30T16:05:07.000",
    "date_modified": "2021-09-30T16:05:07.000",
    "request_status": "Pending",
    "responsible_agency": "Department of Public Works",
    "final_address": "727 S Broad St",
    "address_councildis": "B",
    "status": "Pending",
    "rowid": "828043",
    "final_x": "3673650.613",
    "final_y": "533031.155908",
    "longitude": "-90.09280424050615",
    "latitude": "29.959886849571664",
    "geocoded_column": {
      "latitude": "29.959886849571664",
      "longitude": "-90.09280424050615"
    }
  },
  {
    "service_request": "2021-828042",
    "request_type": "Roads/Drainage",
    "request_reason": "Debris in Roadway",
    "date_created": "2021-09-30T16:03:18.000",
    "date_modified": "2021-09-30T16:03:18.000",
    "request_status": "Pending",
    "responsible_agency": "Department of Public Works",
    "final_address": "927 First St",
    "address_councildis": "B",
    "status": "Pending",
    "rowid": "828042",
    "final_x": "3678388.68418",
    "final_y": "521088.843833",
    "longitude": "-90.0782555185768",
    "latitude": "29.926907557795623",
    "geocoded_column": {
      "latitude": "29.926907557795623",
      "longitude": "-90.0782555185768"
    }
  },
  {
    "service_request": "2021-828041",
    "request_type": "Traffic Signals/Signs/Striping/Streetlights",
    "request_reason": "Traffic Signal Malfunctioning/Damaged",
    "date_created": "2021-09-30T16:02:16.000",
    "date_modified": "2021-09-30T16:02:16.000",
    "request_status": "Pending",
    "responsible_agency": "Department of Public Works",
    "final_address": "CLAIBORNE DR & N CARROLLTON AVE",
    "address_councildis": "A",
    "status": "Pending",
    "rowid": "828041",
    "final_x": "3674037.5",
    "final_y": "541573.88",
    "longitude": "-90.09129012597217",
    "latitude": "29.983364920264897",
    "geocoded_column": {
      "latitude": "29.983364920264897",
      "longitude": "-90.09129012597217"
    }
  },
  {
    "service_request": "2021-828040",
    "request_type": "Trash/Recycling",
    "request_reason": "Missed Trash Pick-Up",
    "date_created": "2021-09-30T16:01:48.000",
    "date_modified": "2021-09-30T16:01:49.000",
    "request_status": "Pending",
    "responsible_agency": "Department of Sanitation",
    "final_address": "723 Congress St",
    "address_councildis": "C",
    "status": "Assigned to Contractor",
    "contractor": "Metro Disposal",
    "rowid": "828040",
    "final_x": "3690422.74985",
    "final_y": "534252.714629",
    "longitude": "-90.03979817598672",
    "latitude": "29.962735764832598",
    "geocoded_column": {
      "latitude": "29.962735764832598",
      "longitude": "-90.03979817598672"
    }
  },
  {
    "service_request": "2021-828039",
    "request_type": "Trash/Recycling",
    "request_reason": "Missed Trash Pick-Up",
    "date_created": "2021-09-30T15:59:54.000",
    "date_modified": "2021-09-30T15:59:54.000",
    "request_status": "Pending",
    "responsible_agency": "Department of Sanitation",
    "final_address": "741 Navarre St",
    "address_councildis": "A",
    "status": "Assigned to Contractor",
    "contractor": "Metro Disposal",
    "rowid": "828039",
    "final_x": "3668643.71726",
    "final_y": "543876.248974",
    "longitude": "-90.10824881076562",
    "latitude": "29.98985530986403",
    "geocoded_column": {
      "latitude": "29.98985530986403",
      "longitude": "-90.10824881076562"
    }
  },
  {
    "service_request": "2021-828038",
    "request_type": "Trash/Recycling",
    "request_reason": "Missed Trash Pick-Up",
    "date_created": "2021-09-30T15:57:30.000",
    "date_modified": "2021-09-30T15:57:30.000",
    "request_status": "Pending",
    "responsible_agency": "Department of Sanitation",
    "final_address": "8722 Palmetto St",
    "address_councildis": "A",
    "status": "Assigned to Contractor",
    "contractor": "Richards Disposal",
    "rowid": "828038",
    "final_x": "3666363.99124",
    "final_y": "536658.297607",
    "longitude": "-90.11569215403738",
    "latitude": "29.970075193754784",
    "geocoded_column": {
      "latitude": "29.970075193754784",
      "longitude": "-90.11569215403738"
    }
  },
  {
    "service_request": "2021-828037",
    "request_type": "Trash/Recycling",
    "request_reason": "Missed Trash Pick-Up",
    "date_created": "2021-09-30T15:54:01.000",
    "date_modified": "2021-09-30T15:54:02.000",
    "request_status": "Pending",
    "responsible_agency": "Department of Sanitation",
    "final_address": "6770 Pontchartrain Blvd",
    "address_councildis": "A",
    "status": "Assigned to Contractor",
    "contractor": "Metro Disposal",
    "rowid": "828037",
    "final_x": "3666259.08129",
    "final_y": "553191.902231",
    "longitude": "-90.11546850207873",
    "latitude": "30.015540024927077",
    "geocoded_column": {
      "latitude": "30.015540024927077",
      "longitude": "-90.11546850207873"
    }
  },
  {
    "service_request": "2021-828036",
    "request_type": "Trash/Recycling",
    "request_reason": "Request a Large Item Pick Up",
    "date_created": "2021-09-30T15:52:48.000",
    "date_modified": "2021-09-30T15:52:49.000",
    "request_status": "Pending",
    "responsible_agency": "Department of Sanitation",
    "final_address": "2819 Bell St",
    "address_councildis": "A",
    "status": "Assigned to Contractor",
    "contractor": "Richards Disposal",
    "rowid": "828036",
    "final_x": "3677230.67099",
    "final_y": "539276.941066",
    "longitude": "-90.08128369317592",
    "latitude": "29.976953571978633",
    "geocoded_column": {
      "latitude": "29.976953571978633",
      "longitude": "-90.08128369317592"
    }
  },
  {
    "service_request": "2021-828035",
    "request_type": "Trash/Recycling",
    "request_reason": "MIssed Recycling Pick-Up",
    "date_created": "2021-09-30T15:48:49.000",
    "date_modified": "2021-09-30T15:48:50.000",
    "request_status": "Pending",
    "responsible_agency": "Department of Sanitation",
    "final_address": "5819 Clara St",
    "address_councildis": "A",
    "status": "Assigned to Contractor",
    "contractor": "Richards Disposal",
    "rowid": "828035",
    "final_x": "3667020.07021",
    "final_y": "525284.817533",
    "longitude": "-90.11400240611042",
    "latitude": "29.93878265380149",
    "geocoded_column": {
      "latitude": "29.93878265380149",
      "longitude": "-90.11400240611042"
    }
  },
  {
    "service_request": "2021-828034",
    "request_type": "Trash/Recycling",
    "request_reason": "Missed Trash Pick-Up",
    "date_created": "2021-09-30T15:41:02.000",
    "date_modified": "2021-09-30T15:41:03.000",
    "request_status": "Pending",
    "responsible_agency": "Department of Sanitation",
    "final_address": "4914 Marigny St",
    "address_councildis": "D",
    "status": "Assigned to Contractor",
    "contractor": "Metro Disposal",
    "rowid": "828034",
    "final_x": "3684325.94197",
    "final_y": "550889.921621",
    "longitude": "-90.05846652459319",
    "latitude": "30.008670043661358",
    "geocoded_column": {
      "latitude": "30.008670043661358",
      "longitude": "-90.05846652459319"
    }
  },
  {
    "service_request": "2021-828033",
    "request_type": "Roads/Drainage",
    "request_reason": "Alley Way",
    "date_created": "2021-09-30T15:39:42.000",
    "date_modified": "2021-09-30T15:39:42.000",
    "request_status": "Pending",
    "responsible_agency": "Department of Public Works",
    "final_address": "6127 Milne Blvd",
    "address_councildis": "A",
    "status": "Pending",
    "rowid": "828033",
    "final_x": "3667240.84564",
    "final_y": "548354.72725",
    "longitude": "-90.11252939768987",
    "latitude": "30.00221075355806",
    "geocoded_column": {
      "latitude": "30.00221075355806",
      "longitude": "-90.11252939768987"
    }
  },
  {
    "service_request": "2021-828032",
    "request_type": "Trash/Recycling",
    "request_reason": "Missed Trash Pick-Up",
    "date_created": "2021-09-30T15:38:55.000",
    "date_modified": "2021-09-30T15:38:55.000",
    "request_status": "Pending",
    "responsible_agency": "Department of Sanitation",
    "final_address": "1806 Frenchmen St",
    "address_councildis": "D",
    "status": "Assigned to Contractor",
    "contractor": "Metro Disposal",
    "rowid": "828032",
    "final_x": "3684334.61762",
    "final_y": "538913.167178",
    "longitude": "-90.05885997735733",
    "latitude": "29.975737968889618",
    "geocoded_column": {
      "latitude": "29.975737968889618",
      "longitude": "-90.05885997735733"
    }
  },
  {
    "service_request": "2021-828031",
    "request_type": "Trash/Recycling",
    "request_reason": "Missed Trash Pick-Up",
    "date_created": "2021-09-30T15:38:17.000",
    "date_modified": "2021-09-30T15:38:18.000",
    "request_status": "Pending",
    "responsible_agency": "Department of Sanitation",
    "final_address": "6944 Pontchartrain Blvd",
    "address_councildis": "A",
    "status": "Assigned to Contractor",
    "contractor": "Metro Disposal",
    "rowid": "828031",
    "final_x": "3666384.15482",
    "final_y": "554032.939736",
    "longitude": "-90.11504507255154",
    "latitude": "30.017848926446984",
    "geocoded_column": {
      "latitude": "30.017848926446984",
      "longitude": "-90.11504507255154"
    }
  },
  {
    "service_request": "2021-828030",
    "request_type": "Parks & Parkways",
    "request_reason": "Request Tree Service (Right of Way/Public Property)",
    "date_created": "2021-09-30T15:37:50.000",
    "date_modified": "2021-09-30T15:37:50.000",
    "request_status": "Pending",
    "responsible_agency": "Department of Parks & Parkway",
    "final_address": "4938 Wright Rd",
    "address_councildis": "E",
    "status": "Pending",
    "rowid": "828030",
    "final_x": "3716482.67871",
    "final_y": "557847.070875",
    "longitude": "-89.95661010049872",
    "latitude": "30.0267765024358",
    "geocoded_column": {
      "latitude": "30.0267765024358",
      "longitude": "-89.95661010049872"
    }
  },
  {
    "service_request": "2021-828029",
    "request_type": "Trash/Recycling",
    "request_reason": "Replace Trash Cart",
    "date_created": "2021-09-30T15:31:53.000",
    "date_modified": "2021-09-30T15:31:54.000",
    "request_status": "Pending",
    "responsible_agency": "Department of Sanitation",
    "final_address": "1322 Elysian Fields Ave",
    "address_councildis": "C",
    "status": "Assigned to Contractor",
    "contractor": "Metro Disposal",
    "rowid": "828029",
    "final_x": "3684767.65193",
    "final_y": "537230.36628",
    "longitude": "-90.05755151045871",
    "latitude": "29.971097602699864",
    "geocoded_column": {
      "latitude": "29.971097602699864",
      "longitude": "-90.05755151045871"
    }
  },
  {
    "service_request": "2021-828028",
    "request_type": "Trash/Recycling",
    "request_reason": "Missed Trash Pick-Up",
    "date_created": "2021-09-30T15:30:41.000",
    "date_modified": "2021-09-30T15:30:41.000",
    "request_status": "Pending",
    "responsible_agency": "Department of Sanitation",
    "final_address": "1322 Elysian Fields Ave",
    "address_councildis": "C",
    "status": "Assigned to Contractor",
    "contractor": "Metro Disposal",
    "rowid": "828028",
    "final_x": "3684767.65193",
    "final_y": "537230.36628",
    "longitude": "-90.05755151045871",
    "latitude": "29.971097602699864",
    "geocoded_column": {
      "latitude": "29.971097602699864",
      "longitude": "-90.05755151045871"
    }
  },
  {
    "service_request": "2021-828027",
    "request_type": "Property Maintenance",
    "request_reason": "Property Maintenance",
    "date_created": "2021-09-30T15:30:01.000",
    "date_modified": "2021-09-30T15:30:01.000",
    "request_status": "Pending",
    "responsible_agency": "Department of Code Enforcement",
    "final_address": "622 Washington Ave",
    "address_councildis": "B",
    "status": "Pending",
    "rowid": "828027",
    "final_x": "3677878.26523",
    "final_y": "519485.526199",
    "longitude": "-90.07992214087376",
    "latitude": "29.922514317836022",
    "geocoded_column": {
      "latitude": "29.922514317836022",
      "longitude": "-90.07992214087376"
    }
  },
  {
    "service_request": "2021-828026",
    "request_type": "Trash/Recycling",
    "request_reason": "Order Trash Cart",
    "date_created": "2021-09-30T15:28:46.000",
    "date_modified": "2021-09-30T15:28:47.000",
    "request_status": "Pending",
    "responsible_agency": "Department of Sanitation",
    "final_address": "1637 Seventh St",
    "address_councildis": "B",
    "status": "Assigned to Contractor",
    "contractor": "Richards Disposal",
    "rowid": "828026",
    "final_x": "3675086.31835",
    "final_y": "522376.093562",
    "longitude": "-90.08863608639302",
    "latitude": "29.930546125664993",
    "geocoded_column": {
      "latitude": "29.930546125664993",
      "longitude": "-90.08863608639302"
    }
  },
  {
    "service_request": "2021-828025",
    "request_type": "Trash/Recycling",
    "request_reason": "Order Recycling Cart",
    "date_created": "2021-09-30T15:28:06.000",
    "date_modified": "2021-09-30T15:28:06.000",
    "request_status": "Pending",
    "responsible_agency": "Department of Sanitation",
    "final_address": "1637 Seventh St",
    "address_councildis": "B",
    "status": "Pending",
    "rowid": "828025",
    "final_x": "3675086.31835",
    "final_y": "522376.093562",
    "longitude": "-90.08863608639302",
    "latitude": "29.930546125664993",
    "geocoded_column": {
      "latitude": "29.930546125664993",
      "longitude": "-90.08863608639302"
    }
  },
  {
    "service_request": "2021-828023",
    "request_type": "Property Maintenance",
    "request_reason": "Property Maintenance",
    "date_created": "2021-09-30T15:25:28.000",
    "date_modified": "2021-09-30T15:25:28.000",
    "request_status": "Pending",
    "responsible_agency": "Department of Code Enforcement",
    "final_address": "3318 N Derbigny St",
    "address_councildis": "D",
    "status": "Pending",
    "rowid": "828023",
    "final_x": "3690524.82953",
    "final_y": "537887.351945",
    "longitude": "-90.03934620629461",
    "latitude": "29.972726570939994",
    "geocoded_column": {
      "latitude": "29.972726570939994",
      "longitude": "-90.03934620629461"
    }
  },
  {
    "service_request": "2021-828022",
    "request_type": "Traffic Signals/Signs/Striping/Streetlights",
    "request_reason": "Street Light Outage/Malfunction",
    "date_created": "2021-09-30T15:24:50.000",
    "date_modified": "2021-09-30T15:24:50.000",
    "request_status": "Pending",
    "responsible_agency": "Department of Public Works",
    "final_address": "4421 Chestnut St",
    "address_councildis": "B",
    "status": "Pending",
    "contractor": "Royal Engineering",
    "rowid": "828022",
    "final_x": "3670748.5026",
    "final_y": "519537.626359",
    "longitude": "-90.10242621631632",
    "latitude": "29.92287010140258",
    "geocoded_column": {
      "latitude": "29.92287010140258",
      "longitude": "-90.10242621631632"
    }
  },
  {
    "service_request": "2021-828021",
    "request_type": "Trash/Recycling",
    "request_reason": "Illegal Dumping",
    "date_created": "2021-09-30T15:24:15.000",
    "date_modified": "2021-09-30T15:24:15.000",
    "request_status": "Pending",
    "responsible_agency": "Department of Sanitation",
    "final_address": "3318 N Derbigny St",
    "address_councildis": "D",
    "status": "Pending",
    "rowid": "828021",
    "final_x": "3690524.82953",
    "final_y": "537887.351945",
    "longitude": "-90.03934620629461",
    "latitude": "29.972726570939994",
    "geocoded_column": {
      "latitude": "29.972726570939994",
      "longitude": "-90.03934620629461"
    }
  },
  {
    "service_request": "2021-828020",
    "request_type": "Trash/Recycling",
    "request_reason": "Replace Trash Cart",
    "date_created": "2021-09-30T15:22:15.000",
    "date_modified": "2021-09-30T15:22:15.000",
    "request_status": "Pending",
    "responsible_agency": "Department of Sanitation",
    "final_address": "8415 Pritchard Pl",
    "address_councildis": "A",
    "status": "Assigned to Contractor",
    "contractor": "Richards Disposal",
    "rowid": "828020",
    "final_x": "3665192.35028",
    "final_y": "533728.181701",
    "longitude": "-90.11949035823164",
    "latitude": "29.96205252428003",
    "geocoded_column": {
      "latitude": "29.96205252428003",
      "longitude": "-90.11949035823164"
    }
  },
  {
    "service_request": "2021-828019",
    "request_type": "Trash/Recycling",
    "request_reason": "Order Recycling Cart",
    "date_created": "2021-09-30T15:20:58.000",
    "date_modified": "2021-09-30T15:20:58.000",
    "request_status": "Pending",
    "responsible_agency": "Department of Sanitation",
    "final_address": "319 Leboeuf St",
    "address_councildis": "C",
    "status": "Pending",
    "rowid": "828019",
    "final_x": "3689827.19273",
    "final_y": "530521.712514",
    "longitude": "-90.04181166082695",
    "latitude": "29.952495276581047",
    "geocoded_column": {
      "latitude": "29.952495276581047",
      "longitude": "-90.04181166082695"
    }
  },
  {
    "service_request": "2021-828018",
    "request_type": "Safety & Permits",
    "request_reason": "Licenses & Permits",
    "date_created": "2021-09-30T15:20:40.000",
    "date_modified": "2021-09-30T15:29:02.000",
    "request_status": "Pending",
    "responsible_agency": "Safety and Permits",
    "final_address": "9027 Green St, New Orleans, Louisiana, 70118",
    "address_councildis": "A",
    "rowid": "828018",
    "final_x": "3660669.9024",
    "final_y": "531985.616643",
    "longitude": "-90.13382924155408",
    "latitude": "29.957391991714896",
    "geocoded_column": {
      "latitude": "29.957391991714896",
      "longitude": "-90.13382924155408"
    }
  },
  {
    "service_request": "2021-828017",
    "request_type": "Trash/Recycling",
    "request_reason": "Order Trash Cart",
    "date_created": "2021-09-30T15:20:26.000",
    "date_modified": "2021-09-30T15:20:26.000",
    "request_status": "Pending",
    "responsible_agency": "Department of Sanitation",
    "final_address": "1480 N Rocheblave St, New Orleans, Louisiana, 70119",
    "address_councildis": "D",
    "status": "Assigned to Contractor",
    "contractor": "Metro Disposal",
    "rowid": "828017",
    "final_x": "3679496.40898",
    "final_y": "538869.561417",
    "longitude": "-90.07414190958684",
    "latitude": "29.97576514956594",
    "geocoded_column": {
      "latitude": "29.97576514956594",
      "longitude": "-90.07414190958684"
    }
  },
  {
    "service_request": "2021-828016",
    "request_type": "Trash/Recycling",
    "request_reason": "Request a Large Item Pick Up",
    "date_created": "2021-09-30T15:20:17.000",
    "date_modified": "2021-09-30T15:27:42.000",
    "request_status": "Pending",
    "responsible_agency": "Department of Sanitation",
    "final_address": "1830 Moss St, New Orleans, Louisiana, 70119",
    "address_councildis": "A",
    "status": "Assigned to Contractor",
    "contractor": "Metro Disposal",
    "rowid": "828016",
    "final_x": "3675280.21685",
    "final_y": "543286.24283",
    "longitude": "-90.08730615854692",
    "latitude": "29.988036227981738",
    "geocoded_column": {
      "latitude": "29.988036227981738",
      "longitude": "-90.08730615854692"
    }
  },
  {
    "service_request": "2021-828015",
    "request_type": "Trash/Recycling",
    "request_reason": "Order Trash Cart",
    "date_created": "2021-09-30T15:19:23.000",
    "date_modified": "2021-09-30T15:19:24.000",
    "request_status": "Pending",
    "responsible_agency": "Department of Sanitation",
    "final_address": "319 Leboeuf St",
    "address_councildis": "C",
    "status": "Assigned to Contractor",
    "contractor": "Richards Disposal",
    "rowid": "828015",
    "final_x": "3689827.19273",
    "final_y": "530521.712514",
    "longitude": "-90.04181166082695",
    "latitude": "29.952495276581047",
    "geocoded_column": {
      "latitude": "29.952495276581047",
      "longitude": "-90.04181166082695"
    }
  },
  {
    "service_request": "2021-828014",
    "request_type": "Property Maintenance",
    "request_reason": "Property Maintenance",
    "date_created": "2021-09-30T15:18:52.000",
    "date_modified": "2021-09-30T15:18:52.000",
    "request_status": "Pending",
    "responsible_agency": "Department of Code Enforcement",
    "final_address": "1272 Milton St",
    "address_councildis": "D",
    "status": "Pending",
    "rowid": "828014",
    "final_x": "3677253.6189",
    "final_y": "546024.442768",
    "longitude": "-90.0809782986677",
    "latitude": "29.995506165836623",
    "geocoded_column": {
      "latitude": "29.995506165836623",
      "longitude": "-90.0809782986677"
    }
  },
  {
    "service_request": "2021-828013",
    "request_type": "Abandoned Vehicles",
    "request_reason": "Abandoned/Junk Vehicles",
    "date_created": "2021-09-30T15:15:04.000",
    "date_modified": "2021-09-30T15:16:22.000",
    "request_status": "Pending",
    "responsible_agency": "Department of Public Works",
    "final_address": "1619 Broadway St",
    "address_councildis": "A",
    "status": "Pending",
    "rowid": "828013",
    "final_x": "3665096.99981",
    "final_y": "527775.946623",
    "longitude": "-90.11999049753082",
    "latitude": "29.945688589513512",
    "geocoded_column": {
      "latitude": "29.945688589513512",
      "longitude": "-90.11999049753082"
    }
  },
  {
    "service_request": "2021-828011",
    "request_type": "Traffic Signals/Signs/Striping/Streetlights",
    "request_reason": "Traffic Sign Missing/Damaged",
    "date_created": "2021-09-30T15:12:37.000",
    "date_modified": "2021-09-30T15:12:37.000",
    "request_status": "Pending",
    "responsible_agency": "Department of Public Works",
    "final_address": "4550 America St",
    "address_councildis": "E",
    "status": "Pending",
    "rowid": "828011",
    "final_x": "3699767.69034",
    "final_y": "554048.908632",
    "longitude": "-90.00956606012886",
    "latitude": "30.016874622276564",
    "geocoded_column": {
      "latitude": "30.016874622276564",
      "longitude": "-90.00956606012886"
    }
  },
  {
    "service_request": "2021-828010",
    "request_type": "Trash/Recycling",
    "request_reason": "Missed Trash Pick-Up",
    "date_created": "2021-09-30T15:12:15.000",
    "date_modified": "2021-09-30T15:12:15.000",
    "request_status": "Pending",
    "responsible_agency": "Department of Sanitation",
    "final_address": "1503 Valence St",
    "address_councildis": "B",
    "status": "Assigned to Contractor",
    "contractor": "Richards Disposal",
    "rowid": "828010",
    "final_x": "3669815.40481",
    "final_y": "520519.79692",
    "longitude": "-90.10533842228018",
    "latitude": "29.92559828720276",
    "geocoded_column": {
      "latitude": "29.92559828720276",
      "longitude": "-90.10533842228018"
    }
  },
  {
    "service_request": "2021-828009",
    "request_type": "Trash/Recycling",
    "request_reason": "MIssed Recycling Pick-Up",
    "date_created": "2021-09-30T15:09:41.000",
    "date_modified": "2021-09-30T15:09:41.000",
    "request_status": "Pending",
    "responsible_agency": "Department of Sanitation",
    "final_address": "4556 America St",
    "address_councildis": "E",
    "status": "Assigned to Contractor",
    "contractor": "Metro Disposal",
    "rowid": "828009",
    "final_x": "3699764.49277",
    "final_y": "554090.732696",
    "longitude": "-90.00957463640167",
    "latitude": "30.016989724138554",
    "geocoded_column": {
      "latitude": "30.016989724138554",
      "longitude": "-90.00957463640167"
    }
  },
  {
    "service_request": "2021-828008",
    "request_type": "Trash/Recycling",
    "request_reason": "Replace Trash Cart",
    "date_created": "2021-09-30T15:09:14.000",
    "date_modified": "2021-09-30T15:09:15.000",
    "request_status": "Pending",
    "responsible_agency": "Department of Sanitation",
    "final_address": "7415 Garfield St",
    "address_councildis": "A",
    "status": "Assigned to Contractor",
    "contractor": "Richards Disposal",
    "rowid": "828008",
    "final_x": "3661492.73741",
    "final_y": "523809.210811",
    "longitude": "-90.13150176486327",
    "latitude": "29.934885775298355",
    "geocoded_column": {
      "latitude": "29.934885775298355",
      "longitude": "-90.13150176486327"
    }
  },
  {
    "service_request": "2021-828007",
    "request_type": "Parks & Parkways",
    "request_reason": "Request Tree Service (Right of Way/Public Property)",
    "date_created": "2021-09-30T15:08:48.000",
    "date_modified": "2021-09-30T15:08:48.000",
    "request_status": "Pending",
    "responsible_agency": "Department of Parks & Parkway",
    "final_address": "5649 Marcia Ave",
    "address_councildis": "A",
    "status": "Pending",
    "rowid": "828007",
    "final_x": "3664969.7593",
    "final_y": "545272.566799",
    "longitude": "-90.11980718042913",
    "latitude": "29.993802205023886",
    "geocoded_column": {
      "latitude": "29.993802205023886",
      "longitude": "-90.11980718042913"
    }
  },
  {
    "service_request": "2021-828006",
    "request_type": "Trash/Recycling",
    "request_reason": "Missed Trash Pick-Up",
    "date_created": "2021-09-30T15:07:57.000",
    "date_modified": "2021-09-30T15:07:57.000",
    "request_status": "Pending",
    "responsible_agency": "Department of Sanitation",
    "final_address": "4556 America St",
    "address_councildis": "E",
    "status": "Assigned to Contractor",
    "contractor": "Metro Disposal",
    "rowid": "828006",
    "final_x": "3699764.49277",
    "final_y": "554090.732696",
    "longitude": "-90.00957463640167",
    "latitude": "30.016989724138554",
    "geocoded_column": {
      "latitude": "30.016989724138554",
      "longitude": "-90.00957463640167"
    }
  },
  {
    "service_request": "2021-828005",
    "request_type": "Trash/Recycling",
    "request_reason": "Replace Trash Cart",
    "date_created": "2021-09-30T15:07:16.000",
    "date_modified": "2021-09-30T15:07:17.000",
    "request_status": "Pending",
    "responsible_agency": "Department of Sanitation",
    "final_address": "8502 Chase St",
    "address_councildis": "E",
    "status": "Assigned to Contractor",
    "contractor": "Metro Disposal",
    "rowid": "828005",
    "final_x": "3703385.21668",
    "final_y": "563248.86352",
    "longitude": "-89.99779746942464",
    "latitude": "30.04205551309708",
    "geocoded_column": {
      "latitude": "30.04205551309708",
      "longitude": "-89.99779746942464"
    }
  },
  {
    "service_request": "2021-828004",
    "request_type": "Trash/Recycling",
    "request_reason": "Missed Trash Pick-Up",
    "date_created": "2021-09-30T15:06:22.000",
    "date_modified": "2021-09-30T15:06:23.000",
    "request_status": "Pending",
    "responsible_agency": "Department of Sanitation",
    "final_address": "1400 Lowerline St",
    "address_councildis": "A",
    "status": "Assigned to Contractor",
    "contractor": "Richards Disposal",
    "rowid": "828004",
    "final_x": "3664034.56512",
    "final_y": "527517.650303",
    "longitude": "-90.12335358093279",
    "latitude": "29.945009249212724",
    "geocoded_column": {
      "latitude": "29.945009249212724",
      "longitude": "-90.12335358093279"
    }
  },
  {
    "service_request": "2021-828003",
    "request_type": "Trash/Recycling",
    "request_reason": "Replace Trash Cart",
    "date_created": "2021-09-30T15:01:52.000",
    "date_modified": "2021-09-30T15:04:15.000",
    "request_status": "Pending",
    "responsible_agency": "Department of Sanitation",
    "final_address": "7661 Branch Dr",
    "address_councildis": "E",
    "status": "Assigned to Contractor",
    "contractor": "Metro Disposal",
    "rowid": "828003",
    "final_x": "3714713.80882",
    "final_y": "568832.764901",
    "longitude": "-89.96178396955877",
    "latitude": "30.057041037461506",
    "geocoded_column": {
      "latitude": "30.057041037461506",
      "longitude": "-89.96178396955877"
    }
  },
  {
    "service_request": "2021-828000",
    "request_type": "Trash/Recycling",
    "request_reason": "Missed Trash Pick-Up",
    "date_created": "2021-09-30T14:55:03.000",
    "date_modified": "2021-09-30T14:55:04.000",
    "request_status": "Pending",
    "responsible_agency": "Department of Sanitation",
    "final_address": "2120 N Prieur St",
    "address_councildis": "D",
    "status": "Assigned to Contractor",
    "contractor": "Metro Disposal",
    "rowid": "828000",
    "final_x": "3684543.04405",
    "final_y": "539197.780746",
    "longitude": "-90.05819170606289",
    "latitude": "29.97651418064828",
    "geocoded_column": {
      "latitude": "29.97651418064828",
      "longitude": "-90.05819170606289"
    }
  },
  {
    "service_request": "2021-827999",
    "request_type": "Trash/Recycling",
    "request_reason": "Missed Trash Pick-Up",
    "date_created": "2021-09-30T14:53:18.000",
    "date_modified": "2021-09-30T14:53:19.000",
    "request_status": "Pending",
    "responsible_agency": "Department of Sanitation",
    "final_address": "214 S Genois St",
    "address_councildis": "B",
    "status": "Assigned to Contractor",
    "contractor": "Richards Disposal",
    "rowid": "827999",
    "final_x": "3672280.18471",
    "final_y": "536693.426759",
    "longitude": "-90.09700697993073",
    "latitude": "29.969997592034613",
    "geocoded_column": {
      "latitude": "29.969997592034613",
      "longitude": "-90.09700697993073"
    }
  },
  {
    "service_request": "2021-827998",
    "request_type": "Parks & Parkways",
    "request_reason": "Request Tree Service (Right of Way/Public Property)",
    "date_created": "2021-09-30T14:50:55.000",
    "date_modified": "2021-09-30T14:50:55.000",
    "request_status": "Pending",
    "responsible_agency": "Department of Parks & Parkway",
    "final_address": "7552 Mackenzie St",
    "address_councildis": "E",
    "status": "Pending",
    "rowid": "827998",
    "final_x": "3711289.06962",
    "final_y": "565632.409634",
    "longitude": "-89.97272908661833",
    "latitude": "30.048353631871553",
    "geocoded_column": {
      "latitude": "30.048353631871553",
      "longitude": "-89.97272908661833"
    }
  },
  {
    "service_request": "2021-827997",
    "request_type": "Trash/Recycling",
    "request_reason": "Order Trash Cart",
    "date_created": "2021-09-30T14:50:04.000",
    "date_modified": "2021-09-30T14:50:05.000",
    "request_status": "Pending",
    "responsible_agency": "Department of Sanitation",
    "final_address": "2753 Orleans Ave",
    "address_councildis": "A",
    "status": "Assigned to Contractor",
    "contractor": "Richards Disposal",
    "rowid": "827997",
    "final_x": "3676440.72789",
    "final_y": "537345.421768",
    "longitude": "-90.08384510925013",
    "latitude": "29.971666265328352",
    "geocoded_column": {
      "latitude": "29.971666265328352",
      "longitude": "-90.08384510925013"
    }
  },
  {
    "service_request": "2021-827996",
    "request_type": "Property Maintenance",
    "request_reason": "Property Maintenance",
    "date_created": "2021-09-30T14:49:51.000",
    "date_modified": "2021-09-30T14:49:51.000",
    "request_status": "Pending",
    "responsible_agency": "Department of Code Enforcement",
    "final_address": "5330 St Claude Ave",
    "address_councildis": "E",
    "status": "Pending",
    "rowid": "827996",
    "final_x": "3696945.51965",
    "final_y": "533988.129861",
    "longitude": "-90.01920981864416",
    "latitude": "29.96180416676959",
    "geocoded_column": {
      "latitude": "29.96180416676959",
      "longitude": "-90.01920981864416"
    }
  },
  {
    "service_request": "2021-827993",
    "request_type": "Property Maintenance",
    "request_reason": "Property Maintenance",
    "date_created": "2021-09-30T14:47:16.000",
    "date_modified": "2021-09-30T14:47:16.000",
    "request_status": "Pending",
    "responsible_agency": "Department of Code Enforcement",
    "final_address": "5200 St Claude Ave",
    "address_councildis": "E",
    "status": "Pending",
    "rowid": "827993",
    "final_x": "3696551.15568",
    "final_y": "534076.914565",
    "longitude": "-90.02045193770105",
    "latitude": "29.962060723542958",
    "geocoded_column": {
      "latitude": "29.962060723542958",
      "longitude": "-90.02045193770105"
    }
  },
  {
    "service_request": "2021-827992",
    "request_type": "Traffic Signals/Signs/Striping/Streetlights",
    "request_reason": "Traffic Sign Missing/Damaged",
    "date_created": "2021-09-30T14:44:48.000",
    "date_modified": "2021-09-30T14:44:48.000",
    "request_status": "Pending",
    "responsible_agency": "Department of Public Works",
    "final_address": "ANNETTE ST & N VILLERE ST",
    "address_councildis": "C",
    "status": "Pending",
    "rowid": "827992",
    "final_x": "3683058.3",
    "final_y": "537255.58",
    "longitude": "-90.06294898313618",
    "latitude": "29.971219152335177",
    "geocoded_column": {
      "latitude": "29.971219152335177",
      "longitude": "-90.06294898313618"
    }
  },
  {
    "service_request": "2021-827991",
    "request_type": "Trash/Recycling",
    "request_reason": "Request a Large Item Pick Up",
    "date_created": "2021-09-30T14:42:17.000",
    "date_modified": "2021-09-30T14:42:17.000",
    "request_status": "Pending",
    "responsible_agency": "Department of Sanitation",
    "final_address": "2652 Governor Nicholls St",
    "address_councildis": "D",
    "status": "Assigned to Contractor",
    "contractor": "Richards Disposal",
    "rowid": "827991",
    "final_x": "3677883.41371",
    "final_y": "538307.817801",
    "longitude": "-90.0792556218831",
    "latitude": "29.97426918836983",
    "geocoded_column": {
      "latitude": "29.97426918836983",
      "longitude": "-90.0792556218831"
    }
  },
  {
    "service_request": "2021-827990",
    "request_type": "Trash/Recycling",
    "request_reason": "Order Recycling Cart",
    "date_created": "2021-09-30T14:40:49.000",
    "date_modified": "2021-09-30T14:40:49.000",
    "request_status": "Pending",
    "responsible_agency": "Department of Sanitation",
    "final_address": "1035 Mazant St",
    "address_councildis": "C",
    "status": "Pending",
    "rowid": "827990",
    "final_x": "3692092.92477",
    "final_y": "535033.64167",
    "longitude": "-90.03449604989653",
    "latitude": "29.96483109067288",
    "geocoded_column": {
      "latitude": "29.96483109067288",
      "longitude": "-90.03449604989653"
    }
  },
  {
    "service_request": "2021-827987",
    "request_type": "Abandoned Vehicles",
    "request_reason": "Abandoned/Junk Vehicles",
    "date_created": "2021-09-30T14:39:32.000",
    "date_modified": "2021-09-30T14:40:30.000",
    "request_status": "Pending",
    "responsible_agency": "Department of Public Works",
    "final_address": "48 Gordon Dr",
    "address_councildis": "D",
    "status": "Pending",
    "rowid": "827987",
    "final_x": "3689750.7432",
    "final_y": "544161.860366",
    "longitude": "-90.04156750977256",
    "latitude": "29.990003247569252",
    "geocoded_column": {
      "latitude": "29.990003247569252",
      "longitude": "-90.04156750977256"
    }
  },
  {
    "service_request": "2021-827986",
    "request_type": "Traffic Signals/Signs/Striping/Streetlights",
    "request_reason": "Street Light Outage/Malfunction",
    "date_created": "2021-09-30T14:37:15.000",
    "date_modified": "2021-09-30T14:37:15.000",
    "request_status": "Pending",
    "responsible_agency": "Department of Public Works",
    "final_address": "5444 Sutton Pl",
    "address_councildis": "C",
    "status": "Pending",
    "contractor": "Royal Engineering",
    "rowid": "827986",
    "final_x": "3704252.09502",
    "final_y": "518562.379063",
    "longitude": "-89.99670523182014",
    "latitude": "29.919156363438795",
    "geocoded_column": {
      "latitude": "29.919156363438795",
      "longitude": "-89.99670523182014"
    }
  },
  {
    "service_request": "2021-827985",
    "request_type": "Trash/Recycling",
    "request_reason": "Replace Trash Cart",
    "date_created": "2021-09-30T14:36:39.000",
    "date_modified": "2021-09-30T14:36:39.000",
    "request_status": "Pending",
    "responsible_agency": "Department of Sanitation",
    "final_address": "4955 Mandeville St",
    "address_councildis": "D",
    "status": "Assigned to Contractor",
    "contractor": "Metro Disposal",
    "rowid": "827985",
    "final_x": "3684695.37634",
    "final_y": "551191.722325",
    "longitude": "-90.05728874561595",
    "latitude": "30.009488578755946",
    "geocoded_column": {
      "latitude": "30.009488578755946",
      "longitude": "-90.05728874561595"
    }
  },
  {
    "service_request": "2021-827982",
    "request_type": "Traffic Signals/Signs/Striping/Streetlights",
    "request_reason": "Street Light Outage/Malfunction",
    "date_created": "2021-09-30T14:32:27.000",
    "date_modified": "2021-09-30T14:32:27.000",
    "request_status": "Pending",
    "responsible_agency": "Department of Public Works",
    "final_address": "4948 Rhodes Dr",
    "address_councildis": "E",
    "status": "Pending",
    "contractor": "Royal Engineering",
    "rowid": "827982",
    "final_x": "3702363.29175",
    "final_y": "555474.920089",
    "longitude": "-90.00131272400237",
    "latitude": "30.02071290052674",
    "geocoded_column": {
      "latitude": "30.02071290052674",
      "longitude": "-90.00131272400237"
    }
  },
  {
    "service_request": "2021-827981",
    "request_type": "Trash/Recycling",
    "request_reason": "Replace Trash Cart",
    "date_created": "2021-09-30T14:30:49.000",
    "date_modified": "2021-09-30T14:30:49.000",
    "request_status": "Pending",
    "responsible_agency": "Department of Sanitation",
    "final_address": "2110 Comet St",
    "address_councildis": "C",
    "status": "Assigned to Contractor",
    "contractor": "Richards Disposal",
    "rowid": "827981",
    "final_x": "3700272.38877",
    "final_y": "523295.481915",
    "longitude": "-90.00909439451411",
    "latitude": "29.9322978167501",
    "geocoded_column": {
      "latitude": "29.9322978167501",
      "longitude": "-90.00909439451411"
    }
  },
  {
    "service_request": "2021-827979",
    "request_type": "COVID-19",
    "request_reason": "COVID-19 Business Non-Compliance",
    "date_created": "2021-09-30T14:26:11.000",
    "date_modified": "2021-09-30T14:26:14.000",
    "request_status": "Pending",
    "responsible_agency": "Safety and Permits",
    "final_address": "509 Canal St",
    "address_councildis": "C",
    "status": "Pending",
    "rowid": "827979",
    "final_x": "3681788.10856",
    "final_y": "530334.46349",
    "longitude": "-90.06720194407475",
    "latitude": "29.952227108122596",
    "geocoded_column": {
      "latitude": "29.952227108122596",
      "longitude": "-90.06720194407475"
    }
  },
  {
    "service_request": "2021-827977",
    "request_type": "Trash/Recycling",
    "request_reason": "Request a Large Item Pick Up",
    "date_created": "2021-09-30T14:23:52.000",
    "date_modified": "2021-09-30T14:23:53.000",
    "request_status": "Pending",
    "responsible_agency": "Department of Sanitation",
    "final_address": "3909 Piedmont Dr",
    "address_councildis": "D",
    "status": "Assigned to Contractor",
    "contractor": "Metro Disposal",
    "rowid": "827977",
    "final_x": "3685512.1407",
    "final_y": "547033.726737",
    "longitude": "-90.05485487857679",
    "latitude": "29.998030560494815",
    "geocoded_column": {
      "latitude": "29.998030560494815",
      "longitude": "-90.05485487857679"
    }
  },
  {
    "service_request": "2021-827976",
    "request_type": "Trash/Recycling",
    "request_reason": "Order Recycling Cart",
    "date_created": "2021-09-30T14:21:31.000",
    "date_modified": "2021-09-30T14:21:31.000",
    "request_status": "Pending",
    "responsible_agency": "Department of Sanitation",
    "final_address": "3631 Iberville St",
    "address_councildis": "B",
    "status": "Pending",
    "rowid": "827976",
    "final_x": "3672679.40513",
    "final_y": "537722.5298",
    "longitude": "-90.09571109655566",
    "latitude": "29.972815427481287",
    "geocoded_column": {
      "latitude": "29.972815427481287",
      "longitude": "-90.09571109655566"
    }
  },
  {
    "service_request": "2021-827975",
    "request_type": "Trash/Recycling",
    "request_reason": "Illegal Dumping",
    "date_created": "2021-09-30T14:21:05.000",
    "date_modified": "2021-09-30T14:21:05.000",
    "request_status": "Pending",
    "responsible_agency": "Department of Sanitation",
    "final_address": "ALFRED ST & PRENTISS AVE",
    "address_councildis": "D",
    "status": "Pending",
    "rowid": "827975",
    "final_x": "3677230.9",
    "final_y": "553336.48",
    "longitude": "-90.08079757730805",
    "latitude": "30.01561234948761",
    "geocoded_column": {
      "latitude": "30.01561234948761",
      "longitude": "-90.08079757730805"
    }
  },
  {
    "service_request": "2021-827973",
    "request_type": "Property Maintenance",
    "request_reason": "Property Maintenance",
    "date_created": "2021-09-30T14:18:23.000",
    "date_modified": "2021-09-30T14:18:23.000",
    "request_status": "Pending",
    "responsible_agency": "Department of Code Enforcement",
    "final_address": "3339 Allen St",
    "address_councildis": "D",
    "status": "Pending",
    "rowid": "827973",
    "final_x": "3682113.47791",
    "final_y": "544929.860943",
    "longitude": "-90.06566472553969",
    "latitude": "29.992349508345924",
    "geocoded_column": {
      "latitude": "29.992349508345924",
      "longitude": "-90.06566472553969"
    }
  },
  {
    "service_request": "2021-827972",
    "request_type": "Traffic Signals/Signs/Striping/Streetlights",
    "request_reason": "Street Light Outage/Malfunction",
    "date_created": "2021-09-30T14:15:19.000",
    "date_modified": "2021-09-30T14:15:20.000",
    "request_status": "Pending",
    "responsible_agency": "Department of Public Works",
    "final_address": "1926 Pleasure St",
    "address_councildis": "D",
    "status": "Pending",
    "contractor": "Royal Engineering",
    "rowid": "827972",
    "final_x": "3682279.78504",
    "final_y": "544928.907407",
    "longitude": "-90.06513942733544",
    "latitude": "29.992341826356057",
    "geocoded_column": {
      "latitude": "29.992341826356057",
      "longitude": "-90.06513942733544"
    }
  },
  {
    "service_request": "2021-827971",
    "request_type": "Roads/Drainage",
    "request_reason": "Street Flooding / Drainage",
    "date_created": "2021-09-30T14:14:07.000",
    "date_modified": "2021-09-30T14:14:07.000",
    "request_status": "Pending",
    "responsible_agency": "Department of Public Works",
    "final_address": "1534 Adams St",
    "address_councildis": "A",
    "status": "Pending",
    "rowid": "827971",
    "final_x": "3663917.26586",
    "final_y": "528391.012672",
    "longitude": "-90.12369482242971",
    "latitude": "29.947414120590413",
    "geocoded_column": {
      "latitude": "29.947414120590413",
      "longitude": "-90.12369482242971"
    }
  },