[
  {
    "service_request": "2023-1054759",
    "request_type": "Trash/Recycling",
    "request_reason": "Illegal Dumping",
    "date_created": "2023-12-09T01:53:05.000",
    "date_modified": "2023-12-09T01:53:05.000",
    "request_status": "Pending",
    "responsible_agency": "Department of Sanitation",
    "final_address": "3900 Amanda St",
    "address_councildis": "C",
    "status": "Pending",
    "rowid": "1054759",
    "final_x": "3710131.96069",
    "final_y": "516468.324661",
    "longitude": "-89.9782238419158",
    "latitude": "29.91320853947722",
    "geocoded_column": {
      "latitude": "29.91320853947722",
      "longitude": "-89.9782238419158"
    }
  },
  {
    "service_request": "2023-1054758",
    "request_type": "Abandoned Vehicles",
    "request_reason": "Abandoned/Junk Vehicles",
    "date_created": "2023-12-09T01:34:10.000",
    "date_modified": "2023-12-09T01:34:10.000",
    "request_status": "Pending",
    "responsible_agency": "Department of Public Works",
    "final_address": "2500 BLK Chartres St",
    "address_councildis": "C",
    "status": "Pending",
    "rowid": "1054758",
    "final_x": "3686462.92494",
    "final_y": "534618.064738",
    "longitude": "-90.05228985801219",
    "latitude": "29.963862673064476",
    "geocoded_column": {
      "latitude": "29.963862673064476",
      "longitude": "-90.05228985801219"
    }
  },
  {
    "service_request": "2023-1054757",
    "request_type": "Roads/Drainage",
    "request_reason": "Pothole",
    "date_created": "2023-12-08T22:55:06.000",
    "date_modified": "2023-12-08T22:55:06.000",
    "request_status": "Pending",
    "responsible_agency": "Department of Public Works",
    "final_address": "6028 Pitt St",
    "address_councildis": "A",
    "status": "Pending",
    "rowid": "1054757",
    "final_x": "3665031.61856",
    "final_y": "521153.923257",
    "longitude": "-90.12041824694218",
    "latitude": "29.927482037915954",
    "geocoded_column": {
      "latitude": "29.927482037915954",
      "longitude": "-90.12041824694218"
    }
  },
  {
    "service_request": "2023-1054756",
    "request_type": "Roads/Drainage",
    "request_reason": "Pothole",
    "date_created": "2023-12-08T22:50:47.000",
    "date_modified": "2023-12-08T22:50:47.000",
    "request_status": "Pending",
    "responsible_agency": "Department of Public Works",
    "final_address": "6060 Chestnut St",
    "address_councildis": "A",
    "status": "Pending",
    "rowid": "1054756",
    "final_x": "3664493.20845",
    "final_y": "519950.4654",
    "longitude": "-90.12215803894134",
    "latitude": "29.924188567075998",
    "geocoded_column": {
      "latitude": "29.924188567075998",
      "longitude": "-90.12215803894134"
    }
  },
  {
    "service_request": "2023-1054755",
    "request_type": "Trash/Recycling",
    "request_reason": "Damaged Caused By Contractor",
    "date_created": "2023-12-08T21:50:09.000",
    "date_modified": "2023-12-08T21:50:10.000",
    "request_status": "Pending",
    "responsible_agency": "Department of Sanitation",
    "final_address": "2033 Hyman Pl",
    "address_councildis": "C",
    "status": "Assigned to Contractor",
    "contractor": "Richards Disposal",
    "rowid": "1054755",
    "final_x": "3701067.94538",
    "final_y": "523364.382715",
    "longitude": "-90.00658039553645",
    "latitude": "29.93246196511939",
    "geocoded_column": {
      "latitude": "29.93246196511939",
      "longitude": "-90.00658039553645"
    }
  },
  {
    "service_request": "2023-1054754",
    "request_type": "Roads/Drainage",
    "request_reason": "Debris in Roadway",
    "date_created": "2023-12-08T21:13:34.000",
    "date_modified": "2023-12-08T21:13:34.000",
    "request_status": "Pending",
    "responsible_agency": "Department of Public Works",
    "final_address": "6040 Chestnut St",
    "address_councildis": "A",
    "status": "Pending",
    "rowid": "1054754",
    "final_x": "3664601.57882",
    "final_y": "519870.126648",
    "longitude": "-90.12181863153997",
    "latitude": "29.923964510514875",
    "geocoded_column": {
      "latitude": "29.923964510514875",
      "longitude": "-90.12181863153997"
    }
  },
  {
    "service_request": "2023-1054753",
    "request_type": "Mosquito, Termite & Rodent Control",
    "request_reason": "Rodent Complaint (Rats)",
    "date_created": "2023-12-08T20:24:30.000",
    "date_modified": "2023-12-08T20:24:30.000",
    "request_status": "Pending",
    "responsible_agency": "Mosquito, Termite & Rodent Control Board",
    "final_address": "3197 Desaix Blvd",
    "address_councildis": "D",
    "status": "Pending",
    "rowid": "1054753",
    "final_x": "3678319.52219",
    "final_y": "543672.706958",
    "longitude": "-90.07769261693035",
    "latitude": "29.989007641909453",
    "geocoded_column": {
      "latitude": "29.989007641909453",
      "longitude": "-90.07769261693035"
    }
  },
  {
    "service_request": "2023-1054752",
    "request_type": "Abandoned Vehicles",
    "request_reason": "Vehicle Blocking Your Driveway",
    "date_created": "2023-12-08T19:55:48.000",
    "date_modified": "2023-12-08T19:55:48.000",
    "request_status": "Pending",
    "responsible_agency": "Department of Public Works",
    "final_address": "225 N Cortez St",
    "address_councildis": "A",
    "status": "Pending",
    "rowid": "1054752",
    "final_x": "3672448.81134",
    "final_y": "538156.115401",
    "longitude": "-90.09642457479808",
    "latitude": "29.97401448747691",
    "geocoded_column": {
      "latitude": "29.97401448747691",
      "longitude": "-90.09642457479808"
    }
  },
  {
    "service_request": "2023-1054751",
    "request_type": "Abandoned Vehicles",
    "request_reason": "Abandoned/Junk Vehicles",
    "date_created": "2023-12-08T19:02:26.000",
    "date_modified": "2023-12-08T19:02:26.000",
    "request_status": "Pending",
    "responsible_agency": "Department of Public Works",
    "final_address": "4253 Vendome Pl",
    "address_councildis": "B",
    "status": "Pending",
    "rowid": "1054751",
    "final_x": "3669251.83406",
    "final_y": "531346.842114",
    "longitude": "-90.10675158778342",
    "latitude": "29.955385755736497",
    "geocoded_column": {
      "latitude": "29.955385755736497",
      "longitude": "-90.10675158778342"
    }
  },
  {
    "service_request": "2023-1054750",
    "request_type": "Roads/Drainage",
    "request_reason": "Pothole",
    "date_created": "2023-12-08T18:52:10.000",
    "date_modified": "2023-12-08T18:52:10.000",
    "request_status": "Pending",
    "responsible_agency": "Department of Public Works",
    "final_address": "7501 Zimple St",
    "address_councildis": "A",
    "status": "Pending",
    "rowid": "1054750",
    "final_x": "3663294.62285",
    "final_y": "526738.78451",
    "longitude": "-90.1257157347555",
    "latitude": "29.942889081506237",
    "geocoded_column": {
      "latitude": "29.942889081506237",
      "longitude": "-90.1257157347555"
    }
  },
  {
    "service_request": "2023-1054749",
    "request_type": "Trash/Recycling",
    "request_reason": "Replace Trash Cart",
    "date_created": "2023-12-08T18:23:18.000",
    "date_modified": "2023-12-08T18:23:19.000",
    "request_status": "Pending",
    "responsible_agency": "Department of Sanitation",
    "final_address": "2905 Laurel St",
    "address_councildis": "B",
    "status": "Assigned to Contractor",
    "contractor": "Richards Disposal",
    "rowid": "1054749",
    "final_x": "3676953.18402",
    "final_y": "519918.260792",
    "longitude": "-90.08282734371247",
    "latitude": "29.923731990347953",
    "geocoded_column": {
      "latitude": "29.923731990347953",
      "longitude": "-90.08282734371247"
    }
  },
  {
    "service_request": "2023-1054748",
    "request_type": "Trash/Recycling",
    "request_reason": "Replace Trash Cart",
    "date_created": "2023-12-08T18:22:11.000",
    "date_modified": "2023-12-08T18:22:12.000",
    "request_status": "Pending",
    "responsible_agency": "Department of Sanitation",
    "final_address": "2901 Laurel St",
    "address_councildis": "B",
    "status": "Assigned to Contractor",
    "contractor": "Richards Disposal",
    "rowid": "1054748",
    "final_x": "3676972.91848",
    "final_y": "519931.53356",
    "longitude": "-90.08276459191325",
    "latitude": "29.923767893950686",
    "geocoded_column": {
      "latitude": "29.923767893950686",
      "longitude": "-90.08276459191325"
    }
  },
  {
    "service_request": "2023-1054747",
    "request_type": "Abandoned Vehicles",
    "request_reason": "Abandoned/Junk Vehicles",
    "date_created": "2023-12-08T18:18:00.000",
    "date_modified": "2023-12-08T18:18:00.000",
    "request_status": "Pending",
    "responsible_agency": "Department of Public Works",
    "final_address": "5511 Edenboro Rd",
    "address_councildis": "E",
    "status": "Pending",
    "rowid": "1054747",
    "final_x": "3708196.782",
    "final_y": "558138.642203",
    "longitude": "-89.98278158254222",
    "latitude": "30.027849344477286",
    "geocoded_column": {
      "latitude": "30.027849344477286",
      "longitude": "-89.98278158254222"
    }
  },
  {
    "service_request": "2023-1054746",
    "request_type": "Abandoned Vehicles",
    "request_reason": "Abandoned/Junk Vehicles",
    "date_created": "2023-12-08T18:00:32.000",
    "date_modified": "2023-12-08T18:00:32.000",
    "request_status": "Pending",
    "responsible_agency": "Department of Public Works",
    "final_address": "5511 Edenboro Rd",
    "address_councildis": "E",
    "status": "Pending",
    "rowid": "1054746",
    "final_x": "3708196.782",
    "final_y": "558138.642203",
    "longitude": "-89.98278158254222",
    "latitude": "30.027849344477286",
    "geocoded_column": {
      "latitude": "30.027849344477286",
      "longitude": "-89.98278158254222"
    }
  },
  {
    "service_request": "2023-1054745",
    "request_type": "Traffic Signals/Signs/Striping/Streetlights",
    "request_reason": "Street Light Outage/Malfunction",
    "date_created": "2023-12-08T17:57:41.000",
    "date_modified": "2023-12-08T17:57:42.000",
    "request_status": "Pending",
    "responsible_agency": "Department of Public Works",
    "final_address": "330 Olivier St",
    "address_councildis": "C",
    "status": "Assigned to Contractor",
    "contractor": "Legacy Professional Services",
    "rowid": "1054745",
    "final_x": "3687377.74018",
    "final_y": "530499.07565",
    "longitude": "-90.04954669890438",
    "latitude": "29.95250872034295",
    "geocoded_column": {
      "latitude": "29.95250872034295",
      "longitude": "-90.04954669890438"
    }
  },
  {
    "service_request": "2023-1054744",
    "request_type": "Trash/Recycling",
    "request_reason": "MIssed Recycling Pick-Up",
    "date_created": "2023-12-08T17:55:40.000",
    "date_modified": "2023-12-08T17:55:41.000",
    "request_status": "Pending",
    "responsible_agency": "Department of Sanitation",
    "final_address": "2519 N Roman St",
    "address_councildis": "D",
    "status": "Assigned to Contractor",
    "contractor": "IV Waste",
    "rowid": "1054744",
    "final_x": "3687142.48642",
    "final_y": "539112.912842",
    "longitude": "-90.04998489595131",
    "latitude": "29.97620102649558",
    "geocoded_column": {
      "latitude": "29.97620102649558",
      "longitude": "-90.04998489595131"
    }
  },
  {
    "service_request": "2023-1054743",
    "request_type": "Roads/Drainage",
    "request_reason": "Catch Basin - Clogged",
    "date_created": "2023-12-08T17:53:15.000",
    "date_modified": "2023-12-08T17:53:15.000",
    "request_status": "Pending",
    "responsible_agency": "Department of Public Works",
    "final_address": "3365 Belfort St",
    "address_councildis": "A",
    "status": "Pending",
    "rowid": "1054743",
    "final_x": "3677023.03394",
    "final_y": "542610.182733",
    "longitude": "-90.08182449489911",
    "latitude": "29.986125071382386",
    "geocoded_column": {
      "latitude": "29.986125071382386",
      "longitude": "-90.08182449489911"
    }
  },
  {
    "service_request": "2023-1054742",
    "request_type": "Trash/Recycling",
    "request_reason": "Request a Large Item Pick Up",
    "date_created": "2023-12-08T17:40:31.000",
    "date_modified": "2023-12-08T17:40:32.000",
    "request_status": "Pending",
    "responsible_agency": "Department of Sanitation",
    "final_address": "13118 Dwyer Blvd",
    "address_councildis": "E",
    "status": "Assigned to Contractor",
    "contractor": "Waste Pro",
    "rowid": "1054742",
    "final_x": "3724198.54828",
    "final_y": "561238.55683",
    "longitude": "-89.93209804600616",
    "latitude": "30.035844541176957",
    "geocoded_column": {
      "latitude": "30.035844541176957",
      "longitude": "-89.93209804600616"
    }
  },
  {
    "service_request": "2023-1054741",
    "request_type": "Trash/Recycling",
    "request_reason": "Request a Large Item Pick Up",
    "date_created": "2023-12-08T17:38:58.000",
    "date_modified": "2023-12-08T17:38:58.000",
    "request_status": "Pending",
    "responsible_agency": "Department of Sanitation",
    "final_address": "6034 Milne Blvd",
    "address_councildis": "A",
    "status": "Assigned to Contractor",
    "contractor": "IV Waste",
    "rowid": "1054741",
    "final_x": "3666991.68372",
    "final_y": "547820.60821",
    "longitude": "-90.11333449816347",
    "latitude": "30.000749407757937",
    "geocoded_column": {
      "latitude": "30.000749407757937",
      "longitude": "-90.11333449816347"
    }
  },
  {
    "service_request": "2023-1054740",
    "request_type": "Traffic Signals/Signs/Striping/Streetlights",
    "request_reason": "Street Light Outage/Malfunction",
    "date_created": "2023-12-08T17:34:36.000",
    "date_modified": "2023-12-08T17:34:36.000",
    "request_status": "Pending",
    "responsible_agency": "Department of Public Works",
    "final_address": "5611 Painters St",
    "address_councildis": "D",
    "status": "Assigned to Contractor",
    "contractor": "Legacy Professional Services",
    "rowid": "1054740",
    "final_x": "3686223.08335",
    "final_y": "553710.706647",
    "longitude": "-90.05237322795638",
    "latitude": "30.016367994379024",
    "geocoded_column": {
      "latitude": "30.016367994379024",
      "longitude": "-90.05237322795638"
    }
  },
  {
    "service_request": "2023-1054739",
    "request_type": "Trash/Recycling",
    "request_reason": "Request a Large Item Pick Up",
    "date_created": "2023-12-08T17:21:38.000",
    "date_modified": "2023-12-08T17:21:39.000",
    "request_status": "Pending",
    "responsible_agency": "Department of Sanitation",
    "final_address": "1225 Desire St",
    "address_councildis": "C",
    "status": "Assigned to Contractor",
    "contractor": "IV Waste",
    "rowid": "1054739",
    "final_x": "3690356.61443",
    "final_y": "536271.912775",
    "longitude": "-90.03993504742822",
    "latitude": "29.96828990481821",
    "geocoded_column": {
      "latitude": "29.96828990481821",
      "longitude": "-90.03993504742822"
    }
  },
  {
    "service_request": "2023-1054738",
    "request_type": "Trash/Recycling",
    "request_reason": "MIssed Recycling Pick-Up",
    "date_created": "2023-12-08T17:15:04.000",
    "date_modified": "2023-12-08T17:15:05.000",
    "request_status": "Pending",
    "responsible_agency": "Department of Sanitation",
    "final_address": "1123 LaSalle Pl",
    "address_councildis": "A",
    "status": "Assigned to Contractor",
    "contractor": "Richards Disposal",
    "rowid": "1054738",
    "final_x": "3666046.0368",
    "final_y": "524348.542396",
    "longitude": "-90.1171089248996",
    "latitude": "29.93623666100399",
    "geocoded_column": {
      "latitude": "29.93623666100399",
      "longitude": "-90.1171089248996"
    }
  },
  {
    "service_request": "2023-1054737",
    "request_type": "Trash/Recycling",
    "request_reason": "Request a Large Item Pick Up",
    "date_created": "2023-12-08T16:40:53.000",
    "date_modified": "2023-12-08T16:40:54.000",
    "request_status": "Pending",
    "responsible_agency": "Department of Sanitation",
    "final_address": "2844 Magazine St",
    "address_councildis": "B",
    "status": "Assigned to Contractor",
    "contractor": "Richards Disposal",
    "rowid": "1054737",
    "final_x": "3676804.04129",
    "final_y": "520547.0142",
    "longitude": "-90.08327648062173",
    "latitude": "29.925465333362045",
    "geocoded_column": {
      "latitude": "29.925465333362045",
      "longitude": "-90.08327648062173"
    }
  },
  {
    "service_request": "2023-1054736",
    "request_type": "Trash/Recycling",
    "request_reason": "Replace Trash Cart",
    "date_created": "2023-12-08T16:40:23.000",
    "date_modified": "2023-12-08T16:40:23.000",
    "request_status": "Pending",
    "responsible_agency": "Department of Sanitation",
    "final_address": "3016 Laurel St",
    "address_councildis": "B",
    "status": "Assigned to Contractor",
    "contractor": "Richards Disposal",
    "rowid": "1054736",
    "final_x": "3676662.60213",
    "final_y": "519637.969144",
    "longitude": "-90.083754254255",
    "latitude": "29.922969995602905",
    "geocoded_column": {
      "latitude": "29.922969995602905",
      "longitude": "-90.083754254255"
    }
  },
  {
    "service_request": "2023-1054735",
    "request_type": "Trash/Recycling",
    "request_reason": "Order Recycling Cart",
    "date_created": "2023-12-08T16:33:09.000",
    "date_modified": "2023-12-08T16:33:09.000",
    "request_status": "Pending",
    "responsible_agency": "Department of Sanitation",
    "final_address": "13043 Calais St",
    "address_councildis": "E",
    "status": "Pending",
    "rowid": "1054735",
    "final_x": "3724154.05286",
    "final_y": "560512.638622",
    "longitude": "-89.9322667076981",
    "latitude": "30.033850059654036",
    "geocoded_column": {
      "latitude": "30.033850059654036",
      "longitude": "-89.9322667076981"
    }
  },
  {
    "service_request": "2023-1054734",
    "request_type": "Trash/Recycling",
    "request_reason": "Repair Trash Cart",
    "date_created": "2023-12-08T16:31:50.000",
    "date_modified": "2023-12-08T16:32:45.000",
    "request_status": "Pending",
    "responsible_agency": "Department of Sanitation",
    "final_address": "13043 Calais St",
    "address_councildis": "E",
    "status": "Assigned to Contractor",
    "contractor": "Waste Pro",
    "rowid": "1054734",
    "final_x": "3724154.05286",
    "final_y": "560512.638622",
    "longitude": "-89.9322667076981",
    "latitude": "30.033850059654036",
    "geocoded_column": {
      "latitude": "30.033850059654036",
      "longitude": "-89.9322667076981"
    }
  },
  {
    "service_request": "2023-1054733",
    "request_type": "Trash/Recycling",
    "request_reason": "Order Trash Cart",
    "date_created": "2023-12-08T16:31:00.000",
    "date_modified": "2023-12-08T16:31:01.000",
    "request_status": "Pending",
    "responsible_agency": "Department of Sanitation",
    "final_address": "316 S Roadway St",
    "address_councildis": "A",
    "status": "Assigned to Contractor",
    "contractor": "IV Waste",
    "rowid": "1054733",
    "final_x": "3665727.7682",
    "final_y": "556142.928474",
    "longitude": "-90.1170482430416",
    "latitude": "30.02366982386182",
    "geocoded_column": {
      "latitude": "30.02366982386182",
      "longitude": "-90.1170482430416"
    }
  },
  {
    "service_request": "2023-1054732",
    "request_type": "Roads/Drainage",
    "request_reason": "Catch Basin - Clogged",
    "date_created": "2023-12-08T16:19:47.000",
    "date_modified": "2023-12-08T16:19:47.000",
    "request_status": "Pending",
    "responsible_agency": "Department of Public Works",
    "final_address": "14 Thrush St",
    "address_councildis": "D",
    "status": "Pending",
    "rowid": "1054732",
    "final_x": "3672363.12295",
    "final_y": "554947.782424",
    "longitude": "-90.09612259139847",
    "latitude": "30.020188266950363",
    "geocoded_column": {
      "latitude": "30.020188266950363",
      "longitude": "-90.09612259139847"
    }
  },
  {
    "service_request": "2023-1054731",
    "request_type": "Trash/Recycling",
    "request_reason": "Request a Large Item Pick Up",
    "date_created": "2023-12-08T16:13:40.000",
    "date_modified": "2023-12-08T16:13:41.000",
    "request_status": "Pending",
    "responsible_agency": "Department of Sanitation",
    "final_address": "524 S Rendon St",
    "address_councildis": "B",
    "status": "Assigned to Contractor",
    "contractor": "Richards Disposal",
    "rowid": "1054731",
    "final_x": "3672525.99297",
    "final_y": "535000.85703",
    "longitude": "-90.09628839931105",
    "latitude": "29.96533629970597",
    "geocoded_column": {
      "latitude": "29.96533629970597",
      "longitude": "-90.09628839931105"
    }
  },
  {
    "service_request": "2023-1054730",
    "request_type": "Trash/Recycling",
    "request_reason": "Missed Trash Pick-Up",
    "date_created": "2023-12-08T16:05:34.000",
    "date_modified": "2023-12-08T16:05:35.000",
    "request_status": "Pending",
    "responsible_agency": "Department of Sanitation",
    "final_address": "7701 Swift St",
    "address_councildis": "E",
    "status": "Assigned to Contractor",
    "contractor": "Waste Pro",
    "rowid": "1054730",
    "final_x": "3695422.87581",
    "final_y": "558983.635228",
    "longitude": "-90.02311551044862",
    "latitude": "30.03058055130747",
    "geocoded_column": {
      "latitude": "30.03058055130747",
      "longitude": "-90.02311551044862"
    }
  },
  {
    "service_request": "2023-1054729",
    "request_type": "Trash/Recycling",
    "request_reason": "Missed Trash Pick-Up",
    "date_created": "2023-12-08T16:03:26.000",
    "date_modified": "2023-12-08T16:03:26.000",
    "request_status": "Pending",
    "responsible_agency": "Department of Sanitation",
    "final_address": "1110 Valmont St",
    "address_councildis": "B",
    "status": "Assigned to Contractor",
    "contractor": "Richards Disposal",
    "rowid": "1054729",
    "final_x": "3667561.31617",
    "final_y": "519486.984759",
    "longitude": "-90.11248865239399",
    "latitude": "29.922824611750997",
    "geocoded_column": {
      "latitude": "29.922824611750997",
      "longitude": "-90.11248865239399"
    }
  },
  {
    "service_request": "2023-1054728",
    "request_type": "Roads/Drainage",
    "request_reason": "Pothole",
    "date_created": "2023-12-08T15:56:50.000",
    "date_modified": "2023-12-08T15:56:50.000",
    "request_status": "Pending",
    "responsible_agency": "Department of Public Works",
    "final_address": "708 N Carrollton Ave",
    "address_councildis": "A",
    "status": "Pending",
    "rowid": "1054728",
    "final_x": "3672717.32436",
    "final_y": "539941.14497",
    "longitude": "-90.0955156477791",
    "latitude": "29.97891473911171",
    "geocoded_column": {
      "latitude": "29.97891473911171",
      "longitude": "-90.0955156477791"
    }
  },
  {
    "service_request": "2023-1054727",
    "request_type": "Roads/Drainage",
    "request_reason": "Catch Basin - Clogged",
    "date_created": "2023-12-08T15:56:41.000",
    "date_modified": "2023-12-08T15:56:41.000",
    "request_status": "Pending",
    "responsible_agency": "Department of Public Works",
    "final_address": "436 Arabella St",
    "address_councildis": "A",
    "status": "Pending",
    "rowid": "1054727",
    "final_x": "3665559.79828",
    "final_y": "517884.10367",
    "longitude": "-90.1188603097307",
    "latitude": "29.91847567681843",
    "geocoded_column": {
      "latitude": "29.91847567681843",
      "longitude": "-90.1188603097307"
    }
  },
  {
    "service_request": "2023-1054726",
    "request_type": "Trash/Recycling",
    "request_reason": "Repair Trash Cart",
    "date_created": "2023-12-08T15:47:03.000",
    "date_modified": "2023-12-08T15:47:04.000",
    "request_status": "Pending",
    "responsible_agency": "Department of Sanitation",
    "final_address": "7735 Cohn St",
    "address_councildis": "A",
    "status": "Assigned to Contractor",
    "contractor": "Richards Disposal",
    "rowid": "1054726",
    "final_x": "3664552.49018",
    "final_y": "529395.322497",
    "longitude": "-90.12165563452548",
    "latitude": "29.950157194210906",
    "geocoded_column": {
      "latitude": "29.950157194210906",
      "longitude": "-90.12165563452548"
    }
  },
  {
    "service_request": "2023-1054725",
    "request_type": "Traffic Signals/Signs/Striping/Streetlights",
    "request_reason": "Street Light Outage/Malfunction",
    "date_created": "2023-12-08T15:39:24.000",
    "date_modified": "2023-12-08T15:39:24.000",
    "request_status": "Pending",
    "responsible_agency": "Department of Public Works",
    "final_address": "931 Barracks St",
    "address_councildis": "C",
    "status": "Assigned to Contractor",
    "contractor": "Legacy Professional Services",
    "rowid": "1054725",
    "final_x": "3683114.70485",
    "final_y": "534821.234886",
    "longitude": "-90.0628560914907",
    "latitude": "29.96452382408036",
    "geocoded_column": {
      "latitude": "29.96452382408036",
      "longitude": "-90.0628560914907"
    }
  },
  {
    "service_request": "2023-1054724",
    "request_type": "Roads/Drainage",
    "request_reason": "Catch Basin - Clogged",
    "date_created": "2023-12-08T15:39:10.000",
    "date_modified": "2023-12-08T15:39:11.000",
    "request_status": "Pending",
    "responsible_agency": "Department of Public Works",
    "final_address": "965 Navarre St",
    "address_councildis": "A",
    "status": "Pending",
    "rowid": "1054724",
    "final_x": "3670335.99034",
    "final_y": "543731.92763",
    "longitude": "-90.10290826236762",
    "latitude": "29.98940861754111",
    "geocoded_column": {
      "latitude": "29.98940861754111",
      "longitude": "-90.10290826236762"
    }
  },
  {
    "service_request": "2023-1054723",
    "request_type": "Traffic Signals/Signs/Striping/Streetlights",
    "request_reason": "Disabled Parking Sign ",
    "date_created": "2023-12-08T15:38:22.000",
    "date_modified": "2023-12-08T15:38:23.000",
    "request_status": "Pending",
    "responsible_agency": "Department of Public Works",
    "final_address": "8428 Nelson St",
    "address_councildis": "A",
    "status": "Pending",
    "rowid": "1054723",
    "final_x": "3664143.69837",
    "final_y": "532682.33242",
    "longitude": "-90.12283674568427",
    "latitude": "29.95920728458372",
    "geocoded_column": {
      "latitude": "29.95920728458372",
      "longitude": "-90.12283674568427"
    }
  },
  {
    "service_request": "2023-1054722",
    "request_type": "Trash/Recycling",
    "request_reason": "Replace Trash Cart",
    "date_created": "2023-12-08T15:38:19.000",
    "date_modified": "2023-12-08T15:38:20.000",
    "request_status": "Pending",
    "responsible_agency": "Department of Sanitation",
    "final_address": "2569 Peace Ct",
    "address_councildis": "D",
    "status": "Assigned to Contractor",
    "contractor": "IV Waste",
    "rowid": "1054722",
    "final_x": "3686415.9709",
    "final_y": "541077.959884",
    "longitude": "-90.05221005210737",
    "latitude": "29.981626567287293",
    "geocoded_column": {
      "latitude": "29.981626567287293",
      "longitude": "-90.05221005210737"
    }
  },
  {
    "service_request": "2023-1054721",
    "request_type": "Trash/Recycling",
    "request_reason": "Replace Trash Cart",
    "date_created": "2023-12-08T15:36:49.000",
    "date_modified": "2023-12-08T15:36:50.000",
    "request_status": "Pending",
    "responsible_agency": "Department of Sanitation",
    "final_address": "6208 Waldo Dr",
    "address_councildis": "D",
    "status": "Assigned to Contractor",
    "contractor": "IV Waste",
    "rowid": "1054721",
    "final_x": "3681047.79861",
    "final_y": "555686.076185",
    "longitude": "-90.06865599234523",
    "latitude": "30.02195760654957",
    "geocoded_column": {
      "latitude": "30.02195760654957",
      "longitude": "-90.06865599234523"
    }
  },
  {
    "service_request": "2023-1054719",
    "request_type": "Abandoned Vehicles",
    "request_reason": "Abandoned/Junk Vehicles",
    "date_created": "2023-12-08T15:31:22.000",
    "date_modified": "2023-12-08T15:31:23.000",
    "request_status": "Pending",
    "responsible_agency": "Department of Public Works",
    "final_address": "3661 Bennett St",
    "address_councildis": "C",
    "status": "Pending",
    "rowid": "1054719",
    "final_x": "3710247.19512",
    "final_y": "516665.857845",
    "longitude": "-89.97785275533379",
    "latitude": "29.91374793911433",
    "geocoded_column": {
      "latitude": "29.91374793911433",
      "longitude": "-89.97785275533379"
    }
  },
  {
    "service_request": "2023-1054718",
    "request_type": "Abandoned Vehicles",
    "request_reason": "Abandoned/Junk Vehicles",
    "date_created": "2023-12-08T15:29:03.000",
    "date_modified": "2023-12-08T15:30:30.000",
    "request_status": "Pending",
    "responsible_agency": "Department of Public Works",
    "final_address": "ST ANTHONY AVE & RAPIDES DR",
    "address_councildis": "D",
    "status": "Pending",
    "rowid": "1054718",
    "final_x": "3682138.5",
    "final_y": "552914.28",
    "longitude": "-90.06530657883613",
    "latitude": "30.01430303373703",
    "geocoded_column": {
      "latitude": "30.01430303373703",
      "longitude": "-90.06530657883613"
    }
  },
  {
    "service_request": "2023-1054717",
    "request_type": "Trash/Recycling",
    "request_reason": "Request a Large Item Pick Up",
    "date_created": "2023-12-08T15:27:46.000",
    "date_modified": "2023-12-08T15:27:47.000",
    "request_status": "Pending",
    "responsible_agency": "Department of Sanitation",
    "final_address": "1807 N Dupre St",
    "address_councildis": "D",
    "status": "Assigned to Contractor",
    "contractor": "IV Waste",
    "rowid": "1054717",
    "final_x": "3679433.1748",
    "final_y": "541876.478604",
    "longitude": "-90.07423726741092",
    "latitude": "29.984035039116502",
    "geocoded_column": {
      "latitude": "29.984035039116502",
      "longitude": "-90.07423726741092"
    }
  },
  {
    "service_request": "2023-1054716",
    "request_type": "Trash/Recycling",
    "request_reason": "Missed Trash Pick-Up",
    "date_created": "2023-12-08T15:25:48.000",
    "date_modified": "2023-12-08T15:25:48.000",
    "request_status": "Pending",
    "responsible_agency": "Department of Sanitation",
    "final_address": "4502 Rhodes Dr",
    "address_councildis": "E",
    "status": "Assigned to Contractor",
    "contractor": "Waste Pro",
    "rowid": "1054716",
    "final_x": "3702588.1457",
    "final_y": "553204.174935",
    "longitude": "-90.00068570297974",
    "latitude": "30.014462031068575",
    "geocoded_column": {
      "latitude": "30.014462031068575",
      "longitude": "-90.00068570297974"
    }
  },
  {
    "service_request": "2023-1054715",
    "request_type": "Trash/Recycling",
    "request_reason": "Request a Large Item Pick Up",
    "date_created": "2023-12-08T15:24:08.000",
    "date_modified": "2023-12-08T15:24:09.000",
    "request_status": "Pending",
    "responsible_agency": "Department of Sanitation",
    "final_address": "1614 S Norman C Francis Prkwy",
    "address_councildis": "B",
    "status": "Assigned to Contractor",
    "contractor": "Richards Disposal",
    "rowid": "1054715",
    "final_x": "3669501.46222",
    "final_y": "531132.316098",
    "longitude": "-90.10597060642637",
    "latitude": "29.954788529813065",
    "geocoded_column": {
      "latitude": "29.954788529813065",
      "longitude": "-90.10597060642637"
    }
  },
  {
    "service_request": "2023-1054714",
    "request_type": "Trash/Recycling",
    "request_reason": "Order Recycling Cart",
    "date_created": "2023-12-08T15:21:31.000",
    "date_modified": "2023-12-08T15:21:31.000",
    "request_status": "Pending",
    "responsible_agency": "Department of Sanitation",
    "final_address": "810 Lesseps St",
    "address_councildis": "C",
    "status": "Pending",
    "rowid": "1054714",
    "final_x": "3692408.00566",
    "final_y": "534043.787717",
    "longitude": "-90.03353650775145",
    "latitude": "29.962099515949006",
    "geocoded_column": {
      "latitude": "29.962099515949006",
      "longitude": "-90.03353650775145"
    }
  },
  {
    "service_request": "2023-1054713",
    "request_type": "Trash/Recycling",
    "request_reason": "Repair Trash Cart",
    "date_created": "2023-12-08T15:20:33.000",
    "date_modified": "2023-12-08T15:20:33.000",
    "request_status": "Pending",
    "responsible_agency": "Department of Sanitation",
    "final_address": "810 Lesseps St",
    "address_councildis": "C",
    "status": "Assigned to Contractor",
    "contractor": "IV Waste",
    "rowid": "1054713",
    "final_x": "3692408.00566",
    "final_y": "534043.787717",
    "longitude": "-90.03353650775145",
    "latitude": "29.962099515949006",
    "geocoded_column": {
      "latitude": "29.962099515949006",
      "longitude": "-90.03353650775145"
    }
  },
  {
    "service_request": "2023-1054712",
    "request_type": "Trash/Recycling",
    "request_reason": "Replace Trash Cart",
    "date_created": "2023-12-08T15:13:21.000",
    "date_modified": "2023-12-08T15:13:22.000",
    "request_status": "Pending",
    "responsible_agency": "Department of Sanitation",
    "final_address": "1803 Jo Ann Pl",
    "address_councildis": "C",
    "status": "Assigned to Contractor",
    "contractor": "Richards Disposal",
    "rowid": "1054712",
    "final_x": "3694929.07478",
    "final_y": "524429.400636",
    "longitude": "-90.02592180879385",
    "latitude": "29.935584421567615",
    "geocoded_column": {
      "latitude": "29.935584421567615",
      "longitude": "-90.02592180879385"
    }
  },
  {
    "service_request": "2023-1054711",
    "request_type": "Trash/Recycling",
    "request_reason": "Missed Trash Pick-Up",
    "date_created": "2023-12-08T15:11:45.000",
    "date_modified": "2023-12-08T15:11:46.000",
    "request_status": "Pending",
    "responsible_agency": "Department of Sanitation",
    "final_address": "117 Decatur St",
    "address_councildis": "C",
    "status": "Assigned to Contractor",
    "contractor": "Empire Services",
    "rowid": "1054711",
    "final_x": "3681898.97314",
    "final_y": "530397.65325",
    "longitude": "-90.06684968009122",
    "latitude": "29.952397489700672",
    "geocoded_column": {
      "latitude": "29.952397489700672",
      "longitude": "-90.06684968009122"
    }
  },
  {
    "service_request": "2023-1054710",
    "request_type": "Abandoned Vehicles",
    "request_reason": "Abandoned/Junk Vehicles",
    "date_created": "2023-12-08T15:02:03.000",
    "date_modified": "2023-12-08T15:02:03.000",
    "request_status": "Pending",
    "responsible_agency": "Department of Public Works",
    "final_address": "8607 Willow St",
    "address_councildis": "A",
    "status": "Pending",
    "rowid": "1054710",
    "final_x": "3661095.8903",
    "final_y": "530167.162689",
    "longitude": "-90.13254426744888",
    "latitude": "29.95237956056519",
    "geocoded_column": {
      "latitude": "29.95237956056519",
      "longitude": "-90.13254426744888"
    }
  },
  {
    "service_request": "2023-1054709",
    "request_type": "Tax and Revenue",
    "request_reason": "Occupational License Tax",
    "date_created": "2023-12-08T15:00:45.000",
    "date_modified": "2023-12-08T15:00:45.000",
    "request_status": "Pending",
    "responsible_agency": "Bureau of Revenue",
    "final_address": " & BALDWIN ST",
    "address_councildis": "D",
    "status": "Pending",
    "rowid": "1054709",
    "final_x": "3687880.8",
    "final_y": "560035.64",
    "longitude": "-90.04691121641319",
    "latitude": "30.03370814054373",
    "geocoded_column": {
      "latitude": "30.03370814054373",
      "longitude": "-90.04691121641319"
    }
  },
  {
    "service_request": "2023-1054708",
    "request_type": "Traffic Signals/Signs/Striping/Streetlights",
    "request_reason": "Street Name Sign Damaged or Missing",
    "date_created": "2023-12-08T15:00:41.000",
    "date_modified": "2023-12-08T15:00:41.000",
    "request_status": "Pending",
    "responsible_agency": "Department of Public Works",
    "final_address": "FRENCHMEN ST & LAFRENIERE ST",
    "address_councildis": "D",
    "status": "Pending",
    "rowid": "1054708",
    "final_x": "3683851.8",
    "final_y": "545476.18",
    "longitude": "-90.06015453536313",
    "latitude": "29.993798697036468",
    "geocoded_column": {
      "latitude": "29.993798697036468",
      "longitude": "-90.06015453536313"
    }
  },
  {
    "service_request": "2023-1054707",
    "request_type": "Trash/Recycling",
    "request_reason": "Request a Large Item Pick Up",
    "date_created": "2023-12-08T14:59:21.000",
    "date_modified": "2023-12-08T14:59:22.000",
    "request_status": "Pending",
    "responsible_agency": "Department of Sanitation",
    "final_address": "6142 Memphis St",
    "address_councildis": "A",
    "status": "Assigned to Contractor",
    "contractor": "IV Waste",
    "rowid": "1054707",
    "final_x": "3669185.34548",
    "final_y": "548205.672786",
    "longitude": "-90.10639151553698",
    "latitude": "30.001743797470894",
    "geocoded_column": {
      "latitude": "30.001743797470894",
      "longitude": "-90.10639151553698"
    }
  },
  {
    "service_request": "2023-1054706",
    "request_type": "Trash/Recycling",
    "request_reason": "Request a Large Item Pick Up",
    "date_created": "2023-12-08T14:55:52.000",
    "date_modified": "2023-12-08T14:55:53.000",
    "request_status": "Pending",
    "responsible_agency": "Department of Sanitation",
    "final_address": "1718 Peniston St",
    "address_councildis": "B",
    "status": "Assigned to Contractor",
    "contractor": "Richards Disposal",
    "rowid": "1054706",
    "final_x": "3672693.12923",
    "final_y": "521702.540217",
    "longitude": "-90.0962139987705",
    "latitude": "29.928765336208063",
    "geocoded_column": {
      "latitude": "29.928765336208063",
      "longitude": "-90.0962139987705"
    }
  },
  {
    "service_request": "2023-1054705",
    "request_type": "Trash/Recycling",
    "request_reason": "Missed Trash Pick-Up",
    "date_created": "2023-12-08T14:48:07.000",
    "date_modified": "2023-12-08T14:48:08.000",
    "request_status": "Pending",
    "responsible_agency": "Department of Sanitation",
    "final_address": "1111 Erato St",
    "address_councildis": "B",
    "status": "Assigned to Contractor",
    "contractor": "Richards Disposal",
    "rowid": "1054705",
    "final_x": "3680552.30274",
    "final_y": "525692.492349",
    "longitude": "-90.07126548381918",
    "latitude": "29.939500730852806",
    "geocoded_column": {
      "latitude": "29.939500730852806",
      "longitude": "-90.07126548381918"
    }
  },
  {
    "service_request": "2023-1054704",
    "request_type": "Trash/Recycling",
    "request_reason": "Missed Trash Pick-Up",
    "date_created": "2023-12-08T14:47:46.000",
    "date_modified": "2023-12-08T14:47:47.000",
    "request_status": "Pending",
    "responsible_agency": "Department of Sanitation",
    "final_address": "7626 Hayne Blvd",
    "address_councildis": "E",
    "status": "Assigned to Contractor",
    "contractor": "Waste Pro",
    "rowid": "1054704",
    "final_x": "3700548.55581",
    "final_y": "562162.727839",
    "longitude": "-90.0068020783592",
    "latitude": "30.039159669630823",
    "geocoded_column": {
      "latitude": "30.039159669630823",
      "longitude": "-90.0068020783592"
    }
  },
  {
    "service_request": "2023-1054703",
    "request_type": "Abandoned Vehicles",
    "request_reason": "Abandoned/Junk Vehicles",
    "date_created": "2023-12-08T14:47:44.000",
    "date_modified": "2023-12-08T14:47:44.000",
    "request_status": "Pending",
    "responsible_agency": "Department of Public Works",
    "final_address": "0 BLK Neron Pl",
    "address_councildis": "A",
    "status": "Pending",
    "rowid": "1054703",
    "final_x": "3665527.3067",
    "final_y": "530354.006993",
    "longitude": "-90.11854557548888",
    "latitude": "29.952764885208705",
    "geocoded_column": {
      "latitude": "29.952764885208705",
      "longitude": "-90.11854557548888"
    }
  },
  {
    "service_request": "2023-1054702",
    "request_type": "Trash/Recycling",
    "request_reason": "Request a Large Item Pick Up",
    "date_created": "2023-12-08T14:47:09.000",
    "date_modified": "2023-12-08T14:47:09.000",
    "request_status": "Pending",
    "responsible_agency": "Department of Sanitation",
    "final_address": "3211 St Philip St",
    "address_councildis": "A",
    "status": "Assigned to Contractor",
    "contractor": "Richards Disposal",
    "rowid": "1054702",
    "final_x": "3675616.99125",
    "final_y": "539287.631754",
    "longitude": "-90.08637984662928",
    "latitude": "29.977031352420784",
    "geocoded_column": {
      "latitude": "29.977031352420784",
      "longitude": "-90.08637984662928"
    }
  },
  {
    "service_request": "2023-1054701",
    "request_type": "Trash/Recycling",
    "request_reason": "Return Trash Cart",
    "date_created": "2023-12-08T14:45:40.000",
    "date_modified": "2023-12-08T14:46:22.000",
    "request_status": "Pending",
    "responsible_agency": "Department of Sanitation",
    "final_address": "7631 Crestmont Rd",
    "address_councildis": "E",
    "status": "Assigned to Contractor",
    "contractor": "Waste Pro",
    "rowid": "1054701",
    "final_x": "3699657.76964",
    "final_y": "560389.539614",
    "longitude": "-90.00968193620962",
    "latitude": "30.03431241658454",
    "geocoded_column": {
      "latitude": "30.03431241658454",
      "longitude": "-90.00968193620962"
    }
  },
  {
    "service_request": "2023-1054700",
    "request_type": "Trash/Recycling",
    "request_reason": "Order Trash Cart",
    "date_created": "2023-12-08T14:40:36.000",
    "date_modified": "2023-12-08T14:40:37.000",
    "request_status": "Pending",
    "responsible_agency": "Department of Sanitation",
    "final_address": "4790 Eunice Dr",
    "address_councildis": "E",
    "status": "Assigned to Contractor",
    "contractor": "Waste Pro",
    "rowid": "1054700",
    "final_x": "3710435.42091",
    "final_y": "556124.245402",
    "longitude": "-89.97578312189798",
    "latitude": "30.022237803499667",
    "geocoded_column": {
      "latitude": "30.022237803499667",
      "longitude": "-89.97578312189798"
    }
  },
  {
    "service_request": "2023-1054699",
    "request_type": "Trash/Recycling",
    "request_reason": "Repair Trash Cart",
    "date_created": "2023-12-08T14:40:26.000",
    "date_modified": "2023-12-08T14:40:27.000",
    "request_status": "Pending",
    "responsible_agency": "Department of Sanitation",
    "final_address": "11218 Curran Rd",
    "address_councildis": "E",
    "status": "Assigned to Contractor",
    "contractor": "Waste Pro",
    "rowid": "1054699",
    "final_x": "3711024.90577",
    "final_y": "566383.622627",
    "longitude": "-89.97353581347413",
    "latitude": "30.050427786009813",
    "geocoded_column": {
      "latitude": "30.050427786009813",
      "longitude": "-89.97353581347413"
    }
  },
  {
    "service_request": "2023-1054698",
    "request_type": "Trash/Recycling",
    "request_reason": "Return Recycling Cart",
    "date_created": "2023-12-08T14:39:21.000",
    "date_modified": "2023-12-08T14:39:22.000",
    "request_status": "Pending",
    "responsible_agency": "Department of Sanitation",
    "final_address": "1458 Mirabeau Ave",
    "address_councildis": "D",
    "status": "Pending",
    "rowid": "1054698",
    "final_x": "3677926.27624",
    "final_y": "550142.589844",
    "longitude": "-90.07871099775892",
    "latitude": "30.006809378329596",
    "geocoded_column": {
      "latitude": "30.006809378329596",
      "longitude": "-90.07871099775892"
    }
  },
  {
    "service_request": "2023-1054697",
    "request_type": "Trash/Recycling",
    "request_reason": "Replace Trash Cart",
    "date_created": "2023-12-08T14:38:27.000",
    "date_modified": "2023-12-08T14:38:28.000",
    "request_status": "Pending",
    "responsible_agency": "Department of Sanitation",
    "final_address": "7440 Alabama St",
    "address_councildis": "D",
    "status": "Assigned to Contractor",
    "contractor": "Waste Pro",
    "rowid": "1054697",
    "final_x": "3695001.17603",
    "final_y": "558056.641883",
    "longitude": "-90.02448154306744",
    "latitude": "30.028044924776378",
    "geocoded_column": {
      "latitude": "30.028044924776378",
      "longitude": "-90.02448154306744"
    }
  },
  {
    "service_request": "2023-1054696",
    "request_type": "Trash/Recycling",
    "request_reason": "Repair Trash Cart",
    "date_created": "2023-12-08T14:37:40.000",
    "date_modified": "2023-12-08T14:37:41.000",
    "request_status": "Pending",
    "responsible_agency": "Department of Sanitation",
    "final_address": "509 N Salcedo St",
    "address_councildis": "A",
    "status": "Assigned to Contractor",
    "contractor": "Richards Disposal",
    "rowid": "1054696",
    "final_x": "3675035.50581",
    "final_y": "537399.620744",
    "longitude": "-90.08828115934686",
    "latitude": "29.971857353147886",
    "geocoded_column": {
      "latitude": "29.971857353147886",
      "longitude": "-90.08828115934686"
    }
  },
  {
    "service_request": "2023-1054695",
    "request_type": "Trash/Recycling",
    "request_reason": "MIssed Recycling Pick-Up",
    "date_created": "2023-12-08T14:37:28.000",
    "date_modified": "2023-12-08T15:25:39.000",
    "case_close_date": "2023-12-08T09:25:39.000",
    "request_status": "Closed",
    "responsible_agency": "Department of Sanitation",
    "final_address": "3135 Royal St",
    "address_councildis": "C",
    "status": "Duplicate Request",
    "contractor": "IV Waste",
    "contractor_action": "duplicate",
    "rowid": "1054695",
    "final_x": "3688913.26172",
    "final_y": "534469.099653",
    "longitude": "-90.04455724204797",
    "latitude": "29.963377517642567",
    "geocoded_column": {
      "latitude": "29.963377517642567",
      "longitude": "-90.04455724204797"
    }
  },
  {
    "service_request": "2023-1054694",
    "request_type": "Trash/Recycling",
    "request_reason": "Missed Trash Pick-Up",
    "date_created": "2023-12-08T14:35:59.000",
    "date_modified": "2023-12-08T16:44:04.000",
    "case_close_date": "2023-12-08T10:44:04.000",
    "request_status": "Closed",
    "responsible_agency": "Department of Sanitation",
    "final_address": "3135 Royal St",
    "address_councildis": "C",
    "status": "Assigned to Contractor",
    "contractor": "IV Waste",
    "contractor_action": "Completed",
    "rowid": "1054694",
    "final_x": "3688913.26172",
    "final_y": "534469.099653",
    "longitude": "-90.04455724204797",
    "latitude": "29.963377517642567",
    "geocoded_column": {
      "latitude": "29.963377517642567",
      "longitude": "-90.04455724204797"
    }
  },
  {
    "service_request": "2023-1054693",
    "request_type": "Abandoned Vehicles",
    "request_reason": "Abandoned/Junk Vehicles",
    "date_created": "2023-12-08T14:29:57.000",
    "date_modified": "2023-12-08T14:29:57.000",
    "request_status": "Pending",
    "responsible_agency": "Department of Public Works",
    "final_address": "709 N Dorgenois St",
    "address_councildis": "D",
    "status": "Pending",
    "rowid": "1054693",
    "final_x": "3677248.73026",
    "final_y": "536794.090888",
    "longitude": "-90.08131233908603",
    "latitude": "29.970126041994664",
    "geocoded_column": {
      "latitude": "29.970126041994664",
      "longitude": "-90.08131233908603"
    }
  },
  {
    "service_request": "2023-1054692",
    "request_type": "Abandoned Vehicles",
    "request_reason": "Abandoned/Junk Vehicles",
    "date_created": "2023-12-08T14:28:20.000",
    "date_modified": "2023-12-08T14:28:20.000",
    "request_status": "Pending",
    "responsible_agency": "Department of Public Works",
    "final_address": "2929 Prytania St",
    "address_councildis": "B",
    "status": "Pending",
    "rowid": "1054692",
    "final_x": "3675546.94779",
    "final_y": "521714.267449",
    "longitude": "-90.08720466792353",
    "latitude": "29.92871255204416",
    "geocoded_column": {
      "latitude": "29.92871255204416",
      "longitude": "-90.08720466792353"
    }
  },
  {
    "service_request": "2023-1054691",
    "request_type": "Trash/Recycling",
    "request_reason": "Order Recycling Cart",
    "date_created": "2023-12-08T14:20:15.000",
    "date_modified": "2023-12-08T14:20:15.000",
    "request_status": "Pending",
    "responsible_agency": "Department of Sanitation",
    "final_address": "4859 Sandalwood St",
    "address_councildis": "E",
    "status": "Pending",
    "rowid": "1054691",
    "final_x": "3712235.16222",
    "final_y": "556857.017882",
    "longitude": "-89.97006889580572",
    "latitude": "30.024193887128956",
    "geocoded_column": {
      "latitude": "30.024193887128956",
      "longitude": "-89.97006889580572"
    }
  },
  {
    "service_request": "2023-1054690",
    "request_type": "Trash/Recycling",
    "request_reason": "Request a Large Item Pick Up",
    "date_created": "2023-12-08T14:18:35.000",
    "date_modified": "2023-12-08T14:18:35.000",
    "request_status": "Pending",
    "responsible_agency": "Department of Sanitation",
    "final_address": "4859 Sandalwood St",
    "address_councildis": "E",
    "status": "Assigned to Contractor",
    "contractor": "Waste Pro",
    "rowid": "1054690",
    "final_x": "3712235.16222",
    "final_y": "556857.017882",
    "longitude": "-89.97006889580572",
    "latitude": "30.024193887128956",
    "geocoded_column": {
      "latitude": "30.024193887128956",
      "longitude": "-89.97006889580572"
    }
  },
  {
    "service_request": "2023-1054689",
    "request_type": "Trash/Recycling",
    "request_reason": "Order Recycling Cart",
    "date_created": "2023-12-08T14:15:09.000",
    "date_modified": "2023-12-08T14:15:09.000",
    "request_status": "Pending",
    "responsible_agency": "Department of Sanitation",
    "final_address": "1631 Sere St",
    "address_councildis": "D",
    "status": "Pending",
    "rowid": "1054689",
    "final_x": "3679911.70402",
    "final_y": "545571.733968",
    "longitude": "-90.07259739297464",
    "latitude": "29.99418122682221",
    "geocoded_column": {
      "latitude": "29.99418122682221",
      "longitude": "-90.07259739297464"
    }
  },
  {
    "service_request": "2023-1054688",
    "request_type": "Trash/Recycling",
    "request_reason": "Repair Trash Cart",
    "date_created": "2023-12-08T14:14:25.000",
    "date_modified": "2023-12-08T14:14:26.000",
    "request_status": "Pending",
    "responsible_agency": "Department of Sanitation",
    "final_address": "1631 Sere St",
    "address_councildis": "D",
    "status": "Assigned to Contractor",
    "contractor": "IV Waste",
    "rowid": "1054688",
    "final_x": "3679911.70402",
    "final_y": "545571.733968",
    "longitude": "-90.07259739297464",
    "latitude": "29.99418122682221",
    "geocoded_column": {
      "latitude": "29.99418122682221",
      "longitude": "-90.07259739297464"
    }
  },
  {
    "service_request": "2023-1054687",
    "request_type": "Trash/Recycling",
    "request_reason": "Request a Large Item Pick Up",
    "date_created": "2023-12-08T14:14:19.000",
    "date_modified": "2023-12-08T14:14:20.000",
    "request_status": "Pending",
    "responsible_agency": "Department of Sanitation",
    "final_address": "MORRISON RD & PARIS RD",
    "address_councildis": "E",
    "status": "Assigned to Contractor",
    "contractor": "Waste Pro",
    "rowid": "1054687",
    "final_x": "3721505.5",
    "final_y": "572975.48",
    "longitude": "-89.94015749076085",
    "latitude": "30.06820648399455",
    "geocoded_column": {
      "latitude": "30.06820648399455",
      "longitude": "-89.94015749076085"
    }
  },
  {
    "service_request": "2023-1054686",
    "request_type": "Trash/Recycling",
    "request_reason": "Missed Trash Pick-Up",
    "date_created": "2023-12-08T14:06:26.000",
    "date_modified": "2023-12-08T15:02:31.000",
    "case_close_date": "2023-12-08T09:02:31.000",
    "request_status": "Closed",
    "responsible_agency": "Department of Sanitation",
    "final_address": "4751 Marque Dr",
    "address_councildis": "E",
    "status": "Assigned to Contractor",
    "contractor": "Waste Pro",
    "contractor_action": "Invalid Request",
    "rowid": "1054686",
    "final_x": "3710130.50392",
    "final_y": "555793.217113",
    "longitude": "-89.97675895822988",
    "latitude": "30.02133753482548",
    "geocoded_column": {
      "latitude": "30.02133753482548",
      "longitude": "-89.97675895822988"
    }
  },
  {
    "service_request": "2023-1054685",
    "request_type": "Roads/Drainage",
    "request_reason": "Pothole",
    "date_created": "2023-12-08T13:58:56.000",
    "date_modified": "2023-12-08T13:58:56.000",
    "request_status": "Pending",
    "responsible_agency": "Department of Public Works",
    "final_address": "5216 Atlanta St",
    "address_councildis": "B",
    "status": "Pending",
    "rowid": "1054685",
    "final_x": "3667950.65569",
    "final_y": "520683.950457",
    "longitude": "-90.11121935799825",
    "latitude": "29.9261044765486",
    "geocoded_column": {
      "latitude": "29.9261044765486",
      "longitude": "-90.11121935799825"
    }
  },
  {
    "service_request": "2023-1054684",
    "request_type": "Roads/Drainage",
    "request_reason": "Road Shoulder Repair",
    "date_created": "2023-12-08T13:56:38.000",
    "date_modified": "2023-12-08T13:56:38.000",
    "request_status": "Pending",
    "responsible_agency": "Department of Public Works",
    "final_address": "1507 Dufossat St",
    "address_councildis": "B",
    "status": "Pending",
    "rowid": "1054684",
    "final_x": "3668186.71681",
    "final_y": "520463.654776",
    "longitude": "-90.11048160048723",
    "latitude": "29.92549180818648",
    "geocoded_column": {
      "latitude": "29.92549180818648",
      "longitude": "-90.11048160048723"
    }
  },
  {
    "service_request": "2023-1054683",
    "request_type": "Property Maintenance",
    "request_reason": "Property Maintenance",
    "date_created": "2023-12-08T13:56:15.000",
    "date_modified": "2023-12-08T13:56:16.000",
    "request_status": "Pending",
    "responsible_agency": "Department of Code Enforcement",
    "final_address": "4834 Cardenas Dr",
    "address_councildis": "E",
    "status": "Pending",
    "rowid": "1054683",
    "final_x": "3713570.24645",
    "final_y": "556778.979546",
    "longitude": "-89.96585326514642",
    "latitude": "30.023935569456842",
    "geocoded_column": {
      "latitude": "30.023935569456842",
      "longitude": "-89.96585326514642"
    }
  },
  {
    "service_request": "2023-1054682",
    "request_type": "Trash/Recycling",
    "request_reason": "Illegal Dumping",
    "date_created": "2023-12-08T13:53:35.000",
    "date_modified": "2023-12-08T13:53:35.000",
    "request_status": "Pending",
    "responsible_agency": "Department of Code Enforcement",
    "final_address": "800 BLK Roosevelt Pl",
    "address_councildis": "A",
    "status": "Pending",
    "rowid": "1054682",
    "final_x": "3673566.29325",
    "final_y": "539902.960664",
    "longitude": "-90.09283558158693",
    "latitude": "29.978784500472727",
    "geocoded_column": {
      "latitude": "29.978784500472727",
      "longitude": "-90.09283558158693"
    }
  },
  {
    "service_request": "2023-1054681",
    "request_type": "Abandoned Vehicles",
    "request_reason": "Abandoned/Junk Vehicles",
    "date_created": "2023-12-08T13:50:15.000",
    "date_modified": "2023-12-08T13:50:15.000",
    "request_status": "Pending",
    "responsible_agency": "Department of Public Works",
    "final_address": "2000 BLK Prentiss Ave",
    "address_councildis": "D",
    "status": "Pending",
    "rowid": "1054681",
    "final_x": "3682304.17604",
    "final_y": "553679.771037",
    "longitude": "-90.06475634925172",
    "latitude": "30.016402812989853",
    "geocoded_column": {
      "latitude": "30.016402812989853",
      "longitude": "-90.06475634925172"
    }
  },
  {
    "service_request": "2023-1054680",
    "request_type": "Trash/Recycling",
    "request_reason": "MIssed Recycling Pick-Up",
    "date_created": "2023-12-08T13:45:04.000",
    "date_modified": "2023-12-08T15:24:35.000",
    "case_close_date": "2023-12-08T09:24:35.000",
    "request_status": "Closed",
    "responsible_agency": "Department of Sanitation",
    "final_address": "1026 Clouet St",
    "address_councildis": "C",
    "status": "Invalid Request",
    "contractor": "IV Waste",
    "contractor_action": "Invalid Pick-Up",
    "rowid": "1054680",
    "final_x": "3688911.82191",
    "final_y": "535784.392263",
    "longitude": "-90.04451507056518",
    "latitude": "29.966994157685544",
    "geocoded_column": {
      "latitude": "29.966994157685544",
      "longitude": "-90.04451507056518"
    }
  },
  {
    "service_request": "2023-1054679",
    "request_type": "Traffic Signals/Signs/Striping/Streetlights",
    "request_reason": "Request for Stop Sign",
    "date_created": "2023-12-08T13:43:38.000",
    "date_modified": "2023-12-08T13:43:39.000",
    "request_status": "Pending",
    "responsible_agency": "Department of Public Works",
    "final_address": "2100 BLK Lafreniere St",
    "address_councildis": "D",
    "status": "Pending",
    "rowid": "1054679",
    "final_x": "3684038.53707",
    "final_y": "545493.325796",
    "longitude": "-90.05956405932602",
    "latitude": "29.993840135318198",
    "geocoded_column": {
      "latitude": "29.993840135318198",
      "longitude": "-90.05956405932602"
    }
  },
  {
    "service_request": "2023-1054678",
    "request_type": "Trash/Recycling",
    "request_reason": "Request a Large Item Pick Up",
    "date_created": "2023-12-08T13:43:01.000",
    "date_modified": "2023-12-08T13:43:02.000",
    "request_status": "Pending",
    "responsible_agency": "Department of Sanitation",
    "final_address": "5900 BLK Chef Menteur Hwy",
    "address_councildis": "D",
    "status": "Assigned to Contractor",
    "contractor": "Waste Pro",
    "rowid": "1054678",
    "final_x": "3696380.06915",
    "final_y": "551532.29272",
    "longitude": "-90.02036058677139",
    "latitude": "30.010062049372024",
    "geocoded_column": {
      "latitude": "30.010062049372024",
      "longitude": "-90.02036058677139"
    }
  },
  {
    "service_request": "2023-1054677",
    "request_type": "Trash/Recycling",
    "request_reason": "Request a Large Item Pick Up",
    "date_created": "2023-12-08T13:39:01.000",
    "date_modified": "2023-12-08T13:39:02.000",
    "request_status": "Pending",
    "responsible_agency": "Department of Sanitation",
    "final_address": "3509 Bacchus Dr",
    "address_councildis": "C",
    "status": "Assigned to Contractor",
    "contractor": "Richards Disposal",
    "rowid": "1054677",
    "final_x": "3710074.09329",
    "final_y": "517778.195126",
    "longitude": "-89.97835759796413",
    "latitude": "29.91681210774765",
    "geocoded_column": {
      "latitude": "29.91681210774765",
      "longitude": "-89.97835759796413"
    }
  },
  {
    "service_request": "2023-1054676",
    "request_type": "Trash/Recycling",
    "request_reason": "Request a Large Item Pick Up",
    "date_created": "2023-12-08T13:38:58.000",
    "date_modified": "2023-12-08T13:38:58.000",
    "request_status": "Pending",
    "responsible_agency": "Department of Sanitation",
    "final_address": "801 Patterson St Apt 107",
    "address_councildis": "C",
    "status": "Assigned to Contractor",
    "contractor": "Richards Disposal",
    "rowid": "1054676",
    "final_x": "3687958.50198",
    "final_y": "531345.146178",
    "longitude": "-90.04768294739662",
    "latitude": "29.954817219148392",
    "geocoded_column": {
      "latitude": "29.954817219148392",
      "longitude": "-90.04768294739662"
    }
  },
  {
    "service_request": "2023-1054675",
    "request_type": "Safety & Permits",
    "request_reason": "Licenses & Permits",
    "date_created": "2023-12-08T13:34:58.000",
    "date_modified": "2023-12-08T13:34:59.000",
    "request_status": "Pending",
    "responsible_agency": "Safety and Permits",
    "final_address": "216 S Genois St",
    "address_councildis": "B",
    "status": "Pending",
    "rowid": "1054675",
    "final_x": "3672352.9618",
    "final_y": "536652.506951",
    "longitude": "-90.096778536813",
    "latitude": "29.96988291700896",
    "geocoded_column": {
      "latitude": "29.96988291700896",
      "longitude": "-90.096778536813"
    }
  },
  {
    "service_request": "2023-1054673",
    "request_type": "Abandoned Vehicles",
    "request_reason": "Abandoned/Junk Vehicles",
    "date_created": "2023-12-08T13:30:39.000",
    "date_modified": "2023-12-08T13:30:39.000",
    "request_status": "Pending",
    "responsible_agency": "Department of Public Works",
    "final_address": "222 S Dorgenois St",
    "address_councildis": "B",
    "status": "Pending",
    "rowid": "1054673",
    "final_x": "3675469.09608",
    "final_y": "534229.887557",
    "longitude": "-90.08702069420913",
    "latitude": "29.96312869891764",
    "geocoded_column": {
      "latitude": "29.96312869891764",
      "longitude": "-90.08702069420913"
    }
  },
  {
    "service_request": "2023-1054672",
    "request_type": "Trash/Recycling",
    "request_reason": "MIssed Recycling Pick-Up",
    "date_created": "2023-12-08T13:27:42.000",
    "date_modified": "2023-12-08T14:16:45.000",
    "case_close_date": "2023-12-08T08:16:45.000",
    "request_status": "Closed",
    "responsible_agency": "Department of Sanitation",
    "final_address": "6231 Curran Rd",
    "address_councildis": "E",
    "status": "Assigned to Contractor",
    "contractor": "Waste Pro",
    "contractor_action": "Invalid Request",
    "rowid": "1054672",
    "final_x": "3696132.0177",
    "final_y": "559202.108316",
    "longitude": "-90.02086671371484",
    "latitude": "30.03115895362659",
    "geocoded_column": {
      "latitude": "30.03115895362659",
      "longitude": "-90.02086671371484"
    }
  },
  {
    "service_request": "2023-1054671",
    "request_type": "Trash/Recycling",
    "request_reason": "Request a Large Item Pick Up",
    "date_created": "2023-12-08T13:25:24.000",
    "date_modified": "2023-12-08T13:25:24.000",
    "request_status": "Pending",
    "responsible_agency": "Department of Sanitation",
    "final_address": "2515 Monticello St",
    "address_councildis": "E",
    "status": "Assigned to Contractor",
    "contractor": "Waste Pro",
    "rowid": "1054671",
    "final_x": "3701087.99204",
    "final_y": "538641.731977",
    "longitude": "-90.00595841023721",
    "latitude": "29.974468611464236",
    "geocoded_column": {
      "latitude": "29.974468611464236",
      "longitude": "-90.00595841023721"
    }
  },
  {
    "service_request": "2023-1054670",
    "request_type": "Trash/Recycling",
    "request_reason": "Request a Large Item Pick Up",
    "date_created": "2023-12-08T13:24:36.000",
    "date_modified": "2023-12-08T13:24:36.000",
    "request_status": "Pending",
    "responsible_agency": "Department of Sanitation",
    "final_address": "4528 S Liberty St",
    "address_councildis": "B",
    "status": "Assigned to Contractor",
    "contractor": "Richards Disposal",
    "rowid": "1054670",
    "final_x": "3669994.49486",
    "final_y": "523243.311227",
    "longitude": "-90.10468090168104",
    "latitude": "29.9330818017177",
    "geocoded_column": {
      "latitude": "29.9330818017177",
      "longitude": "-90.10468090168104"
    }
  },
  {
    "service_request": "2023-1054669",
    "request_type": "Trash/Recycling",
    "request_reason": "Order Trash Cart",
    "date_created": "2023-12-08T13:23:29.000",
    "date_modified": "2023-12-08T13:23:30.000",
    "request_status": "Pending",
    "responsible_agency": "Department of Sanitation",
    "final_address": "1523 Dumaine St",
    "address_councildis": "C",
    "status": "Assigned to Contractor",
    "contractor": "Richards Disposal",
    "rowid": "1054669",
    "final_x": "3680623.50511",
    "final_y": "534915.098374",
    "longitude": "-90.0707198452991",
    "latitude": "29.96485763182781",
    "geocoded_column": {
      "latitude": "29.96485763182781",
      "longitude": "-90.0707198452991"
    }
  },
  {
    "service_request": "2023-1054668",
    "request_type": "Trash/Recycling",
    "request_reason": "Replace Trash Cart",
    "date_created": "2023-12-08T13:22:46.000",
    "date_modified": "2023-12-08T13:22:47.000",
    "request_status": "Pending",
    "responsible_agency": "Department of Sanitation",
    "final_address": "3830 Banks St",
    "address_councildis": "B",
    "status": "Assigned to Contractor",
    "contractor": "Richards Disposal",
    "rowid": "1054668",
    "final_x": "3671097.28596",
    "final_y": "536742.230727",
    "longitude": "-90.10074104218792",
    "latitude": "29.970166827725425",
    "geocoded_column": {
      "latitude": "29.970166827725425",
      "longitude": "-90.10074104218792"
    }
  },
  {
    "service_request": "2023-1054667",
    "request_type": "Trash/Recycling",
    "request_reason": "Request a Large Item Pick Up",
    "date_created": "2023-12-08T13:21:15.000",
    "date_modified": "2023-12-08T13:21:16.000",
    "request_status": "Pending",
    "responsible_agency": "Department of Sanitation",
    "final_address": "4523 Iberville St",
    "address_councildis": "A",
    "status": "Assigned to Contractor",
    "contractor": "Richards Disposal",
    "rowid": "1054667",
    "final_x": "3669853.26126",
    "final_y": "539922.376522",
    "longitude": "-90.10456211149005",
    "latitude": "29.978947894716445",
    "geocoded_column": {
      "latitude": "29.978947894716445",
      "longitude": "-90.10456211149005"
    }
  },
  {
    "service_request": "2023-1054666",
    "request_type": "Trash/Recycling",
    "request_reason": "Missed Trash Pick-Up",
    "date_created": "2023-12-08T13:20:51.000",
    "date_modified": "2023-12-08T13:20:52.000",
    "request_status": "Pending",
    "responsible_agency": "Department of Sanitation",
    "final_address": "8126 Apricot St",
    "address_councildis": "A",
    "status": "Assigned to Contractor",
    "contractor": "Richards Disposal",
    "rowid": "1054666",
    "final_x": "3665594.31264",
    "final_y": "532718.98298",
    "longitude": "-90.11825481200363",
    "latitude": "29.95926584415831",
    "geocoded_column": {
      "latitude": "29.95926584415831",
      "longitude": "-90.11825481200363"
    }
  },
  {
    "service_request": "2023-1054665",
    "request_type": "Property Maintenance",
    "request_reason": "Property Maintenance",
    "date_created": "2023-12-08T13:16:16.000",
    "date_modified": "2023-12-08T13:16:16.000",
    "request_status": "Pending",
    "responsible_agency": "Department of Code Enforcement",
    "final_address": "1712 Eagle St",
    "address_councildis": "A",
    "status": "Pending",
    "rowid": "1054665",
    "final_x": "3661358.99302",
    "final_y": "531469.633859",
    "longitude": "-90.13167037566048",
    "latitude": "29.95595335269851",
    "geocoded_column": {
      "latitude": "29.95595335269851",
      "longitude": "-90.13167037566048"
    }
  },
  {
    "service_request": "2023-1054664",
    "request_type": "Trash/Recycling",
    "request_reason": "Request a Large Item Pick Up",
    "date_created": "2023-12-08T13:14:17.000",
    "date_modified": "2023-12-08T13:14:18.000",
    "request_status": "Pending",
    "responsible_agency": "Department of Sanitation",
    "final_address": "2515 Monticello St",
    "address_councildis": "E",
    "status": "Assigned to Contractor",
    "contractor": "Waste Pro",
    "rowid": "1054664",
    "final_x": "3701087.99204",
    "final_y": "538641.731977",
    "longitude": "-90.00595841023721",
    "latitude": "29.974468611464236",
    "geocoded_column": {
      "latitude": "29.974468611464236",
      "longitude": "-90.00595841023721"
    }
  },
  {
    "service_request": "2023-1054663",
    "request_type": "Trash/Recycling",
    "request_reason": "Request a Large Item Pick Up",
    "date_created": "2023-12-08T13:13:17.000",
    "date_modified": "2023-12-08T13:13:18.000",
    "request_status": "Pending",
    "responsible_agency": "Department of Sanitation",
    "final_address": "2515 Monticello St",
    "address_councildis": "E",
    "status": "Assigned to Contractor",
    "contractor": "Waste Pro",
    "rowid": "1054663",
    "final_x": "3701087.99204",
    "final_y": "538641.731977",
    "longitude": "-90.00595841023721",
    "latitude": "29.974468611464236",
    "geocoded_column": {
      "latitude": "29.974468611464236",
      "longitude": "-90.00595841023721"
    }
  },
  {
    "service_request": "2023-1054662",
    "request_type": "Trash/Recycling",
    "request_reason": "Missed Trash Pick-Up",
    "date_created": "2023-12-08T13:06:58.000",
    "date_modified": "2023-12-08T15:22:58.000",
    "case_close_date": "2023-12-08T09:22:58.000",
    "request_status": "Closed",
    "responsible_agency": "Department of Sanitation",
    "final_address": "4651 Marigny St",
    "address_councildis": "D",
    "status": "Invalid Request",
    "contractor": "IV Waste",
    "contractor_action": "Invalid Pick-Up",
    "rowid": "1054662",
    "final_x": "3684535.26063",
    "final_y": "549866.913748",
    "longitude": "-90.05784119747109",
    "latitude": "30.005850737687247",
    "geocoded_column": {
      "latitude": "30.005850737687247",
      "longitude": "-90.05784119747109"
    }
  },
  {
    "service_request": "2023-1054661",
    "request_type": "Roads/Drainage",
    "request_reason": "Pothole",
    "date_created": "2023-12-08T13:06:45.000",
    "date_modified": "2023-12-08T13:07:18.000",
    "case_close_date": "2023-12-08T07:07:18.000",
    "request_status": "Closed",
    "responsible_agency": "Department of Public Works",
    "final_address": "400 BLK N Claiborne Ave",
    "address_councildis": "B",
    "status": "Resolved",
    "rowid": "1054661",
    "final_x": "3679146.42415",
    "final_y": "533883.176772",
    "longitude": "-90.07542014750857",
    "latitude": "29.962064869567975",
    "geocoded_column": {
      "latitude": "29.962064869567975",
      "longitude": "-90.07542014750857"
    }
  },
  {
    "service_request": "2023-1054660",
    "request_type": "Trash/Recycling",
    "request_reason": "Request a Large Item Pick Up",
    "date_created": "2023-12-08T13:05:18.000",
    "date_modified": "2023-12-08T13:05:19.000",
    "request_status": "Pending",
    "responsible_agency": "Department of Sanitation",
    "final_address": "8023 Benson St",
    "address_councildis": "E",
    "status": "Assigned to Contractor",
    "contractor": "Waste Pro",
    "rowid": "1054660",
    "final_x": "3703899.70276",
    "final_y": "563611.358817",
    "longitude": "-89.99615814068312",
    "latitude": "30.043035733599485",
    "geocoded_column": {
      "latitude": "30.043035733599485",
      "longitude": "-89.99615814068312"
    }
  },
  {
    "service_request": "2023-1054659",
    "request_type": "Roads/Drainage",
    "request_reason": "Pothole",
    "date_created": "2023-12-08T13:02:38.000",
    "date_modified": "2023-12-08T13:04:01.000",
    "case_close_date": "2023-12-08T07:04:01.000",
    "request_status": "Closed",
    "responsible_agency": "Department of Public Works",
    "final_address": "1839 Marengo St",
    "address_councildis": "B",
    "status": "Resolved",
    "rowid": "1054659",
    "final_x": "3671913.81806",
    "final_y": "522009.54041",
    "longitude": "-90.09866368656517",
    "latitude": "29.9296326006124",
    "geocoded_column": {
      "latitude": "29.9296326006124",
      "longitude": "-90.09866368656517"
    }
  },
  {
    "service_request": "2023-1054658",
    "request_type": "Trash/Recycling",
    "request_reason": "Request a Large Item Pick Up",
    "date_created": "2023-12-08T13:01:51.000",
    "date_modified": "2023-12-08T13:01:51.000",
    "request_status": "Pending",
    "responsible_agency": "Department of Sanitation",
    "final_address": "1938 Shalett St",
    "address_councildis": "C",
    "status": "Assigned to Contractor",
    "contractor": "Richards Disposal",
    "rowid": "1054658",
    "final_x": "3694297.44157",
    "final_y": "523202.372859",
    "longitude": "-90.02796000253919",
    "latitude": "29.93223031634593",
    "geocoded_column": {
      "latitude": "29.93223031634593",
      "longitude": "-90.02796000253919"
    }
  },
  {
    "service_request": "2023-1054657",
    "request_type": "Roads/Drainage",
    "request_reason": "Catch Basin - Clogged",
    "date_created": "2023-12-08T13:00:51.000",
    "date_modified": "2023-12-08T13:00:52.000",
    "request_status": "Pending",
    "responsible_agency": "Department of Public Works",
    "final_address": "6800 BLK Argonne Blvd",
    "address_councildis": "A",
    "status": "Pending",
    "rowid": "1054657",
    "final_x": "3670698.84295",
    "final_y": "552846.778608",
    "longitude": "-90.10145258073942",
    "latitude": "30.0144605590517",
    "geocoded_column": {
      "latitude": "30.0144605590517",
      "longitude": "-90.10145258073942"
    }
  },
  {
    "service_request": "2023-1054656",
    "request_type": "Roads/Drainage",
    "request_reason": "Pothole",
    "date_created": "2023-12-08T13:00:26.000",
    "date_modified": "2023-12-08T13:00:53.000",
    "case_close_date": "2023-12-08T07:00:53.000",
    "request_status": "Closed",
    "responsible_agency": "Department of Public Works",
    "final_address": "1625 General Taylor St",
    "address_councildis": "B",
    "status": "Resolved",
    "rowid": "1054656",
    "final_x": "3672615.84424",
    "final_y": "521265.630713",
    "longitude": "-90.09647286001298",
    "latitude": "29.927566269717005",
    "geocoded_column": {
      "latitude": "29.927566269717005",
      "longitude": "-90.09647286001298"
    }
  },
  {
    "service_request": "2023-1054655",
    "request_type": "Trash/Recycling",
    "request_reason": "Request a Large Item Pick Up",
    "date_created": "2023-12-08T12:59:05.000",
    "date_modified": "2023-12-08T12:59:06.000",
    "request_status": "Pending",
    "responsible_agency": "Department of Sanitation",
    "final_address": "6424 General Haig St",
    "address_councildis": "A",
    "status": "Assigned to Contractor",
    "contractor": "IV Waste",
    "rowid": "1054655",
    "final_x": "3670729.1195",
    "final_y": "550063.224852",
    "longitude": "-90.10145147211058",
    "latitude": "30.006805872639035",
    "geocoded_column": {
      "latitude": "30.006805872639035",
      "longitude": "-90.10145147211058"
    }
  },
  {
    "service_request": "2023-1054654",
    "request_type": "Trash/Recycling",
    "request_reason": "Order Recycling Cart",
    "date_created": "2023-12-08T12:54:42.000",
    "date_modified": "2023-12-08T12:54:42.000",
    "request_status": "Pending",
    "responsible_agency": "Department of Sanitation",
    "final_address": "6227 Wadsworth Dr",
    "address_councildis": "D",
    "status": "Pending",
    "rowid": "1054654",
    "final_x": "3681669.01512",
    "final_y": "555976.583257",
    "longitude": "-90.06668296144453",
    "latitude": "30.02273752712933",
    "geocoded_column": {
      "latitude": "30.02273752712933",
      "longitude": "-90.06668296144453"
    }
  },
  {
    "service_request": "2023-1054653",
    "request_type": "Trash/Recycling",
    "request_reason": "Order Recycling Cart",
    "date_created": "2023-12-08T12:54:13.000",
    "date_modified": "2023-12-08T12:54:13.000",
    "request_status": "Pending",
    "responsible_agency": "Department of Sanitation",
    "final_address": "6229 Wadsworth Dr",
    "address_councildis": "D",
    "status": "Pending",
    "rowid": "1054653",
    "final_x": "3681666.41096",
    "final_y": "555996.114521",
    "longitude": "-90.06669050777617",
    "latitude": "30.02279131009338",
    "geocoded_column": {
      "latitude": "30.02279131009338",
      "longitude": "-90.06669050777617"
    }
  },
  {
    "service_request": "2023-1054652",
    "request_type": "Trash/Recycling",
    "request_reason": "Return Trash Cart",
    "date_created": "2023-12-08T12:48:21.000",
    "date_modified": "2023-12-08T12:48:22.000",
    "request_status": "Pending",
    "responsible_agency": "Department of Sanitation",
    "final_address": "4850 Eunice Dr",
    "address_councildis": "E",
    "status": "Assigned to Contractor",
    "contractor": "Waste Pro",
    "rowid": "1054652",
    "final_x": "3710385.81182",
    "final_y": "556615.923354",
    "longitude": "-89.97592146850751",
    "latitude": "30.023591341176044",
    "geocoded_column": {
      "latitude": "30.023591341176044",
      "longitude": "-89.97592146850751"
    }
  },
  {
    "service_request": "2023-1054651",
    "request_type": "Trash/Recycling",
    "request_reason": "Request a Large Item Pick Up",
    "date_created": "2023-12-08T12:41:13.000",
    "date_modified": "2023-12-08T12:41:14.000",
    "request_status": "Pending",
    "responsible_agency": "Department of Sanitation",
    "final_address": "5488 Grand Bayou Dr",
    "address_councildis": "E",
    "status": "Assigned to Contractor",
    "contractor": "Waste Pro",
    "rowid": "1054651",
    "final_x": "3725289.05216",
    "final_y": "563450.3528",
    "longitude": "-89.92856621265551",
    "latitude": "30.04188935437337",
    "geocoded_column": {
      "latitude": "30.04188935437337",
      "longitude": "-89.92856621265551"
    }
  },
  {
    "service_request": "2023-1054650",
    "request_type": "Trash/Recycling",
    "request_reason": "Order Trash Cart",
    "date_created": "2023-12-08T12:40:01.000",
    "date_modified": "2023-12-08T12:40:02.000",
    "request_status": "Pending",
    "responsible_agency": "Department of Sanitation",
    "final_address": "1750 N Miro St",
    "address_councildis": "D",
    "status": "Assigned to Contractor",
    "contractor": "IV Waste",
    "rowid": "1054650",
    "final_x": "3681357.84328",
    "final_y": "540051.422411",
    "longitude": "-90.06822176833593",
    "latitude": "29.97895847902771",
    "geocoded_column": {
      "latitude": "29.97895847902771",
      "longitude": "-90.06822176833593"
    }
  },
  {
    "service_request": "2023-1054649",
    "request_type": "Roads/Drainage",
    "request_reason": "Pothole",
    "date_created": "2023-12-08T12:39:54.000",
    "date_modified": "2023-12-08T12:40:18.000",
    "case_close_date": "2023-12-08T06:40:18.000",
    "request_status": "Closed",
    "responsible_agency": "Department of Public Works",
    "final_address": "8712 Morrison Rd",
    "address_councildis": "E",
    "status": "Resolved",
    "rowid": "1054649",
    "final_x": "3705236.33201",
    "final_y": "561516.378783",
    "longitude": "-89.99201138094902",
    "latitude": "30.037232409128308",
    "geocoded_column": {
      "latitude": "30.037232409128308",
      "longitude": "-89.99201138094902"
    }
  },
  {
    "service_request": "2023-1054648",
    "request_type": "Trash/Recycling",
    "request_reason": "MIssed Recycling Pick-Up",
    "date_created": "2023-12-08T12:35:37.000",
    "date_modified": "2023-12-08T12:35:37.000",
    "request_status": "Pending",
    "responsible_agency": "Department of Sanitation",
    "final_address": "31 Westpark Ct",
    "address_councildis": "C",
    "status": "Assigned to Contractor",
    "contractor": "Richards Disposal",
    "rowid": "1054648",
    "final_x": "3695921.74256",
    "final_y": "521624.171705",
    "longitude": "-90.02288924612026",
    "latitude": "29.927839821590403",
    "geocoded_column": {
      "latitude": "29.927839821590403",
      "longitude": "-90.02288924612026"
    }
  },
  {
    "service_request": "2023-1054647",
    "request_type": "Traffic Signals/Signs/Striping/Streetlights",
    "request_reason": "Street Light Outage/Malfunction",
    "date_created": "2023-12-08T12:31:16.000",
    "date_modified": "2023-12-08T12:31:16.000",
    "request_status": "Pending",
    "responsible_agency": "Department of Public Works",
    "final_address": "5700 BLK Laurel St",
    "address_councildis": "A",
    "status": "Assigned to Contractor",
    "contractor": "Legacy Professional Services",
    "rowid": "1054647",
    "final_x": "3665457.2094",
    "final_y": "517972.424801",
    "longitude": "-90.11918117563594",
    "latitude": "29.918721521769122",
    "geocoded_column": {
      "latitude": "29.918721521769122",
      "longitude": "-90.11918117563594"
    }
  },
  {
    "service_request": "2023-1054646",
    "request_type": "Trash/Recycling",
    "request_reason": "Replace Trash Cart",
    "date_created": "2023-12-08T12:29:05.000",
    "date_modified": "2023-12-08T12:29:05.000",
    "request_status": "Pending",
    "responsible_agency": "Department of Sanitation",
    "final_address": "3029 Iberville St",
    "address_councildis": "B",
    "status": "Assigned to Contractor",
    "contractor": "Richards Disposal",
    "rowid": "1054646",
    "final_x": "3674451.2738",
    "final_y": "536383.574151",
    "longitude": "-90.09016107287646",
    "latitude": "29.969081011896304",
    "geocoded_column": {
      "latitude": "29.969081011896304",
      "longitude": "-90.09016107287646"
    }
  },
  {
    "service_request": "2023-1054645",
    "request_type": "Parks & Parkways",
    "request_reason": "Request Tree Service (Right of Way/Public Property)",
    "date_created": "2023-12-08T12:26:32.000",
    "date_modified": "2023-12-08T13:39:58.000",
    "request_status": "Pending",
    "responsible_agency": "Department of Parks & Parkway",
    "final_address": "S HENNESSEY ST & CANAL ST",
    "address_councildis": "A",
    "status": "Pending",
    "rowid": "1054645",
    "final_x": "3670278.8",
    "final_y": "538931.98",
    "longitude": "-90.103251674195",
    "latitude": "29.976212084946702",
    "geocoded_column": {
      "latitude": "29.976212084946702",
      "longitude": "-90.103251674195"
    }
  },
  {
    "service_request": "2023-1054644",
    "request_type": "Parks & Parkways",
    "request_reason": "Request Tree Service (Right of Way/Public Property)",
    "date_created": "2023-12-08T12:24:59.000",
    "date_modified": "2023-12-08T12:25:00.000",
    "request_status": "Pending",
    "responsible_agency": "Department of Parks & Parkway",
    "final_address": "S ALEXANDER ST & CANAL ST",
    "address_councildis": "A",
    "status": "Pending",
    "rowid": "1054644",
    "final_x": "3669978.8",
    "final_y": "539153.98",
    "longitude": "-90.10419164432382",
    "latitude": "29.976831361968795",
    "geocoded_column": {
      "latitude": "29.976831361968795",
      "longitude": "-90.10419164432382"
    }
  },
  {
    "service_request": "2023-1054643",
    "request_type": "Roads/Drainage",
    "request_reason": "Catch Basin - Clogged",
    "date_created": "2023-12-08T12:21:07.000",
    "date_modified": "2023-12-08T12:21:07.000",
    "request_status": "Pending",
    "responsible_agency": "Department of Public Works",
    "final_address": "1780 Rosiere St",
    "address_councildis": "D",
    "status": "Pending",
    "rowid": "1054643",
    "final_x": "3678807.61749",
    "final_y": "542024.949836",
    "longitude": "-90.0762079724432",
    "latitude": "29.98446216924547",
    "geocoded_column": {
      "latitude": "29.98446216924547",
      "longitude": "-90.0762079724432"
    }
  },
  {
    "service_request": "2023-1054642",
    "request_type": "Traffic Signals/Signs/Striping/Streetlights",
    "request_reason": "Additional signage",
    "date_created": "2023-12-08T12:11:54.000",
    "date_modified": "2023-12-08T12:11:54.000",
    "request_status": "Pending",
    "responsible_agency": "Department of Public Works",
    "final_address": "1110 Kabel Dr",
    "address_councildis": "C",
    "status": "Pending",
    "rowid": "1054642",
    "final_x": "3700871.61085",
    "final_y": "523480.715323",
    "longitude": "-90.0071959516777",
    "latitude": "29.93278808884642",
    "geocoded_column": {
      "latitude": "29.93278808884642",
      "longitude": "-90.0071959516777"
    }
  },
  {
    "service_request": "2023-1054641",
    "request_type": "Trash/Recycling",
    "request_reason": "Request a Large Item Pick Up",
    "date_created": "2023-12-08T12:10:50.000",
    "date_modified": "2023-12-08T12:10:51.000",
    "request_status": "Pending",
    "responsible_agency": "Department of Sanitation",
    "final_address": "8730 Gervais St",
    "address_councildis": "E",
    "status": "Assigned to Contractor",
    "contractor": "Waste Pro",
    "rowid": "1054641",
    "final_x": "3704458.05918",
    "final_y": "562951.712224",
    "longitude": "-89.99441787848068",
    "latitude": "30.04120403806333",
    "geocoded_column": {
      "latitude": "30.04120403806333",
      "longitude": "-89.99441787848068"
    }
  },
  {
    "service_request": "2023-1054640",
    "request_type": "Traffic Signals/Signs/Striping/Streetlights",
    "request_reason": "Additional signage",
    "date_created": "2023-12-08T12:08:08.000",
    "date_modified": "2023-12-08T12:08:08.000",
    "request_status": "Pending",
    "responsible_agency": "Department of Public Works",
    "final_address": "3800 General Meyer Ave",
    "address_councildis": "C",
    "status": "Pending",
    "rowid": "1054640",
    "final_x": "3698014.23715",
    "final_y": "525324.295933",
    "longitude": "-90.0161495005091",
    "latitude": "29.93794791987945",
    "geocoded_column": {
      "latitude": "29.93794791987945",
      "longitude": "-90.0161495005091"
    }
  },
  {
    "service_request": "2023-1054639",
    "request_type": "Abandoned Vehicles",
    "request_reason": "Abandoned/Junk Vehicles",
    "date_created": "2023-12-08T12:06:57.000",
    "date_modified": "2023-12-08T12:06:57.000",
    "request_status": "Pending",
    "responsible_agency": "Department of Public Works",
    "final_address": "2925 Tulane Ave",
    "address_councildis": "B",
    "status": "Pending",
    "rowid": "1054639",
    "final_x": "3673322.32417",
    "final_y": "534316.548677",
    "longitude": "-90.09379699692013",
    "latitude": "29.96343101818244",
    "geocoded_column": {
      "latitude": "29.96343101818244",
      "longitude": "-90.09379699692013"
    }
  },
  {
    "service_request": "2023-1054638",
    "request_type": "Taxi Issues",
    "request_reason": "School Bus Complaints",
    "date_created": "2023-12-08T12:05:53.000",
    "date_modified": "2023-12-08T12:05:53.000",
    "request_status": "Pending",
    "responsible_agency": "Department of Public Works",
    "final_address": "1210 Kabel Dr",
    "address_councildis": "C",
    "status": "Pending",
    "rowid": "1054638",
    "final_x": "3700861.89181",
    "final_y": "523165.423547",
    "longitude": "-90.00723815301582",
    "latitude": "29.931921455163717",
    "geocoded_column": {
      "latitude": "29.931921455163717",
      "longitude": "-90.00723815301582"
    }
  },
  {
    "service_request": "2023-1054637",
    "request_type": "Abandoned Vehicles",
    "request_reason": "Abandoned/Junk Vehicles",
    "date_created": "2023-12-08T12:03:43.000",
    "date_modified": "2023-12-08T12:03:43.000",
    "request_status": "Pending",
    "responsible_agency": "Department of Public Works",
    "final_address": "2925 Tulane Ave",
    "address_councildis": "B",
    "status": "Pending",
    "rowid": "1054637",
    "final_x": "3673322.32417",
    "final_y": "534316.548677",
    "longitude": "-90.09379699692013",
    "latitude": "29.96343101818244",
    "geocoded_column": {
      "latitude": "29.96343101818244",
      "longitude": "-90.09379699692013"
    }
  },
  {
    "service_request": "2023-1054636",
    "request_type": "Trash/Recycling",
    "request_reason": "Order Recycling Cart",
    "date_created": "2023-12-08T11:53:01.000",
    "date_modified": "2023-12-08T11:53:02.000",
    "request_status": "Pending",
    "responsible_agency": "Department of Sanitation",
    "final_address": "2028 Seventh St",
    "address_councildis": "B",
    "status": "Pending",
    "rowid": "1054636",
    "final_x": "3674299.89729",
    "final_y": "523463.897723",
    "longitude": "-90.09108147411446",
    "latitude": "29.93356070044637",
    "geocoded_column": {
      "latitude": "29.93356070044637",
      "longitude": "-90.09108147411446"
    }
  },
  {
    "service_request": "2023-1054635",
    "request_type": "Trash/Recycling",
    "request_reason": "Order Trash Cart",
    "date_created": "2023-12-08T11:52:50.000",
    "date_modified": "2023-12-08T11:52:51.000",
    "request_status": "Pending",
    "responsible_agency": "Department of Sanitation",
    "final_address": "2028 Seventh St",
    "address_councildis": "B",
    "status": "Assigned to Contractor",
    "contractor": "Richards Disposal",
    "rowid": "1054635",
    "final_x": "3674299.89729",
    "final_y": "523463.897723",
    "longitude": "-90.09108147411446",
    "latitude": "29.93356070044637",
    "geocoded_column": {
      "latitude": "29.93356070044637",
      "longitude": "-90.09108147411446"
    }
  },
  {
    "service_request": "2023-1054634",
    "request_type": "Trash/Recycling",
    "request_reason": "Request a Large Item Pick Up",
    "date_created": "2023-12-08T11:49:08.000",
    "date_modified": "2023-12-08T11:49:09.000",
    "request_status": "Pending",
    "responsible_agency": "Department of Sanitation",
    "final_address": "6954 Foch Rd",
    "address_councildis": "D",
    "status": "Assigned to Contractor",
    "contractor": "Waste Pro",
    "rowid": "1054634",
    "final_x": "3696456.46999",
    "final_y": "556667.512026",
    "longitude": "-90.01993324472464",
    "latitude": "30.024179558756934",
    "geocoded_column": {
      "latitude": "30.024179558756934",
      "longitude": "-90.01993324472464"
    }
  },
  {
    "service_request": "2023-1054633",
    "request_type": "Roads/Drainage",
    "request_reason": "Catch Basin - Clogged",
    "date_created": "2023-12-08T11:48:59.000",
    "date_modified": "2023-12-08T11:48:59.000",
    "request_status": "Pending",
    "responsible_agency": "Department of Public Works",
    "final_address": "5900 BLK General Diaz St",
    "address_councildis": "A",
    "status": "Pending",
    "rowid": "1054633",
    "final_x": "3669472.17086",
    "final_y": "546854.508113",
    "longitude": "-90.10553113968012",
    "latitude": "29.99802011545594",
    "geocoded_column": {
      "latitude": "29.99802011545594",
      "longitude": "-90.10553113968012"
    }
  },
  {
    "service_request": "2023-1054632",
    "request_type": "Abandoned Vehicles",
    "request_reason": "Abandoned/Junk Vehicles",
    "date_created": "2023-12-08T11:48:56.000",
    "date_modified": "2023-12-08T11:48:56.000",
    "request_status": "Pending",
    "responsible_agency": "Department of Public Works",
    "final_address": "1201 Kabel Dr",
    "address_councildis": "C",
    "status": "Pending",
    "rowid": "1054632",
    "final_x": "3700695.18449",
    "final_y": "523222.915195",
    "longitude": "-90.00776232723918",
    "latitude": "29.93208484120383",
    "geocoded_column": {
      "latitude": "29.93208484120383",
      "longitude": "-90.00776232723918"
    }
  },
  {
    "service_request": "2023-1054631",
    "request_type": "Parks & Parkways",
    "request_reason": "Request Tree Service (Right of Way/Public Property)",
    "date_created": "2023-12-08T11:41:19.000",
    "date_modified": "2023-12-08T11:41:19.000",
    "request_status": "Pending",
    "responsible_agency": "Department of Parks & Parkway",
    "final_address": "1007 Fourth St",
    "address_councildis": "B",
    "status": "Pending",
    "rowid": "1054631",
    "final_x": "3677506.79048",
    "final_y": "520774.506809",
    "longitude": "-90.0810502698121",
    "latitude": "29.92606976464972",
    "geocoded_column": {
      "latitude": "29.92606976464972",
      "longitude": "-90.0810502698121"
    }
  },
  {
    "service_request": "2023-1054630",
    "request_type": "Roads/Drainage",
    "request_reason": "Service Cut",
    "date_created": "2023-12-08T11:40:24.000",
    "date_modified": "2023-12-08T11:40:25.000",
    "request_status": "Pending",
    "responsible_agency": "Department of Public Works",
    "final_address": "2924 Wall Blvd",
    "address_councildis": "C",
    "status": "Pending",
    "rowid": "1054630",
    "final_x": "3694858.59306",
    "final_y": "523972.8407",
    "longitude": "-90.0261607622448",
    "latitude": "29.934331249324735",
    "geocoded_column": {
      "latitude": "29.934331249324735",
      "longitude": "-90.0261607622448"
    }
  },
  {
    "service_request": "2023-1054629",
    "request_type": "Trash/Recycling",
    "request_reason": "Order Recycling Cart",
    "date_created": "2023-12-08T11:37:31.000",
    "date_modified": "2023-12-08T11:37:31.000",
    "request_status": "Pending",
    "responsible_agency": "Department of Sanitation",
    "final_address": "2748 Wisteria St",
    "address_councildis": "D",
    "status": "Pending",
    "rowid": "1054629",
    "final_x": "3688117.12867",
    "final_y": "548431.433746",
    "longitude": "-90.04657619632039",
    "latitude": "30.001793571636597",
    "geocoded_column": {
      "latitude": "30.001793571636597",
      "longitude": "-90.04657619632039"
    }
  },
  {
    "service_request": "2023-1054628",
    "request_type": "Roads/Drainage",
    "request_reason": "Pothole",
    "date_created": "2023-12-08T11:36:09.000",
    "date_modified": "2023-12-08T12:07:09.000",
    "case_close_date": "2023-12-08T06:07:09.000",
    "request_status": "Closed",
    "responsible_agency": "Department of Public Works",
    "final_address": "4117 Willow St",
    "address_councildis": "B",
    "status": "Resolved",
    "rowid": "1054628",
    "final_x": "3671390.3243",
    "final_y": "525574.892861",
    "longitude": "-90.10019514005789",
    "latitude": "29.939451668518128",
    "geocoded_column": {
      "latitude": "29.939451668518128",
      "longitude": "-90.10019514005789"
    }
  },
  {
    "service_request": "2023-1054627",
    "request_type": "Roads/Drainage",
    "request_reason": "Pothole",
    "date_created": "2023-12-08T11:35:08.000",
    "date_modified": "2023-12-08T11:35:36.000",
    "case_close_date": "2023-12-08T05:35:36.000",
    "request_status": "Closed",
    "responsible_agency": "Department of Public Works",
    "final_address": "2800 BLK Amelia St",
    "address_councildis": "B",
    "status": "Resolved",
    "rowid": "1054627",
    "final_x": "3672005.60116",
    "final_y": "525636.021022",
    "longitude": "-90.09825054519173",
    "latitude": "29.93960152971962",
    "geocoded_column": {
      "latitude": "29.93960152971962",
      "longitude": "-90.09825054519173"
    }
  },
  {
    "service_request": "2023-1054626",
    "request_type": "Roads/Drainage",
    "request_reason": "Pothole",
    "date_created": "2023-12-08T11:33:04.000",
    "date_modified": "2023-12-08T11:33:22.000",
    "case_close_date": "2023-12-08T05:33:22.000",
    "request_status": "Closed",
    "responsible_agency": "Department of Public Works",
    "final_address": "4117 Willow St",
    "address_councildis": "B",
    "status": "Resolved",
    "rowid": "1054626",
    "final_x": "3671390.3243",
    "final_y": "525574.892861",
    "longitude": "-90.10019514005789",
    "latitude": "29.939451668518128",
    "geocoded_column": {
      "latitude": "29.939451668518128",
      "longitude": "-90.10019514005789"
    }
  },
  {
    "service_request": "2023-1054625",
    "request_type": "Trash/Recycling",
    "request_reason": "Request a Large Item Pick Up",
    "date_created": "2023-12-08T11:32:08.000",
    "date_modified": "2023-12-08T11:32:09.000",
    "request_status": "Pending",
    "responsible_agency": "Department of Sanitation",
    "final_address": "4922 S Prieur St",
    "address_councildis": "B",
    "status": "Assigned to Contractor",
    "contractor": "Richards Disposal",
    "rowid": "1054625",
    "final_x": "3669057.49793",
    "final_y": "526638.691198",
    "longitude": "-90.10752427441452",
    "latitude": "29.94244559585499",
    "geocoded_column": {
      "latitude": "29.94244559585499",
      "longitude": "-90.10752427441452"
    }
  },
  {
    "service_request": "2023-1054624",
    "request_type": "Roads/Drainage",
    "request_reason": "Pothole",
    "date_created": "2023-12-08T11:31:50.000",
    "date_modified": "2023-12-08T11:32:11.000",
    "case_close_date": "2023-12-08T05:32:11.000",
    "request_status": "Closed",
    "responsible_agency": "Department of Public Works",
    "final_address": "4106 Magnolia St",
    "address_councildis": "B",
    "status": "Resolved",
    "rowid": "1054624",
    "final_x": "3671445.91879",
    "final_y": "524790.546172",
    "longitude": "-90.10004627318706",
    "latitude": "29.93729332427001",
    "geocoded_column": {
      "latitude": "29.93729332427001",
      "longitude": "-90.10004627318706"
    }
  },
  {
    "service_request": "2023-1054623",
    "request_type": "Roads/Drainage",
    "request_reason": "Pothole",
    "date_created": "2023-12-08T11:30:16.000",
    "date_modified": "2023-12-08T11:30:51.000",
    "case_close_date": "2023-12-08T05:30:51.000",
    "request_status": "Closed",
    "responsible_agency": "Department of Public Works",
    "final_address": "4000 BLK S Robertson St",
    "address_councildis": "B",
    "status": "Resolved",
    "rowid": "1054623",
    "final_x": "3671709.50792",
    "final_y": "524511.217826",
    "longitude": "-90.09922360146376",
    "latitude": "29.9365174582266",
    "geocoded_column": {
      "latitude": "29.9365174582266",
      "longitude": "-90.09922360146376"
    }
  },
  {
    "service_request": "2023-1054622",
    "request_type": "Trash/Recycling",
    "request_reason": "Request a Large Item Pick Up",
    "date_created": "2023-12-08T11:29:44.000",
    "date_modified": "2023-12-08T11:29:45.000",
    "request_status": "Pending",
    "responsible_agency": "Department of Sanitation",
    "final_address": "7046 Lake Willow Dr",
    "address_councildis": "E",
    "status": "Assigned to Contractor",
    "contractor": "Waste Pro",
    "rowid": "1054622",
    "final_x": "3702245.72721",
    "final_y": "559069.97398",
    "longitude": "-90.00155216452771",
    "latitude": "30.030601668775283",
    "geocoded_column": {
      "latitude": "30.030601668775283",
      "longitude": "-90.00155216452771"
    }
  },
  {
    "service_request": "2023-1054621",
    "request_type": "Trash/Recycling",
    "request_reason": "Request a Large Item Pick Up",
    "date_created": "2023-12-08T11:29:26.000",
    "date_modified": "2023-12-08T11:29:27.000",
    "request_status": "Pending",
    "responsible_agency": "Department of Sanitation",
    "final_address": "3546 Somerset Dr",
    "address_councildis": "C",
    "status": "Assigned to Contractor",
    "contractor": "Richards Disposal",
    "rowid": "1054621",
    "final_x": "3702543.4202",
    "final_y": "517844.092278",
    "longitude": "-90.00212494895977",
    "latitude": "29.917236016667704",
    "geocoded_column": {
      "latitude": "29.917236016667704",
      "longitude": "-90.00212494895977"
    }
  },
  {
    "service_request": "2023-1054620",
    "request_type": "Roads/Drainage",
    "request_reason": "Pothole",
    "date_created": "2023-12-08T11:29:20.000",
    "date_modified": "2023-12-08T11:29:43.000",
    "case_close_date": "2023-12-08T05:29:43.000",
    "request_status": "Closed",
    "responsible_agency": "Department of Public Works",
    "final_address": "3300 BLK S Robertson St",
    "address_councildis": "B",
    "status": "Resolved",
    "rowid": "1054620",
    "final_x": "3672986.98175",
    "final_y": "524882.011375",
    "longitude": "-90.09517790935766",
    "latitude": "29.93749912585038",
    "geocoded_column": {
      "latitude": "29.93749912585038",
      "longitude": "-90.09517790935766"
    }
  },