[
  {
    "service_request": "2021-837363",
    "request_type": "Traffic Signals/Signs/Striping/Streetlights",
    "request_reason": "Street Light Outage/Malfunction",
    "date_created": "2021-10-26T23:16:41.000",
    "date_modified": "2021-10-26T23:16:42.000",
    "request_status": "Pending",
    "responsible_agency": "Department of Public Works",
    "final_address": "4326 Joycelyn Dr",
    "address_councildis": "C",
    "status": "Pending",
    "contractor": "Royal Engineering",
    "rowid": "837363",
    "final_x": "3708234.04651",
    "final_y": "514622.842995",
    "longitude": "-89.98428275765816",
    "latitude": "29.90819568412872",
    "geocoded_column": {
      "latitude": "29.90819568412872",
      "longitude": "-89.98428275765816"
    }
  },
  {
    "service_request": "2021-837362",
    "request_type": "Trash/Recycling",
    "request_reason": "Order Trash Cart",
    "date_created": "2021-10-26T22:56:22.000",
    "date_modified": "2021-10-26T23:01:00.000",
    "request_status": "Pending",
    "responsible_agency": "Department of Sanitation",
    "final_address": "3918 Old Gentilly Rd",
    "address_councildis": "D",
    "status": "Assigned to Contractor",
    "contractor": "Metro Disposal",
    "rowid": "837362",
    "final_x": "3688643.41807",
    "final_y": "548608.853203",
    "longitude": "-90.04490729507246",
    "latitude": "30.002265149348343",
    "geocoded_column": {
      "latitude": "30.002265149348343",
      "longitude": "-90.04490729507246"
    }
  },
  {
    "service_request": "2021-837361",
    "request_type": "Trash/Recycling",
    "request_reason": "Illegal Dumping",
    "date_created": "2021-10-26T21:55:25.000",
    "date_modified": "2021-10-26T21:55:25.000",
    "request_status": "Pending",
    "responsible_agency": "Department of Sanitation",
    "final_address": "2027 Piety St",
    "address_councildis": "D",
    "status": "Pending",
    "rowid": "837361",
    "final_x": "3690777.74102",
    "final_y": "539396.742346",
    "longitude": "-90.0384935998525",
    "latitude": "29.97686900375306",
    "geocoded_column": {
      "latitude": "29.97686900375306",
      "longitude": "-90.0384935998525"
    }
  },
  {
    "service_request": "2021-837360",
    "request_type": "Mosquito, Termite & Rodent Control",
    "request_reason": "Mosquito Complaint",
    "date_created": "2021-10-26T21:41:41.000",
    "date_modified": "2021-10-26T21:41:41.000",
    "request_status": "Pending",
    "responsible_agency": "Mosquito, Termite & Rodent Control Board",
    "final_address": "4751 Lennox Blvd",
    "address_councildis": "C",
    "status": "Pending",
    "rowid": "837360",
    "final_x": "3700648.75697",
    "final_y": "513113.321713",
    "longitude": "-90.00827795867319",
    "latitude": "29.904288391246283",
    "geocoded_column": {
      "latitude": "29.904288391246283",
      "longitude": "-90.00827795867319"
    }
  },
  {
    "service_request": "2021-837359",
    "request_type": "Abandoned Vehicles",
    "request_reason": "Abandoned/Junk Vehicles",
    "date_created": "2021-10-26T21:40:07.000",
    "date_modified": "2021-10-26T21:40:07.000",
    "request_status": "Pending",
    "responsible_agency": "Department of Public Works",
    "final_address": "307 Tchoupitoulas St",
    "address_councildis": "B",
    "status": "Pending",
    "rowid": "837359",
    "final_x": "3681939.40303",
    "final_y": "529484.962113",
    "longitude": "-90.0667538763832",
    "latitude": "29.94988666857575",
    "geocoded_column": {
      "latitude": "29.94988666857575",
      "longitude": "-90.0667538763832"
    }
  },
  {
    "service_request": "2021-837358",
    "request_type": "Mosquito, Termite & Rodent Control",
    "request_reason": "Mosquito Complaint",
    "date_created": "2021-10-26T21:39:52.000",
    "date_modified": "2021-10-26T21:39:52.000",
    "request_status": "Pending",
    "responsible_agency": "Mosquito, Termite & Rodent Control Board",
    "final_address": "5324 Florida Ave",
    "address_councildis": "E",
    "status": "Pending",
    "rowid": "837358",
    "final_x": "3698626.324",
    "final_y": "539955.894282",
    "longitude": "-90.01368510275843",
    "latitude": "29.978160263449805",
    "geocoded_column": {
      "latitude": "29.978160263449805",
      "longitude": "-90.01368510275843"
    }
  },
  {
    "service_request": "2021-837357",
    "request_type": "Abandoned Vehicles",
    "request_reason": "Abandoned/Junk Vehicles",
    "date_created": "2021-10-26T21:37:54.000",
    "date_modified": "2021-10-26T21:37:54.000",
    "request_status": "Pending",
    "responsible_agency": "Department of Public Works",
    "final_address": "307 Tchoupitoulas St",
    "address_councildis": "B",
    "status": "Pending",
    "rowid": "837357",
    "final_x": "3681939.40303",
    "final_y": "529484.962113",
    "longitude": "-90.0667538763832",
    "latitude": "29.94988666857575",
    "geocoded_column": {
      "latitude": "29.94988666857575",
      "longitude": "-90.0667538763832"
    }
  },
  {
    "service_request": "2021-837356",
    "request_type": "Property Maintenance",
    "request_reason": "Property Maintenance",
    "date_created": "2021-10-26T21:36:52.000",
    "date_modified": "2021-10-26T21:36:52.000",
    "request_status": "Pending",
    "responsible_agency": "Department of Code Enforcement",
    "final_address": "2639 Egania St",
    "address_councildis": "E",
    "status": "Pending",
    "rowid": "837356",
    "final_x": "3698494.8618",
    "final_y": "539979.920523",
    "longitude": "-90.014099431198",
    "latitude": "29.978230489301943",
    "geocoded_column": {
      "latitude": "29.978230489301943",
      "longitude": "-90.014099431198"
    }
  },
  {
    "service_request": "2021-837355",
    "request_type": "Property Maintenance",
    "request_reason": "Property Maintenance",
    "date_created": "2021-10-26T21:35:59.000",
    "date_modified": "2021-10-26T21:35:59.000",
    "request_status": "Pending",
    "responsible_agency": "Department of Code Enforcement",
    "final_address": "5388 Florida Ave",
    "address_councildis": "E",
    "status": "Pending",
    "rowid": "837355",
    "final_x": "3698721.73655",
    "final_y": "539937.989194",
    "longitude": "-90.01338440910136",
    "latitude": "29.978108009148055",
    "geocoded_column": {
      "latitude": "29.978108009148055",
      "longitude": "-90.01338440910136"
    }
  },
  {
    "service_request": "2021-837354",
    "request_type": "Abandoned Vehicles",
    "request_reason": "Abandoned/Junk Vehicles",
    "date_created": "2021-10-26T21:33:22.000",
    "date_modified": "2021-10-26T21:33:22.000",
    "request_status": "Pending",
    "responsible_agency": "Department of Public Works",
    "final_address": "2645 Egania St",
    "address_councildis": "E",
    "status": "Pending",
    "rowid": "837354",
    "final_x": "3698497.21642",
    "final_y": "540002.048331",
    "longitude": "-90.01409118987024",
    "latitude": "29.978291258210128",
    "geocoded_column": {
      "latitude": "29.978291258210128",
      "longitude": "-90.01409118987024"
    }
  },
  {
    "service_request": "2021-837353",
    "request_type": "Trash/Recycling",
    "request_reason": "Missed Trash Pick-Up",
    "date_created": "2021-10-26T21:12:55.000",
    "date_modified": "2021-10-26T21:12:56.000",
    "request_status": "Pending",
    "responsible_agency": "Department of Sanitation",
    "final_address": "1518 First St",
    "address_councildis": "B",
    "status": "Assigned to Contractor",
    "contractor": "Richards Disposal",
    "rowid": "837353",
    "final_x": "3677116.83842",
    "final_y": "522905.006971",
    "longitude": "-90.08220780251573",
    "latitude": "29.93193965915099",
    "geocoded_column": {
      "latitude": "29.93193965915099",
      "longitude": "-90.08220780251573"
    }
  },
  {
    "service_request": "2021-837352",
    "request_type": "Abandoned Vehicles",
    "request_reason": "Abandoned/Junk Vehicles",
    "date_created": "2021-10-26T21:05:32.000",
    "date_modified": "2021-10-26T22:00:56.000",
    "request_status": "Pending",
    "responsible_agency": "Department of Public Works",
    "final_address": "8841 Green St",
    "address_councildis": "A",
    "status": "Pending",
    "rowid": "837352",
    "final_x": "3661113.17702",
    "final_y": "531581.540227",
    "longitude": "-90.13244287839294",
    "latitude": "29.956268145220026",
    "geocoded_column": {
      "latitude": "29.956268145220026",
      "longitude": "-90.13244287839294"
    }
  },
  {
    "service_request": "2021-837351",
    "request_type": "Traffic Signals/Signs/Striping/Streetlights",
    "request_reason": "Street Light Outage/Malfunction",
    "date_created": "2021-10-26T20:46:17.000",
    "date_modified": "2021-10-26T21:01:04.000",
    "request_status": "Pending",
    "responsible_agency": "Department of Public Works",
    "final_address": "626 St Ferdinand St",
    "address_councildis": "C",
    "status": "Pending",
    "contractor": "Royal Engineering",
    "rowid": "837351",
    "final_x": "3687284.06799",
    "final_y": "534736.84967",
    "longitude": "-90.04969257072364",
    "latitude": "29.964164022054636",
    "geocoded_column": {
      "latitude": "29.964164022054636",
      "longitude": "-90.04969257072364"
    }
  },
  {
    "service_request": "2021-837350",
    "request_type": "Abandoned Vehicles",
    "request_reason": "Abandoned/Junk Vehicles",
    "date_created": "2021-10-26T20:28:39.000",
    "date_modified": "2021-10-26T20:28:39.000",
    "request_status": "Pending",
    "responsible_agency": "Department of Public Works",
    "final_address": "2508 Painters St",
    "address_councildis": "D",
    "status": "Pending",
    "rowid": "837350",
    "final_x": "3687109.55938",
    "final_y": "541754.356748",
    "longitude": "-90.04999545378875",
    "latitude": "29.983465077769644",
    "geocoded_column": {
      "latitude": "29.983465077769644",
      "longitude": "-90.04999545378875"
    }
  },
  {
    "service_request": "2021-837349",
    "request_type": "Safety & Permits",
    "request_reason": "Construction permit",
    "date_created": "2021-10-26T20:22:26.000",
    "date_modified": "2021-10-26T20:22:26.000",
    "request_status": "Pending",
    "responsible_agency": "Department of Code Enforcement",
    "final_address": "3914 Camp St",
    "address_councildis": "B",
    "status": "Pending",
    "rowid": "837349",
    "final_x": "3672887.95169",
    "final_y": "519291.163319",
    "longitude": "-90.09568120479007",
    "latitude": "29.9221290381954",
    "geocoded_column": {
      "latitude": "29.9221290381954",
      "longitude": "-90.09568120479007"
    }
  },
  {
    "service_request": "2021-837348",
    "request_type": "Trash/Recycling",
    "request_reason": "Order Recycling Cart",
    "date_created": "2021-10-26T20:03:40.000",
    "date_modified": "2021-10-26T21:01:05.000",
    "request_status": "Pending",
    "responsible_agency": "Department of Sanitation",
    "final_address": "5167 Lafaye St",
    "address_councildis": "D",
    "status": "Pending",
    "rowid": "837348",
    "final_x": "3687363.71522",
    "final_y": "552135.275286",
    "longitude": "-90.04882513462027",
    "latitude": "30.01200102688312",
    "geocoded_column": {
      "latitude": "30.01200102688312",
      "longitude": "-90.04882513462027"
    }
  },
  {
    "service_request": "2021-837346",
    "request_type": "Property Maintenance",
    "request_reason": "Property Maintenance",
    "date_created": "2021-10-26T19:50:11.000",
    "date_modified": "2021-10-26T19:50:11.000",
    "request_status": "Pending",
    "responsible_agency": "Department of Code Enforcement",
    "final_address": "4103 N Claiborne Ave",
    "address_councildis": "D",
    "status": "Pending",
    "rowid": "837346",
    "final_x": "3692615.33609",
    "final_y": "537124.439944",
    "longitude": "-90.03277137418692",
    "latitude": "29.970563754496176",
    "geocoded_column": {
      "latitude": "29.970563754496176",
      "longitude": "-90.03277137418692"
    }
  },
  {
    "service_request": "2021-837345",
    "request_type": "Trash/Recycling",
    "request_reason": "Order Recycling Cart",
    "date_created": "2021-10-26T19:47:28.000",
    "date_modified": "2021-10-26T20:01:05.000",
    "request_status": "Pending",
    "responsible_agency": "Department of Sanitation",
    "final_address": "1719 Second St",
    "address_councildis": "B",
    "status": "Pending",
    "rowid": "837345",
    "final_x": "3676424.19054",
    "final_y": "523519.963515",
    "longitude": "-90.08437326014105",
    "latitude": "29.933651366301078",
    "geocoded_column": {
      "latitude": "29.933651366301078",
      "longitude": "-90.08437326014105"
    }
  },
  {
    "service_request": "2021-837344",
    "request_type": "Traffic Signals/Signs/Striping/Streetlights",
    "request_reason": "Street Light Outage/Malfunction",
    "date_created": "2021-10-26T19:32:41.000",
    "date_modified": "2021-10-26T20:01:06.000",
    "request_status": "Pending",
    "responsible_agency": "Department of Public Works",
    "final_address": "3840 S Pin Oak Ave",
    "address_councildis": "C",
    "status": "Pending",
    "contractor": "Royal Engineering",
    "rowid": "837344",
    "final_x": "3704833.04855",
    "final_y": "514092.530354",
    "longitude": "-89.9950362597484",
    "latitude": "29.90684716860625",
    "geocoded_column": {
      "latitude": "29.90684716860625",
      "longitude": "-89.9950362597484"
    }
  },
  {
    "service_request": "2021-837343",
    "request_type": "Property Maintenance",
    "request_reason": "Property Maintenance",
    "date_created": "2021-10-26T19:17:04.000",
    "date_modified": "2021-10-26T19:17:04.000",
    "request_status": "Pending",
    "responsible_agency": "Department of Code Enforcement",
    "final_address": "13123 N Interstate 10 Service Rd",
    "address_councildis": "E",
    "status": "Pending",
    "rowid": "837343",
    "final_x": "3718298.12172",
    "final_y": "567913.663269",
    "longitude": "-89.9504896729805",
    "latitude": "30.054395433243684",
    "geocoded_column": {
      "latitude": "30.054395433243684",
      "longitude": "-89.9504896729805"
    }
  },
  {
    "service_request": "2021-837342",
    "request_type": "Property Maintenance",
    "request_reason": "Property Maintenance",
    "date_created": "2021-10-26T19:15:54.000",
    "date_modified": "2021-10-26T19:15:54.000",
    "request_status": "Pending",
    "responsible_agency": "Department of Code Enforcement",
    "final_address": "4674 Wright Rd",
    "address_councildis": "E",
    "status": "Pending",
    "rowid": "837342",
    "final_x": "3716605.09279",
    "final_y": "556648.027994",
    "longitude": "-89.95626882323849",
    "latitude": "30.023475567629692",
    "geocoded_column": {
      "latitude": "30.023475567629692",
      "longitude": "-89.95626882323849"
    }
  },
  {
    "service_request": "2021-837341",
    "request_type": "Roads/Drainage",
    "request_reason": "Street Subsidence (Sinking)",
    "date_created": "2021-10-26T19:09:58.000",
    "date_modified": "2021-10-26T19:09:58.000",
    "request_status": "Pending",
    "responsible_agency": "Department of Public Works",
    "final_address": "5314 St Anthony Ave",
    "address_councildis": "D",
    "status": "Pending",
    "rowid": "837341",
    "final_x": "3682090.1876",
    "final_y": "552537.304982",
    "longitude": "-90.06547240069479",
    "latitude": "30.01326795939257",
    "geocoded_column": {
      "latitude": "30.01326795939257",
      "longitude": "-90.06547240069479"
    }
  },
  {
    "service_request": "2021-837340",
    "request_type": "Roads/Drainage",
    "request_reason": "Pothole",
    "date_created": "2021-10-26T19:09:49.000",
    "date_modified": "2021-10-26T19:09:49.000",
    "request_status": "Pending",
    "responsible_agency": "Department of Public Works",
    "final_address": "8600 Cohn St",
    "address_councildis": "A",
    "status": "Pending",
    "rowid": "837340",
    "final_x": "3662236.0873",
    "final_y": "531400.853251",
    "longitude": "-90.12890308405515",
    "latitude": "29.9557389070252",
    "geocoded_column": {
      "latitude": "29.9557389070252",
      "longitude": "-90.12890308405515"
    }
  },
  {
    "service_request": "2021-837339",
    "request_type": "Property Maintenance",
    "request_reason": "Property Maintenance",
    "date_created": "2021-10-26T19:01:37.000",
    "date_modified": "2021-10-26T19:01:37.000",
    "request_status": "Pending",
    "responsible_agency": "Department of Code Enforcement",
    "final_address": "136 S Scott St",
    "address_councildis": "A",
    "status": "Pending",
    "rowid": "837339",
    "final_x": "3671582.19681",
    "final_y": "537494.501576",
    "longitude": "-90.09918405122492",
    "latitude": "29.972220967264597",
    "geocoded_column": {
      "latitude": "29.972220967264597",
      "longitude": "-90.09918405122492"
    }
  },
  {
    "service_request": "2021-837338",
    "request_type": "Abandoned Vehicles",
    "request_reason": "Abandoned/Junk Vehicles",
    "date_created": "2021-10-26T18:26:00.000",
    "date_modified": "2021-10-26T18:26:00.000",
    "request_status": "Pending",
    "responsible_agency": "Department of Public Works",
    "final_address": "1526 Arabella St",
    "address_councildis": "A",
    "status": "Pending",
    "rowid": "837338",
    "final_x": "3666414.48007",
    "final_y": "521798.180346",
    "longitude": "-90.11603127103817",
    "latitude": "29.929213218441564",
    "geocoded_column": {
      "latitude": "29.929213218441564",
      "longitude": "-90.11603127103817"
    }
  },
  {
    "service_request": "2021-837337",
    "request_type": "Trash/Recycling",
    "request_reason": "Request a Large Item Pick Up",
    "date_created": "2021-10-26T18:10:56.000",
    "date_modified": "2021-10-26T19:01:02.000",
    "request_status": "Pending",
    "responsible_agency": "Department of Sanitation",
    "final_address": "707 Nashville Ave",
    "address_councildis": "A",
    "status": "Assigned to Contractor",
    "contractor": "Richards Disposal",
    "rowid": "837337",
    "final_x": "3665522.55482",
    "final_y": "518729.996023",
    "longitude": "-90.1189495704744",
    "latitude": "29.92080270156744",
    "geocoded_column": {
      "latitude": "29.92080270156744",
      "longitude": "-90.1189495704744"
    }
  },
  {
    "service_request": "2021-837336",
    "request_type": "Trash/Recycling",
    "request_reason": "Illegal Dumping",
    "date_created": "2021-10-26T17:56:23.000",
    "date_modified": "2021-10-26T17:56:23.000",
    "request_status": "Pending",
    "responsible_agency": "Department of Sanitation",
    "final_address": "2513 Clara St",
    "address_councildis": "B",
    "status": "Pending",
    "rowid": "837336",
    "final_x": "3674218.71182",
    "final_y": "526554.076542",
    "longitude": "-90.09123202179877",
    "latitude": "29.942060103469576",
    "geocoded_column": {
      "latitude": "29.942060103469576",
      "longitude": "-90.09123202179877"
    }
  },
  {
    "service_request": "2021-837334",
    "request_type": "Safety & Permits",
    "request_reason": "Licenses & Permits",
    "date_created": "2021-10-26T17:41:14.000",
    "date_modified": "2021-10-26T17:41:14.000",
    "request_status": "Pending",
    "responsible_agency": "Safety and Permits",
    "final_address": "1128 Flood St",
    "address_councildis": "E",
    "status": "Pending",
    "rowid": "837334",
    "final_x": "3697745.56221",
    "final_y": "534162.806917",
    "longitude": "-90.01667708882717",
    "latitude": "29.962259213135972",
    "geocoded_column": {
      "latitude": "29.962259213135972",
      "longitude": "-90.01667708882717"
    }
  },
  {
    "service_request": "2021-837333",
    "request_type": "Safety & Permits",
    "request_reason": "Construction permit",
    "date_created": "2021-10-26T17:35:25.000",
    "date_modified": "2021-10-26T17:35:25.000",
    "request_status": "Pending",
    "responsible_agency": "Department of Code Enforcement",
    "final_address": "1615 Dumaine St",
    "address_councildis": "C",
    "status": "Pending",
    "rowid": "837333",
    "final_x": "3680422.08687",
    "final_y": "535062.84679",
    "longitude": "-90.07135077228153",
    "latitude": "29.965269990647496",
    "geocoded_column": {
      "latitude": "29.965269990647496",
      "longitude": "-90.07135077228153"
    }
  },
  {
    "service_request": "2021-837332",
    "request_type": "Trash/Recycling",
    "request_reason": "Request a Large Item Pick Up",
    "date_created": "2021-10-26T17:27:17.000",
    "date_modified": "2021-10-26T18:00:53.000",
    "request_status": "Pending",
    "responsible_agency": "Department of Sanitation",
    "final_address": "4512 S Derbigny St, New Orleans, Louisiana, 70125",
    "address_councildis": "B",
    "status": "Assigned to Contractor",
    "contractor": "Richards Disposal",
    "rowid": "837332",
    "final_x": "3669801.31578",
    "final_y": "526157.267902",
    "longitude": "-90.10519215734726",
    "latitude": "29.941099937006587",
    "geocoded_column": {
      "latitude": "29.941099937006587",
      "longitude": "-90.10519215734726"
    }
  },
  {
    "service_request": "2021-837331",
    "request_type": "Traffic Signals/Signs/Striping/Streetlights",
    "request_reason": "Street Light Outage/Malfunction",
    "date_created": "2021-10-26T17:26:32.000",
    "date_modified": "2021-10-26T18:00:54.000",
    "request_status": "Pending",
    "responsible_agency": "Department of Public Works",
    "final_address": "4432 Pauger St, New Orleans, Louisiana, 70122",
    "address_councildis": "D",
    "status": "Pending",
    "contractor": "Royal Engineering",
    "rowid": "837331",
    "final_x": "3682798.54818",
    "final_y": "549001.184147",
    "longitude": "-90.06335818593693",
    "latitude": "30.00352333531166",
    "geocoded_column": {
      "latitude": "30.00352333531166",
      "longitude": "-90.06335818593693"
    }
  },
  {
    "service_request": "2021-837328",
    "request_type": "Trash/Recycling",
    "request_reason": "Missed Trash Pick-Up",
    "date_created": "2021-10-26T17:06:51.000",
    "date_modified": "2021-10-26T17:06:52.000",
    "request_status": "Pending",
    "responsible_agency": "Department of Sanitation",
    "final_address": "5942 Music St",
    "address_councildis": "D",
    "status": "Assigned to Contractor",
    "contractor": "Metro Disposal",
    "rowid": "837328",
    "final_x": "3685271.84546",
    "final_y": "555057.623513",
    "longitude": "-90.05533125714491",
    "latitude": "30.020100725737954",
    "geocoded_column": {
      "latitude": "30.020100725737954",
      "longitude": "-90.05533125714491"
    }
  },
  {
    "service_request": "2021-837327",
    "request_type": "Trash/Recycling",
    "request_reason": "Replace Trash Cart",
    "date_created": "2021-10-26T16:56:02.000",
    "date_modified": "2021-10-26T17:22:21.000",
    "request_status": "Pending",
    "responsible_agency": "Department of Sanitation",
    "final_address": "New Orleans,LA",
    "address_councildis": "A",
    "status": "Assigned to Contractor",
    "contractor": "Richards Disposal",
    "rowid": "837327",
    "final_x": "3664346.98106",
    "final_y": "517930.716726",
    "longitude": "-90.12268699200295",
    "latitude": "29.91863913857572",
    "geocoded_column": {
      "latitude": "29.91863913857572",
      "longitude": "-90.12268699200295"
    }
  },
  {
    "service_request": "2021-837326",
    "request_type": "Trash/Recycling",
    "request_reason": "Request a Large Item Pick Up",
    "date_created": "2021-10-26T16:52:47.000",
    "date_modified": "2021-10-26T17:01:04.000",
    "request_status": "Pending",
    "responsible_agency": "Department of Sanitation",
    "final_address": "2343 Chippewa St, New Orleans, Louisiana, 70130",
    "address_councildis": "B",
    "status": "Assigned to Contractor",
    "contractor": "Richards Disposal",
    "rowid": "837326",
    "final_x": "3679095.84527",
    "final_y": "520464.238776",
    "longitude": "-90.07604483278882",
    "latitude": "29.925168780310987",
    "geocoded_column": {
      "latitude": "29.925168780310987",
      "longitude": "-90.07604483278882"
    }
  },
  {
    "service_request": "2021-837325",
    "request_type": "Abandoned Vehicles",
    "request_reason": "Abandoned/Junk Vehicles",
    "date_created": "2021-10-26T16:50:33.000",
    "date_modified": "2021-10-26T16:50:33.000",
    "request_status": "Pending",
    "responsible_agency": "Department of Public Works",
    "final_address": "2100 BLK Benefit St",
    "address_councildis": "D",
    "status": "Pending",
    "rowid": "837325",
    "final_x": "3683758.94117",
    "final_y": "544362.575433",
    "longitude": "-90.06048693845698",
    "latitude": "29.990739517233088",
    "geocoded_column": {
      "latitude": "29.990739517233088",
      "longitude": "-90.06048693845698"
    }
  },
  {
    "service_request": "2021-837323",
    "request_type": "Roads/Drainage",
    "request_reason": "Leaking Hydrant",
    "date_created": "2021-10-26T16:49:47.000",
    "date_modified": "2021-10-26T16:52:16.000",
    "request_status": "Pending",
    "responsible_agency": "Department of Public Works",
    "final_address": "4838 Stemway Dr",
    "address_councildis": "D",
    "status": "Pending",
    "rowid": "837323",
    "final_x": "3696792.52291",
    "final_y": "554737.975192",
    "longitude": "-90.01894132379844",
    "latitude": "30.01886346857524",
    "geocoded_column": {
      "latitude": "30.01886346857524",
      "longitude": "-90.01894132379844"
    }
  },
  {
    "service_request": "2021-837321",
    "request_type": "Trash/Recycling",
    "request_reason": "Replace Trash Cart",
    "date_created": "2021-10-26T16:46:09.000",
    "date_modified": "2021-10-26T16:46:10.000",
    "request_status": "Pending",
    "responsible_agency": "Department of Sanitation",
    "final_address": "2726 Josephine St",
    "address_councildis": "B",
    "status": "Assigned to Contractor",
    "contractor": "Richards Disposal",
    "rowid": "837321",
    "final_x": "3675348.24699",
    "final_y": "527218.727807",
    "longitude": "-90.08764301937428",
    "latitude": "29.943853959624796",
    "geocoded_column": {
      "latitude": "29.943853959624796",
      "longitude": "-90.08764301937428"
    }
  },
  {
    "service_request": "2021-837320",
    "request_type": "Trash/Recycling",
    "request_reason": "Request a Large Item Pick Up",
    "date_created": "2021-10-26T16:45:43.000",
    "date_modified": "2021-10-26T17:01:06.000",
    "request_status": "Pending",
    "responsible_agency": "Department of Sanitation",
    "final_address": "2117 Danneel St",
    "address_councildis": "B",
    "status": "Assigned to Contractor",
    "contractor": "Richards Disposal",
    "rowid": "837320",
    "final_x": "3676792.59368",
    "final_y": "525127.520125",
    "longitude": "-90.08315485849741",
    "latitude": "29.93806057336645",
    "geocoded_column": {
      "latitude": "29.93806057336645",
      "longitude": "-90.08315485849741"
    }
  },
  {
    "service_request": "2021-837319",
    "request_type": "Property Maintenance",
    "request_reason": "Property Maintenance",
    "date_created": "2021-10-26T16:42:34.000",
    "date_modified": "2021-10-26T16:42:34.000",
    "request_status": "Pending",
    "responsible_agency": "Department of Code Enforcement",
    "final_address": "4721 Eastern St",
    "address_councildis": "D",
    "status": "Pending",
    "rowid": "837319",
    "final_x": "3688072.28751",
    "final_y": "550543.404948",
    "longitude": "-90.0466429332209",
    "latitude": "30.00760210713902",
    "geocoded_column": {
      "latitude": "30.00760210713902",
      "longitude": "-90.0466429332209"
    }
  },
  {
    "service_request": "2021-837318",
    "request_type": "Abandoned Vehicles",
    "request_reason": "Abandoned/Junk Vehicles",
    "date_created": "2021-10-26T16:42:29.000",
    "date_modified": "2021-10-26T16:42:29.000",
    "request_status": "Pending",
    "responsible_agency": "Department of Public Works",
    "final_address": "4500 Coronado Dr",
    "address_councildis": "E",
    "status": "Pending",
    "rowid": "837318",
    "final_x": "3714168.47647",
    "final_y": "555351.136729",
    "longitude": "-89.96401691085643",
    "latitude": "30.01998992117307",
    "geocoded_column": {
      "latitude": "30.01998992117307",
      "longitude": "-89.96401691085643"
    }
  },
  {
    "service_request": "2021-837317",
    "request_type": "Property Maintenance",
    "request_reason": "Property Maintenance",
    "date_created": "2021-10-26T16:39:12.000",
    "date_modified": "2021-10-26T17:01:09.000",
    "request_status": "Pending",
    "responsible_agency": "Department of Code Enforcement",
    "final_address": "12151 N Interstate 10 Service Rd",
    "address_councildis": "E",
    "status": "Pending",
    "rowid": "837317",
    "final_x": "3715510.55301",
    "final_y": "565646.608226",
    "longitude": "-89.95938636273246",
    "latitude": "30.04825416619287",
    "geocoded_column": {
      "latitude": "30.04825416619287",
      "longitude": "-89.95938636273246"
    }
  },
  {
    "service_request": "2021-837315",
    "request_type": "Trash/Recycling",
    "request_reason": "Repair Trash Cart",
    "date_created": "2021-10-26T16:29:57.000",
    "date_modified": "2021-10-26T16:29:58.000",
    "request_status": "Pending",
    "responsible_agency": "Department of Sanitation",
    "final_address": "730 Austerlitz St",
    "address_councildis": "B",
    "status": "Assigned to Contractor",
    "contractor": "Richards Disposal",
    "rowid": "837315",
    "final_x": "3672871.35566",
    "final_y": "518492.042359",
    "longitude": "-90.09576083602622",
    "latitude": "29.91993220355427",
    "geocoded_column": {
      "latitude": "29.91993220355427",
      "longitude": "-90.09576083602622"
    }
  },
  {
    "service_request": "2021-837314",
    "request_type": "Trash/Recycling",
    "request_reason": "Order Recycling Cart",
    "date_created": "2021-10-26T16:29:57.000",
    "date_modified": "2021-10-26T17:01:14.000",
    "request_status": "Pending",
    "responsible_agency": "Department of Sanitation",
    "final_address": "2509 Frenchmen St",
    "address_councildis": "D",
    "status": "Pending",
    "rowid": "837314",
    "final_x": "3684207.45084",
    "final_y": "541528.335436",
    "longitude": "-90.05916976102968",
    "latitude": "29.982932652940686",
    "geocoded_column": {
      "latitude": "29.982932652940686",
      "longitude": "-90.05916976102968"
    }
  },
  {
    "service_request": "2021-837311",
    "request_type": "Abandoned Vehicles",
    "request_reason": "Abandoned/Junk Vehicles",
    "date_created": "2021-10-26T16:24:59.000",
    "date_modified": "2021-10-26T16:24:59.000",
    "request_status": "Pending",
    "responsible_agency": "Department of Public Works",
    "status": "Inspected",
    "rowid": "837311",
    "longitude": "0.0",
    "latitude": "0.0",
    "geocoded_column": {
      "latitude": "0.0",
      "longitude": "0.0"
    }
  },
  {
    "service_request": "2021-837310",
    "request_type": "Roads/Drainage",
    "request_reason": "Street Subsidence (Sinking)",
    "date_created": "2021-10-26T16:19:55.000",
    "date_modified": "2021-10-26T17:01:16.000",
    "request_status": "Pending",
    "responsible_agency": "Department of Public Works",
    "final_address": "500 BLK S Cortez St",
    "address_councildis": "B",
    "status": "Pending",
    "rowid": "837310",
    "final_x": "3670987.88207",
    "final_y": "536168.368724",
    "longitude": "-90.10110604143283",
    "latitude": "29.968592135455282",
    "geocoded_column": {
      "latitude": "29.968592135455282",
      "longitude": "-90.10110604143283"
    }
  },
  {
    "service_request": "2021-837309",
    "request_type": "Roads/Drainage",
    "request_reason": "Pothole",
    "date_created": "2021-10-26T16:19:37.000",
    "date_modified": "2021-10-26T17:01:18.000",
    "request_status": "Pending",
    "responsible_agency": "Department of Public Works",
    "final_address": "8142 Freret St",
    "address_councildis": "A",
    "status": "Pending",
    "rowid": "837309",
    "final_x": "3661232.56077",
    "final_y": "528041.615359",
    "longitude": "-90.13218307730409",
    "latitude": "29.946531047215746",
    "geocoded_column": {
      "latitude": "29.946531047215746",
      "longitude": "-90.13218307730409"
    }
  },
  {
    "service_request": "2021-837308",
    "request_type": "Trash/Recycling",
    "request_reason": "Request a Large Item Pick Up",
    "date_created": "2021-10-26T16:18:50.000",
    "date_modified": "2021-10-26T16:18:51.000",
    "request_status": "Pending",
    "responsible_agency": "Department of Sanitation",
    "final_address": "509 Adams St",
    "address_councildis": "A",
    "status": "Assigned to Contractor",
    "contractor": "Richards Disposal",
    "rowid": "837308",
    "final_x": "3661504.39258",
    "final_y": "525609.784189",
    "longitude": "-90.13140534301303",
    "latitude": "29.93983644703024",
    "geocoded_column": {
      "latitude": "29.93983644703024",
      "longitude": "-90.13140534301303"
    }
  },
  {
    "service_request": "2021-837307",
    "request_type": "Trash/Recycling",
    "request_reason": "Illegal Dumping",
    "date_created": "2021-10-26T16:15:02.000",
    "date_modified": "2021-10-26T16:15:02.000",
    "request_status": "Pending",
    "responsible_agency": "Department of Sanitation",
    "final_address": "MARR AVE & DONNER RD",
    "address_councildis": "C",
    "status": "Pending",
    "rowid": "837307",
    "final_x": "3691389.5",
    "final_y": "520636.08",
    "longitude": "-90.03723169979754",
    "latitude": "29.925264648070964",
    "geocoded_column": {
      "latitude": "29.925264648070964",
      "longitude": "-90.03723169979754"
    }
  },
  {
    "service_request": "2021-837306",
    "request_type": "Trash/Recycling",
    "request_reason": "Order Recycling Cart",
    "date_created": "2021-10-26T16:07:41.000",
    "date_modified": "2021-10-26T17:01:19.000",
    "request_status": "Pending",
    "responsible_agency": "Department of Sanitation",
    "final_address": "2733 St Philip St",
    "address_councildis": "A",
    "status": "Pending",
    "rowid": "837306",
    "final_x": "3677160.54798",
    "final_y": "538081.826441",
    "longitude": "-90.08154639970938",
    "latitude": "29.973669523633454",
    "geocoded_column": {
      "latitude": "29.973669523633454",
      "longitude": "-90.08154639970938"
    }
  },
  {
    "service_request": "2021-837305",
    "request_type": "Trash/Recycling",
    "request_reason": "Illegal Dumping",
    "date_created": "2021-10-26T16:02:16.000",
    "date_modified": "2021-10-26T16:02:16.000",
    "request_status": "Pending",
    "responsible_agency": "Department of Sanitation",
    "final_address": "2713 Chartres St",
    "address_councildis": "C",
    "status": "Pending",
    "rowid": "837305",
    "final_x": "3687066.13282",
    "final_y": "534560.079365",
    "longitude": "-90.0503870398346",
    "latitude": "29.96368467639413",
    "geocoded_column": {
      "latitude": "29.96368467639413",
      "longitude": "-90.0503870398346"
    }
  },
  {
    "service_request": "2021-837304",
    "request_type": "Trash/Recycling",
    "request_reason": "MIssed Recycling Pick-Up",
    "date_created": "2021-10-26T16:01:14.000",
    "date_modified": "2021-10-26T17:01:21.000",
    "request_status": "Pending",
    "responsible_agency": "Department of Sanitation",
    "final_address": "310 S Scott St",
    "address_councildis": "A",
    "status": "Assigned to Contractor",
    "contractor": "Richards Disposal",
    "rowid": "837304",
    "final_x": "3671253.20276",
    "final_y": "537075.164872",
    "longitude": "-90.10023732443071",
    "latitude": "29.971077671904176",
    "geocoded_column": {
      "latitude": "29.971077671904176",
      "longitude": "-90.10023732443071"
    }
  },
  {
    "service_request": "2021-837301",
    "request_type": "Traffic Signals/Signs/Striping/Streetlights",
    "request_reason": "Street Light Outage/Malfunction",
    "date_created": "2021-10-26T15:59:02.000",
    "date_modified": "2021-10-26T15:59:04.000",
    "request_status": "Pending",
    "responsible_agency": "Department of Public Works",
    "final_address": "1613 St Roch Ave",
    "address_councildis": "D",
    "status": "Pending",
    "contractor": "Royal Engineering",
    "rowid": "837301",
    "final_x": "3686405.82863",
    "final_y": "538407.990665",
    "longitude": "-90.05233636316395",
    "latitude": "29.97428540365698",
    "geocoded_column": {
      "latitude": "29.97428540365698",
      "longitude": "-90.05233636316395"
    }
  },
  {
    "service_request": "2021-837298",
    "request_type": "Trash/Recycling",
    "request_reason": "Replace Trash Cart",
    "date_created": "2021-10-26T15:52:23.000",
    "date_modified": "2021-10-26T15:52:24.000",
    "request_status": "Pending",
    "responsible_agency": "Department of Sanitation",
    "final_address": "2118 Calhoun St",
    "address_councildis": "A",
    "status": "Assigned to Contractor",
    "contractor": "Richards Disposal",
    "rowid": "837298",
    "final_x": "3665650.71802",
    "final_y": "524905.615612",
    "longitude": "-90.1183383150112",
    "latitude": "29.93777996631114",
    "geocoded_column": {
      "latitude": "29.93777996631114",
      "longitude": "-90.1183383150112"
    }
  },
  {
    "service_request": "2021-837296",
    "request_type": "Trash/Recycling",
    "request_reason": "Illegal Dumping",
    "date_created": "2021-10-26T15:49:05.000",
    "date_modified": "2021-10-26T15:49:05.000",
    "request_status": "Pending",
    "responsible_agency": "Department of Sanitation",
    "final_address": "7325 Spruce St",
    "address_councildis": "A",
    "status": "Pending",
    "rowid": "837296",
    "final_x": "3665373.30836",
    "final_y": "529196.496576",
    "longitude": "-90.1190705670253",
    "latitude": "29.94958659518001",
    "geocoded_column": {
      "latitude": "29.94958659518001",
      "longitude": "-90.1190705670253"
    }
  },
  {
    "service_request": "2021-837295",
    "request_type": "Trash/Recycling",
    "request_reason": "Request a Large Item Pick Up",
    "date_created": "2021-10-26T15:47:23.000",
    "date_modified": "2021-10-26T16:46:34.000",
    "case_close_date": "2021-10-26T11:46:34.000",
    "request_status": "Closed",
    "responsible_agency": "Department of Sanitation",
    "final_address": "6111 Dorothea St",
    "address_councildis": "D",
    "status": "Resolved",
    "contractor": "Metro Disposal",
    "rowid": "837295",
    "final_x": "3696071.27926",
    "final_y": "557475.646043",
    "longitude": "-90.02112112652674",
    "latitude": "30.02641375445031",
    "geocoded_column": {
      "latitude": "30.02641375445031",
      "longitude": "-90.02112112652674"
    }
  },
  {
    "service_request": "2021-837294",
    "request_type": "Trash/Recycling",
    "request_reason": "Order Trash Cart",
    "date_created": "2021-10-26T15:46:07.000",
    "date_modified": "2021-10-26T16:01:01.000",
    "request_status": "Pending",
    "responsible_agency": "Department of Sanitation",
    "final_address": "2425 Palmer Ave",
    "address_councildis": "A",
    "status": "Assigned to Contractor",
    "contractor": "Richards Disposal",
    "rowid": "837294",
    "final_x": "3666452.93677",
    "final_y": "525718.645757",
    "longitude": "-90.11577836254911",
    "latitude": "29.939992124598245",
    "geocoded_column": {
      "latitude": "29.939992124598245",
      "longitude": "-90.11577836254911"
    }
  },
  {
    "service_request": "2021-837292",
    "request_type": "Traffic Signals/Signs/Striping/Streetlights",
    "request_reason": "Street Light Outage/Malfunction",
    "date_created": "2021-10-26T15:44:38.000",
    "date_modified": "2021-10-26T16:01:22.000",
    "request_status": "Pending",
    "responsible_agency": "Department of Public Works",
    "final_address": "4913 Crowder Blvd",
    "address_councildis": "E",
    "status": "Pending",
    "contractor": "Royal Engineering",
    "rowid": "837292",
    "final_x": "3706473.40657",
    "final_y": "556466.07913",
    "longitude": "-89.98828932327702",
    "latitude": "30.023306187269544",
    "geocoded_column": {
      "latitude": "30.023306187269544",
      "longitude": "-89.98828932327702"
    }
  },
  {
    "service_request": "2021-837290",
    "request_type": "Trash/Recycling",
    "request_reason": "Replace Trash Cart",
    "date_created": "2021-10-26T15:41:31.000",
    "date_modified": "2021-10-26T15:41:32.000",
    "request_status": "Pending",
    "responsible_agency": "Department of Sanitation",
    "final_address": "2519 Amelia St",
    "address_councildis": "B",
    "status": "Assigned to Contractor",
    "contractor": "Richards Disposal",
    "rowid": "837290",
    "final_x": "3672351.9874",
    "final_y": "524455.010812",
    "longitude": "-90.0971971784964",
    "latitude": "29.936343864558054",
    "geocoded_column": {
      "latitude": "29.936343864558054",
      "longitude": "-90.0971971784964"
    }
  },
  {
    "service_request": "2021-837289",
    "request_type": "Trash/Recycling",
    "request_reason": "Illegal Dumping",
    "date_created": "2021-10-26T15:35:45.000",
    "date_modified": "2021-10-26T16:01:44.000",
    "request_status": "Pending",
    "responsible_agency": "Department of Sanitation",
    "final_address": "5901 Canal Blvd",
    "address_councildis": "A",
    "status": "Pending",
    "rowid": "837289",
    "final_x": "3668586.7058",
    "final_y": "546687.530769",
    "longitude": "-90.10833395948336",
    "latitude": "29.997587044445062",
    "geocoded_column": {
      "latitude": "29.997587044445062",
      "longitude": "-90.10833395948336"
    }
  },
  {
    "service_request": "2021-837288",
    "request_type": "Traffic Signals/Signs/Striping/Streetlights",
    "request_reason": "Traffic Sign Missing/Damaged",
    "date_created": "2021-10-26T15:30:13.000",
    "date_modified": "2021-10-26T16:01:45.000",
    "request_status": "Pending",
    "responsible_agency": "Department of Public Works",
    "final_address": "900 Piety St",
    "address_councildis": "C",
    "status": "Pending",
    "rowid": "837288",
    "final_x": "3689621.06787",
    "final_y": "535034.80423",
    "longitude": "-90.0423019477998",
    "latitude": "29.96491109863251",
    "geocoded_column": {
      "latitude": "29.96491109863251",
      "longitude": "-90.0423019477998"
    }
  },
  {
    "service_request": "2021-837287",
    "request_type": "Parks & Parkways",
    "request_reason": "Request Tree Service (Right of Way/Public Property)",
    "date_created": "2021-10-26T15:29:26.000",
    "date_modified": "2021-10-26T16:01:47.000",
    "request_status": "Pending",
    "responsible_agency": "Department of Parks & Parkway",
    "final_address": "4830 Bienville Ave",
    "address_councildis": "A",
    "status": "Pending",
    "rowid": "837287",
    "final_x": "3669016.62292",
    "final_y": "540777.073035",
    "longitude": "-90.10717565632642",
    "latitude": "29.981322663943338",
    "geocoded_column": {
      "latitude": "29.981322663943338",
      "longitude": "-90.10717565632642"
    }
  },
  {
    "service_request": "2021-837286",
    "request_type": "Abandoned Vehicles",
    "request_reason": "Abandoned/Junk Vehicles",
    "date_created": "2021-10-26T15:27:35.000",
    "date_modified": "2021-10-26T16:01:48.000",
    "request_status": "Pending",
    "responsible_agency": "Department of Public Works",
    "final_address": "5510 Wickfield Dr",
    "address_councildis": "D",
    "status": "Pending",
    "rowid": "837286",
    "final_x": "3681042.87061",
    "final_y": "553086.922903",
    "longitude": "-90.0687622000035",
    "latitude": "30.014811031882115",
    "geocoded_column": {
      "latitude": "30.014811031882115",
      "longitude": "-90.0687622000035"
    }
  },
  {
    "service_request": "2021-837285",
    "request_type": "Trash/Recycling",
    "request_reason": "Replace Trash Cart",
    "date_created": "2021-10-26T15:23:52.000",
    "date_modified": "2021-10-26T15:23:52.000",
    "request_status": "Pending",
    "responsible_agency": "Department of Sanitation",
    "final_address": "2811 Pocahontas St",
    "address_councildis": "D",
    "status": "Assigned to Contractor",
    "contractor": "Metro Disposal",
    "rowid": "837285",
    "final_x": "3688690.67683",
    "final_y": "548375.225042",
    "longitude": "-90.04476629931024",
    "latitude": "30.001621295683933",
    "geocoded_column": {
      "latitude": "30.001621295683933",
      "longitude": "-90.04476629931024"
    }
  },
  {
    "service_request": "2021-837284",
    "request_type": "Trash/Recycling",
    "request_reason": "Missed Trash Pick-Up",
    "date_created": "2021-10-26T15:22:03.000",
    "date_modified": "2021-10-26T16:01:50.000",
    "request_status": "Pending",
    "responsible_agency": "Department of Sanitation",
    "final_address": "New Orleans,LA",
    "address_councildis": "B",
    "status": "Assigned to Contractor",
    "contractor": "Richards Disposal",
    "rowid": "837284",
    "final_x": "3679355.41237",
    "final_y": "521572.098425",
    "longitude": "-90.07518706318035",
    "latitude": "29.928207198526273",
    "geocoded_column": {
      "latitude": "29.928207198526273",
      "longitude": "-90.07518706318035"
    }
  },
  {
    "service_request": "2021-837283",
    "request_type": "Trash/Recycling",
    "request_reason": "Order Trash Cart",
    "date_created": "2021-10-26T15:20:20.000",
    "date_modified": "2021-10-26T15:20:20.000",
    "request_status": "Pending",
    "responsible_agency": "Department of Sanitation",
    "final_address": "4127 Gibson St",
    "address_councildis": "D",
    "status": "Assigned to Contractor",
    "contractor": "Metro Disposal",
    "rowid": "837283",
    "final_x": "3678780.11221",
    "final_y": "547525.891474",
    "longitude": "-90.07610420856678",
    "latitude": "29.999588655547296",
    "geocoded_column": {
      "latitude": "29.999588655547296",
      "longitude": "-90.07610420856678"
    }
  },
  {
    "service_request": "2021-837282",
    "request_type": "Parks & Parkways",
    "request_reason": "Request Grass Cutting Service (City Owned Property)",
    "date_created": "2021-10-26T15:14:05.000",
    "date_modified": "2021-10-26T16:01:51.000",
    "request_status": "Pending",
    "responsible_agency": "Department of Parks & Parkway",
    "final_address": "3200 BLK Lafitte Ave",
    "address_councildis": "A",
    "status": "Pending",
    "rowid": "837282",
    "final_x": "3674633.8236",
    "final_y": "537531.033978",
    "longitude": "-90.08954523184543",
    "latitude": "29.972230689966132",
    "geocoded_column": {
      "latitude": "29.972230689966132",
      "longitude": "-90.08954523184543"
    }
  },
  {
    "service_request": "2021-837281",
    "request_type": "Trash/Recycling",
    "request_reason": "Missed Trash Pick-Up",
    "date_created": "2021-10-26T15:12:39.000",
    "date_modified": "2021-10-26T15:12:42.000",
    "request_status": "Pending",
    "responsible_agency": "Department of Sanitation",
    "final_address": "2116 Eads St",
    "address_councildis": "D",
    "status": "Assigned to Contractor",
    "contractor": "Metro Disposal",
    "rowid": "837281",
    "final_x": "3687920.21475",
    "final_y": "540415.567243",
    "longitude": "-90.04748243814018",
    "latitude": "29.979758891780207",
    "geocoded_column": {
      "latitude": "29.979758891780207",
      "longitude": "-90.04748243814018"
    }
  },
  {
    "service_request": "2021-837279",
    "request_type": "Trash/Recycling",
    "request_reason": "Request a Large Item Pick Up",
    "date_created": "2021-10-26T15:06:13.000",
    "date_modified": "2021-10-26T16:01:52.000",
    "request_status": "Pending",
    "responsible_agency": "Department of Sanitation",
    "final_address": "2850 Dryades St, New Orleans, Louisiana, 70115",
    "address_councildis": "B",
    "status": "Assigned to Contractor",
    "contractor": "Richards Disposal",
    "rowid": "837279",
    "final_x": "3674989.45915",
    "final_y": "523176.319163",
    "longitude": "-90.08891442154902",
    "latitude": "29.93274937890182",
    "geocoded_column": {
      "latitude": "29.93274937890182",
      "longitude": "-90.08891442154902"
    }
  },
  {
    "service_request": "2021-837278",
    "request_type": "Trash/Recycling",
    "request_reason": "Request a Large Item Pick Up",
    "date_created": "2021-10-26T15:05:23.000",
    "date_modified": "2021-10-26T16:01:54.000",
    "request_status": "Pending",
    "responsible_agency": "Department of Sanitation",
    "final_address": "2844 Dryades St, New Orleans, Louisiana, 70115",
    "address_councildis": "B",
    "status": "Assigned to Contractor",
    "contractor": "Richards Disposal",
    "rowid": "837278",
    "final_x": "3675009.7716",
    "final_y": "523192.725371",
    "longitude": "-90.08884973416258",
    "latitude": "29.9327938840461",
    "geocoded_column": {
      "latitude": "29.9327938840461",
      "longitude": "-90.08884973416258"
    }
  },
  {
    "service_request": "2021-837277",
    "request_type": "Trash/Recycling",
    "request_reason": "Request a Large Item Pick Up",
    "date_created": "2021-10-26T15:04:25.000",
    "date_modified": "2021-10-26T16:01:58.000",
    "request_status": "Pending",
    "responsible_agency": "Department of Sanitation",
    "final_address": "2848 Dryades St, New Orleans, Louisiana, 70115",
    "address_councildis": "B",
    "status": "Assigned to Contractor",
    "contractor": "Richards Disposal",
    "rowid": "837277",
    "final_x": "3674993.36539",
    "final_y": "523177.881275",
    "longitude": "-90.08890203628705",
    "latitude": "29.9327535575519",
    "geocoded_column": {
      "latitude": "29.9327535575519",
      "longitude": "-90.08890203628705"
    }
  },
  {
    "service_request": "2021-837276",
    "request_type": "Abandoned Vehicles",
    "request_reason": "Abandoned/Junk Vehicles",
    "date_created": "2021-10-26T15:01:04.000",
    "date_modified": "2021-10-26T15:01:04.000",
    "request_status": "Pending",
    "responsible_agency": "Department of Public Works",
    "final_address": "2567 N Prieur St",
    "address_councildis": "D",
    "status": "Pending",
    "rowid": "837276",
    "final_x": "3687548.25116",
    "final_y": "539505.962826",
    "longitude": "-90.0486894569815",
    "latitude": "29.97726927311452",
    "geocoded_column": {
      "latitude": "29.97726927311452",
      "longitude": "-90.0486894569815"
    }
  },
  {
    "service_request": "2021-837275",
    "request_type": "Trash/Recycling",
    "request_reason": "Illegal Dumping",
    "date_created": "2021-10-26T14:58:40.000",
    "date_modified": "2021-10-26T14:58:40.000",
    "request_status": "Pending",
    "responsible_agency": "Department of Sanitation",
    "final_address": "2567 N Prieur St",
    "address_councildis": "D",
    "status": "Pending",
    "rowid": "837275",
    "final_x": "3687548.25116",
    "final_y": "539505.962826",
    "longitude": "-90.0486894569815",
    "latitude": "29.97726927311452",
    "geocoded_column": {
      "latitude": "29.97726927311452",
      "longitude": "-90.0486894569815"
    }
  },
  {
    "service_request": "2021-837274",
    "request_type": "Trash/Recycling",
    "request_reason": "Repair Trash Cart",
    "date_created": "2021-10-26T14:58:13.000",
    "date_modified": "2021-10-26T15:00:58.000",
    "request_status": "Pending",
    "responsible_agency": "Department of Sanitation",
    "final_address": "200 Robert E Lee Blvd",
    "address_councildis": "A",
    "status": "Assigned to Contractor",
    "contractor": "Metro Disposal",
    "rowid": "837274",
    "final_x": "3667235.20205",
    "final_y": "554766.63292",
    "longitude": "-90.11233137963038",
    "latitude": "30.019841415732806",
    "geocoded_column": {
      "latitude": "30.019841415732806",
      "longitude": "-90.11233137963038"
    }
  },
  {
    "service_request": "2021-837273",
    "request_type": "Abandoned Vehicles",
    "request_reason": "Abandoned/Junk Vehicles",
    "date_created": "2021-10-26T14:58:13.000",
    "date_modified": "2021-10-26T14:58:13.000",
    "request_status": "Pending",
    "responsible_agency": "Department of Public Works",
    "final_address": "600 BLK Nashville Ave",
    "address_councildis": "A",
    "status": "Pending",
    "rowid": "837273",
    "final_x": "3665417.96932",
    "final_y": "518503.928659",
    "longitude": "-90.11928726109345",
    "latitude": "29.92018413445436",
    "geocoded_column": {
      "latitude": "29.92018413445436",
      "longitude": "-90.11928726109345"
    }
  },
  {
    "service_request": "2021-837270",
    "request_type": "Trash/Recycling",
    "request_reason": "Replace Trash Cart",
    "date_created": "2021-10-26T14:50:27.000",
    "date_modified": "2021-10-26T14:50:29.000",
    "request_status": "Pending",
    "responsible_agency": "Department of Sanitation",
    "final_address": "4002 Dryades St",
    "address_councildis": "B",
    "status": "Assigned to Contractor",
    "contractor": "Richards Disposal",
    "rowid": "837270",
    "final_x": "3672075.08775",
    "final_y": "522044.46649",
    "longitude": "-90.09815339728836",
    "latitude": "29.929723856953",
    "geocoded_column": {
      "latitude": "29.929723856953",
      "longitude": "-90.09815339728836"
    }
  },
  {
    "service_request": "2021-837269",
    "request_type": "Trash/Recycling",
    "request_reason": "Replace Trash Cart",
    "date_created": "2021-10-26T14:50:26.000",
    "date_modified": "2021-10-26T14:50:28.000",
    "request_status": "Pending",
    "responsible_agency": "Department of Sanitation",
    "final_address": "4002 Dryades St",
    "address_councildis": "B",
    "status": "Assigned to Contractor",
    "contractor": "Richards Disposal",
    "rowid": "837269",
    "final_x": "3672075.08775",
    "final_y": "522044.46649",
    "longitude": "-90.09815339728836",
    "latitude": "29.929723856953",
    "geocoded_column": {
      "latitude": "29.929723856953",
      "longitude": "-90.09815339728836"
    }
  },
  {
    "service_request": "2021-837268",
    "request_type": "Trash/Recycling",
    "request_reason": "Order Recycling Cart",
    "date_created": "2021-10-26T14:49:40.000",
    "date_modified": "2021-10-26T15:01:03.000",
    "request_status": "Pending",
    "responsible_agency": "Department of Sanitation",
    "final_address": "7524 Woodbine Dr",
    "address_councildis": "E",
    "status": "Pending",
    "rowid": "837268",
    "final_x": "3702014.75242",
    "final_y": "561067.025886",
    "longitude": "-90.0022087322967",
    "latitude": "30.036100163967287",
    "geocoded_column": {
      "latitude": "30.036100163967287",
      "longitude": "-90.0022087322967"
    }
  },
  {
    "service_request": "2021-837267",
    "request_type": "Roads/Drainage",
    "request_reason": "Street Subsidence (Sinking)",
    "date_created": "2021-10-26T14:48:16.000",
    "date_modified": "2021-10-26T15:01:05.000",
    "request_status": "Pending",
    "responsible_agency": "Department of Public Works",
    "final_address": "1519 N Dupre St",
    "address_councildis": "A",
    "status": "Pending",
    "rowid": "837267",
    "final_x": "3677263.39125",
    "final_y": "540095.412875",
    "longitude": "-90.08115210311212",
    "latitude": "29.979203104424784",
    "geocoded_column": {
      "latitude": "29.979203104424784",
      "longitude": "-90.08115210311212"
    }
  },
  {
    "service_request": "2021-837266",
    "request_type": "Trash/Recycling",
    "request_reason": "Order Recycling Cart",
    "date_created": "2021-10-26T14:47:04.000",
    "date_modified": "2021-10-26T15:01:07.000",
    "request_status": "Pending",
    "responsible_agency": "Department of Sanitation",
    "final_address": "6838 Marshal Foch St",
    "address_councildis": "A",
    "status": "Pending",
    "rowid": "837266",
    "final_x": "3670249.88679",
    "final_y": "552869.054743",
    "longitude": "-90.10287030875688",
    "latitude": "30.014535074535953",
    "geocoded_column": {
      "latitude": "30.014535074535953",
      "longitude": "-90.10287030875688"
    }
  },
  {
    "service_request": "2021-837265",
    "request_type": "Trash/Recycling",
    "request_reason": "Request a Large Item Pick Up",
    "date_created": "2021-10-26T14:45:23.000",
    "date_modified": "2021-10-26T14:45:24.000",
    "request_status": "Pending",
    "responsible_agency": "Department of Sanitation",
    "final_address": "4951 Feliciana Dr",
    "address_councildis": "D",
    "status": "Assigned to Contractor",
    "contractor": "Metro Disposal",
    "rowid": "837265",
    "final_x": "3690071.3823",
    "final_y": "551792.224854",
    "longitude": "-90.04028271262628",
    "latitude": "30.010974025930338",
    "geocoded_column": {
      "latitude": "30.010974025930338",
      "longitude": "-90.04028271262628"
    }
  },
  {
    "service_request": "2021-837264",
    "request_type": "Trash/Recycling",
    "request_reason": "Missed Trash Pick-Up",
    "date_created": "2021-10-26T14:43:35.000",
    "date_modified": "2021-10-26T14:44:07.000",
    "request_status": "Pending",
    "responsible_agency": "Department of Sanitation",
    "final_address": "7708 Doyle Ct",
    "address_councildis": "E",
    "status": "Assigned to Contractor",
    "contractor": "Metro Disposal",
    "rowid": "837264",
    "final_x": "3700350.67684",
    "final_y": "560938.333918",
    "longitude": "-90.00747220254397",
    "latitude": "30.035799360686294",
    "geocoded_column": {
      "latitude": "30.035799360686294",
      "longitude": "-90.00747220254397"
    }
  },
  {
    "service_request": "2021-837263",
    "request_type": "Trash/Recycling",
    "request_reason": "Missed Trash Pick-Up",
    "date_created": "2021-10-26T14:40:25.000",
    "date_modified": "2021-10-26T15:01:08.000",
    "request_status": "Pending",
    "responsible_agency": "Department of Sanitation",
    "final_address": "1919 N Rampart St",
    "address_councildis": "C",
    "status": "Assigned to Contractor",
    "contractor": "Metro Disposal",
    "rowid": "837263",
    "final_x": "3684061.78485",
    "final_y": "535893.855815",
    "longitude": "-90.05982764125154",
    "latitude": "29.967444253204583",
    "geocoded_column": {
      "latitude": "29.967444253204583",
      "longitude": "-90.05982764125154"
    }
  },
  {
    "service_request": "2021-837262",
    "request_type": "Trash/Recycling",
    "request_reason": "Replace Trash Cart",
    "date_created": "2021-10-26T14:39:43.000",
    "date_modified": "2021-10-26T15:01:09.000",
    "request_status": "Pending",
    "responsible_agency": "Department of Sanitation",
    "final_address": "4701 Baudin St",
    "address_councildis": "A",
    "status": "Assigned to Contractor",
    "contractor": "Richards Disposal",
    "rowid": "837262",
    "final_x": "3668137.52647",
    "final_y": "538619.537801",
    "longitude": "-90.11002500616621",
    "latitude": "29.975416006472006",
    "geocoded_column": {
      "latitude": "29.975416006472006",
      "longitude": "-90.11002500616621"
    }
  },
  {
    "service_request": "2021-837260",
    "request_type": "Trash/Recycling",
    "request_reason": "Repair Trash Cart",
    "date_created": "2021-10-26T14:35:34.000",
    "date_modified": "2021-10-26T15:01:13.000",
    "request_status": "Pending",
    "responsible_agency": "Department of Sanitation",
    "final_address": "4126 Copernicus St",
    "address_councildis": "C",
    "status": "Assigned to Contractor",
    "contractor": "Richards Disposal",
    "rowid": "837260",
    "final_x": "3699221.4936",
    "final_y": "523315.464251",
    "longitude": "-90.01241122405335",
    "latitude": "29.932386114438852",
    "geocoded_column": {
      "latitude": "29.932386114438852",
      "longitude": "-90.01241122405335"
    }
  },
  {
    "service_request": "2021-837259",
    "request_type": "Trash/Recycling",
    "request_reason": "Replace Trash Cart",
    "date_created": "2021-10-26T14:32:19.000",
    "date_modified": "2021-10-26T14:32:23.000",
    "request_status": "Pending",
    "responsible_agency": "Department of Sanitation",
    "final_address": "4920 St Charles Ave",
    "address_councildis": "B",
    "status": "Assigned to Contractor",
    "contractor": "Richards Disposal",
    "rowid": "837259",
    "final_x": "3668914.26746",
    "final_y": "520619.304952",
    "longitude": "-90.10817968746933",
    "latitude": "29.92589842684097",
    "geocoded_column": {
      "latitude": "29.92589842684097",
      "longitude": "-90.10817968746933"
    }
  },
  {
    "service_request": "2021-837256",
    "request_type": "Trash/Recycling",
    "request_reason": "Order Trash Cart",
    "date_created": "2021-10-26T14:27:42.000",
    "date_modified": "2021-10-26T14:27:44.000",
    "request_status": "Pending",
    "responsible_agency": "Department of Sanitation",
    "final_address": "1630 Pratt Dr",
    "address_councildis": "D",
    "status": "Assigned to Contractor",
    "contractor": "Metro Disposal",
    "rowid": "837256",
    "final_x": "3679758.38453",
    "final_y": "548572.016403",
    "longitude": "-90.07297746171307",
    "latitude": "30.002435576568256",
    "geocoded_column": {
      "latitude": "30.002435576568256",
      "longitude": "-90.07297746171307"
    }
  },
  {
    "service_request": "2021-837255",
    "request_type": "Abandoned Vehicles",
    "request_reason": "Abandoned/Junk Vehicles",
    "date_created": "2021-10-26T14:26:08.000",
    "date_modified": "2021-10-26T14:26:08.000",
    "request_status": "Pending",
    "responsible_agency": "Department of Public Works",
    "final_address": "1139 Arabella St",
    "address_councildis": "A",
    "status": "Pending",
    "rowid": "837255",
    "final_x": "3666152.53025",
    "final_y": "520220.218232",
    "longitude": "-90.11691108139415",
    "latitude": "29.924881970538088",
    "geocoded_column": {
      "latitude": "29.924881970538088",
      "longitude": "-90.11691108139415"
    }
  },
  {
    "service_request": "2021-837254",
    "request_type": "Property Maintenance",
    "request_reason": "Property Maintenance",
    "date_created": "2021-10-26T14:22:36.000",
    "date_modified": "2021-10-26T15:01:17.000",
    "request_status": "Pending",
    "responsible_agency": "Department of Code Enforcement",
    "final_address": "3418 Bryson St",
    "address_councildis": "C",
    "status": "Pending",
    "rowid": "837254",
    "final_x": "3714799.61087",
    "final_y": "517565.887542",
    "longitude": "-89.96345007603752",
    "latitude": "29.916073839759374",
    "geocoded_column": {
      "latitude": "29.916073839759374",
      "longitude": "-89.96345007603752"
    }
  },
  {
    "service_request": "2021-837253",
    "request_type": "Trash/Recycling",
    "request_reason": "Illegal Dumping",
    "date_created": "2021-10-26T14:20:28.000",
    "date_modified": "2021-10-26T14:20:28.000",
    "request_status": "Pending",
    "responsible_agency": "Department of Sanitation",
    "final_address": "MONTICELLO AVE & PRITCHARD PL",
    "address_councildis": "A",
    "status": "Pending",
    "rowid": "837253",
    "final_x": "3662609.3",
    "final_y": "536032.98",
    "longitude": "-90.12757068855134",
    "latitude": "29.968464952479756",
    "geocoded_column": {
      "latitude": "29.968464952479756",
      "longitude": "-90.12757068855134"
    }
  },
  {
    "service_request": "2021-837252",
    "request_type": "Roads/Drainage",
    "request_reason": "Pothole",
    "date_created": "2021-10-26T14:19:06.000",
    "date_modified": "2021-10-26T14:19:06.000",
    "request_status": "Pending",
    "responsible_agency": "Department of Public Works",
    "final_address": "1218 N Rendon St",
    "address_councildis": "A",
    "status": "Pending",
    "rowid": "837252",
    "final_x": "3676024.99099",
    "final_y": "539665.770826",
    "longitude": "-90.08507824076263",
    "latitude": "29.978058890235715",
    "geocoded_column": {
      "latitude": "29.978058890235715",
      "longitude": "-90.08507824076263"
    }
  },
  {
    "service_request": "2021-837251",
    "request_type": "Property Maintenance",
    "request_reason": "Property Maintenance",
    "date_created": "2021-10-26T14:13:41.000",
    "date_modified": "2021-10-26T14:28:28.000",
    "request_status": "Pending",
    "responsible_agency": "Department of Code Enforcement",
    "final_address": "7821 Trapier Ave",
    "address_councildis": "E",
    "status": "Pending",
    "rowid": "837251",
    "final_x": "3706342.69815",
    "final_y": "564147.278881",
    "longitude": "-89.98841745402189",
    "latitude": "30.044430684616454",
    "geocoded_column": {
      "latitude": "30.044430684616454",
      "longitude": "-89.98841745402189"
    }
  },
  {
    "service_request": "2021-837250",
    "request_type": "Property Maintenance",
    "request_reason": "Property Maintenance",
    "date_created": "2021-10-26T14:11:32.000",
    "date_modified": "2021-10-26T14:15:58.000",
    "request_status": "Pending",
    "responsible_agency": "Department of Code Enforcement",
    "final_address": "3417 Bryson St",
    "address_councildis": "C",
    "status": "Pending",
    "rowid": "837250",
    "final_x": "3714724.76229",
    "final_y": "517739.515318",
    "longitude": "-89.96367977411137",
    "latitude": "29.916553715027057",
    "geocoded_column": {
      "latitude": "29.916553715027057",
      "longitude": "-89.96367977411137"
    }
  },
  {
    "service_request": "2021-837249",
    "request_type": "Abandoned Vehicles",
    "request_reason": "Abandoned/Junk Vehicles",
    "date_created": "2021-10-26T14:09:29.000",
    "date_modified": "2021-10-26T14:09:29.000",
    "request_status": "Pending",
    "responsible_agency": "Department of Public Works",
    "final_address": "527 Sixth St",
    "address_councildis": "B",
    "status": "Pending",
    "rowid": "837249",
    "final_x": "3677681.4891",
    "final_y": "519002.452855",
    "longitude": "-90.080559955766",
    "latitude": "29.921191939599666",
    "geocoded_column": {
      "latitude": "29.921191939599666",
      "longitude": "-90.080559955766"
    }
  },
  {
    "service_request": "2021-837247",
    "request_type": "Traffic Signals/Signs/Striping/Streetlights",
    "request_reason": "Request for Stop Sign",
    "date_created": "2021-10-26T14:02:11.000",
    "date_modified": "2021-10-26T15:01:20.000",
    "request_status": "Pending",
    "responsible_agency": "Department of Public Works",
    "final_address": "N ROBERTSON ST & LOUISA ST",
    "address_councildis": "D",
    "status": "Pending",
    "rowid": "837247",
    "final_x": "3689933.2",
    "final_y": "537351.78",
    "longitude": "-90.04123374911609",
    "latitude": "29.971272294732714",
    "geocoded_column": {
      "latitude": "29.971272294732714",
      "longitude": "-90.04123374911609"
    }
  },
  {
    "service_request": "2021-837244",
    "request_type": "Trash/Recycling",
    "request_reason": "MIssed Recycling Pick-Up",
    "date_created": "2021-10-26T13:55:33.000",
    "date_modified": "2021-10-26T13:55:34.000",
    "request_status": "Pending",
    "responsible_agency": "Department of Sanitation",
    "final_address": "2917 Annunciation St",
    "address_councildis": "B",
    "status": "Assigned to Contractor",
    "contractor": "Richards Disposal",
    "rowid": "837244",
    "final_x": "3677076.60142",
    "final_y": "519560.866231",
    "longitude": "-90.08245007562299",
    "latitude": "29.922745566777387",
    "geocoded_column": {
      "latitude": "29.922745566777387",
      "longitude": "-90.08245007562299"
    }
  },
  {
    "service_request": "2021-837242",
    "request_type": "Roads/Drainage",
    "request_reason": "Man hole cover issue",
    "date_created": "2021-10-26T13:51:21.000",
    "date_modified": "2021-10-26T13:51:21.000",
    "request_status": "Pending",
    "responsible_agency": "Department of Public Works",
    "final_address": "900 BLK Perdido St",
    "address_councildis": "B",
    "status": "Pending",
    "rowid": "837242",
    "final_x": "3679961.70697",
    "final_y": "529914.711612",
    "longitude": "-90.0729834507535",
    "latitude": "29.95112829727571",
    "geocoded_column": {
      "latitude": "29.95112829727571",
      "longitude": "-90.0729834507535"
    }
  },
  {
    "service_request": "2021-837241",
    "request_type": "Trash/Recycling",
    "request_reason": "Order Trash Cart",
    "date_created": "2021-10-26T13:51:07.000",
    "date_modified": "2021-10-26T13:51:07.000",
    "request_status": "Pending",
    "responsible_agency": "Department of Sanitation",
    "final_address": "2468 Dauphine St",
    "address_councildis": "C",
    "status": "Assigned to Contractor",
    "contractor": "Metro Disposal",
    "rowid": "837241",
    "final_x": "3686450.30562",
    "final_y": "535305.655238",
    "longitude": "-90.05230543332338",
    "latitude": "29.965753696369642",
    "geocoded_column": {
      "latitude": "29.965753696369642",
      "longitude": "-90.05230543332338"
    }
  },
  {
    "service_request": "2021-837240",
    "request_type": "Abandoned Vehicles",
    "request_reason": "Abandoned/Junk Vehicles",
    "date_created": "2021-10-26T13:49:20.000",
    "date_modified": "2021-10-26T14:01:13.000",
    "request_status": "Pending",
    "responsible_agency": "Department of Public Works",
    "final_address": "8814 Apple St",
    "address_councildis": "A",
    "status": "Pending",
    "rowid": "837240",
    "final_x": "3663396.77971",
    "final_y": "533836.258053",
    "longitude": "-90.12515692408084",
    "latitude": "29.96240187902857",
    "geocoded_column": {
      "latitude": "29.96240187902857",
      "longitude": "-90.12515692408084"
    }
  },
  {
    "service_request": "2021-837238",
    "request_type": "Traffic Signals/Signs/Striping/Streetlights",
    "request_reason": "Street Light Outage/Malfunction",
    "date_created": "2021-10-26T13:42:32.000",
    "date_modified": "2021-10-26T13:42:33.000",
    "request_status": "Pending",
    "responsible_agency": "Department of Public Works",
    "final_address": "6760 General Haig St",
    "address_councildis": "A",
    "status": "Pending",
    "contractor": "Royal Engineering",
    "rowid": "837238",
    "final_x": "3670903.34075",
    "final_y": "552322.489558",
    "longitude": "-90.10082428485133",
    "latitude": "30.013012903033637",
    "geocoded_column": {
      "latitude": "30.013012903033637",
      "longitude": "-90.10082428485133"
    }
  },
  {
    "service_request": "2021-837236",
    "request_type": "Safety & Permits",
    "request_reason": "Licenses & Permits",
    "date_created": "2021-10-26T13:41:07.000",
    "date_modified": "2021-10-26T13:41:07.000",
    "request_status": "Pending",
    "responsible_agency": "Safety and Permits",
    "final_address": "1135 Decatur St",
    "address_councildis": "C",
    "status": "Pending",
    "rowid": "837236",
    "final_x": "3684203.83746",
    "final_y": "533403.752772",
    "longitude": "-90.05946646141463",
    "latitude": "29.960592986138046",
    "geocoded_column": {
      "latitude": "29.960592986138046",
      "longitude": "-90.05946646141463"
    }
  },
  {
    "service_request": "2021-837235",
    "request_type": "Roads/Drainage",
    "request_reason": "Catch Basin - Broken/Damage",
    "date_created": "2021-10-26T13:37:49.000",
    "date_modified": "2021-10-26T13:37:49.000",
    "request_status": "Pending",
    "responsible_agency": "Department of Public Works",
    "final_address": "7600 Jeannette St",
    "address_councildis": "A",
    "status": "Pending",
    "rowid": "837235",
    "final_x": "3663911.84019",
    "final_y": "527909.582335",
    "longitude": "-90.12372799996021",
    "latitude": "29.946090499374762",
    "geocoded_column": {
      "latitude": "29.946090499374762",
      "longitude": "-90.12372799996021"
    }
  },
  {
    "service_request": "2021-837234",
    "request_type": "Safety & Permits",
    "request_reason": "Licenses & Permits",
    "date_created": "2021-10-26T13:34:44.000",
    "date_modified": "2021-10-26T13:34:44.000",
    "request_status": "Pending",
    "responsible_agency": "Safety and Permits",
    "final_address": "2720 S Carrollton Ave",
    "address_councildis": "A",
    "status": "Pending",
    "rowid": "837234",
    "final_x": "3665710.68135",
    "final_y": "532507.302404",
    "longitude": "-90.11789443654493",
    "latitude": "29.95868039828293",
    "geocoded_column": {
      "latitude": "29.95868039828293",
      "longitude": "-90.11789443654493"
    }
  },
  {
    "service_request": "2021-837232",
    "request_type": "Traffic Signals/Signs/Striping/Streetlights",
    "request_reason": "Street Light Outage/Malfunction",
    "date_created": "2021-10-26T13:31:37.000",
    "date_modified": "2021-10-26T14:01:18.000",
    "request_status": "Pending",
    "responsible_agency": "Department of Public Works",
    "final_address": "10123 Lakewood St",
    "address_councildis": "E",
    "status": "Pending",
    "contractor": "Royal Engineering",
    "rowid": "837232",
    "final_x": "3712928.99979",
    "final_y": "556988.447642",
    "longitude": "-89.9678715718218",
    "latitude": "30.02453255084366",
    "geocoded_column": {
      "latitude": "30.02453255084366",
      "longitude": "-89.9678715718218"
    }
  },
  {
    "service_request": "2021-837230",
    "request_type": "COVID-19",
    "request_reason": "COVID-19 Business Non-Compliance",
    "date_created": "2021-10-26T13:29:57.000",
    "date_modified": "2021-10-26T13:29:58.000",
    "request_status": "Pending",
    "responsible_agency": "Safety and Permits",
    "final_address": "4061 Behrman Hwy",
    "address_councildis": "C",
    "status": "Pending",
    "rowid": "837230",
    "final_x": "3697337.77891",
    "final_y": "514500.730099",
    "longitude": "-90.01867717674794",
    "latitude": "29.908208165178518",
    "geocoded_column": {
      "latitude": "29.908208165178518",
      "longitude": "-90.01867717674794"
    }
  },
  {
    "service_request": "2021-837229",
    "request_type": "Trash/Recycling",
    "request_reason": "Missed Trash Pick-Up",
    "date_created": "2021-10-26T13:29:19.000",
    "date_modified": "2021-10-26T14:01:20.000",
    "request_status": "Pending",
    "responsible_agency": "Department of Sanitation",
    "final_address": "506 Opelousas Ave",
    "address_councildis": "C",
    "status": "Assigned to Contractor",
    "contractor": "Richards Disposal",
    "rowid": "837229",
    "final_x": "3687163.69903",
    "final_y": "529177.167552",
    "longitude": "-90.05026928040276",
    "latitude": "29.948880517407147",
    "geocoded_column": {
      "latitude": "29.948880517407147",
      "longitude": "-90.05026928040276"
    }
  },
  {
    "service_request": "2021-837228",
    "request_type": "Trash/Recycling",
    "request_reason": "Replace Trash Cart",
    "date_created": "2021-10-26T13:26:42.000",
    "date_modified": "2021-10-26T14:01:23.000",
    "request_status": "Pending",
    "responsible_agency": "Department of Sanitation",
    "final_address": "3225 Trafalgar St",
    "address_councildis": "A",
    "status": "Assigned to Contractor",
    "contractor": "Metro Disposal",
    "rowid": "837228",
    "final_x": "3678250.8859",
    "final_y": "543245.213966",
    "longitude": "-90.07792421292845",
    "latitude": "29.9878342534932",
    "geocoded_column": {
      "latitude": "29.9878342534932",
      "longitude": "-90.07792421292845"
    }
  },
  {
    "service_request": "2021-837225",
    "request_type": "COVID-19",
    "request_reason": "COVID-19 Business Non-Compliance",
    "date_created": "2021-10-26T13:19:24.000",
    "date_modified": "2021-10-26T14:01:24.000",
    "request_status": "Pending",
    "responsible_agency": "Safety and Permits",
    "final_address": "1100 S Claiborne Ave",
    "address_councildis": "B",
    "status": "Pending",
    "rowid": "837225",
    "final_x": "3675695.8084",
    "final_y": "528824.223488",
    "longitude": "-90.08649051442099",
    "latitude": "29.948258147692556",
    "geocoded_column": {
      "latitude": "29.948258147692556",
      "longitude": "-90.08649051442099"
    }
  },
  {
    "service_request": "2021-837223",
    "request_type": "Trash/Recycling",
    "request_reason": "Illegal Dumping",
    "date_created": "2021-10-26T13:14:01.000",
    "date_modified": "2021-10-26T14:01:27.000",
    "request_status": "Pending",
    "responsible_agency": "Department of Sanitation",
    "final_address": "Bienville Ave & N Scott St, New Orleans, Louisiana, 70119",
    "status": "Pending",
    "rowid": "837223",
    "longitude": "0.0",
    "latitude": "0.0",
    "geocoded_column": {
      "latitude": "0.0",
      "longitude": "0.0"
    }
  },
  {
    "service_request": "2021-837221",
    "request_type": "Property Maintenance",
    "request_reason": "Property Maintenance",
    "date_created": "2021-10-26T13:11:47.000",
    "date_modified": "2021-10-26T14:01:31.000",
    "request_status": "Pending",
    "responsible_agency": "New Orleans Recreation Development Commission",
    "final_address": "5601 Read Blvd",
    "address_councildis": "E",
    "rowid": "837221",
    "final_x": "3711987.02949",
    "final_y": "559650.501085",
    "longitude": "-89.97074797591881",
    "latitude": "30.03188297577755",
    "geocoded_column": {
      "latitude": "30.03188297577755",
      "longitude": "-89.97074797591881"
    }
  },
  {
    "service_request": "2021-837219",
    "request_type": "Trash/Recycling",
    "request_reason": "Request a Large Item Pick Up",
    "date_created": "2021-10-26T13:05:49.000",
    "date_modified": "2021-10-26T14:01:33.000",
    "request_status": "Pending",
    "responsible_agency": "Department of Sanitation",
    "final_address": "915 Jackson Ave",
    "address_councildis": "B",
    "status": "Assigned to Contractor",
    "contractor": "Richards Disposal",
    "rowid": "837219",
    "final_x": "3679269.15899",
    "final_y": "521623.187001",
    "longitude": "-90.07545757539529",
    "latitude": "29.928350279256097",
    "geocoded_column": {
      "latitude": "29.928350279256097",
      "longitude": "-90.07545757539529"
    }
  },
  {
    "service_request": "2021-837218",
    "request_type": "Abandoned Vehicles",
    "request_reason": "Abandoned/Junk Vehicles",
    "date_created": "2021-10-26T13:04:33.000",
    "date_modified": "2021-10-26T13:04:33.000",
    "request_status": "Pending",
    "responsible_agency": "Department of Public Works",
    "final_address": "L B LANDRY AVE & SEMMES ST",
    "address_councildis": "C",
    "status": "Pending",
    "rowid": "837218",
    "final_x": "3689979.3",
    "final_y": "524255.78",
    "longitude": "-90.04155442510456",
    "latitude": "29.935261389202907",
    "geocoded_column": {
      "latitude": "29.935261389202907",
      "longitude": "-90.04155442510456"
    }
  },
  {
    "service_request": "2021-837217",
    "request_type": "Trash/Recycling",
    "request_reason": "Order Trash Cart",
    "date_created": "2021-10-26T13:01:55.000",
    "date_modified": "2021-10-26T14:01:36.000",
    "request_status": "Pending",
    "responsible_agency": "Department of Sanitation",
    "final_address": "174 Huntlee Dr",
    "address_councildis": "C",
    "status": "Assigned to Contractor",
    "contractor": "Richards Disposal",
    "rowid": "837217",
    "final_x": "3702401.80836",
    "final_y": "523329.206843",
    "longitude": "-90.00237082875383",
    "latitude": "29.93232270881407",
    "geocoded_column": {
      "latitude": "29.93232270881407",
      "longitude": "-90.00237082875383"
    }
  },
  {
    "service_request": "2021-837216",
    "request_type": "Trash/Recycling",
    "request_reason": "Missed Trash Pick-Up",
    "date_created": "2021-10-26T13:01:30.000",
    "date_modified": "2021-10-26T13:01:31.000",
    "request_status": "Pending",
    "responsible_agency": "Department of Sanitation",
    "final_address": "5229 St Claude Ave",
    "address_councildis": "E",
    "status": "Assigned to Contractor",
    "contractor": "Metro Disposal",
    "rowid": "837216",
    "final_x": "3696770.71683",
    "final_y": "534204.472581",
    "longitude": "-90.01975398305999",
    "latitude": "29.96240454373914",
    "geocoded_column": {
      "latitude": "29.96240454373914",
      "longitude": "-90.01975398305999"
    }
  },
  {
    "service_request": "2021-837215",
    "request_type": "Trash/Recycling",
    "request_reason": "Request a Large Item Pick Up",
    "date_created": "2021-10-26T13:01:06.000",
    "date_modified": "2021-10-26T13:01:07.000",
    "request_status": "Pending",
    "responsible_agency": "Department of Sanitation",
    "final_address": "613 Seventh St",
    "address_councildis": "B",
    "status": "Assigned to Contractor",
    "contractor": "Richards Disposal",
    "rowid": "837215",
    "final_x": "3677336.97454",
    "final_y": "518971.455927",
    "longitude": "-90.08164850430636",
    "latitude": "29.921117060645656",
    "geocoded_column": {
      "latitude": "29.921117060645656",
      "longitude": "-90.08164850430636"
    }
  },
  {
    "service_request": "2021-837214",
    "request_type": "Trash/Recycling",
    "request_reason": "Order Recycling Cart",
    "date_created": "2021-10-26T12:59:50.000",
    "date_modified": "2021-10-26T12:59:50.000",
    "request_status": "Pending",
    "responsible_agency": "Department of Sanitation",
    "final_address": "613 Seventh St",
    "address_councildis": "B",
    "status": "Pending",
    "rowid": "837214",
    "final_x": "3677336.97454",
    "final_y": "518971.455927",
    "longitude": "-90.08164850430636",
    "latitude": "29.921117060645656",
    "geocoded_column": {
      "latitude": "29.921117060645656",
      "longitude": "-90.08164850430636"
    }
  },
  {
    "service_request": "2021-837210",
    "request_type": "Trash/Recycling",
    "request_reason": "Replace Trash Cart",
    "date_created": "2021-10-26T12:52:58.000",
    "date_modified": "2021-10-26T13:01:08.000",
    "request_status": "Pending",
    "responsible_agency": "Department of Sanitation",
    "final_address": "New Orleans,LA",
    "status": "Assigned to Contractor",
    "rowid": "837210",
    "longitude": "0.0",
    "latitude": "0.0",
    "geocoded_column": {
      "latitude": "0.0",
      "longitude": "0.0"
    }
  },
  {
    "service_request": "2021-837209",
    "request_type": "Trash/Recycling",
    "request_reason": "Missed Trash Pick-Up",
    "date_created": "2021-10-26T12:52:06.000",
    "date_modified": "2021-10-26T13:01:11.000",
    "request_status": "Pending",
    "responsible_agency": "Department of Sanitation",
    "final_address": "5915 N Claiborne Ave",
    "address_councildis": "E",
    "status": "Assigned to Contractor",
    "contractor": "Metro Disposal",
    "rowid": "837209",
    "final_x": "3699593.72029",
    "final_y": "535369.076806",
    "longitude": "-90.01079694632476",
    "latitude": "29.96551750067221",
    "geocoded_column": {
      "latitude": "29.96551750067221",
      "longitude": "-90.01079694632476"
    }
  },
  {
    "service_request": "2021-837208",
    "request_type": "Abandoned Vehicles",
    "request_reason": "Abandoned/Junk Vehicles",
    "date_created": "2021-10-26T12:51:42.000",
    "date_modified": "2021-10-26T12:51:42.000",
    "request_status": "Pending",
    "responsible_agency": "Department of Public Works",
    "final_address": "L B LANDRY AVE & SEMMES ST",
    "address_councildis": "C",
    "status": "Pending",
    "rowid": "837208",
    "final_x": "3689979.3",
    "final_y": "524255.78",
    "longitude": "-90.04155442510456",
    "latitude": "29.935261389202907",
    "geocoded_column": {
      "latitude": "29.935261389202907",
      "longitude": "-90.04155442510456"
    }
  },
  {
    "service_request": "2021-837206",
    "request_type": "Traffic Signals/Signs/Striping/Streetlights",
    "request_reason": "Traffic Signal Malfunctioning/Damaged",
    "date_created": "2021-10-26T12:45:27.000",
    "date_modified": "2021-10-26T13:01:16.000",
    "request_status": "Pending",
    "responsible_agency": "Department of Public Works",
    "final_address": "1100 Poydras St",
    "address_councildis": "B",
    "status": "Pending",
    "rowid": "837206",
    "final_x": "3679174.89243",
    "final_y": "529470.390785",
    "longitude": "-90.07548321990325",
    "latitude": "29.949930337333495",
    "geocoded_column": {
      "latitude": "29.949930337333495",
      "longitude": "-90.07548321990325"
    }
  },
  {
    "service_request": "2021-837205",
    "request_type": "Property Maintenance",
    "request_reason": "Property Maintenance",
    "date_created": "2021-10-26T12:45:25.000",
    "date_modified": "2021-10-26T12:45:25.000",
    "request_status": "Pending",
    "responsible_agency": "Department of Code Enforcement",
    "final_address": "2722 Pauger St",
    "address_councildis": "D",
    "status": "Pending",
    "rowid": "837205",
    "final_x": "3683560.59119",
    "final_y": "539720.444938",
    "longitude": "-90.06127626217686",
    "latitude": "29.9779813504249",
    "geocoded_column": {
      "latitude": "29.9779813504249",
      "longitude": "-90.06127626217686"
    }
  },
  {
    "service_request": "2021-837203",
    "request_type": "Abandoned Vehicles",
    "request_reason": "Abandoned/Junk Vehicles",
    "date_created": "2021-10-26T12:43:00.000",
    "date_modified": "2021-10-26T12:56:40.000",
    "case_close_date": "2021-10-25T19:00:00.000",
    "request_status": "Pending",
    "responsible_agency": "Department of Public Works",
    "final_address": "L B LANDRY AVE & SEMMES ST",
    "address_councildis": "C",
    "status": "Pending",
    "rowid": "837203",
    "final_x": "3690035.7",
    "final_y": "524258.08",
    "longitude": "-90.04137628903705",
    "latitude": "29.93526596497384",
    "geocoded_column": {
      "latitude": "29.93526596497384",
      "longitude": "-90.04137628903705"
    }
  },
  {
    "service_request": "2021-837201",
    "request_type": "Abandoned Vehicles",
    "request_reason": "Vehicle Blocking Your Driveway",
    "date_created": "2021-10-26T12:41:45.000",
    "date_modified": "2021-10-26T13:01:20.000",
    "request_status": "Pending",
    "responsible_agency": "Department of Public Works",
    "final_address": "1612 St Ann St",
    "address_councildis": "C",
    "status": "Pending",
    "rowid": "837201",
    "final_x": "3680126.95624",
    "final_y": "534725.33479",
    "longitude": "-90.0722945095762",
    "latitude": "29.964350882249935",
    "geocoded_column": {
      "latitude": "29.964350882249935",
      "longitude": "-90.0722945095762"
    }
  },
  {
    "service_request": "2021-837199",
    "request_type": "Trash/Recycling",
    "request_reason": "Missed Trash Pick-Up",
    "date_created": "2021-10-26T12:37:06.000",
    "date_modified": "2021-10-26T12:37:07.000",
    "request_status": "Pending",
    "responsible_agency": "Department of Sanitation",
    "final_address": "3200 Conti St",
    "address_councildis": "B",
    "status": "Assigned to Contractor",
    "contractor": "Richards Disposal",
    "rowid": "837199",
    "final_x": "3674515.19131",
    "final_y": "537157.179464",
    "longitude": "-90.08993270549917",
    "latitude": "29.971206257305123",
    "geocoded_column": {
      "latitude": "29.971206257305123",
      "longitude": "-90.08993270549917"
    }
  },
  {
    "service_request": "2021-837198",
    "request_type": "Trash/Recycling",
    "request_reason": "Repair Trash Cart",
    "date_created": "2021-10-26T12:34:18.000",
    "date_modified": "2021-10-26T12:34:19.000",
    "request_status": "Pending",
    "responsible_agency": "Department of Sanitation",
    "final_address": "3200 Conti St",
    "address_councildis": "B",
    "status": "Assigned to Contractor",
    "contractor": "Richards Disposal",
    "rowid": "837198",
    "final_x": "3674515.19131",
    "final_y": "537157.179464",
    "longitude": "-90.08993270549917",
    "latitude": "29.971206257305123",
    "geocoded_column": {
      "latitude": "29.971206257305123",
      "longitude": "-90.08993270549917"
    }
  },
  {
    "service_request": "2021-837194",
    "request_type": "Abandoned Vehicles",
    "request_reason": "Abandoned/Junk Vehicles",
    "date_created": "2021-10-26T12:25:10.000",
    "date_modified": "2021-10-26T13:01:23.000",
    "request_status": "Pending",
    "responsible_agency": "Department of Public Works",
    "final_address": "3528 Monroe St",
    "address_councildis": "A",
    "status": "Pending",
    "rowid": "837194",
    "final_x": "3666034.70093",
    "final_y": "536055.806215",
    "longitude": "-90.1167522922658",
    "latitude": "29.96842815992007",
    "geocoded_column": {
      "latitude": "29.96842815992007",
      "longitude": "-90.1167522922658"
    }
  },
  {
    "service_request": "2021-837193",
    "request_type": "Trash/Recycling",
    "request_reason": "Order Recycling Cart",
    "date_created": "2021-10-26T12:24:00.000",
    "date_modified": "2021-10-26T13:01:24.000",
    "request_status": "Pending",
    "responsible_agency": "Department of Sanitation",
    "final_address": "12941 Parlange Ct",
    "address_councildis": "E",
    "status": "Pending",
    "rowid": "837193",
    "final_x": "3717016.92716",
    "final_y": "567750.586148",
    "longitude": "-89.95454539104095",
    "latitude": "30.053989490422815",
    "geocoded_column": {
      "latitude": "30.053989490422815",
      "longitude": "-89.95454539104095"
    }
  },
  {
    "service_request": "2021-837192",
    "request_type": "COVID-19",
    "request_reason": "COVID-19 Business Non-Compliance",
    "date_created": "2021-10-26T12:20:28.000",
    "date_modified": "2021-10-26T12:20:29.000",
    "request_status": "Pending",
    "responsible_agency": "Safety and Permits",
    "final_address": "1 Poydras St Ste 122",
    "address_councildis": "C",
    "status": "Pending",
    "rowid": "837192",
    "final_x": "3683200.25788",
    "final_y": "529042.789824",
    "longitude": "-90.06278826025954",
    "latitude": "29.948632461636514",
    "geocoded_column": {
      "latitude": "29.948632461636514",
      "longitude": "-90.06278826025954"
    }
  },
  {
    "service_request": "2021-837190",
    "request_type": "Abandoned Vehicles",
    "request_reason": "Abandoned/Junk Vehicles",
    "date_created": "2021-10-26T12:13:47.000",
    "date_modified": "2021-10-26T12:13:48.000",
    "request_status": "Pending",
    "responsible_agency": "Department of Public Works",
    "final_address": "2861 Tchoupitoulas St",
    "address_councildis": "B",
    "status": "Pending",
    "rowid": "837190",
    "final_x": "3677922.06318",
    "final_y": "518663.530039",
    "longitude": "-90.07981227384694",
    "latitude": "29.920252776894422",
    "geocoded_column": {
      "latitude": "29.920252776894422",
      "longitude": "-90.07981227384694"
    }
  },
  {
    "service_request": "2021-837189",
    "request_type": "Traffic Signals/Signs/Striping/Streetlights",
    "request_reason": "Street Light Outage/Malfunction",
    "date_created": "2021-10-26T12:11:44.000",
    "date_modified": "2021-10-26T13:01:27.000",
    "request_status": "Pending",
    "responsible_agency": "Department of Public Works",
    "final_address": "2555 Elder St",
    "address_councildis": "D",
    "status": "Pending",
    "contractor": "Royal Engineering",
    "rowid": "837189",
    "final_x": "3686996.27228",
    "final_y": "545805.156944",
    "longitude": "-90.05020999852925",
    "latitude": "29.994606820282645",
    "geocoded_column": {
      "latitude": "29.994606820282645",
      "longitude": "-90.05020999852925"
    }
  },
  {
    "service_request": "2021-837186",
    "request_type": "Traffic Signals/Signs/Striping/Streetlights",
    "request_reason": "Street Light Outage/Malfunction",
    "date_created": "2021-10-26T12:04:35.000",
    "date_modified": "2021-10-26T12:04:36.000",
    "request_status": "Pending",
    "responsible_agency": "Department of Public Works",
    "final_address": "412 Spencer Ave",
    "address_councildis": "A",
    "status": "Pending",
    "contractor": "Royal Engineering",
    "rowid": "837186",
    "final_x": "3664986.75232",
    "final_y": "553614.034711",
    "longitude": "-90.11947436533278",
    "latitude": "30.016737863515253",
    "geocoded_column": {
      "latitude": "30.016737863515253",
      "longitude": "-90.11947436533278"
    }
  },
  {
    "service_request": "2021-837185",
    "request_type": "Trash/Recycling",
    "request_reason": "Replace Trash Cart",
    "date_created": "2021-10-26T12:03:57.000",
    "date_modified": "2021-10-26T12:03:58.000",
    "request_status": "Pending",
    "responsible_agency": "Department of Sanitation",
    "final_address": "4722 Lafaye St",
    "address_councildis": "D",
    "status": "Assigned to Contractor",
    "contractor": "Metro Disposal",
    "rowid": "837185",
    "final_x": "3687391.61903",
    "final_y": "550532.030548",
    "longitude": "-90.04879375944601",
    "latitude": "30.007591830673856",
    "geocoded_column": {
      "latitude": "30.007591830673856",
      "longitude": "-90.04879375944601"
    }
  },
  {
    "service_request": "2021-837184",
    "request_type": "Roads/Drainage",
    "request_reason": "Debris in Roadway",
    "date_created": "2021-10-26T12:02:30.000",
    "date_modified": "2021-10-26T13:01:29.000",
    "request_status": "Pending",
    "responsible_agency": "Department of Public Works",
    "final_address": "N ROCHEBLAVE ST & ALMONASTER AVE",
    "address_councildis": "D",
    "status": "Pending",
    "rowid": "837184",
    "final_x": "3688365.5",
    "final_y": "541368.08",
    "longitude": "-90.04604225166462",
    "latitude": "29.98236421639465",
    "geocoded_column": {
      "latitude": "29.98236421639465",
      "longitude": "-90.04604225166462"
    }
  },
  {
    "service_request": "2021-837183",
    "request_type": "Traffic Signals/Signs/Striping/Streetlights",
    "request_reason": "Disabled Parking Sign ",
    "date_created": "2021-10-26T11:58:26.000",
    "date_modified": "2021-10-26T12:01:03.000",
    "request_status": "Pending",
    "responsible_agency": "Department of Public Works",
    "final_address": "2231 Harmony St",
    "address_councildis": "B",
    "status": "Pending",
    "rowid": "837183",
    "final_x": "3673787.43969",
    "final_y": "523995.126588",
    "longitude": "-90.09268111942905",
    "latitude": "29.935036673873938",
    "geocoded_column": {
      "latitude": "29.935036673873938",
      "longitude": "-90.09268111942905"
    }
  },
  {
    "service_request": "2021-837182",
    "request_type": "Trash/Recycling",
    "request_reason": "Repair Trash Cart",
    "date_created": "2021-10-26T11:57:18.000",
    "date_modified": "2021-10-26T12:01:06.000",
    "request_status": "Pending",
    "responsible_agency": "Department of Sanitation",
    "final_address": "7557 Shorewood Blvd",
    "address_councildis": "E",
    "status": "Assigned to Contractor",
    "contractor": "Metro Disposal",
    "rowid": "837182",
    "final_x": "3720214.71071",
    "final_y": "572668.572137",
    "longitude": "-89.94424965528252",
    "latitude": "30.067405706138384",
    "geocoded_column": {
      "latitude": "30.067405706138384",
      "longitude": "-89.94424965528252"
    }
  },
  {
    "service_request": "2021-837181",
    "request_type": "Property Maintenance",
    "request_reason": "Property Maintenance",
    "date_created": "2021-10-26T11:56:18.000",
    "date_modified": "2021-10-26T12:01:09.000",
    "request_status": "Pending",
    "responsible_agency": "Department of Code Enforcement",
    "final_address": "7557 Shorewood Blvd",
    "address_councildis": "E",
    "status": "Pending",
    "rowid": "837181",
    "final_x": "3720214.71071",
    "final_y": "572668.572137",
    "longitude": "-89.94424965528252",
    "latitude": "30.067405706138384",
    "geocoded_column": {
      "latitude": "30.067405706138384",
      "longitude": "-89.94424965528252"
    }
  },
  {
    "service_request": "2021-837180",
    "request_type": "Trash/Recycling",
    "request_reason": "Replace Trash Cart",
    "date_created": "2021-10-26T11:47:52.000",
    "date_modified": "2021-10-26T11:47:53.000",
    "request_status": "Pending",
    "responsible_agency": "Department of Sanitation",
    "final_address": "5964 Annunciation St",
    "address_councildis": "A",
    "status": "Assigned to Contractor",
    "contractor": "Richards Disposal",
    "rowid": "837180",
    "final_x": "3664418.79079",
    "final_y": "517763.52319",
    "longitude": "-90.12246590237638",
    "latitude": "29.918177322018924",
    "geocoded_column": {
      "latitude": "29.918177322018924",
      "longitude": "-90.12246590237638"
    }
  },
  {
    "service_request": "2021-837179",
    "request_type": "Trash/Recycling",
    "request_reason": "Order Recycling Cart",
    "date_created": "2021-10-26T11:45:21.000",
    "date_modified": "2021-10-26T12:01:10.000",
    "request_status": "Pending",
    "responsible_agency": "Department of Sanitation",
    "final_address": "2729 Bienville Ave Apt 2A",
    "address_councildis": "B",
    "status": "Pending",
    "contractor": "Richards Disposal",
    "rowid": "837179",
    "final_x": "3675634.32424",
    "final_y": "535989.125575",
    "longitude": "-90.08643846854204",
    "latitude": "29.967961066049035",
    "geocoded_column": {
      "latitude": "29.967961066049035",
      "longitude": "-90.08643846854204"
    }
  },
  {
    "service_request": "2021-837178",
    "request_type": "Trash/Recycling",
    "request_reason": "Replace Trash Cart",
    "date_created": "2021-10-26T11:45:05.000",
    "date_modified": "2021-10-26T12:01:12.000",
    "request_status": "Pending",
    "responsible_agency": "Department of Sanitation",
    "final_address": "2729 Bienville Ave Apt 2A",
    "address_councildis": "B",
    "status": "Assigned to Contractor",
    "contractor": "Richards Disposal",
    "rowid": "837178",
    "final_x": "3675634.32424",
    "final_y": "535989.125575",
    "longitude": "-90.08643846854204",
    "latitude": "29.967961066049035",
    "geocoded_column": {
      "latitude": "29.967961066049035",
      "longitude": "-90.08643846854204"
    }
  },
  {
    "service_request": "2021-837177",
    "request_type": "Roads/Drainage",
    "request_reason": "Street Flooding / Drainage",
    "date_created": "2021-10-26T11:44:56.000",
    "date_modified": "2021-10-26T13:38:46.000",
    "case_close_date": "2021-10-26T08:38:46.000",
    "request_status": "Closed",
    "responsible_agency": "Department of Public Works",
    "final_address": "5561 Cameron Blvd",
    "address_councildis": "D",
    "status": "Referred to External Agency",
    "rowid": "837177",
    "final_x": "3682622.90024",
    "final_y": "553505.791383",
    "longitude": "-90.06375541005028",
    "latitude": "30.015914726073667",
    "geocoded_column": {
      "latitude": "30.015914726073667",
      "longitude": "-90.06375541005028"
    }
  },
  {
    "service_request": "2021-837176",
    "request_type": "Roads/Drainage",
    "request_reason": "Street Subsidence (Sinking)",
    "date_created": "2021-10-26T11:44:01.000",
    "date_modified": "2021-10-26T12:01:14.000",
    "request_status": "Pending",
    "responsible_agency": "Department of Public Works",
    "final_address": "1834 Hope St",
    "address_councildis": "D",
    "status": "Pending",
    "rowid": "837176",
    "final_x": "3680828.5485",
    "final_y": "541863.578828",
    "longitude": "-90.06983037078233",
    "latitude": "29.983957335234944",
    "geocoded_column": {
      "latitude": "29.983957335234944",
      "longitude": "-90.06983037078233"
    }
  },