[
  {
    "service_request": "2025-1177132",
    "request_type": "Trash/Recycling",
    "request_reason": "Request a Large Item Pick Up",
    "date_created": "2025-03-19T23:32:18.000",
    "date_modified": "2025-03-19T23:32:21.000",
    "request_status": "Pending",
    "responsible_agency": "Department of Sanitation",
    "final_address": "5915 Colbert St",
    "address_councildis": "A",
    "status": "Assigned to Contractor",
    "contractor": "IV Waste",
    "rowid": "1177132",
    "final_x": "3667419.15879",
    "final_y": "546906.822865",
    "longitude": "-90.11201483739568",
    "latitude": "29.9982242917632",
    "geocoded_column": {
      "latitude": "29.9982242917632",
      "longitude": "-90.11201483739568"
    }
  },
  {
    "service_request": "2025-1177131",
    "request_type": "Trash/Recycling",
    "request_reason": "Replace Trash Cart",
    "date_created": "2025-03-19T23:06:12.000",
    "date_modified": "2025-03-19T23:06:15.000",
    "request_status": "Pending",
    "responsible_agency": "Department of Sanitation",
    "final_address": "927 N Claiborne Ave",
    "address_councildis": "D",
    "status": "Assigned to Contractor",
    "contractor": "IV Waste",
    "rowid": "1177131",
    "final_x": "3680258.89954",
    "final_y": "535419.107526",
    "longitude": "-90.07185372347023",
    "latitude": "29.966254526718167",
    "geocoded_column": {
      "latitude": "29.966254526718167",
      "longitude": "-90.07185372347023"
    }
  },
  {
    "service_request": "2025-1177130",
    "request_type": "Health Related Request",
    "request_reason": "Noise Ordinance Complaint",
    "date_created": "2025-03-19T22:56:37.000",
    "date_modified": "2025-03-19T22:56:39.000",
    "request_status": "Pending",
    "responsible_agency": "Health Department",
    "final_address": "1943 N Rampart St, New Orleans, Louisiana, 70116",
    "address_councildis": "C",
    "status": "Pending",
    "rowid": "1177130",
    "final_x": "3684229.0758",
    "final_y": "535901.470151",
    "longitude": "-90.05929906686211",
    "latitude": "29.967460076499936",
    "geocoded_column": {
      "latitude": "29.967460076499936",
      "longitude": "-90.05929906686211"
    }
  },
  {
    "service_request": "2025-1177129",
    "request_type": "Trash/Recycling",
    "request_reason": "Replace Trash Cart",
    "date_created": "2025-03-19T22:55:51.000",
    "date_modified": "2025-03-19T22:55:52.000",
    "request_status": "Pending",
    "responsible_agency": "Department of Sanitation",
    "final_address": "925 N Claiborne Ave",
    "address_councildis": "D",
    "status": "Assigned to Contractor",
    "contractor": "IV Waste",
    "rowid": "1177129",
    "final_x": "3680253.58338",
    "final_y": "535408.517382",
    "longitude": "-90.0718708799748",
    "latitude": "29.966225568373574",
    "geocoded_column": {
      "latitude": "29.966225568373574",
      "longitude": "-90.0718708799748"
    }
  },
  {
    "service_request": "2025-1177128",
    "request_type": "Trash/Recycling",
    "request_reason": "Damaged Caused By Contractor",
    "date_created": "2025-03-19T22:51:18.000",
    "date_modified": "2025-03-19T22:51:20.000",
    "request_status": "Pending",
    "responsible_agency": "Department of Sanitation",
    "final_address": "925 Octavia St",
    "address_councildis": "A",
    "status": "Assigned to Contractor",
    "contractor": "IV Waste",
    "rowid": "1177128",
    "final_x": "3666611.31591",
    "final_y": "519427.564407",
    "longitude": "-90.11548943415684",
    "latitude": "29.922689022139924",
    "geocoded_column": {
      "latitude": "29.922689022139924",
      "longitude": "-90.11548943415684"
    }
  },
  {
    "service_request": "2025-1177127",
    "request_type": "General Services",
    "request_reason": "General Service Request",
    "date_created": "2025-03-19T22:36:15.000",
    "date_modified": "2025-03-19T22:36:17.000",
    "request_status": "Pending",
    "responsible_agency": "Orleans Parish Communication District",
    "final_address": "1750 St Charles Ave",
    "address_councildis": "B",
    "status": "Pending",
    "rowid": "1177127",
    "final_x": "3678708.23739",
    "final_y": "524583.7655",
    "longitude": "-90.07712582148702",
    "latitude": "29.93650781826905",
    "geocoded_column": {
      "latitude": "29.93650781826905",
      "longitude": "-90.07712582148702"
    }
  },
  {
    "service_request": "2025-1177126",
    "request_type": "General Services",
    "request_reason": "General Service Request",
    "date_created": "2025-03-19T22:30:56.000",
    "date_modified": "2025-03-19T22:30:58.000",
    "request_status": "Pending",
    "responsible_agency": "Orleans Parish Communication District",
    "final_address": "1750 St Charles Ave",
    "address_councildis": "B",
    "status": "Pending",
    "rowid": "1177126",
    "final_x": "3678708.23739",
    "final_y": "524583.7655",
    "longitude": "-90.07712582148702",
    "latitude": "29.93650781826905",
    "geocoded_column": {
      "latitude": "29.93650781826905",
      "longitude": "-90.07712582148702"
    }
  },
  {
    "service_request": "2025-1177125",
    "request_type": "General Services",
    "request_reason": "General Service Request",
    "date_created": "2025-03-19T21:59:20.000",
    "date_modified": "2025-03-19T21:59:21.000",
    "request_status": "Pending",
    "responsible_agency": "Orleans Parish Communication District",
    "final_address": "1750 St Charles Ave",
    "address_councildis": "B",
    "status": "Pending",
    "rowid": "1177125",
    "final_x": "3678708.23739",
    "final_y": "524583.7655",
    "longitude": "-90.07712582148702",
    "latitude": "29.93650781826905",
    "geocoded_column": {
      "latitude": "29.93650781826905",
      "longitude": "-90.07712582148702"
    }
  },
  {
    "service_request": "2025-1177124",
    "request_type": "Trash/Recycling",
    "request_reason": "Request a Large Item Pick Up",
    "date_created": "2025-03-19T21:59:01.000",
    "date_modified": "2025-03-19T21:59:03.000",
    "request_status": "Pending",
    "responsible_agency": "Department of Sanitation",
    "final_address": "4718 Stemway Dr",
    "address_councildis": "D",
    "status": "Assigned to Contractor",
    "contractor": "Waste Pro",
    "rowid": "1177124",
    "final_x": "3696829.58211",
    "final_y": "554061.598488",
    "longitude": "-90.01884874693121",
    "latitude": "30.017002519197465",
    "geocoded_column": {
      "latitude": "30.017002519197465",
      "longitude": "-90.01884874693121"
    }
  },
  {
    "service_request": "2025-1177123",
    "request_type": "Trash/Recycling",
    "request_reason": "Repair Recycling Cart",
    "date_created": "2025-03-19T21:48:35.000",
    "date_modified": "2025-03-19T21:48:37.000",
    "request_status": "Pending",
    "responsible_agency": "Department of Sanitation",
    "final_address": "615 Henry Clay Ave",
    "address_councildis": "A",
    "status": "Pending",
    "rowid": "1177123",
    "final_x": "3663642.46701",
    "final_y": "519055.358647",
    "longitude": "-90.12487334355423",
    "latitude": "29.92175200226555",
    "geocoded_column": {
      "latitude": "29.92175200226555",
      "longitude": "-90.12487334355423"
    }
  },
  {
    "service_request": "2025-1177122",
    "request_type": "Abandoned Vehicles",
    "request_reason": "Abandoned/Junk Vehicles",
    "date_created": "2025-03-19T21:39:15.000",
    "date_modified": "2025-03-19T21:39:19.000",
    "request_status": "Pending",
    "responsible_agency": "Department of Public Works",
    "final_address": "6236 Waldo Dr",
    "address_councildis": "D",
    "status": "Pending",
    "rowid": "1177122",
    "final_x": "3681016.33378",
    "final_y": "556044.963161",
    "longitude": "-90.0687428979775",
    "latitude": "30.022945369159125",
    "geocoded_column": {
      "latitude": "30.022945369159125",
      "longitude": "-90.0687428979775"
    }
  },
  {
    "service_request": "2025-1177121",
    "request_type": "Roads and Streets",
    "request_reason": "Curb Damage",
    "date_created": "2025-03-19T21:26:10.000",
    "date_modified": "2025-03-19T21:26:11.000",
    "request_status": "Pending",
    "responsible_agency": "Department of Public Works",
    "final_address": "2715 N Claiborne Ave",
    "address_councildis": "D",
    "status": "Pending",
    "rowid": "1177121",
    "final_x": "3688045.59855",
    "final_y": "538280.571209",
    "longitude": "-90.04716211621383",
    "latitude": "29.973884536799815",
    "geocoded_column": {
      "latitude": "29.973884536799815",
      "longitude": "-90.04716211621383"
    }
  },
  {
    "service_request": "2025-1177120",
    "request_type": "Trash/Recycling",
    "request_reason": "Change Size of Trash Cart",
    "date_created": "2025-03-19T21:24:57.000",
    "date_modified": "2025-03-19T21:24:59.000",
    "request_status": "Pending",
    "responsible_agency": "Department of Sanitation",
    "final_address": "5631 Samovar Dr",
    "address_councildis": "E",
    "status": "Assigned to Contractor",
    "contractor": "Waste Pro",
    "rowid": "1177120",
    "final_x": "3703632.20612",
    "final_y": "556751.03657",
    "longitude": "-89.99725634405134",
    "latitude": "30.024181108079265",
    "geocoded_column": {
      "latitude": "30.024181108079265",
      "longitude": "-89.99725634405134"
    }
  },
  {
    "service_request": "2025-1177119",
    "request_type": "Utility Poles",
    "request_reason": "Wires Sagging/Hanging Low",
    "date_created": "2025-03-19T21:23:12.000",
    "date_modified": "2025-03-19T21:23:14.000",
    "request_status": "Pending",
    "responsible_agency": "Utility Company Collective",
    "final_address": "300 BLK 10th St",
    "address_councildis": "A",
    "status": "Pending",
    "rowid": "1177119",
    "final_x": "3664694.50981",
    "final_y": "547550.217679",
    "longitude": "-90.12060050876386",
    "latitude": "30.00007297879286",
    "geocoded_column": {
      "latitude": "30.00007297879286",
      "longitude": "-90.12060050876386"
    }
  },
  {
    "service_request": "2025-1177117",
    "request_type": "Abandoned Vehicles",
    "request_reason": "Abandoned/Junk Vehicles",
    "date_created": "2025-03-19T20:59:02.000",
    "date_modified": "2025-03-19T20:59:04.000",
    "request_status": "Pending",
    "responsible_agency": "Department of Public Works",
    "final_address": "4783 Galahad Dr",
    "address_councildis": "E",
    "status": "Pending",
    "rowid": "1177117",
    "final_x": "3707253.44932",
    "final_y": "555773.780633",
    "longitude": "-89.98585030066323",
    "latitude": "30.021377435500035",
    "geocoded_column": {
      "latitude": "30.021377435500035",
      "longitude": "-89.98585030066323"
    }
  },
  {
    "service_request": "2025-1177118",
    "request_type": "Abandoned Vehicles",
    "request_reason": "Abandoned/Junk Vehicles",
    "date_created": "2025-03-19T20:59:02.000",
    "date_modified": "2025-03-19T20:59:04.000",
    "request_status": "Pending",
    "responsible_agency": "Department of Public Works",
    "final_address": "4783 Galahad Dr",
    "address_councildis": "E",
    "status": "Pending",
    "rowid": "1177118",
    "final_x": "3707253.44932",
    "final_y": "555773.780633",
    "longitude": "-89.98585030066323",
    "latitude": "30.021377435500035",
    "geocoded_column": {
      "latitude": "30.021377435500035",
      "longitude": "-89.98585030066323"
    }
  },
  {
    "service_request": "2025-1177116",
    "request_type": "Abandoned Vehicles",
    "request_reason": "Abandoned/Junk Vehicles",
    "date_created": "2025-03-19T20:39:44.000",
    "date_modified": "2025-03-19T20:39:47.000",
    "request_status": "Pending",
    "responsible_agency": "Department of Public Works",
    "final_address": "4691 Galahad Dr",
    "address_councildis": "E",
    "status": "Pending",
    "rowid": "1177116",
    "final_x": "3707320.27128",
    "final_y": "555109.238425",
    "longitude": "-89.9856638596395",
    "latitude": "30.019548041469378",
    "geocoded_column": {
      "latitude": "30.019548041469378",
      "longitude": "-89.9856638596395"
    }
  },
  {
    "service_request": "2025-1177115",
    "request_type": "Trash/Recycling",
    "request_reason": "Order Second Trash Cart",
    "date_created": "2025-03-19T20:10:07.000",
    "date_modified": "2025-03-19T20:10:09.000",
    "request_status": "Pending",
    "responsible_agency": "Department of Sanitation",
    "final_address": "2618 St Anthony St",
    "address_councildis": "D",
    "status": "Assigned to Contractor",
    "contractor": "IV Waste",
    "rowid": "1177115",
    "final_x": "3683016.94236",
    "final_y": "541907.437388",
    "longitude": "-90.06291671177935",
    "latitude": "29.98401139718744",
    "geocoded_column": {
      "latitude": "29.98401139718744",
      "longitude": "-90.06291671177935"
    }
  },
  {
    "service_request": "2025-1177114",
    "request_type": "Trash/Recycling",
    "request_reason": "Order Second Trash Cart",
    "date_created": "2025-03-19T20:07:54.000",
    "date_modified": "2025-03-19T20:07:56.000",
    "request_status": "Pending",
    "responsible_agency": "Department of Sanitation",
    "final_address": "2618 St Anthony St",
    "address_councildis": "D",
    "status": "Assigned to Contractor",
    "contractor": "IV Waste",
    "rowid": "1177114",
    "final_x": "3683016.94236",
    "final_y": "541907.437388",
    "longitude": "-90.06291671177935",
    "latitude": "29.98401139718744",
    "geocoded_column": {
      "latitude": "29.98401139718744",
      "longitude": "-90.06291671177935"
    }
  },
  {
    "service_request": "2025-1177113",
    "request_type": "Trash/Recycling",
    "request_reason": "Return Trash Cart",
    "date_created": "2025-03-19T19:48:38.000",
    "date_modified": "2025-03-19T19:48:40.000",
    "request_status": "Pending",
    "responsible_agency": "Department of Sanitation",
    "final_address": "5309 Camp St",
    "address_councildis": "B",
    "status": "Assigned to Contractor",
    "contractor": "IV Waste",
    "rowid": "1177113",
    "final_x": "3667446.2489",
    "final_y": "519068.247415",
    "longitude": "-90.11286595452651",
    "latitude": "29.921676586651333",
    "geocoded_column": {
      "latitude": "29.921676586651333",
      "longitude": "-90.11286595452651"
    }
  },
  {
    "service_request": "2025-1177112",
    "request_type": "Abandoned Vehicles",
    "request_reason": "Abandoned/Junk Vehicles",
    "date_created": "2025-03-19T19:21:22.000",
    "date_modified": "2025-03-19T19:21:24.000",
    "request_status": "Pending",
    "responsible_agency": "Department of Public Works",
    "final_address": "2837 Milan St",
    "address_councildis": "B",
    "status": "Pending",
    "rowid": "1177112",
    "final_x": "3671183.03867",
    "final_y": "525465.503805",
    "longitude": "-90.10085328448618",
    "latitude": "29.93915701639153",
    "geocoded_column": {
      "latitude": "29.93915701639153",
      "longitude": "-90.10085328448618"
    }
  },
  {
    "service_request": "2025-1177111",
    "request_type": "Utility Poles",
    "request_reason": "Utility Pole Leaning",
    "date_created": "2025-03-19T19:14:04.000",
    "date_modified": "2025-03-19T19:14:07.000",
    "request_status": "Pending",
    "responsible_agency": "Utility Company Collective",
    "final_address": "332 Millaudon St",
    "address_councildis": "A",
    "status": "Pending",
    "rowid": "1177111",
    "final_x": "3661581.48211",
    "final_y": "524339.537596",
    "longitude": "-90.13120403261557",
    "latitude": "29.936341446973596",
    "geocoded_column": {
      "latitude": "29.936341446973596",
      "longitude": "-90.13120403261557"
    }
  },
  {
    "service_request": "2025-1177110",
    "request_type": "Trash/Recycling",
    "request_reason": "Request a Large Item Pick Up",
    "date_created": "2025-03-19T18:51:37.000",
    "date_modified": "2025-03-19T18:51:40.000",
    "request_status": "Pending",
    "responsible_agency": "Department of Sanitation",
    "final_address": "3030 Baronne St",
    "address_councildis": "B",
    "status": "Assigned to Contractor",
    "contractor": "IV Waste",
    "rowid": "1177110",
    "final_x": "3674652.84929",
    "final_y": "522540.417786",
    "longitude": "-90.08999885650763",
    "latitude": "29.931010904178446",
    "geocoded_column": {
      "latitude": "29.931010904178446",
      "longitude": "-90.08999885650763"
    }
  },
  {
    "service_request": "2025-1177109",
    "request_type": "Traffic Signals",
    "request_reason": "Traffic Signal Malfunctioning or Damaged",
    "date_created": "2025-03-19T18:42:11.000",
    "date_modified": "2025-03-19T18:42:13.000",
    "request_status": "Pending",
    "responsible_agency": "Department of Public Works",
    "final_address": "0 BLK Napoleon Ave",
    "address_councildis": "B",
    "status": "Pending",
    "rowid": "1177109",
    "final_x": "3671264.72928",
    "final_y": "517124.731942",
    "longitude": "-90.10087861024765",
    "latitude": "29.916220149143637",
    "geocoded_column": {
      "latitude": "29.916220149143637",
      "longitude": "-90.10087861024765"
    }
  },
  {
    "service_request": "2025-1177108",
    "request_type": "Trash/Recycling",
    "request_reason": "Replace Trash Cart",
    "date_created": "2025-03-19T18:38:41.000",
    "date_modified": "2025-03-19T18:38:43.000",
    "request_status": "Pending",
    "responsible_agency": "Department of Sanitation",
    "final_address": "1017 Cambronne St",
    "address_councildis": "A",
    "status": "Assigned to Contractor",
    "contractor": "IV Waste",
    "rowid": "1177108",
    "final_x": "3660830.40032",
    "final_y": "528666.701504",
    "longitude": "-90.13343218063157",
    "latitude": "29.94826142034927",
    "geocoded_column": {
      "latitude": "29.94826142034927",
      "longitude": "-90.13343218063157"
    }
  },
  {
    "service_request": "2025-1177107",
    "request_type": "Safety & Permits",
    "request_reason": "Licenses & Permits",
    "date_created": "2025-03-19T18:37:05.000",
    "date_modified": "2025-03-19T18:37:06.000",
    "request_status": "Pending",
    "responsible_agency": "Safety and Permits",
    "final_address": "1382 St Anthony St",
    "address_councildis": "C",
    "status": "Pending",
    "rowid": "1177107",
    "final_x": "3683401.61141",
    "final_y": "537240.15956",
    "longitude": "-90.06186530027834",
    "latitude": "29.97116628108415",
    "geocoded_column": {
      "latitude": "29.97116628108415",
      "longitude": "-90.06186530027834"
    }
  },
  {
    "service_request": "2025-1177106",
    "request_type": "Trash/Recycling",
    "request_reason": "Request a Large Item Pick Up",
    "date_created": "2025-03-19T18:35:26.000",
    "date_modified": "2025-03-19T18:35:28.000",
    "request_status": "Pending",
    "responsible_agency": "Department of Sanitation",
    "final_address": "1310 Poland Ave",
    "address_councildis": "D",
    "status": "Assigned to Contractor",
    "contractor": "IV Waste",
    "rowid": "1177106",
    "final_x": "3693151.42697",
    "final_y": "535861.121287",
    "longitude": "-90.03112368550622",
    "latitude": "29.967073333656657",
    "geocoded_column": {
      "latitude": "29.967073333656657",
      "longitude": "-90.03112368550622"
    }
  },
  {
    "service_request": "2025-1177105",
    "request_type": "Safety & Permits",
    "request_reason": "Licenses & Permits",
    "date_created": "2025-03-19T18:33:06.000",
    "date_modified": "2025-03-19T18:33:08.000",
    "request_status": "Pending",
    "responsible_agency": "Safety and Permits",
    "final_address": "1382 St Anthony St",
    "address_councildis": "C",
    "status": "Pending",
    "rowid": "1177105",
    "final_x": "3683401.61141",
    "final_y": "537240.15956",
    "longitude": "-90.06186530027834",
    "latitude": "29.97116628108415",
    "geocoded_column": {
      "latitude": "29.97116628108415",
      "longitude": "-90.06186530027834"
    }
  },
  {
    "service_request": "2025-1177104",
    "request_type": "Abandoned Vehicles",
    "request_reason": "Abandoned/Junk Vehicles",
    "date_created": "2025-03-19T18:16:56.000",
    "date_modified": "2025-03-19T18:16:58.000",
    "request_status": "Pending",
    "responsible_agency": "Department of Public Works",
    "final_address": "4734 Galahad Dr",
    "address_councildis": "E",
    "status": "Pending",
    "rowid": "1177104",
    "final_x": "3707144.55518",
    "final_y": "555403.048089",
    "longitude": "-89.98620814514143",
    "latitude": "30.020361585532832",
    "geocoded_column": {
      "latitude": "30.020361585532832",
      "longitude": "-89.98620814514143"
    }
  },
  {
    "service_request": "2025-1177103",
    "request_type": "Abandoned Vehicles",
    "request_reason": "Abandoned/Junk Vehicles",
    "date_created": "2025-03-19T18:03:36.000",
    "date_modified": "2025-03-19T18:03:38.000",
    "request_status": "Pending",
    "responsible_agency": "Department of Public Works",
    "final_address": "4634 Galahad Dr",
    "address_councildis": "E",
    "status": "Pending",
    "rowid": "1177103",
    "final_x": "3707217.45732",
    "final_y": "554678.827096",
    "longitude": "-89.98600470566834",
    "latitude": "30.01836790157996",
    "geocoded_column": {
      "latitude": "30.01836790157996",
      "longitude": "-89.98600470566834"
    }
  },
  {
    "service_request": "2025-1177102",
    "request_type": "Trash/Recycling",
    "request_reason": "Order Trash Cart",
    "date_created": "2025-03-19T18:03:03.000",
    "date_modified": "2025-03-19T18:03:05.000",
    "request_status": "Pending",
    "responsible_agency": "Department of Sanitation",
    "final_address": "6905 Vicksburg St",
    "address_councildis": "A",
    "status": "Assigned to Contractor",
    "contractor": "IV Waste",
    "rowid": "1177102",
    "final_x": "3669477.2297",
    "final_y": "553341.135831",
    "longitude": "-90.10529554753045",
    "latitude": "30.015855922300922",
    "geocoded_column": {
      "latitude": "30.015855922300922",
      "longitude": "-90.10529554753045"
    }
  },
  {
    "service_request": "2025-1177101",
    "request_type": "Trash/Recycling",
    "request_reason": "Illegal Dumping",
    "date_created": "2025-03-19T18:01:17.000",
    "date_modified": "2025-03-19T18:01:18.000",
    "request_status": "Pending",
    "responsible_agency": "Department of Sanitation",
    "final_address": "6930 Martin Dr",
    "address_councildis": "E",
    "status": "Pending",
    "rowid": "1177101",
    "final_x": "3699030.9153",
    "final_y": "557926.290267",
    "longitude": "-90.01175264948685",
    "latitude": "30.027559326171158",
    "geocoded_column": {
      "latitude": "30.027559326171158",
      "longitude": "-90.01175264948685"
    }
  },
  {
    "service_request": "2025-1177100",
    "request_type": "Roads and Streets",
    "request_reason": "Pothole",
    "date_created": "2025-03-19T17:48:35.000",
    "date_modified": "2025-03-19T17:48:37.000",
    "request_status": "Pending",
    "responsible_agency": "Department of Public Works",
    "final_address": "2427 Prentiss Ave",
    "address_councildis": "D",
    "status": "Pending",
    "rowid": "1177100",
    "final_x": "3685336.40559",
    "final_y": "554045.01244",
    "longitude": "-90.05516295817948",
    "latitude": "30.01731443807443",
    "geocoded_column": {
      "latitude": "30.01731443807443",
      "longitude": "-90.05516295817948"
    }
  },
  {
    "service_request": "2025-1177099",
    "request_type": "Trash/Recycling",
    "request_reason": "Order Trash Cart",
    "date_created": "2025-03-19T17:42:55.000",
    "date_modified": "2025-03-19T17:42:57.000",
    "request_status": "Pending",
    "responsible_agency": "Department of Sanitation",
    "final_address": "4908 Laine Ave",
    "address_councildis": "E",
    "status": "Assigned to Contractor",
    "contractor": "Waste Pro",
    "rowid": "1177099",
    "final_x": "3705556.80574",
    "final_y": "556193.743706",
    "longitude": "-89.9911956421278",
    "latitude": "30.022586923212202",
    "geocoded_column": {
      "latitude": "30.022586923212202",
      "longitude": "-89.9911956421278"
    }
  },
  {
    "service_request": "2025-1177098",
    "request_type": "Trash/Recycling",
    "request_reason": "Request a Large Item Pick Up",
    "date_created": "2025-03-19T17:34:28.000",
    "date_modified": "2025-03-19T17:34:30.000",
    "request_status": "Pending",
    "responsible_agency": "Department of Sanitation",
    "final_address": "5529 Magazine St",
    "address_councildis": "A",
    "status": "Assigned to Contractor",
    "contractor": "IV Waste",
    "rowid": "1177098",
    "final_x": "3666203.12577",
    "final_y": "518915.934711",
    "longitude": "-90.11679507962799",
    "latitude": "29.921294124118322",
    "geocoded_column": {
      "latitude": "29.921294124118322",
      "longitude": "-90.11679507962799"
    }
  },
  {
    "service_request": "2025-1177097",
    "request_type": "Parks & Parkways",
    "request_reason": "Request Tree Service (Right of Way/Public Property)",
    "date_created": "2025-03-19T17:25:26.000",
    "date_modified": "2025-03-19T17:25:29.000",
    "request_status": "Pending",
    "responsible_agency": "Department of Parks & Parkway",
    "final_address": "4110 General De Gaulle Dr",
    "address_councildis": "C",
    "status": "Pending",
    "rowid": "1177097",
    "final_x": "3698862.38052",
    "final_y": "519373.020087",
    "longitude": "-90.01368824188471",
    "latitude": "29.92155712486959",
    "geocoded_column": {
      "latitude": "29.92155712486959",
      "longitude": "-90.01368824188471"
    }
  },
  {
    "service_request": "2025-1177096",
    "request_type": "Trash/Recycling",
    "request_reason": "Request a Large Item Pick Up",
    "date_created": "2025-03-19T16:59:02.000",
    "date_modified": "2025-03-19T16:59:04.000",
    "request_status": "Pending",
    "responsible_agency": "Department of Sanitation",
    "final_address": "2242 Tupelo St",
    "address_councildis": "E",
    "status": "Assigned to Contractor",
    "contractor": "Waste Pro",
    "rowid": "1177096",
    "final_x": "3701077.32324",
    "final_y": "537571.606152",
    "longitude": "-90.00603125400221",
    "latitude": "29.9715264934127",
    "geocoded_column": {
      "latitude": "29.9715264934127",
      "longitude": "-90.00603125400221"
    }
  },
  {
    "service_request": "2025-1177095",
    "request_type": "Abandoned Vehicles",
    "request_reason": "Abandoned/Junk Vehicles",
    "date_created": "2025-03-19T16:58:23.000",
    "date_modified": "2025-03-19T16:58:25.000",
    "request_status": "Pending",
    "responsible_agency": "Department of Public Works",
    "final_address": "2824 Danneel St",
    "address_councildis": "B",
    "status": "Pending",
    "rowid": "1177095",
    "final_x": "3674962.05102",
    "final_y": "523583.989755",
    "longitude": "-90.08898697070391",
    "latitude": "29.933871158830726",
    "geocoded_column": {
      "latitude": "29.933871158830726",
      "longitude": "-90.08898697070391"
    }
  },
  {
    "service_request": "2025-1177094",
    "request_type": "Trash/Recycling",
    "request_reason": "Request a Large Item Pick Up",
    "date_created": "2025-03-19T16:49:50.000",
    "date_modified": "2025-03-19T16:49:52.000",
    "request_status": "Pending",
    "responsible_agency": "Department of Sanitation",
    "final_address": "427 Bermuda St",
    "address_councildis": "C",
    "status": "Assigned to Contractor",
    "contractor": "Richards Disposal",
    "rowid": "1177094",
    "final_x": "3686606.74441",
    "final_y": "530273.971457",
    "longitude": "-90.05198909585083",
    "latitude": "29.951913490295",
    "geocoded_column": {
      "latitude": "29.951913490295",
      "longitude": "-90.05198909585083"
    }
  },
  {
    "service_request": "2025-1177093",
    "request_type": "Trash/Recycling",
    "request_reason": "Order Recycling Cart",
    "date_created": "2025-03-19T16:49:22.000",
    "date_modified": "2025-03-19T16:49:24.000",
    "request_status": "Pending",
    "responsible_agency": "Department of Sanitation",
    "final_address": "429 Bermuda St",
    "address_councildis": "C",
    "status": "Pending",
    "rowid": "1177093",
    "final_x": "3686617.53052",
    "final_y": "530264.849537",
    "longitude": "-90.05195536059561",
    "latitude": "29.95188807647601",
    "geocoded_column": {
      "latitude": "29.95188807647601",
      "longitude": "-90.05195536059561"
    }
  },
  {
    "service_request": "2025-1177092",
    "request_type": "Trash/Recycling",
    "request_reason": "Order Recycling Cart",
    "date_created": "2025-03-19T16:48:24.000",
    "date_modified": "2025-03-19T16:48:25.000",
    "request_status": "Pending",
    "responsible_agency": "Department of Sanitation",
    "final_address": "427 Bermuda St",
    "address_councildis": "C",
    "status": "Pending",
    "rowid": "1177092",
    "final_x": "3686606.74441",
    "final_y": "530273.971457",
    "longitude": "-90.05198909585083",
    "latitude": "29.951913490295",
    "geocoded_column": {
      "latitude": "29.951913490295",
      "longitude": "-90.05198909585083"
    }
  },
  {
    "service_request": "2025-1177091",
    "request_type": "General Services",
    "request_reason": "General Service Request",
    "date_created": "2025-03-19T16:48:22.000",
    "date_modified": "2025-03-19T16:50:22.000",
    "case_close_date": "2025-03-19T11:50:21.000",
    "request_status": "Closed",
    "responsible_agency": "Orleans Parish Communication District",
    "final_address": "8134 Spruce St, New Orleans, Louisiana, 70118",
    "address_councildis": "A",
    "status": "Referred to External Agency",
    "rowid": "1177091",
    "final_x": "3663606.94496",
    "final_y": "530625.08173",
    "longitude": "-90.12460021932637",
    "latitude": "29.953566094165115",
    "geocoded_column": {
      "latitude": "29.953566094165115",
      "longitude": "-90.12460021932637"
    }
  },
  {
    "service_request": "2025-1177090",
    "request_type": "Abandoned Vehicles",
    "request_reason": "Abandoned/Junk Vehicles",
    "date_created": "2025-03-19T16:47:13.000",
    "date_modified": "2025-03-19T16:47:14.000",
    "request_status": "Pending",
    "responsible_agency": "Department of Public Works",
    "final_address": "2824 Danneel St",
    "address_councildis": "B",
    "status": "Pending",
    "rowid": "1177090",
    "final_x": "3674962.05102",
    "final_y": "523583.989755",
    "longitude": "-90.08898697070391",
    "latitude": "29.933871158830726",
    "geocoded_column": {
      "latitude": "29.933871158830726",
      "longitude": "-90.08898697070391"
    }
  },
  {
    "service_request": "2025-1177089",
    "request_type": "General Services",
    "request_reason": "General Service Request",
    "date_created": "2025-03-19T16:47:12.000",
    "date_modified": "2025-03-19T16:52:12.000",
    "case_close_date": "2025-03-19T11:52:11.000",
    "request_status": "Closed",
    "responsible_agency": "Orleans Parish Communication District",
    "final_address": "8136 Spruce St, New Orleans, Louisiana, 70118",
    "address_councildis": "A",
    "status": "Referred to External Agency",
    "rowid": "1177089",
    "final_x": "3663593.024",
    "final_y": "530638.206722",
    "longitude": "-90.12464373889462",
    "latitude": "29.95360258742733",
    "geocoded_column": {
      "latitude": "29.95360258742733",
      "longitude": "-90.12464373889462"
    }
  },
  {
    "service_request": "2025-1177088",
    "request_type": "Abandoned Vehicles",
    "request_reason": "Abandoned/Junk Vehicles",
    "date_created": "2025-03-19T16:45:08.000",
    "date_modified": "2025-03-19T16:45:09.000",
    "request_status": "Pending",
    "responsible_agency": "Department of Public Works",
    "final_address": "2341 Odin St",
    "address_councildis": "D",
    "status": "Pending",
    "rowid": "1177088",
    "final_x": "3684833.60489",
    "final_y": "553167.163095",
    "longitude": "-90.05678250360289",
    "latitude": "30.014916086492324",
    "geocoded_column": {
      "latitude": "30.014916086492324",
      "longitude": "-90.05678250360289"
    }
  },
  {
    "service_request": "2025-1177087",
    "request_type": "Trash/Recycling",
    "request_reason": "Illegal Dumping",
    "date_created": "2025-03-19T16:43:53.000",
    "date_modified": "2025-03-19T16:43:55.000",
    "request_status": "Pending",
    "responsible_agency": "Department of Sanitation",
    "final_address": "6745 Cindy Pl",
    "address_councildis": "E",
    "status": "Pending",
    "rowid": "1177087",
    "final_x": "3707238.61336",
    "final_y": "558887.255388",
    "longitude": "-89.98578148275335",
    "latitude": "30.029938755583267",
    "geocoded_column": {
      "latitude": "30.029938755583267",
      "longitude": "-89.98578148275335"
    }
  },
  {
    "service_request": "2025-1177086",
    "request_type": "Trash/Recycling",
    "request_reason": "Request a Large Item Pick Up",
    "date_created": "2025-03-19T16:43:01.000",
    "date_modified": "2025-03-19T16:43:05.000",
    "request_status": "Pending",
    "responsible_agency": "Department of Sanitation",
    "final_address": "11051 Harrow Rd",
    "address_councildis": "E",
    "status": "Assigned to Contractor",
    "contractor": "Waste Pro",
    "rowid": "1177086",
    "final_x": "3711980.31032",
    "final_y": "564152.278881",
    "longitude": "-89.97060002265906",
    "latitude": "30.04426128315203",
    "geocoded_column": {
      "latitude": "30.04426128315203",
      "longitude": "-89.97060002265906"
    }
  },
  {
    "service_request": "2025-1177085",
    "request_type": "Trash/Recycling",
    "request_reason": "Missed Trash Pick-Up",
    "date_created": "2025-03-19T16:41:37.000",
    "date_modified": "2025-03-19T16:41:39.000",
    "request_status": "Pending",
    "responsible_agency": "Department of Sanitation",
    "final_address": "330 Eliza St",
    "address_councildis": "C",
    "status": "Assigned to Contractor",
    "contractor": "Richards Disposal",
    "rowid": "1177085",
    "final_x": "3686523.43868",
    "final_y": "529608.160769",
    "longitude": "-90.05227563932984",
    "latitude": "29.950085299587755",
    "geocoded_column": {
      "latitude": "29.950085299587755",
      "longitude": "-90.05227563932984"
    }
  },
  {
    "service_request": "2025-1177084",
    "request_type": "Abandoned Vehicles",
    "request_reason": "Abandoned/Junk Vehicles",
    "date_created": "2025-03-19T16:38:25.000",
    "date_modified": "2025-03-19T16:38:27.000",
    "request_status": "Pending",
    "responsible_agency": "Department of Public Works",
    "final_address": "3907 St Claude Ave",
    "address_councildis": "C",
    "status": "Pending",
    "rowid": "1177084",
    "final_x": "3691615.82064",
    "final_y": "535462.256582",
    "longitude": "-90.03598738308743",
    "latitude": "29.96602449277593",
    "geocoded_column": {
      "latitude": "29.96602449277593",
      "longitude": "-90.03598738308743"
    }
  },
  {
    "service_request": "2025-1177083",
    "request_type": "Trash/Recycling",
    "request_reason": "Illegal Dumping",
    "date_created": "2025-03-19T16:38:07.000",
    "date_modified": "2025-03-19T16:38:09.000",
    "request_status": "Pending",
    "responsible_agency": "Department of Sanitation",
    "final_address": "2316 N Villere St",
    "address_councildis": "C",
    "status": "Pending",
    "rowid": "1177083",
    "final_x": "3685850.77634",
    "final_y": "537453.280584",
    "longitude": "-90.05412300642386",
    "latitude": "29.97167733523542",
    "geocoded_column": {
      "latitude": "29.97167733523542",
      "longitude": "-90.05412300642386"
    }
  },
  {
    "service_request": "2025-1177082",
    "request_type": "Abandoned Vehicles",
    "request_reason": "Abandoned/Junk Vehicles",
    "date_created": "2025-03-19T16:35:39.000",
    "date_modified": "2025-03-19T16:35:41.000",
    "request_status": "Pending",
    "responsible_agency": "Department of Public Works",
    "final_address": "2824 Danneel St",
    "address_councildis": "B",
    "status": "Pending",
    "rowid": "1177082",
    "final_x": "3674962.05102",
    "final_y": "523583.989755",
    "longitude": "-90.08898697070391",
    "latitude": "29.933871158830726",
    "geocoded_column": {
      "latitude": "29.933871158830726",
      "longitude": "-90.08898697070391"
    }
  },
  {
    "service_request": "2025-1177081",
    "request_type": "Abandoned Vehicles",
    "request_reason": "Abandoned/Junk Vehicles",
    "date_created": "2025-03-19T16:35:35.000",
    "date_modified": "2025-03-19T16:35:36.000",
    "request_status": "Pending",
    "responsible_agency": "Department of Public Works",
    "final_address": "2824 Danneel St",
    "address_councildis": "B",
    "status": "Pending",
    "rowid": "1177081",
    "final_x": "3674962.05102",
    "final_y": "523583.989755",
    "longitude": "-90.08898697070391",
    "latitude": "29.933871158830726",
    "geocoded_column": {
      "latitude": "29.933871158830726",
      "longitude": "-90.08898697070391"
    }
  },
  {
    "service_request": "2025-1177080",
    "request_type": "Trash/Recycling",
    "request_reason": "Request a Large Item Pick Up",
    "date_created": "2025-03-19T16:35:31.000",
    "date_modified": "2025-03-19T16:36:37.000",
    "request_status": "Pending",
    "responsible_agency": "Department of Sanitation",
    "final_address": "603 Forstall St",
    "address_councildis": "E",
    "status": "Assigned to Contractor",
    "contractor": "Waste Pro",
    "rowid": "1177080",
    "final_x": "3695779.72266",
    "final_y": "532433.262211",
    "longitude": "-90.02294735066828",
    "latitude": "29.957565541091302",
    "geocoded_column": {
      "latitude": "29.957565541091302",
      "longitude": "-90.02294735066828"
    }
  },
  {
    "service_request": "2025-1177079",
    "request_type": "Roads and Streets",
    "request_reason": "Sidewalk Damaged or Missing",
    "date_created": "2025-03-19T16:33:57.000",
    "date_modified": "2025-03-19T16:33:59.000",
    "request_status": "Pending",
    "responsible_agency": "Department of Public Works",
    "final_address": "4108 Mithra St",
    "address_councildis": "D",
    "status": "Pending",
    "rowid": "1177079",
    "final_x": "3689083.73993",
    "final_y": "552987.555479",
    "longitude": "-90.04336054121029",
    "latitude": "30.01429135285408",
    "geocoded_column": {
      "latitude": "30.01429135285408",
      "longitude": "-90.04336054121029"
    }
  },
  {
    "service_request": "2025-1177078",
    "request_type": "Trash/Recycling",
    "request_reason": "Request a Large Item Pick Up",
    "date_created": "2025-03-19T16:33:45.000",
    "date_modified": "2025-03-19T16:33:47.000",
    "request_status": "Pending",
    "responsible_agency": "Department of Sanitation",
    "final_address": "7340 Shaw Ave",
    "address_councildis": "E",
    "status": "Assigned to Contractor",
    "contractor": "Waste Pro",
    "rowid": "1177078",
    "final_x": "3707634.98321",
    "final_y": "563363.44144",
    "longitude": "-89.98436244422516",
    "latitude": "30.042233674475032",
    "geocoded_column": {
      "latitude": "30.042233674475032",
      "longitude": "-89.98436244422516"
    }
  },
  {
    "service_request": "2025-1177077",
    "request_type": "Trash/Recycling",
    "request_reason": "Request a Large Item Pick Up",
    "date_created": "2025-03-19T16:33:19.000",
    "date_modified": "2025-03-19T16:33:21.000",
    "request_status": "Pending",
    "responsible_agency": "Department of Sanitation",
    "final_address": "1416 Lizardi St",
    "address_councildis": "E",
    "status": "Assigned to Contractor",
    "contractor": "Waste Pro",
    "rowid": "1177077",
    "final_x": "3696847.59415",
    "final_y": "535412.36135",
    "longitude": "-90.01946748001806",
    "latitude": "29.965723384933657",
    "geocoded_column": {
      "latitude": "29.965723384933657",
      "longitude": "-90.01946748001806"
    }
  },
  {
    "service_request": "2025-1177076",
    "request_type": "Streetlights",
    "request_reason": "Streetlight Outage/Malfunction",
    "date_created": "2025-03-19T16:25:14.000",
    "date_modified": "2025-03-19T16:25:16.000",
    "request_status": "Pending",
    "responsible_agency": "Department of Public Works",
    "final_address": "1320 Pine Street between Willow and Plum",
    "address_councildis": "A",
    "status": "Pending",
    "contractor": "Legacy Professional Services",
    "rowid": "1177076",
    "final_x": "3664213.62528",
    "final_y": "527094.833065",
    "longitude": "-90.1228023336592",
    "latitude": "29.94384143704252",
    "geocoded_column": {
      "latitude": "29.94384143704252",
      "longitude": "-90.1228023336592"
    }
  },
  {
    "service_request": "2025-1177075",
    "request_type": "Property Maintenance",
    "request_reason": "Property Maintenance",
    "date_created": "2025-03-19T16:23:25.000",
    "date_modified": "2025-03-19T16:23:27.000",
    "request_status": "Pending",
    "responsible_agency": "Department of Code Enforcement",
    "final_address": "53 W Park Pl",
    "address_councildis": "A",
    "status": "Pending",
    "rowid": "1177075",
    "final_x": "3669842.64654",
    "final_y": "544639.956495",
    "longitude": "-90.10443583726264",
    "latitude": "29.991919942427838",
    "geocoded_column": {
      "latitude": "29.991919942427838",
      "longitude": "-90.10443583726264"
    }
  },
  {
    "service_request": "2025-1177074",
    "request_type": "Trash/Recycling",
    "request_reason": "Request a Large Item Pick Up",
    "date_created": "2025-03-19T16:22:49.000",
    "date_modified": "2025-03-19T16:22:51.000",
    "request_status": "Pending",
    "responsible_agency": "Department of Sanitation",
    "final_address": "304 Leboeuf St",
    "address_councildis": "C",
    "status": "Assigned to Contractor",
    "contractor": "Richards Disposal",
    "rowid": "1177074",
    "final_x": "3689919.55939",
    "final_y": "530624.728066",
    "longitude": "-90.04151634275254",
    "latitude": "29.952775670800204",
    "geocoded_column": {
      "latitude": "29.952775670800204",
      "longitude": "-90.04151634275254"
    }
  },
  {
    "service_request": "2025-1177073",
    "request_type": "Trash/Recycling",
    "request_reason": "Request a Large Item Pick Up",
    "date_created": "2025-03-19T16:21:47.000",
    "date_modified": "2025-03-19T16:21:50.000",
    "request_status": "Pending",
    "responsible_agency": "Department of Sanitation",
    "final_address": "2441 Annette St",
    "address_councildis": "D",
    "status": "Assigned to Contractor",
    "contractor": "IV Waste",
    "rowid": "1177073",
    "final_x": "3682786.64252",
    "final_y": "541274.795916",
    "longitude": "-90.063666264452",
    "latitude": "29.98227887414312",
    "geocoded_column": {
      "latitude": "29.98227887414312",
      "longitude": "-90.063666264452"
    }
  },
  {
    "service_request": "2025-1177072",
    "request_type": "Trash/Recycling",
    "request_reason": "Illegal Dumping",
    "date_created": "2025-03-19T16:21:06.000",
    "date_modified": "2025-03-19T16:21:07.000",
    "request_status": "Pending",
    "responsible_agency": "Department of Sanitation",
    "final_address": "304 Leboeuf St",
    "address_councildis": "C",
    "status": "Pending",
    "rowid": "1177072",
    "final_x": "3689919.55939",
    "final_y": "530624.728066",
    "longitude": "-90.04151634275254",
    "latitude": "29.952775670800204",
    "geocoded_column": {
      "latitude": "29.952775670800204",
      "longitude": "-90.04151634275254"
    }
  },
  {
    "service_request": "2025-1177071",
    "request_type": "Roads and Streets",
    "request_reason": "Pothole",
    "date_created": "2025-03-19T16:20:46.000",
    "date_modified": "2025-03-19T16:20:48.000",
    "request_status": "Pending",
    "responsible_agency": "Department of Public Works",
    "final_address": "THAYER ST & SOCRATES ST",
    "address_councildis": "C",
    "status": "Pending",
    "rowid": "1177071",
    "final_x": "3689370.8",
    "final_y": "526364.88",
    "longitude": "-90.04340049613754",
    "latitude": "29.941079547466472",
    "geocoded_column": {
      "latitude": "29.941079547466472",
      "longitude": "-90.04340049613754"
    }
  },
  {
    "service_request": "2025-1177070",
    "request_type": "Trash/Recycling",
    "request_reason": "Order Second Trash Cart",
    "date_created": "2025-03-19T16:15:33.000",
    "date_modified": "2025-03-19T16:15:35.000",
    "request_status": "Pending",
    "responsible_agency": "Department of Sanitation",
    "final_address": "1528 Crescent St",
    "address_councildis": "D",
    "status": "Assigned to Contractor",
    "contractor": "IV Waste",
    "rowid": "1177070",
    "final_x": "3678916.04987",
    "final_y": "552417.364694",
    "longitude": "-90.07550515101772",
    "latitude": "30.01303435638497",
    "geocoded_column": {
      "latitude": "30.01303435638497",
      "longitude": "-90.07550515101772"
    }
  },
  {
    "service_request": "2025-1177069",
    "request_type": "Trash/Recycling",
    "request_reason": "Repair Trash Cart",
    "date_created": "2025-03-19T16:11:22.000",
    "date_modified": "2025-03-19T16:11:24.000",
    "request_status": "Pending",
    "responsible_agency": "Department of Sanitation",
    "final_address": "1430 Rev. John Raphael, Jr. Way",
    "address_councildis": "B",
    "status": "Assigned to Contractor",
    "contractor": "IV Waste",
    "rowid": "1177069",
    "final_x": "3676795.34369",
    "final_y": "527294.566079",
    "longitude": "-90.08307152613195",
    "latitude": "29.944019152724177",
    "geocoded_column": {
      "latitude": "29.944019152724177",
      "longitude": "-90.08307152613195"
    }
  },
  {
    "service_request": "2025-1177068",
    "request_type": "Trash/Recycling",
    "request_reason": "Request a Large Item Pick Up",
    "date_created": "2025-03-19T16:10:50.000",
    "date_modified": "2025-03-19T16:10:53.000",
    "request_status": "Pending",
    "responsible_agency": "Department of Sanitation",
    "final_address": "4616 Shalimar Dr",
    "address_councildis": "D",
    "status": "Assigned to Contractor",
    "contractor": "Waste Pro",
    "rowid": "1177068",
    "final_x": "3697175.03613",
    "final_y": "553563.849047",
    "longitude": "-90.01777531707988",
    "latitude": "30.015622994795326",
    "geocoded_column": {
      "latitude": "30.015622994795326",
      "longitude": "-90.01777531707988"
    }
  },
  {
    "service_request": "2025-1177067",
    "request_type": "Trash/Recycling",
    "request_reason": "Replace Recycling Cart",
    "date_created": "2025-03-19T16:06:57.000",
    "date_modified": "2025-03-19T16:06:59.000",
    "request_status": "Pending",
    "responsible_agency": "Department of Sanitation",
    "final_address": "2424 Peniston St",
    "address_councildis": "B",
    "status": "Pending",
    "rowid": "1177067",
    "final_x": "3672125.51182",
    "final_y": "524089.094076",
    "longitude": "-90.09792462626056",
    "latitude": "29.935344428203276",
    "geocoded_column": {
      "latitude": "29.935344428203276",
      "longitude": "-90.09792462626056"
    }
  },
  {
    "service_request": "2025-1177066",
    "request_type": "Trash/Recycling",
    "request_reason": "Request a Large Item Pick Up",
    "date_created": "2025-03-19T16:06:14.000",
    "date_modified": "2025-03-19T16:06:16.000",
    "request_status": "Pending",
    "responsible_agency": "Department of Sanitation",
    "final_address": "2519 Memorial Park Dr",
    "address_councildis": "C",
    "status": "Assigned to Contractor",
    "contractor": "Richards Disposal",
    "rowid": "1177066",
    "final_x": "3692712.43715",
    "final_y": "521117.329657",
    "longitude": "-90.0330383838204",
    "latitude": "29.926546709190188",
    "geocoded_column": {
      "latitude": "29.926546709190188",
      "longitude": "-90.0330383838204"
    }
  },
  {
    "service_request": "2025-1177065",
    "request_type": "Trash/Recycling",
    "request_reason": "Order Recycling Cart",
    "date_created": "2025-03-19T16:05:37.000",
    "date_modified": "2025-03-19T16:05:39.000",
    "request_status": "Pending",
    "responsible_agency": "Department of Sanitation",
    "final_address": "1212 Milan St",
    "address_councildis": "B",
    "status": "Pending",
    "rowid": "1177065",
    "final_x": "3671651.46798",
    "final_y": "520022.22988",
    "longitude": "-90.0995594312304",
    "latitude": "29.92417590366098",
    "geocoded_column": {
      "latitude": "29.92417590366098",
      "longitude": "-90.0995594312304"
    }
  },
  {
    "service_request": "2025-1177064",
    "request_type": "Trash/Recycling",
    "request_reason": "Order Recycling Cart",
    "date_created": "2025-03-19T16:03:50.000",
    "date_modified": "2025-03-19T16:03:52.000",
    "request_status": "Pending",
    "responsible_agency": "Department of Sanitation",
    "final_address": "1216 Milan St",
    "address_councildis": "B",
    "status": "Pending",
    "rowid": "1177064",
    "final_x": "3671646.51252",
    "final_y": "520048.424248",
    "longitude": "-90.0995741836057",
    "latitude": "29.924248076522314",
    "geocoded_column": {
      "latitude": "29.924248076522314",
      "longitude": "-90.0995741836057"
    }
  },
  {
    "service_request": "2025-1177063",
    "request_type": "Trash/Recycling",
    "request_reason": "Repair Trash Cart",
    "date_created": "2025-03-19T16:02:45.000",
    "date_modified": "2025-03-19T16:02:48.000",
    "request_status": "Pending",
    "responsible_agency": "Department of Sanitation",
    "final_address": "2124 Annette St",
    "address_councildis": "D",
    "status": "Assigned to Contractor",
    "contractor": "IV Waste",
    "rowid": "1177063",
    "final_x": "3682779.02735",
    "final_y": "540040.971723",
    "longitude": "-90.06373349608727",
    "latitude": "29.978886521508606",
    "geocoded_column": {
      "latitude": "29.978886521508606",
      "longitude": "-90.06373349608727"
    }
  },
  {
    "service_request": "2025-1177062",
    "request_type": "Trash/Recycling",
    "request_reason": "Replace Trash Cart",
    "date_created": "2025-03-19T16:02:15.000",
    "date_modified": "2025-03-19T16:02:18.000",
    "request_status": "Pending",
    "responsible_agency": "Department of Sanitation",
    "final_address": "4733 Crowder Blvd",
    "address_councildis": "E",
    "status": "Assigned to Contractor",
    "contractor": "Waste Pro",
    "rowid": "1177062",
    "final_x": "3706502.85585",
    "final_y": "555730.927129",
    "longitude": "-89.98822353950216",
    "latitude": "30.021283854073484",
    "geocoded_column": {
      "latitude": "30.021283854073484",
      "longitude": "-89.98822353950216"
    }
  },
  {
    "service_request": "2025-1177060",
    "request_type": "Trash/Recycling",
    "request_reason": "Order Trash Cart",
    "date_created": "2025-03-19T15:58:59.000",
    "date_modified": "2025-03-19T15:59:00.000",
    "request_status": "Pending",
    "responsible_agency": "Department of Sanitation",
    "final_address": "2122 Annette St",
    "address_councildis": "D",
    "status": "Assigned to Contractor",
    "contractor": "IV Waste",
    "rowid": "1177060",
    "final_x": "3682779.02735",
    "final_y": "540027.431307",
    "longitude": "-90.063733969935",
    "latitude": "29.97884929009484",
    "geocoded_column": {
      "latitude": "29.97884929009484",
      "longitude": "-90.063733969935"
    }
  },
  {
    "service_request": "2025-1177059",
    "request_type": "Trash/Recycling",
    "request_reason": "Request a Large Item Pick Up",
    "date_created": "2025-03-19T15:57:46.000",
    "date_modified": "2025-03-19T15:57:48.000",
    "request_status": "Pending",
    "responsible_agency": "Department of Sanitation",
    "final_address": "7145 Downman Rd",
    "address_councildis": "D",
    "status": "Assigned to Contractor",
    "contractor": "Waste Pro",
    "rowid": "1177059",
    "final_x": "3695294.48867",
    "final_y": "556839.897242",
    "longitude": "-90.02359864589498",
    "latitude": "30.024690123887616",
    "geocoded_column": {
      "latitude": "30.024690123887616",
      "longitude": "-90.02359864589498"
    }
  },
  {
    "service_request": "2025-1177058",
    "request_type": "Trash/Recycling",
    "request_reason": "Missed Trash Pick-Up",
    "date_created": "2025-03-19T15:49:12.000",
    "date_modified": "2025-03-19T15:49:20.000",
    "request_status": "Pending",
    "responsible_agency": "Department of Sanitation",
    "final_address": "11021 Lake Forest Blvd",
    "address_councildis": "E",
    "status": "Assigned to Contractor",
    "contractor": "Waste Pro",
    "rowid": "1177058",
    "final_x": "3714405.61515",
    "final_y": "560590.509406",
    "longitude": "-89.96306966566267",
    "latitude": "30.034388319484936",
    "geocoded_column": {
      "latitude": "30.034388319484936",
      "longitude": "-89.96306966566267"
    }
  },
  {
    "service_request": "2025-1177057",
    "request_type": "Trash/Recycling",
    "request_reason": "Request a Large Item Pick Up",
    "date_created": "2025-03-19T15:48:20.000",
    "date_modified": "2025-03-19T15:48:22.000",
    "request_status": "Pending",
    "responsible_agency": "Department of Sanitation",
    "final_address": "14812 Curran Rd",
    "address_councildis": "E",
    "status": "Assigned to Contractor",
    "contractor": "Waste Pro",
    "rowid": "1177057",
    "final_x": "3720477.53375",
    "final_y": "573944.421802",
    "longitude": "-89.94336990946897",
    "latitude": "30.07090499055775",
    "geocoded_column": {
      "latitude": "30.07090499055775",
      "longitude": "-89.94336990946897"
    }
  },
  {
    "service_request": "2025-1177056",
    "request_type": "Streetlights",
    "request_reason": "Streetlight Outage/Malfunction",
    "date_created": "2025-03-19T15:46:41.000",
    "date_modified": "2025-03-19T15:46:43.000",
    "request_status": "Pending",
    "responsible_agency": "Department of Public Works",
    "final_address": "BIENVILLE ST & N TONTI ST",
    "address_councildis": "B",
    "status": "Pending",
    "contractor": "Legacy Professional Services",
    "rowid": "1177056",
    "final_x": "3676873.37",
    "final_y": "534895.33",
    "longitude": "-90.0825632223304",
    "latitude": "29.9649163671505",
    "geocoded_column": {
      "latitude": "29.9649163671505",
      "longitude": "-90.0825632223304"
    }
  },
  {
    "service_request": "2025-1177055",
    "request_type": "Trash/Recycling",
    "request_reason": "Request a Large Item Pick Up",
    "date_created": "2025-03-19T15:45:34.000",
    "date_modified": "2025-03-19T15:45:36.000",
    "request_status": "Pending",
    "responsible_agency": "Department of Sanitation",
    "final_address": "520 Flood St",
    "address_councildis": "E",
    "status": "Assigned to Contractor",
    "contractor": "Waste Pro",
    "rowid": "1177055",
    "final_x": "3697129.67895",
    "final_y": "531881.516675",
    "longitude": "-90.0187045989249",
    "latitude": "29.95600591696049",
    "geocoded_column": {
      "latitude": "29.95600591696049",
      "longitude": "-90.0187045989249"
    }
  },
  {
    "service_request": "2025-1177054",
    "request_type": "Abandoned Vehicles",
    "request_reason": "Abandoned/Junk Vehicles",
    "date_created": "2025-03-19T15:44:48.000",
    "date_modified": "2025-03-19T15:44:50.000",
    "request_status": "Pending",
    "responsible_agency": "Department of Public Works",
    "final_address": "800 N Rendon St",
    "address_councildis": "A",
    "status": "Pending",
    "rowid": "1177054",
    "final_x": "3675266.9147",
    "final_y": "538565.199561",
    "longitude": "-90.08751030988446",
    "latitude": "29.975055381610208",
    "geocoded_column": {
      "latitude": "29.975055381610208",
      "longitude": "-90.08751030988446"
    }
  },
  {
    "service_request": "2025-1177053",
    "request_type": "Parks & Parkways",
    "request_reason": "Request Tree Service (Right of Way/Public Property)",
    "date_created": "2025-03-19T15:44:38.000",
    "date_modified": "2025-03-19T15:44:40.000",
    "request_status": "Pending",
    "responsible_agency": "Department of Parks & Parkway",
    "final_address": "500 State St",
    "address_councildis": "A",
    "status": "Pending",
    "rowid": "1177053",
    "final_x": "3664343.6992",
    "final_y": "518299.955126",
    "longitude": "-90.1226850370298",
    "latitude": "29.919654524439807",
    "geocoded_column": {
      "latitude": "29.919654524439807",
      "longitude": "-90.1226850370298"
    }
  },
  {
    "service_request": "2025-1177052",
    "request_type": "Trash/Recycling",
    "request_reason": "Request a Large Item Pick Up",
    "date_created": "2025-03-19T15:39:53.000",
    "date_modified": "2025-03-19T15:40:16.000",
    "request_status": "Pending",
    "responsible_agency": "Department of Sanitation",
    "final_address": "5312 Warrington Dr",
    "address_councildis": "D",
    "status": "Assigned to Contractor",
    "contractor": "IV Waste",
    "rowid": "1177052",
    "final_x": "3680830.32015",
    "final_y": "552334.82223",
    "longitude": "-90.0694599671924",
    "latitude": "30.01274947575201",
    "geocoded_column": {
      "latitude": "30.01274947575201",
      "longitude": "-90.0694599671924"
    }
  },
  {
    "service_request": "2025-1177051",
    "request_type": "Parks & Parkways",
    "request_reason": "Request Tree Service (Right of Way/Public Property)",
    "date_created": "2025-03-19T15:36:48.000",
    "date_modified": "2025-03-19T15:36:50.000",
    "request_status": "Pending",
    "responsible_agency": "Department of Parks & Parkway",
    "final_address": "1517 Audubon St",
    "address_councildis": "A",
    "status": "Pending",
    "rowid": "1177051",
    "final_x": "3665148.36218",
    "final_y": "527341.708927",
    "longitude": "-90.11984284870844",
    "latitude": "29.944493079965188",
    "geocoded_column": {
      "latitude": "29.944493079965188",
      "longitude": "-90.11984284870844"
    }
  },
  {
    "service_request": "2025-1177050",
    "request_type": "Roads and Streets",
    "request_reason": "Sidewalk Damaged or Missing",
    "date_created": "2025-03-19T15:36:06.000",
    "date_modified": "2025-03-19T15:36:08.000",
    "request_status": "Pending",
    "responsible_agency": "Department of Public Works",
    "final_address": "513 Mandeville St",
    "address_councildis": "C",
    "status": "Pending",
    "rowid": "1177050",
    "final_x": "3685966.0847",
    "final_y": "534344.733765",
    "longitude": "-90.05386846699538",
    "latitude": "29.963126371468395",
    "geocoded_column": {
      "latitude": "29.963126371468395",
      "longitude": "-90.05386846699538"
    }
  },
  {
    "service_request": "2025-1177049",
    "request_type": "Abandoned Vehicles",
    "request_reason": "Abandoned/Junk Vehicles",
    "date_created": "2025-03-19T15:34:33.000",
    "date_modified": "2025-03-19T15:36:39.000",
    "request_status": "Pending",
    "responsible_agency": "Department of Public Works",
    "final_address": "1714 S Salcedo St",
    "address_councildis": "B",
    "status": "Inspected",
    "rowid": "1177049",
    "final_x": "3670145.90894",
    "final_y": "530348.39661",
    "longitude": "-90.10396224233389",
    "latitude": "29.95261401256477",
    "geocoded_column": {
      "latitude": "29.95261401256477",
      "longitude": "-90.10396224233389"
    }
  },
  {
    "service_request": "2025-1177048",
    "request_type": "Streetlights",
    "request_reason": "Streetlight Outage/Malfunction",
    "date_created": "2025-03-19T15:34:32.000",
    "date_modified": "2025-03-19T15:34:33.000",
    "request_status": "Pending",
    "responsible_agency": "Department of Public Works",
    "final_address": "4301 Woodland Dr",
    "address_councildis": "C",
    "status": "Pending",
    "contractor": "Legacy Professional Services",
    "rowid": "1177048",
    "final_x": "3705307.95569",
    "final_y": "514729.686899",
    "longitude": "-89.99351390335464",
    "latitude": "29.908583870820024",
    "geocoded_column": {
      "latitude": "29.908583870820024",
      "longitude": "-89.99351390335464"
    }
  },
  {
    "service_request": "2025-1177047",
    "request_type": "Trash/Recycling",
    "request_reason": "Replace Trash Cart",
    "date_created": "2025-03-19T15:33:39.000",
    "date_modified": "2025-03-19T15:33:42.000",
    "request_status": "Pending",
    "responsible_agency": "Department of Sanitation",
    "final_address": "3610 Red Oak Ct",
    "address_councildis": "C",
    "status": "Assigned to Contractor",
    "contractor": "Richards Disposal",
    "rowid": "1177047",
    "final_x": "3703168.85982",
    "final_y": "513751.120242",
    "longitude": "-90.00030110441472",
    "latitude": "29.905961747575237",
    "geocoded_column": {
      "latitude": "29.905961747575237",
      "longitude": "-90.00030110441472"
    }
  },
  {
    "service_request": "2025-1177046",
    "request_type": "Abandoned Vehicles",
    "request_reason": "Abandoned/Junk Vehicles",
    "date_created": "2025-03-19T15:30:27.000",
    "date_modified": "2025-03-19T15:30:29.000",
    "request_status": "Pending",
    "responsible_agency": "Department of Public Works",
    "final_address": "1012 Cadiz St",
    "address_councildis": "B",
    "status": "Pending",
    "rowid": "1177046",
    "final_x": "3670216.70126",
    "final_y": "519206.380855",
    "longitude": "-90.10411612612496",
    "latitude": "29.921974979159092",
    "geocoded_column": {
      "latitude": "29.921974979159092",
      "longitude": "-90.10411612612496"
    }
  },
  {
    "service_request": "2025-1177045",
    "request_type": "Trash/Recycling",
    "request_reason": "Repair Trash Cart",
    "date_created": "2025-03-19T15:29:54.000",
    "date_modified": "2025-03-19T15:29:56.000",
    "request_status": "Pending",
    "responsible_agency": "Department of Sanitation",
    "final_address": "6031 Chestnut St",
    "address_councildis": "A",
    "status": "Assigned to Contractor",
    "contractor": "IV Waste",
    "rowid": "1177045",
    "final_x": "3664668.49063",
    "final_y": "520050.215288",
    "longitude": "-90.12160140229847",
    "latitude": "29.92445775229554",
    "geocoded_column": {
      "latitude": "29.92445775229554",
      "longitude": "-90.12160140229847"
    }
  },
  {
    "service_request": "2025-1177044",
    "request_type": "Road Striping",
    "request_reason": "Lane Striping or other Pavement Markings",
    "date_created": "2025-03-19T15:29:04.000",
    "date_modified": "2025-03-19T15:29:07.000",
    "request_status": "Pending",
    "responsible_agency": "Department of Public Works",
    "final_address": "LOYOLA AVE & HOV & EARHART BLVD & CALLIOPE ST",
    "address_councildis": "B",
    "status": "Pending",
    "rowid": "1177044",
    "final_x": "3678313.63",
    "final_y": "527762.77",
    "longitude": "-90.07826168299687",
    "latitude": "29.94526091825394",
    "geocoded_column": {
      "latitude": "29.94526091825394",
      "longitude": "-90.07826168299687"
    }
  },
  {
    "service_request": "2025-1177043",
    "request_type": "Trash/Recycling",
    "request_reason": "Request a Large Item Pick Up",
    "date_created": "2025-03-19T15:26:08.000",
    "date_modified": "2025-03-19T15:26:10.000",
    "request_status": "Pending",
    "responsible_agency": "Department of Sanitation",
    "final_address": "1110 Tennessee St",
    "address_councildis": "E",
    "status": "Assigned to Contractor",
    "contractor": "Waste Pro",
    "rowid": "1177043",
    "final_x": "3695675.9496",
    "final_y": "534515.037061",
    "longitude": "-90.02319987215128",
    "latitude": "29.963292949694488",
    "geocoded_column": {
      "latitude": "29.963292949694488",
      "longitude": "-90.02319987215128"
    }
  },
  {
    "service_request": "2025-1177042",
    "request_type": "Trash/Recycling",
    "request_reason": "Order Trash Cart",
    "date_created": "2025-03-19T15:26:01.000",
    "date_modified": "2025-03-19T15:26:03.000",
    "request_status": "Pending",
    "responsible_agency": "Department of Sanitation",
    "final_address": "5122 Wentworth Dr",
    "address_councildis": "E",
    "status": "Assigned to Contractor",
    "contractor": "Waste Pro",
    "rowid": "1177042",
    "final_x": "3704744.25156",
    "final_y": "556744.388122",
    "longitude": "-89.99374276019327",
    "latitude": "30.024127126911154",
    "geocoded_column": {
      "latitude": "30.024127126911154",
      "longitude": "-89.99374276019327"
    }
  },
  {
    "service_request": "2025-1177041",
    "request_type": "Trash/Recycling",
    "request_reason": "Request a Large Item Pick Up",
    "date_created": "2025-03-19T15:24:05.000",
    "date_modified": "2025-03-19T15:24:09.000",
    "request_status": "Pending",
    "responsible_agency": "Department of Sanitation",
    "final_address": "800 Congress St",
    "address_councildis": "C",
    "status": "Assigned to Contractor",
    "contractor": "IV Waste",
    "rowid": "1177041",
    "final_x": "3690414.35862",
    "final_y": "534463.881989",
    "longitude": "-90.03981714649991",
    "latitude": "29.963316661729923",
    "geocoded_column": {
      "latitude": "29.963316661729923",
      "longitude": "-90.03981714649991"
    }
  },
  {
    "service_request": "2025-1177040",
    "request_type": "Trash/Recycling",
    "request_reason": "Repair Trash Cart",
    "date_created": "2025-03-19T15:21:10.000",
    "date_modified": "2025-03-19T15:21:13.000",
    "request_status": "Pending",
    "responsible_agency": "Department of Sanitation",
    "final_address": "8420 Stroelitz St",
    "address_councildis": "A",
    "status": "Assigned to Contractor",
    "contractor": "IV Waste",
    "rowid": "1177040",
    "final_x": "3666980.26586",
    "final_y": "535790.478215",
    "longitude": "-90.1137750591337",
    "latitude": "29.967670957155075",
    "geocoded_column": {
      "latitude": "29.967670957155075",
      "longitude": "-90.1137750591337"
    }
  },
  {
    "service_request": "2025-1177039",
    "request_type": "Trash/Recycling",
    "request_reason": "Order Second Trash Cart",
    "date_created": "2025-03-19T15:20:21.000",
    "date_modified": "2025-03-19T15:20:23.000",
    "request_status": "Pending",
    "responsible_agency": "Department of Sanitation",
    "final_address": "4449 Woodland Dr Unit D",
    "address_councildis": "C",
    "status": "Assigned to Contractor",
    "contractor": "Richards Disposal",
    "rowid": "1177039",
    "final_x": "3705400.98878",
    "final_y": "513616.61189",
    "longitude": "-89.9932613640129",
    "latitude": "29.905520303811652",
    "geocoded_column": {
      "latitude": "29.905520303811652",
      "longitude": "-89.9932613640129"
    }
  },
  {
    "service_request": "2025-1177038",
    "request_type": "Trash/Recycling",
    "request_reason": "Request a Large Item Pick Up",
    "date_created": "2025-03-19T15:18:47.000",
    "date_modified": "2025-03-19T15:18:48.000",
    "request_status": "Pending",
    "responsible_agency": "Department of Sanitation",
    "final_address": "8420 Stroelitz St",
    "address_councildis": "A",
    "status": "Assigned to Contractor",
    "contractor": "IV Waste",
    "rowid": "1177038",
    "final_x": "3666980.26586",
    "final_y": "535790.478215",
    "longitude": "-90.1137750591337",
    "latitude": "29.967670957155075",
    "geocoded_column": {
      "latitude": "29.967670957155075",
      "longitude": "-90.1137750591337"
    }
  },
  {
    "service_request": "2025-1177037",
    "request_type": "Trash/Recycling",
    "request_reason": "Return Recycling Cart",
    "date_created": "2025-03-19T15:18:27.000",
    "date_modified": "2025-03-19T15:18:29.000",
    "request_status": "Pending",
    "responsible_agency": "Department of Sanitation",
    "final_address": "5238 Westlake Dr",
    "address_councildis": "E",
    "status": "Pending",
    "rowid": "1177037",
    "final_x": "3699234.42506",
    "final_y": "556811.698586",
    "longitude": "-90.01115021903907",
    "latitude": "30.024488170809043",
    "geocoded_column": {
      "latitude": "30.024488170809043",
      "longitude": "-90.01115021903907"
    }
  },
  {
    "service_request": "2025-1177036",
    "request_type": "Trash/Recycling",
    "request_reason": "Repair Trash Cart",
    "date_created": "2025-03-19T15:17:23.000",
    "date_modified": "2025-03-19T15:17:25.000",
    "request_status": "Pending",
    "responsible_agency": "Department of Sanitation",
    "final_address": "5238 Westlake Dr",
    "address_councildis": "E",
    "status": "Assigned to Contractor",
    "contractor": "Waste Pro",
    "rowid": "1177036",
    "final_x": "3699234.42506",
    "final_y": "556811.698586",
    "longitude": "-90.01115021903907",
    "latitude": "30.024488170809043",
    "geocoded_column": {
      "latitude": "30.024488170809043",
      "longitude": "-90.01115021903907"
    }
  },
  {
    "service_request": "2025-1177035",
    "request_type": "Roads and Streets",
    "request_reason": "Pothole",
    "date_created": "2025-03-19T15:17:17.000",
    "date_modified": "2025-03-19T15:17:19.000",
    "request_status": "Pending",
    "responsible_agency": "Department of Public Works",
    "final_address": "2600 BLK Republic St",
    "address_councildis": "D",
    "status": "Pending",
    "rowid": "1177035",
    "final_x": "3680740.67982",
    "final_y": "542046.255918",
    "longitude": "-90.07010154639798",
    "latitude": "29.984462297221274",
    "geocoded_column": {
      "latitude": "29.984462297221274",
      "longitude": "-90.07010154639798"
    }
  },
  {
    "service_request": "2025-1177034",
    "request_type": "Roads and Streets",
    "request_reason": "Sidewalk Damaged or Missing",
    "date_created": "2025-03-19T15:15:46.000",
    "date_modified": "2025-03-19T15:15:48.000",
    "request_status": "Pending",
    "responsible_agency": "Department of Public Works",
    "final_address": "513 Mandeville St",
    "address_councildis": "C",
    "status": "Pending",
    "rowid": "1177034",
    "final_x": "3685966.0847",
    "final_y": "534344.733765",
    "longitude": "-90.05386846699538",
    "latitude": "29.963126371468395",
    "geocoded_column": {
      "latitude": "29.963126371468395",
      "longitude": "-90.05386846699538"
    }
  },
  {
    "service_request": "2025-1177033",
    "request_type": "Trash/Recycling",
    "request_reason": "Request a Large Item Pick Up",
    "date_created": "2025-03-19T15:12:31.000",
    "date_modified": "2025-03-19T15:12:33.000",
    "request_status": "Pending",
    "responsible_agency": "Department of Sanitation",
    "final_address": "6623 Foch Rd",
    "address_councildis": "D",
    "status": "Assigned to Contractor",
    "contractor": "Waste Pro",
    "rowid": "1177033",
    "final_x": "3696980.26282",
    "final_y": "555705.460121",
    "longitude": "-90.01831305289907",
    "latitude": "30.021517762753394",
    "geocoded_column": {
      "latitude": "30.021517762753394",
      "longitude": "-90.01831305289907"
    }
  },
  {
    "service_request": "2025-1177032",
    "request_type": "Safety & Permits",
    "request_reason": "Zoning Enforcement",
    "date_created": "2025-03-19T15:10:33.000",
    "date_modified": "2025-03-19T15:51:15.000",
    "case_close_date": "2025-03-19T10:51:15.000",
    "request_status": "Closed",
    "responsible_agency": "Safety and Permits",
    "final_address": "14830 Emory Rd",
    "address_councildis": "E",
    "status": "Resolved",
    "rowid": "1177032",
    "final_x": "3720771.19666",
    "final_y": "573891.03441",
    "longitude": "-89.94244361510943",
    "latitude": "30.070748399709473",
    "geocoded_column": {
      "latitude": "30.070748399709473",
      "longitude": "-89.94244361510943"
    }
  },
  {
    "service_request": "2025-1177031",
    "request_type": "Abandoned Vehicles",
    "request_reason": "Abandoned/Junk Vehicles",
    "date_created": "2025-03-19T15:07:17.000",
    "date_modified": "2025-03-19T15:08:47.000",
    "request_status": "Pending",
    "responsible_agency": "Department of Public Works",
    "final_address": "2731 Bruxelles St",
    "address_councildis": "D",
    "status": "Pending",
    "rowid": "1177031",
    "final_x": "3680366.56802",
    "final_y": "542502.816333",
    "longitude": "-90.07126731586574",
    "latitude": "29.985729013979594",
    "geocoded_column": {
      "latitude": "29.985729013979594",
      "longitude": "-90.07126731586574"
    }
  },
  {
    "service_request": "2025-1177030",
    "request_type": "Trash/Recycling",
    "request_reason": "Request a Large Item Pick Up",
    "date_created": "2025-03-19T15:04:56.000",
    "date_modified": "2025-03-19T15:04:58.000",
    "request_status": "Pending",
    "responsible_agency": "Department of Sanitation",
    "final_address": "2038 Pine St",
    "address_councildis": "A",
    "status": "Assigned to Contractor",
    "contractor": "IV Waste",
    "rowid": "1177030",
    "final_x": "3665648.22695",
    "final_y": "529297.413889",
    "longitude": "-90.11819914189793",
    "latitude": "29.949856071495304",
    "geocoded_column": {
      "latitude": "29.949856071495304",
      "longitude": "-90.11819914189793"
    }
  },
  {
    "service_request": "2025-1177029",
    "request_type": "Trash/Recycling",
    "request_reason": "Request a Large Item Pick Up",
    "date_created": "2025-03-19T15:03:47.000",
    "date_modified": "2025-03-19T15:03:51.000",
    "request_status": "Pending",
    "responsible_agency": "Department of Sanitation",
    "final_address": "2333 Milan St",
    "address_councildis": "B",
    "status": "Assigned to Contractor",
    "contractor": "IV Waste",
    "rowid": "1177029",
    "final_x": "3671369.33883",
    "final_y": "523697.234683",
    "longitude": "-90.10032518394948",
    "latitude": "29.9342893373476",
    "geocoded_column": {
      "latitude": "29.9342893373476",
      "longitude": "-90.10032518394948"
    }
  },
  {
    "service_request": "2025-1177028",
    "request_type": "Trash/Recycling",
    "request_reason": "Request a Large Item Pick Up",
    "date_created": "2025-03-19T15:00:59.000",
    "date_modified": "2025-03-19T15:01:11.000",
    "request_status": "Pending",
    "responsible_agency": "Department of Sanitation",
    "final_address": "1816 Lizardi St",
    "address_councildis": "E",
    "status": "Assigned to Contractor",
    "contractor": "Waste Pro",
    "rowid": "1177028",
    "final_x": "3697262.28752",
    "final_y": "536904.08372",
    "longitude": "-90.01810382888874",
    "latitude": "29.96981200723804",
    "geocoded_column": {
      "latitude": "29.96981200723804",
      "longitude": "-90.01810382888874"
    }
  },
  {
    "service_request": "2025-1177027",
    "request_type": "Abandoned Vehicles",
    "request_reason": "Abandoned/Junk Vehicles",
    "date_created": "2025-03-19T14:55:03.000",
    "date_modified": "2025-03-19T14:55:05.000",
    "request_status": "Pending",
    "responsible_agency": "Department of Public Works",
    "final_address": "738 Spain St",
    "address_councildis": "C",
    "status": "Pending",
    "rowid": "1177027",
    "final_x": "3686192.01218",
    "final_y": "535274.22023",
    "longitude": "-90.05312222221878",
    "latitude": "29.965675198583686",
    "geocoded_column": {
      "latitude": "29.965675198583686",
      "longitude": "-90.05312222221878"
    }
  },
  {
    "service_request": "2025-1177026",
    "request_type": "Drainage",
    "request_reason": "Street Flooding",
    "date_created": "2025-03-19T14:54:35.000",
    "date_modified": "2025-03-19T14:54:37.000",
    "request_status": "Pending",
    "responsible_agency": "Sewerage & Water Board ",
    "final_address": "1105 St Philip St",
    "address_councildis": "C",
    "status": "Pending",
    "rowid": "1177026",
    "final_x": "3681984.86344",
    "final_y": "534330.597189",
    "longitude": "-90.06644117440497",
    "latitude": "29.963209136215813",
    "geocoded_column": {
      "latitude": "29.963209136215813",
      "longitude": "-90.06644117440497"
    }
  },
  {
    "service_request": "2025-1177025",
    "request_type": "Trash/Recycling",
    "request_reason": "Missed Trash Pick-Up",
    "date_created": "2025-03-19T14:49:57.000",
    "date_modified": "2025-03-19T14:51:36.000",
    "case_close_date": "2025-03-19T09:51:35.000",
    "request_status": "Closed",
    "responsible_agency": "Department of Sanitation",
    "final_address": "4637 Papania Dr",
    "address_councildis": "E",
    "status": "Invalid Request",
    "contractor": "Waste Pro",
    "contractor_action": "Invalid Request",
    "rowid": "1177025",
    "final_x": "3715704.06028",
    "final_y": "556485.069402",
    "longitude": "-89.95912204131129",
    "latitude": "30.02305723986025",
    "geocoded_column": {
      "latitude": "30.02305723986025",
      "longitude": "-89.95912204131129"
    }
  },
  {
    "service_request": "2025-1177024",
    "request_type": "Trash/Recycling",
    "request_reason": "Request a Large Item Pick Up",
    "date_created": "2025-03-19T14:49:12.000",
    "date_modified": "2025-03-19T14:49:13.000",
    "request_status": "Pending",
    "responsible_agency": "Department of Sanitation",
    "final_address": "14020 Linden St",
    "address_councildis": "E",
    "status": "Assigned to Contractor",
    "contractor": "Waste Pro",
    "rowid": "1177024",
    "final_x": "3718451.35973",
    "final_y": "572439.287081",
    "longitude": "-89.9498326155377",
    "latitude": "30.066833928255225",
    "geocoded_column": {
      "latitude": "30.066833928255225",
      "longitude": "-89.9498326155377"
    }
  },
  {
    "service_request": "2025-1177023",
    "request_type": "Parks & Parkways",
    "request_reason": "Request Grass Cutting Service (City Owned Property)",
    "date_created": "2025-03-19T14:46:09.000",
    "date_modified": "2025-03-19T15:04:49.000",
    "request_status": "Pending",
    "responsible_agency": "Department of Parks & Parkway",
    "final_address": "825 Touro St",
    "address_councildis": "C",
    "status": "Pending",
    "rowid": "1177023",
    "final_x": "3684330.49199",
    "final_y": "535380.913414",
    "longitude": "-90.05899707594311",
    "latitude": "29.966025624524786",
    "geocoded_column": {
      "latitude": "29.966025624524786",
      "longitude": "-90.05899707594311"
    }
  },
  {
    "service_request": "2025-1177022",
    "request_type": "Drainage",
    "request_reason": "Street Flooding",
    "date_created": "2025-03-19T14:40:47.000",
    "date_modified": "2025-03-19T14:40:49.000",
    "request_status": "Pending",
    "responsible_agency": "Sewerage & Water Board ",
    "final_address": "4717 Carondelet St",
    "address_councildis": "B",
    "status": "Pending",
    "rowid": "1177022",
    "final_x": "3669534.68839",
    "final_y": "521157.595513",
    "longitude": "-90.10620299903245",
    "latitude": "29.927360299450815",
    "geocoded_column": {
      "latitude": "29.927360299450815",
      "longitude": "-90.10620299903245"
    }
  },
  {
    "service_request": "2025-1177021",
    "request_type": "Trash/Recycling",
    "request_reason": "Request a Large Item Pick Up",
    "date_created": "2025-03-19T14:40:43.000",
    "date_modified": "2025-03-19T14:40:45.000",
    "request_status": "Pending",
    "responsible_agency": "Department of Sanitation",
    "final_address": "1432 St Mary St",
    "address_councildis": "B",
    "status": "Assigned to Contractor",
    "contractor": "IV Waste",
    "rowid": "1177021",
    "final_x": "3678860.17442",
    "final_y": "523750.415355",
    "longitude": "-90.07667500390971",
    "latitude": "29.934211798777675",
    "geocoded_column": {
      "latitude": "29.934211798777675",
      "longitude": "-90.07667500390971"
    }
  },
  {
    "service_request": "2025-1177020",
    "request_type": "Streetlights",
    "request_reason": "Streetlight Outage/Malfunction",
    "date_created": "2025-03-19T14:40:29.000",
    "date_modified": "2025-03-19T14:41:05.000",
    "request_status": "Pending",
    "responsible_agency": "Department of Public Works",
    "final_address": "8030 Oneida St",
    "address_councildis": "E",
    "status": "Pending",
    "contractor": "Legacy Professional Services",
    "rowid": "1177020",
    "final_x": "3713044.29605",
    "final_y": "569184.520678",
    "longitude": "-89.96704774540727",
    "latitude": "30.058063063413822",
    "geocoded_column": {
      "latitude": "30.058063063413822",
      "longitude": "-89.96704774540727"
    }
  },
  {
    "service_request": "2025-1177019",
    "request_type": "Trash/Recycling",
    "request_reason": "Return Trash Cart",
    "date_created": "2025-03-19T14:38:32.000",
    "date_modified": "2025-03-19T14:38:34.000",
    "request_status": "Pending",
    "responsible_agency": "Department of Sanitation",
    "final_address": "3500 Annunciation St",
    "address_councildis": "B",
    "status": "Assigned to Contractor",
    "contractor": "IV Waste",
    "rowid": "1177019",
    "final_x": "3674798.08686",
    "final_y": "518317.869686",
    "longitude": "-90.08968503903057",
    "latitude": "29.919395923699078",
    "geocoded_column": {
      "latitude": "29.919395923699078",
      "longitude": "-90.08968503903057"
    }
  },
  {
    "service_request": "2025-1177018",
    "request_type": "Trash/Recycling",
    "request_reason": "Request a Large Item Pick Up",
    "date_created": "2025-03-19T14:38:12.000",
    "date_modified": "2025-03-19T14:38:39.000",
    "request_status": "Pending",
    "responsible_agency": "Department of Sanitation",
    "final_address": "303 Morrison Rd",
    "address_councildis": "E",
    "status": "Assigned to Contractor",
    "contractor": "Waste Pro",
    "rowid": "1177018",
    "final_x": "3710967.21707",
    "final_y": "564516.887969",
    "longitude": "-89.97378814984246",
    "latitude": "30.045296901546827",
    "geocoded_column": {
      "latitude": "30.045296901546827",
      "longitude": "-89.97378814984246"
    }
  },
  {
    "service_request": "2025-1177017",
    "request_type": "Roads and Streets",
    "request_reason": "Sidewalk Damaged or Missing",
    "date_created": "2025-03-19T14:35:37.000",
    "date_modified": "2025-03-19T14:35:38.000",
    "request_status": "Pending",
    "responsible_agency": "Department of Public Works",
    "final_address": "825 N Villere St",
    "address_councildis": "C",
    "status": "Pending",
    "rowid": "1177017",
    "final_x": "3680641.94197",
    "final_y": "534667.848902",
    "longitude": "-90.0706702269292",
    "latitude": "29.964177221676287",
    "geocoded_column": {
      "latitude": "29.964177221676287",
      "longitude": "-90.0706702269292"
    }
  },
  {
    "service_request": "2025-1177016",
    "request_type": "Trash/Recycling",
    "request_reason": "MIssed Recycling Pick-Up",
    "date_created": "2025-03-19T14:35:36.000",
    "date_modified": "2025-03-19T14:35:38.000",
    "request_status": "Pending",
    "responsible_agency": "Department of Sanitation",
    "final_address": "4637 Papania Dr",
    "address_councildis": "E",
    "status": "Assigned to Contractor",
    "contractor": "Waste Pro",
    "rowid": "1177016",
    "final_x": "3715704.06028",
    "final_y": "556485.069402",
    "longitude": "-89.95912204131129",
    "latitude": "30.02305723986025",
    "geocoded_column": {
      "latitude": "30.02305723986025",
      "longitude": "-89.95912204131129"
    }
  },
  {
    "service_request": "2025-1177015",
    "request_type": "Trash/Recycling",
    "request_reason": "Request a Large Item Pick Up",
    "date_created": "2025-03-19T14:32:42.000",
    "date_modified": "2025-03-19T14:32:44.000",
    "request_status": "Pending",
    "responsible_agency": "Department of Sanitation",
    "final_address": "7212 Bunker Hill Rd",
    "address_councildis": "E",
    "status": "Assigned to Contractor",
    "contractor": "Waste Pro",
    "rowid": "1177015",
    "final_x": "3705542.34302",
    "final_y": "561060.215262",
    "longitude": "-89.99106121134265",
    "latitude": "30.03596828587469",
    "geocoded_column": {
      "latitude": "30.03596828587469",
      "longitude": "-89.99106121134265"
    }
  },
  {
    "service_request": "2025-1177014",
    "request_type": "Trash/Recycling",
    "request_reason": "Repair Trash Cart",
    "date_created": "2025-03-19T14:31:29.000",
    "date_modified": "2025-03-19T14:31:32.000",
    "request_status": "Pending",
    "responsible_agency": "Department of Sanitation",
    "final_address": "1739 St Andrew St",
    "address_councildis": "B",
    "status": "Assigned to Contractor",
    "contractor": "IV Waste",
    "rowid": "1177014",
    "final_x": "3677695.52078",
    "final_y": "524801.31142",
    "longitude": "-90.08031549858039",
    "latitude": "29.937136487667928",
    "geocoded_column": {
      "latitude": "29.937136487667928",
      "longitude": "-90.08031549858039"
    }
  },
  {
    "service_request": "2025-1177013",
    "request_type": "Property Maintenance",
    "request_reason": "Property Maintenance",
    "date_created": "2025-03-19T14:26:52.000",
    "date_modified": "2025-03-19T14:52:16.000",
    "case_close_date": "2025-03-19T09:52:14.000",
    "request_status": "Closed",
    "responsible_agency": "Department of Code Enforcement",
    "final_address": "6970 Bunker Hill Rd",
    "address_councildis": "E",
    "status": "Referred to Code Enforcement",
    "rowid": "1177013",
    "final_x": "3705981.79531",
    "final_y": "560164.139101",
    "longitude": "-89.98970567664907",
    "latitude": "30.033490266760193",
    "geocoded_column": {
      "latitude": "30.033490266760193",
      "longitude": "-89.98970567664907"
    }
  },
  {
    "service_request": "2025-1177012",
    "request_type": "Parks & Parkways",
    "request_reason": "Request Tree Service (Right of Way/Public Property)",
    "date_created": "2025-03-19T14:24:46.000",
    "date_modified": "2025-03-19T14:24:48.000",
    "request_status": "Pending",
    "responsible_agency": "Department of Parks & Parkway",
    "final_address": "5839 Canal Blvd",
    "address_councildis": "A",
    "status": "Pending",
    "rowid": "1177012",
    "final_x": "3668547.95502",
    "final_y": "546255.507728",
    "longitude": "-90.10847096120473",
    "latitude": "29.996400269209776",
    "geocoded_column": {
      "latitude": "29.996400269209776",
      "longitude": "-90.10847096120473"
    }
  },
  {
    "service_request": "2025-1177011",
    "request_type": "Abandoned Vehicles",
    "request_reason": "Abandoned/Junk Vehicles",
    "date_created": "2025-03-19T14:24:34.000",
    "date_modified": "2025-03-19T14:28:31.000",
    "request_status": "Pending",
    "responsible_agency": "Department of Public Works",
    "final_address": "528 S Pierce St",
    "address_councildis": "B",
    "status": "Pending",
    "rowid": "1177011",
    "final_x": "3670419.30177",
    "final_y": "536516.661191",
    "longitude": "-90.10288984223283",
    "latitude": "29.969566623435377",
    "geocoded_column": {
      "latitude": "29.969566623435377",
      "longitude": "-90.10288984223283"
    }
  },
  {
    "service_request": "2025-1177010",
    "request_type": "Trash/Recycling",
    "request_reason": "Request a Large Item Pick Up",
    "date_created": "2025-03-19T14:21:10.000",
    "date_modified": "2025-03-19T14:21:13.000",
    "request_status": "Pending",
    "responsible_agency": "Department of Sanitation",
    "final_address": "2621 N Villere St",
    "address_councildis": "C",
    "status": "Assigned to Contractor",
    "contractor": "IV Waste",
    "rowid": "1177010",
    "final_x": "3687591.70671",
    "final_y": "537559.852104",
    "longitude": "-90.04862112421641",
    "latitude": "29.971916813370193",
    "geocoded_column": {
      "latitude": "29.971916813370193",
      "longitude": "-90.04862112421641"
    }
  },
  {
    "service_request": "2025-1177009",
    "request_type": "Trash/Recycling",
    "request_reason": "Replace Trash Cart",
    "date_created": "2025-03-19T14:19:51.000",
    "date_modified": "2025-03-19T14:19:53.000",
    "request_status": "Pending",
    "responsible_agency": "Department of Sanitation",
    "final_address": "4720 Franklin Ave",
    "address_councildis": "D",
    "status": "Assigned to Contractor",
    "contractor": "IV Waste",
    "rowid": "1177009",
    "final_x": "3686758.58441",
    "final_y": "550427.889812",
    "longitude": "-90.05079737683813",
    "latitude": "30.00732497953972",
    "geocoded_column": {
      "latitude": "30.00732497953972",
      "longitude": "-90.05079737683813"
    }
  },
  {
    "service_request": "2025-1177008",
    "request_type": "Trash/Recycling",
    "request_reason": "Repair Trash Cart",
    "date_created": "2025-03-19T14:19:10.000",
    "date_modified": "2025-03-19T14:20:02.000",
    "request_status": "Pending",
    "responsible_agency": "Department of Sanitation",
    "final_address": "1419 Socrates St",
    "address_councildis": "C",
    "status": "Assigned to Contractor",
    "contractor": "Richards Disposal",
    "rowid": "1177008",
    "final_x": "3689876.66569",
    "final_y": "526297.91027",
    "longitude": "-90.0418057735709",
    "latitude": "29.940879735047876",
    "geocoded_column": {
      "latitude": "29.940879735047876",
      "longitude": "-90.0418057735709"
    }
  },
  {
    "service_request": "2025-1177007",
    "request_type": "Trash/Recycling",
    "request_reason": "Replace Trash Cart",
    "date_created": "2025-03-19T14:17:53.000",
    "date_modified": "2025-03-19T14:17:55.000",
    "request_status": "Pending",
    "responsible_agency": "Department of Sanitation",
    "final_address": "1507 Fats Domino Ave",
    "address_councildis": "E",
    "status": "Assigned to Contractor",
    "contractor": "Waste Pro",
    "rowid": "1177007",
    "final_x": "3698541.70736",
    "final_y": "535310.042438",
    "longitude": "-90.01412128439647",
    "latitude": "29.965388522722943",
    "geocoded_column": {
      "latitude": "29.965388522722943",
      "longitude": "-90.01412128439647"
    }
  },
  {
    "service_request": "2025-1177006",
    "request_type": "Trash/Recycling",
    "request_reason": "Request a Large Item Pick Up",
    "date_created": "2025-03-19T14:17:46.000",
    "date_modified": "2025-03-19T14:18:15.000",
    "request_status": "Pending",
    "responsible_agency": "Department of Sanitation",
    "final_address": "1419 Socrates St",
    "address_councildis": "C",
    "status": "Assigned to Contractor",
    "contractor": "Richards Disposal",
    "rowid": "1177006",
    "final_x": "3689876.66569",
    "final_y": "526297.91027",
    "longitude": "-90.0418057735709",
    "latitude": "29.940879735047876",
    "geocoded_column": {
      "latitude": "29.940879735047876",
      "longitude": "-90.0418057735709"
    }
  },
  {
    "service_request": "2025-1177005",
    "request_type": "Trash/Recycling",
    "request_reason": "Request a Large Item Pick Up",
    "date_created": "2025-03-19T14:16:49.000",
    "date_modified": "2025-03-19T14:16:53.000",
    "request_status": "Pending",
    "responsible_agency": "Department of Sanitation",
    "final_address": "4548 Lafon Dr",
    "address_councildis": "E",
    "status": "Assigned to Contractor",
    "contractor": "Waste Pro",
    "rowid": "1177005",
    "final_x": "3701164.08119",
    "final_y": "553250.127511",
    "longitude": "-90.00518333081756",
    "latitude": "30.01463384656753",
    "geocoded_column": {
      "latitude": "30.01463384656753",
      "longitude": "-90.00518333081756"
    }
  },
  {
    "service_request": "2025-1177004",
    "request_type": "Abandoned Vehicles",
    "request_reason": "Abandoned/Junk Vehicles",
    "date_created": "2025-03-19T14:16:29.000",
    "date_modified": "2025-03-19T14:16:31.000",
    "request_status": "Pending",
    "responsible_agency": "Department of Public Works",
    "final_address": "3125 Pittari Pl",
    "address_councildis": "C",
    "status": "Pending",
    "rowid": "1177004",
    "final_x": "3709694.40734",
    "final_y": "519205.695543",
    "longitude": "-89.97950279696802",
    "latitude": "29.920749574429543",
    "geocoded_column": {
      "latitude": "29.920749574429543",
      "longitude": "-89.97950279696802"
    }
  },
  {
    "service_request": "2025-1177003",
    "request_type": "Trash/Recycling",
    "request_reason": "Replace Trash Cart",
    "date_created": "2025-03-19T14:15:50.000",
    "date_modified": "2025-03-19T14:15:53.000",
    "request_status": "Pending",
    "responsible_agency": "Department of Sanitation",
    "final_address": "4720 Franklin Ave",
    "address_councildis": "D",
    "status": "Assigned to Contractor",
    "contractor": "IV Waste",
    "rowid": "1177003",
    "final_x": "3686758.58441",
    "final_y": "550427.889812",
    "longitude": "-90.05079737683813",
    "latitude": "30.00732497953972",
    "geocoded_column": {
      "latitude": "30.00732497953972",
      "longitude": "-90.05079737683813"
    }
  },
  {
    "service_request": "2025-1177002",
    "request_type": "Abandoned Vehicles",
    "request_reason": "Abandoned/Junk Vehicles",
    "date_created": "2025-03-19T14:15:02.000",
    "date_modified": "2025-03-19T14:15:04.000",
    "request_status": "Pending",
    "responsible_agency": "Department of Public Works",
    "final_address": "5218 Annunciation St",
    "address_councildis": "B",
    "status": "Pending",
    "rowid": "1177002",
    "final_x": "3667845.07117",
    "final_y": "517520.18143",
    "longitude": "-90.11165913963838",
    "latitude": "29.91740820567253",
    "geocoded_column": {
      "latitude": "29.91740820567253",
      "longitude": "-90.11165913963838"
    }
  },
  {
    "service_request": "2025-1177001",
    "request_type": "Abandoned Vehicles",
    "request_reason": "Abandoned/Junk Vehicles",
    "date_created": "2025-03-19T14:14:49.000",
    "date_modified": "2025-03-19T14:14:51.000",
    "request_status": "Pending",
    "responsible_agency": "Department of Public Works",
    "final_address": "2600 BLK Republic St",
    "address_councildis": "D",
    "status": "Pending",
    "rowid": "1177001",
    "final_x": "3680740.67982",
    "final_y": "542046.255918",
    "longitude": "-90.07010154639798",
    "latitude": "29.984462297221274",
    "geocoded_column": {
      "latitude": "29.984462297221274",
      "longitude": "-90.07010154639798"
    }
  },
  {
    "service_request": "2025-1177000",
    "request_type": "Trash/Recycling",
    "request_reason": "Request a Large Item Pick Up",
    "date_created": "2025-03-19T14:13:01.000",
    "date_modified": "2025-03-19T14:13:03.000",
    "request_status": "Pending",
    "responsible_agency": "Department of Sanitation",
    "final_address": "7831 Haney Dr",
    "address_councildis": "E",
    "status": "Assigned to Contractor",
    "contractor": "Waste Pro",
    "rowid": "1177000",
    "final_x": "3712200.29483",
    "final_y": "567942.333029",
    "longitude": "-89.96976223638922",
    "latitude": "30.054675199536945",
    "geocoded_column": {
      "latitude": "30.054675199536945",
      "longitude": "-89.96976223638922"
    }
  },
  {
    "service_request": "2025-1176999",
    "request_type": "Trash/Recycling",
    "request_reason": "Order Second Trash Cart",
    "date_created": "2025-03-19T14:11:11.000",
    "date_modified": "2025-03-19T14:11:13.000",
    "request_status": "Pending",
    "responsible_agency": "Department of Sanitation",
    "final_address": "4824 Pauger St",
    "address_councildis": "D",
    "status": "Assigned to Contractor",
    "contractor": "IV Waste",
    "rowid": "1176999",
    "final_x": "3682684.65916",
    "final_y": "550390.195284",
    "longitude": "-90.06366935620764",
    "latitude": "30.00734608583197",
    "geocoded_column": {
      "latitude": "30.00734608583197",
      "longitude": "-90.06366935620764"
    }
  },
  {
    "service_request": "2025-1176998",
    "request_type": "Trash/Recycling",
    "request_reason": "Repair Trash Cart",
    "date_created": "2025-03-19T14:07:14.000",
    "date_modified": "2025-03-19T14:07:17.000",
    "request_status": "Pending",
    "responsible_agency": "Department of Sanitation",
    "final_address": "4824 Pauger St",
    "address_councildis": "D",
    "status": "Assigned to Contractor",
    "contractor": "IV Waste",
    "rowid": "1176998",
    "final_x": "3682684.65916",
    "final_y": "550390.195284",
    "longitude": "-90.06366935620764",
    "latitude": "30.00734608583197",
    "geocoded_column": {
      "latitude": "30.00734608583197",
      "longitude": "-90.06366935620764"
    }
  },
  {
    "service_request": "2025-1176997",
    "request_type": "Street and Traffic Signs",
    "request_reason": "Additional Signage Request",
    "date_created": "2025-03-19T14:06:32.000",
    "date_modified": "2025-03-19T14:06:34.000",
    "request_status": "Pending",
    "responsible_agency": "Department of Public Works",
    "final_address": "ROBERT ST & PITT ST",
    "address_councildis": "B",
    "status": "Pending",
    "rowid": "1176997",
    "final_x": "3668700.6",
    "final_y": "520398.18",
    "longitude": "-90.10886163371845",
    "latitude": "29.925296683526984",
    "geocoded_column": {
      "latitude": "29.925296683526984",
      "longitude": "-90.10886163371845"
    }
  },
  {
    "service_request": "2025-1176996",
    "request_type": "Mosquito, Termite & Rodent Control",
    "request_reason": "Rodent Complaint (Rats)",
    "date_created": "2025-03-19T14:05:27.000",
    "date_modified": "2025-03-19T14:05:30.000",
    "request_status": "Pending",
    "responsible_agency": "Mosquito, Termite & Rodent Control Board",
    "final_address": "3700 Danneel St",
    "address_councildis": "B",
    "status": "Pending",
    "rowid": "1176996",
    "final_x": "3672768.29492",
    "final_y": "522521.210234",
    "longitude": "-90.09594880722116",
    "latitude": "29.93101418321043",
    "geocoded_column": {
      "latitude": "29.93101418321043",
      "longitude": "-90.09594880722116"
    }
  },
  {
    "service_request": "2025-1176995",
    "request_type": "Parks & Parkways",
    "request_reason": "Request Tree Service (Right of Way/Public Property)",
    "date_created": "2025-03-19T14:04:14.000",
    "date_modified": "2025-03-19T14:04:16.000",
    "request_status": "Pending",
    "responsible_agency": "Department of Parks & Parkway",
    "final_address": "1110 Jena St",
    "address_councildis": "B",
    "status": "Pending",
    "rowid": "1176995",
    "final_x": "3670537.78363",
    "final_y": "519583.702968",
    "longitude": "-90.10308981361733",
    "latitude": "29.923003019984787",
    "geocoded_column": {
      "latitude": "29.923003019984787",
      "longitude": "-90.10308981361733"
    }
  },
  {
    "service_request": "2025-1176994",
    "request_type": "Trash/Recycling",
    "request_reason": "Repair Trash Cart",
    "date_created": "2025-03-19T14:03:32.000",
    "date_modified": "2025-03-19T15:39:23.000",
    "request_status": "Pending",
    "responsible_agency": "Department of Sanitation",
    "final_address": "4140 State Street Dr",
    "address_councildis": "B",
    "status": "Assigned to Contractor",
    "contractor": "IV Waste",
    "rowid": "1176994",
    "final_x": "3668371.05582",
    "final_y": "530936.08013",
    "longitude": "-90.10954662693096",
    "latitude": "29.954282190632973",
    "geocoded_column": {
      "latitude": "29.954282190632973",
      "longitude": "-90.10954662693096"
    }
  },