[
  {
    "service_request": "2021-846865",
    "request_type": "Trash/Recycling",
    "request_reason": "Replace Trash Cart",
    "date_created": "2021-12-09T02:09:32.000",
    "date_modified": "2021-12-09T02:09:33.000",
    "request_status": "Pending",
    "responsible_agency": "Department of Sanitation",
    "final_address": "4027 Cleveland Ave",
    "address_councildis": "A",
    "status": "Assigned to Contractor",
    "contractor": "Richards Disposal",
    "rowid": "846865",
    "final_x": "3671050.78919",
    "final_y": "537901.186377",
    "longitude": "-90.10084851549215",
    "latitude": "29.97335494064981",
    "geocoded_column": {
      "latitude": "29.97335494064981",
      "longitude": "-90.10084851549215"
    }
  },
  {
    "service_request": "2021-846864",
    "request_type": "Health Related Questions",
    "request_reason": "Noise Ordinance Complaint",
    "date_created": "2021-12-09T00:58:37.000",
    "date_modified": "2021-12-09T00:58:37.000",
    "request_status": "Pending",
    "responsible_agency": "Health Department",
    "final_address": "550 Baronne St",
    "address_councildis": "B",
    "status": "Pending",
    "rowid": "846864",
    "final_x": "3679871.27515",
    "final_y": "529133.143296",
    "longitude": "-90.07329612681656",
    "latitude": "29.948981981496516",
    "geocoded_column": {
      "latitude": "29.948981981496516",
      "longitude": "-90.07329612681656"
    }
  },
  {
    "service_request": "2021-846863",
    "request_type": "Traffic Signals/Signs/Striping/Streetlights",
    "request_reason": "Street Light Outage/Malfunction",
    "date_created": "2021-12-08T23:23:00.000",
    "date_modified": "2021-12-09T00:00:16.000",
    "request_status": "Pending",
    "responsible_agency": "Department of Public Works",
    "final_address": "7741 Vanderkloot Ave",
    "address_councildis": "E",
    "status": "Pending",
    "contractor": "Royal Engineering",
    "rowid": "846863",
    "final_x": "3705752.37207",
    "final_y": "563661.361633",
    "longitude": "-89.99030113839822",
    "latitude": "30.04311364371588",
    "geocoded_column": {
      "latitude": "30.04311364371588",
      "longitude": "-89.99030113839822"
    }
  },
  {
    "service_request": "2021-846862",
    "request_type": "Trash/Recycling",
    "request_reason": "Request a Large Item Pick Up",
    "date_created": "2021-12-08T22:36:05.000",
    "date_modified": "2021-12-08T22:36:06.000",
    "request_status": "Pending",
    "responsible_agency": "Department of Sanitation",
    "final_address": "3332 Clouet St",
    "address_councildis": "D",
    "status": "Assigned to Contractor",
    "contractor": "Metro Disposal",
    "rowid": "846862",
    "final_x": "3691177.92739",
    "final_y": "544945.345935",
    "longitude": "-90.03703143591336",
    "latitude": "29.9921132323733",
    "geocoded_column": {
      "latitude": "29.9921132323733",
      "longitude": "-90.03703143591336"
    }
  },
  {
    "service_request": "2021-846861",
    "request_type": "Traffic Signals/Signs/Striping/Streetlights",
    "request_reason": "Street Light Outage/Malfunction",
    "date_created": "2021-12-08T22:10:31.000",
    "date_modified": "2021-12-08T22:10:31.000",
    "request_status": "Pending",
    "responsible_agency": "Department of Public Works",
    "final_address": "16 Chatham Dr",
    "address_councildis": "D",
    "status": "Pending",
    "contractor": "Royal Engineering",
    "rowid": "846861",
    "final_x": "3679945.17922",
    "final_y": "551024.507413",
    "longitude": "-90.07230208789309",
    "latitude": "30.009173397719067",
    "geocoded_column": {
      "latitude": "30.009173397719067",
      "longitude": "-90.07230208789309"
    }
  },
  {
    "service_request": "2021-846860",
    "request_type": "Roads/Drainage",
    "request_reason": "Bicycle Hazardous Incident Reporting",
    "date_created": "2021-12-08T22:04:55.000",
    "date_modified": "2021-12-08T22:04:55.000",
    "request_status": "Pending",
    "responsible_agency": "Health Department",
    "final_address": "2528 N Galvez St",
    "address_councildis": "D",
    "status": "Pending",
    "rowid": "846860",
    "final_x": "3687177.91778",
    "final_y": "540148.345995",
    "longitude": "-90.04983636283862",
    "latitude": "29.979047011417748",
    "geocoded_column": {
      "latitude": "29.979047011417748",
      "longitude": "-90.04983636283862"
    }
  },
  {
    "service_request": "2021-846859",
    "request_type": "Roads/Drainage",
    "request_reason": "Bicycle Hazardous Incident Reporting",
    "date_created": "2021-12-08T22:02:10.000",
    "date_modified": "2021-12-08T22:02:10.000",
    "request_status": "Pending",
    "responsible_agency": "Health Department",
    "final_address": "2064 N Galvez St",
    "address_councildis": "D",
    "status": "Pending",
    "rowid": "846859",
    "final_x": "3684199.07778",
    "final_y": "539889.481674",
    "longitude": "-90.05925376387285",
    "latitude": "29.978426636782444",
    "geocoded_column": {
      "latitude": "29.978426636782444",
      "longitude": "-90.05925376387285"
    }
  },
  {
    "service_request": "2021-846858",
    "request_type": "Roads/Drainage",
    "request_reason": "Bicycle Hazardous Incident Reporting",
    "date_created": "2021-12-08T22:00:14.000",
    "date_modified": "2021-12-08T22:00:14.000",
    "request_status": "Pending",
    "responsible_agency": "Health Department",
    "final_address": "2060 N Galvez St",
    "address_councildis": "D",
    "status": "Pending",
    "rowid": "846858",
    "final_x": "3684152.20284",
    "final_y": "539875.158794",
    "longitude": "-90.05940231478701",
    "latitude": "29.978388686944246",
    "geocoded_column": {
      "latitude": "29.978388686944246",
      "longitude": "-90.05940231478701"
    }
  },
  {
    "service_request": "2021-846857",
    "request_type": "Roads/Drainage",
    "request_reason": "Bicycle Hazardous Incident Reporting",
    "date_created": "2021-12-08T21:58:06.000",
    "date_modified": "2021-12-08T21:58:06.000",
    "request_status": "Pending",
    "responsible_agency": "Health Department",
    "final_address": "2017 N Galvez St",
    "address_councildis": "D",
    "status": "Pending",
    "rowid": "846857",
    "final_x": "3683747.41858",
    "final_y": "539950.731338",
    "longitude": "-90.06067811820884",
    "latitude": "29.97860885315275",
    "geocoded_column": {
      "latitude": "29.97860885315275",
      "longitude": "-90.06067811820884"
    }
  },
  {
    "service_request": "2021-846856",
    "request_type": "Roads/Drainage",
    "request_reason": "Bicycle Hazardous Incident Reporting",
    "date_created": "2021-12-08T21:55:33.000",
    "date_modified": "2021-12-08T21:55:33.000",
    "request_status": "Pending",
    "responsible_agency": "Health Department",
    "final_address": "2005 N Galvez St",
    "address_councildis": "D",
    "status": "Pending",
    "rowid": "846856",
    "final_x": "3683650.85097",
    "final_y": "539934.31489",
    "longitude": "-90.06098368991105",
    "latitude": "29.97856666245599",
    "geocoded_column": {
      "latitude": "29.97856666245599",
      "longitude": "-90.06098368991105"
    }
  },
  {
    "service_request": "2021-846855",
    "request_type": "Roads/Drainage",
    "request_reason": "Bicycle Hazardous Incident Reporting",
    "date_created": "2021-12-08T21:53:09.000",
    "date_modified": "2021-12-08T21:53:09.000",
    "request_status": "Pending",
    "responsible_agency": "Health Department",
    "final_address": "1924 N Galvez St",
    "address_councildis": "D",
    "status": "Pending",
    "rowid": "846855",
    "final_x": "3683062.88693",
    "final_y": "539804.243658",
    "longitude": "-90.06284525077749",
    "latitude": "29.978226950834035",
    "geocoded_column": {
      "latitude": "29.978226950834035",
      "longitude": "-90.06284525077749"
    }
  },
  {
    "service_request": "2021-846854",
    "request_type": "Roads/Drainage",
    "request_reason": "Bicycle Hazardous Incident Reporting",
    "date_created": "2021-12-08T21:47:44.000",
    "date_modified": "2021-12-08T21:47:44.000",
    "request_status": "Pending",
    "responsible_agency": "Health Department",
    "final_address": "1922 N Galvez St",
    "address_councildis": "D",
    "status": "Pending",
    "rowid": "846854",
    "final_x": "3683048.65077",
    "final_y": "539803.550474",
    "longitude": "-90.06289023790735",
    "latitude": "29.97822547883991",
    "geocoded_column": {
      "latitude": "29.97822547883991",
      "longitude": "-90.06289023790735"
    }
  },
  {
    "service_request": "2021-846853",
    "request_type": "Roads/Drainage",
    "request_reason": "Bicycle Hazardous Incident Reporting",
    "date_created": "2021-12-08T21:44:58.000",
    "date_modified": "2021-12-08T21:44:58.000",
    "request_status": "Pending",
    "responsible_agency": "Health Department",
    "final_address": "2137 Ap Tureaud Ave",
    "address_councildis": "D",
    "status": "Pending",
    "rowid": "846853",
    "final_x": "3681755.81199",
    "final_y": "540073.182091",
    "longitude": "-90.06696407236916",
    "latitude": "29.979006222766337",
    "geocoded_column": {
      "latitude": "29.979006222766337",
      "longitude": "-90.06696407236916"
    }
  },
  {
    "service_request": "2021-846852",
    "request_type": "Traffic Signals/Signs/Striping/Streetlights",
    "request_reason": "Street Light Outage/Malfunction",
    "date_created": "2021-12-08T21:15:32.000",
    "date_modified": "2021-12-08T21:15:32.000",
    "request_status": "Pending",
    "responsible_agency": "Department of Public Works",
    "final_address": "7114 W Laverne St",
    "address_councildis": "D",
    "status": "Pending",
    "contractor": "Royal Engineering",
    "rowid": "846852",
    "final_x": "3695778.64861",
    "final_y": "556717.199002",
    "longitude": "-90.02207322699805",
    "latitude": "30.02433752466813",
    "geocoded_column": {
      "latitude": "30.02433752466813",
      "longitude": "-90.02207322699805"
    }
  },
  {
    "service_request": "2021-846851",
    "request_type": "Traffic Signals/Signs/Striping/Streetlights",
    "request_reason": "Street Light Outage/Malfunction",
    "date_created": "2021-12-08T21:14:16.000",
    "date_modified": "2021-12-08T21:14:16.000",
    "request_status": "Pending",
    "responsible_agency": "Department of Public Works",
    "final_address": "7100 W Laverne St",
    "address_councildis": "D",
    "status": "Pending",
    "contractor": "Royal Engineering",
    "rowid": "846851",
    "final_x": "3695801.63491",
    "final_y": "556648.60745",
    "longitude": "-90.02200307519941",
    "latitude": "30.024148200635857",
    "geocoded_column": {
      "latitude": "30.024148200635857",
      "longitude": "-90.02200307519941"
    }
  },
  {
    "service_request": "2021-846850",
    "request_type": "Traffic Signals/Signs/Striping/Streetlights",
    "request_reason": "Street Light Outage/Malfunction",
    "date_created": "2021-12-08T21:14:03.000",
    "date_modified": "2021-12-08T21:14:04.000",
    "request_status": "Pending",
    "responsible_agency": "Department of Public Works",
    "final_address": "919 St Charles Ave",
    "address_councildis": "B",
    "status": "Pending",
    "contractor": "Royal Engineering",
    "rowid": "846850",
    "final_x": "3680174.97122",
    "final_y": "527316.807551",
    "longitude": "-90.07240033685378",
    "latitude": "29.94397847949933",
    "geocoded_column": {
      "latitude": "29.94397847949933",
      "longitude": "-90.07240033685378"
    }
  },
  {
    "service_request": "2021-846849",
    "request_type": "Traffic Signals/Signs/Striping/Streetlights",
    "request_reason": "Street Light Outage/Malfunction",
    "date_created": "2021-12-08T21:09:09.000",
    "date_modified": "2021-12-08T21:09:10.000",
    "request_status": "Pending",
    "responsible_agency": "Department of Public Works",
    "final_address": "7130 W Laverne St",
    "address_councildis": "D",
    "status": "Pending",
    "contractor": "Royal Engineering",
    "rowid": "846849",
    "final_x": "3695717.11862",
    "final_y": "556851.966618",
    "longitude": "-90.02226277720806",
    "latitude": "30.024710020393005",
    "geocoded_column": {
      "latitude": "30.024710020393005",
      "longitude": "-90.02226277720806"
    }
  },
  {
    "service_request": "2021-846848",
    "request_type": "Traffic Signals/Signs/Striping/Streetlights",
    "request_reason": "Street Light Outage/Malfunction",
    "date_created": "2021-12-08T21:06:23.000",
    "date_modified": "2021-12-08T21:06:23.000",
    "request_status": "Pending",
    "responsible_agency": "Department of Public Works",
    "final_address": "7114 W Laverne St",
    "address_councildis": "D",
    "status": "Pending",
    "contractor": "Royal Engineering",
    "rowid": "846848",
    "final_x": "3695778.64861",
    "final_y": "556717.199002",
    "longitude": "-90.02207322699805",
    "latitude": "30.02433752466813",
    "geocoded_column": {
      "latitude": "30.02433752466813",
      "longitude": "-90.02207322699805"
    }
  },
  {
    "service_request": "2021-846847",
    "request_type": "Traffic Signals/Signs/Striping/Streetlights",
    "request_reason": "Street Light Outage/Malfunction",
    "date_created": "2021-12-08T21:02:58.000",
    "date_modified": "2021-12-08T21:02:58.000",
    "request_status": "Pending",
    "responsible_agency": "Department of Public Works",
    "final_address": "7114 W Laverne St",
    "address_councildis": "D",
    "status": "Pending",
    "contractor": "Royal Engineering",
    "rowid": "846847",
    "final_x": "3695778.64861",
    "final_y": "556717.199002",
    "longitude": "-90.02207322699805",
    "latitude": "30.02433752466813",
    "geocoded_column": {
      "latitude": "30.02433752466813",
      "longitude": "-90.02207322699805"
    }
  },
  {
    "service_request": "2021-846846",
    "request_type": "Trash/Recycling",
    "request_reason": "Replace Trash Cart",
    "date_created": "2021-12-08T20:58:29.000",
    "date_modified": "2021-12-08T21:00:33.000",
    "request_status": "Pending",
    "responsible_agency": "Department of Sanitation",
    "final_address": "5773 Wilton Dr",
    "address_councildis": "D",
    "status": "Assigned to Contractor",
    "contractor": "Metro Disposal",
    "rowid": "846846",
    "final_x": "3681821.89992",
    "final_y": "554587.046616",
    "longitude": "-90.06624843314555",
    "latitude": "30.01891216231428",
    "geocoded_column": {
      "latitude": "30.01891216231428",
      "longitude": "-90.06624843314555"
    }
  },
  {
    "service_request": "2021-846845",
    "request_type": "Traffic Signals/Signs/Striping/Streetlights",
    "request_reason": "Street Light Outage/Malfunction",
    "date_created": "2021-12-08T20:55:30.000",
    "date_modified": "2021-12-08T20:55:31.000",
    "request_status": "Pending",
    "responsible_agency": "Department of Public Works",
    "final_address": "4730 Pontchartrain Blvd",
    "address_councildis": "A",
    "status": "Pending",
    "contractor": "Royal Engineering",
    "rowid": "846845",
    "final_x": "3667497.33172",
    "final_y": "538483.786121",
    "longitude": "-90.11205149100157",
    "latitude": "29.975061512618705",
    "geocoded_column": {
      "latitude": "29.975061512618705",
      "longitude": "-90.11205149100157"
    }
  },
  {
    "service_request": "2021-846844",
    "request_type": "Trash/Recycling",
    "request_reason": "Request a Large Item Pick Up",
    "date_created": "2021-12-08T20:39:07.000",
    "date_modified": "2021-12-08T20:39:08.000",
    "request_status": "Pending",
    "responsible_agency": "Department of Sanitation",
    "final_address": "1450 N Roman St",
    "address_councildis": "D",
    "status": "Assigned to Contractor",
    "contractor": "Metro Disposal",
    "rowid": "846844",
    "final_x": "3681016.49608",
    "final_y": "537392.719496",
    "longitude": "-90.06939249964725",
    "latitude": "29.971658325517353",
    "geocoded_column": {
      "latitude": "29.971658325517353",
      "longitude": "-90.06939249964725"
    }
  },
  {
    "service_request": "2021-846843",
    "request_type": "Traffic Signals/Signs/Striping/Streetlights",
    "request_reason": "Street Light Outage/Malfunction",
    "date_created": "2021-12-08T20:26:19.000",
    "date_modified": "2021-12-08T20:26:19.000",
    "request_status": "Pending",
    "responsible_agency": "Department of Public Works",
    "final_address": "8930 Tilford Rd",
    "address_councildis": "E",
    "status": "Pending",
    "contractor": "Royal Engineering",
    "rowid": "846843",
    "final_x": "3708030.65086",
    "final_y": "557216.457371",
    "longitude": "-89.98334087290638",
    "latitude": "30.025319080186303",
    "geocoded_column": {
      "latitude": "30.025319080186303",
      "longitude": "-89.98334087290638"
    }
  },
  {
    "service_request": "2021-846842",
    "request_type": "Traffic Signals/Signs/Striping/Streetlights",
    "request_reason": "Street Light Outage/Malfunction",
    "date_created": "2021-12-08T20:14:48.000",
    "date_modified": "2021-12-08T20:14:49.000",
    "request_status": "Pending",
    "responsible_agency": "Department of Public Works",
    "final_address": "1548 Leda St",
    "address_councildis": "A",
    "status": "Pending",
    "contractor": "Royal Engineering",
    "rowid": "846842",
    "final_x": "3675805.35195",
    "final_y": "541834.681612",
    "longitude": "-90.08569735174989",
    "latitude": "29.984029225167973",
    "geocoded_column": {
      "latitude": "29.984029225167973",
      "longitude": "-90.08569735174989"
    }
  },
  {
    "service_request": "2021-846841",
    "request_type": "Trash/Recycling",
    "request_reason": "Missed Trash Pick-Up",
    "date_created": "2021-12-08T20:10:11.000",
    "date_modified": "2021-12-08T21:00:35.000",
    "request_status": "Pending",
    "responsible_agency": "Department of Sanitation",
    "final_address": "7543 Canal Blvd",
    "address_councildis": "D",
    "status": "Assigned to Contractor",
    "contractor": "Metro Disposal",
    "rowid": "846841",
    "final_x": "3669485.22964",
    "final_y": "556659.60521",
    "longitude": "-90.10515788843408",
    "latitude": "30.024980296552997",
    "geocoded_column": {
      "latitude": "30.024980296552997",
      "longitude": "-90.10515788843408"
    }
  },
  {
    "service_request": "2021-846840",
    "request_type": "Traffic Signals/Signs/Striping/Streetlights",
    "request_reason": "Traffic Sign Missing/Damaged",
    "date_created": "2021-12-08T19:53:23.000",
    "date_modified": "2021-12-08T19:53:23.000",
    "request_status": "Pending",
    "responsible_agency": "Department of Public Works",
    "final_address": "LAWRENCE ST & HORACE ST",
    "address_councildis": "C",
    "status": "Pending",
    "rowid": "846840",
    "final_x": "3696316.6",
    "final_y": "525475.68",
    "longitude": "-90.02150358490339",
    "latitude": "29.938417724155453",
    "geocoded_column": {
      "latitude": "29.938417724155453",
      "longitude": "-90.02150358490339"
    }
  },
  {
    "service_request": "2021-846839",
    "request_type": "Trash/Recycling",
    "request_reason": "Order Trash Cart",
    "date_created": "2021-12-08T19:41:32.000",
    "date_modified": "2021-12-08T19:41:33.000",
    "request_status": "Pending",
    "responsible_agency": "Department of Sanitation",
    "final_address": "2121 Piety St",
    "address_councildis": "D",
    "status": "Assigned to Contractor",
    "contractor": "Metro Disposal",
    "rowid": "846839",
    "final_x": "3690852.12547",
    "final_y": "539725.169738",
    "longitude": "-90.03824694725257",
    "latitude": "29.97776975081894",
    "geocoded_column": {
      "latitude": "29.97776975081894",
      "longitude": "-90.03824694725257"
    }
  },
  {
    "service_request": "2021-846838",
    "request_type": "Traffic Signals/Signs/Striping/Streetlights",
    "request_reason": "Street Light Outage/Malfunction",
    "date_created": "2021-12-08T19:35:44.000",
    "date_modified": "2021-12-08T20:00:35.000",
    "request_status": "Pending",
    "responsible_agency": "Department of Public Works",
    "final_address": "252 Vallette St",
    "address_councildis": "C",
    "status": "Pending",
    "contractor": "Royal Engineering",
    "rowid": "846838",
    "final_x": "3687630.04163",
    "final_y": "531035.908546",
    "longitude": "-90.04873104420795",
    "latitude": "29.953977051429145",
    "geocoded_column": {
      "latitude": "29.953977051429145",
      "longitude": "-90.04873104420795"
    }
  },
  {
    "service_request": "2021-846837",
    "request_type": "Trash/Recycling",
    "request_reason": "Order Trash Cart",
    "date_created": "2021-12-08T19:22:12.000",
    "date_modified": "2021-12-08T19:22:12.000",
    "request_status": "Pending",
    "responsible_agency": "Department of Sanitation",
    "final_address": "1245 St Bernard Ave",
    "address_councildis": "C",
    "status": "Assigned to Contractor",
    "contractor": "Metro Disposal",
    "rowid": "846837",
    "final_x": "3682976.07797",
    "final_y": "536460.879623",
    "longitude": "-90.06323647066438",
    "latitude": "29.969036507578892",
    "geocoded_column": {
      "latitude": "29.969036507578892",
      "longitude": "-90.06323647066438"
    }
  },
  {
    "service_request": "2021-846836",
    "request_type": "Trash/Recycling",
    "request_reason": "Order Trash Cart",
    "date_created": "2021-12-08T19:21:07.000",
    "date_modified": "2021-12-08T19:21:08.000",
    "request_status": "Pending",
    "responsible_agency": "Department of Sanitation",
    "final_address": "1239 St Bernard Ave",
    "address_councildis": "C",
    "status": "Assigned to Contractor",
    "contractor": "Metro Disposal",
    "rowid": "846836",
    "final_x": "3683000.63855",
    "final_y": "536434.335623",
    "longitude": "-90.06315983599944",
    "latitude": "29.96896277216402",
    "geocoded_column": {
      "latitude": "29.96896277216402",
      "longitude": "-90.06315983599944"
    }
  },
  {
    "service_request": "2021-846835",
    "request_type": "Trash/Recycling",
    "request_reason": "Order Trash Cart",
    "date_created": "2021-12-08T19:18:56.000",
    "date_modified": "2021-12-08T19:18:56.000",
    "request_status": "Pending",
    "responsible_agency": "Department of Sanitation",
    "final_address": "1233 St Bernard Ave",
    "address_councildis": "C",
    "status": "Assigned to Contractor",
    "contractor": "Metro Disposal",
    "rowid": "846835",
    "final_x": "3683008.80783",
    "final_y": "536407.313031",
    "longitude": "-90.06313498291263",
    "latitude": "29.968888220370644",
    "geocoded_column": {
      "latitude": "29.968888220370644",
      "longitude": "-90.06313498291263"
    }
  },
  {
    "service_request": "2021-846834",
    "request_type": "Trash/Recycling",
    "request_reason": "Order Recycling Cart",
    "date_created": "2021-12-08T19:17:26.000",
    "date_modified": "2021-12-08T19:17:26.000",
    "request_status": "Pending",
    "responsible_agency": "Department of Sanitation",
    "final_address": "1233 St Bernard Ave",
    "address_councildis": "C",
    "status": "Pending",
    "rowid": "846834",
    "final_x": "3683008.80783",
    "final_y": "536407.313031",
    "longitude": "-90.06313498291263",
    "latitude": "29.968888220370644",
    "geocoded_column": {
      "latitude": "29.968888220370644",
      "longitude": "-90.06313498291263"
    }
  },
  {
    "service_request": "2021-846833",
    "request_type": "Traffic Signals/Signs/Striping/Streetlights",
    "request_reason": "Traffic Signal Malfunctioning/Damaged",
    "date_created": "2021-12-08T18:08:50.000",
    "date_modified": "2021-12-08T19:00:19.000",
    "request_status": "Pending",
    "responsible_agency": "Department of Public Works",
    "final_address": "401 N Carrollton Ave",
    "address_councildis": "A",
    "status": "Pending",
    "rowid": "846833",
    "final_x": "3671482.24667",
    "final_y": "539704.336458",
    "longitude": "-90.0994245569996",
    "latitude": "29.978300224786608",
    "geocoded_column": {
      "latitude": "29.978300224786608",
      "longitude": "-90.0994245569996"
    }
  },
  {
    "service_request": "2021-846832",
    "request_type": "Property Maintenance",
    "request_reason": "Property Maintenance",
    "date_created": "2021-12-08T17:45:47.000",
    "date_modified": "2021-12-08T17:45:47.000",
    "request_status": "Pending",
    "responsible_agency": "Department of Code Enforcement",
    "final_address": "1815 Poland Ave",
    "address_councildis": "D",
    "status": "Pending",
    "rowid": "846832",
    "final_x": "3693644.43209",
    "final_y": "537784.076232",
    "longitude": "-90.02949767884695",
    "latitude": "29.972345362158176",
    "geocoded_column": {
      "latitude": "29.972345362158176",
      "longitude": "-90.02949767884695"
    }
  },
  {
    "service_request": "2021-846831",
    "request_type": "Traffic Signals/Signs/Striping/Streetlights",
    "request_reason": "Street Light Outage/Malfunction",
    "date_created": "2021-12-08T17:30:53.000",
    "date_modified": "2021-12-08T18:00:15.000",
    "request_status": "Pending",
    "responsible_agency": "Department of Public Works",
    "final_address": "1408 Louisa St",
    "address_councildis": "C",
    "status": "Pending",
    "contractor": "Royal Engineering",
    "rowid": "846831",
    "final_x": "3689832.39702",
    "final_y": "537066.317192",
    "longitude": "-90.04156226138181",
    "latitude": "29.970490497670905",
    "geocoded_column": {
      "latitude": "29.970490497670905",
      "longitude": "-90.04156226138181"
    }
  },
  {
    "service_request": "2021-846830",
    "request_type": "Roads/Drainage",
    "request_reason": "Catch Basin - Broken/Damage",
    "date_created": "2021-12-08T17:12:05.000",
    "date_modified": "2021-12-08T18:00:17.000",
    "request_status": "Pending",
    "responsible_agency": "Department of Public Works",
    "final_address": "6767 Avenue A",
    "address_councildis": "A",
    "status": "Pending",
    "rowid": "846830",
    "final_x": "3666144.88058",
    "final_y": "553189.751959",
    "longitude": "-90.11582939748749",
    "latitude": "30.015537449428752",
    "geocoded_column": {
      "latitude": "30.015537449428752",
      "longitude": "-90.11582939748749"
    }
  },
  {
    "service_request": "2021-846829",
    "request_type": "Trash/Recycling",
    "request_reason": "Request a Large Item Pick Up",
    "date_created": "2021-12-08T17:05:12.000",
    "date_modified": "2021-12-08T17:05:13.000",
    "request_status": "Pending",
    "responsible_agency": "Department of Sanitation",
    "final_address": "3346 Trafalgar St",
    "address_councildis": "A",
    "status": "Assigned to Contractor",
    "contractor": "Metro Disposal",
    "rowid": "846829",
    "final_x": "3677751.58779",
    "final_y": "543145.697741",
    "longitude": "-90.07950476794628",
    "latitude": "29.987575650887152",
    "geocoded_column": {
      "latitude": "29.987575650887152",
      "longitude": "-90.07950476794628"
    }
  },
  {
    "service_request": "2021-846828",
    "request_type": "Trash/Recycling",
    "request_reason": "Order Trash Cart",
    "date_created": "2021-12-08T17:00:11.000",
    "date_modified": "2021-12-08T18:00:18.000",
    "request_status": "Pending",
    "responsible_agency": "Department of Sanitation",
    "final_address": "14 Shepard Ct",
    "address_councildis": "C",
    "status": "Assigned to Contractor",
    "contractor": "Richards Disposal",
    "rowid": "846828",
    "final_x": "3692390.16131",
    "final_y": "524637.311548",
    "longitude": "-90.03392970812735",
    "latitude": "29.936235517055543",
    "geocoded_column": {
      "latitude": "29.936235517055543",
      "longitude": "-90.03392970812735"
    }
  },
  {
    "service_request": "2021-846827",
    "request_type": "Trash/Recycling",
    "request_reason": "Replace Trash Cart",
    "date_created": "2021-12-08T16:58:42.000",
    "date_modified": "2021-12-08T16:58:43.000",
    "request_status": "Pending",
    "responsible_agency": "Department of Sanitation",
    "final_address": "4801 Camp St",
    "address_councildis": "B",
    "status": "Assigned to Contractor",
    "contractor": "Richards Disposal",
    "rowid": "846827",
    "final_x": "3669504.53038",
    "final_y": "519045.040503",
    "longitude": "-90.1063696101355",
    "latitude": "29.921552332398626",
    "geocoded_column": {
      "latitude": "29.921552332398626",
      "longitude": "-90.1063696101355"
    }
  },
  {
    "service_request": "2021-846826",
    "request_type": "Abandoned Vehicles",
    "request_reason": "Abandoned/Junk Vehicles",
    "date_created": "2021-12-08T16:56:20.000",
    "date_modified": "2021-12-08T16:56:20.000",
    "request_status": "Pending",
    "responsible_agency": "Department of Public Works",
    "final_address": "119 N Galvez St",
    "address_councildis": "B",
    "status": "Pending",
    "rowid": "846826",
    "final_x": "3677028.5979",
    "final_y": "534147.064517",
    "longitude": "-90.08209882514515",
    "latitude": "29.962854230424426",
    "geocoded_column": {
      "latitude": "29.962854230424426",
      "longitude": "-90.08209882514515"
    }
  },
  {
    "service_request": "2021-846825",
    "request_type": "Mosquito, Termite & Rodent Control",
    "request_reason": "Rodent Complaint (Rats)",
    "date_created": "2021-12-08T16:54:00.000",
    "date_modified": "2021-12-08T16:54:00.000",
    "request_status": "Pending",
    "responsible_agency": "Mosquito, Termite & Rodent Control Board",
    "final_address": "12 Carriage Ln",
    "address_councildis": "C",
    "status": "Pending",
    "rowid": "846825",
    "final_x": "3695940.59587",
    "final_y": "519889.315384",
    "longitude": "-90.0228923632517",
    "latitude": "29.923068964092447",
    "geocoded_column": {
      "latitude": "29.923068964092447",
      "longitude": "-90.0228923632517"
    }
  },
  {
    "service_request": "2021-846824",
    "request_type": "Abandoned Vehicles",
    "request_reason": "Abandoned/Junk Vehicles",
    "date_created": "2021-12-08T16:34:23.000",
    "date_modified": "2021-12-08T17:00:12.000",
    "request_status": "Pending",
    "responsible_agency": "Department of Public Works",
    "final_address": "2549 N Tonti St, New Orleans, Louisiana, 70117",
    "address_councildis": "D",
    "status": "Pending",
    "rowid": "846824",
    "final_x": "3686923.25679",
    "final_y": "540939.446539",
    "longitude": "-90.05061270769134",
    "latitude": "29.98123009943322",
    "geocoded_column": {
      "latitude": "29.98123009943322",
      "longitude": "-90.05061270769134"
    }
  },
  {
    "service_request": "2021-846823",
    "request_type": "Traffic Signals/Signs/Striping/Streetlights",
    "request_reason": "Traffic Signal Malfunctioning/Damaged",
    "date_created": "2021-12-08T16:31:05.000",
    "date_modified": "2021-12-08T16:31:05.000",
    "request_status": "Pending",
    "responsible_agency": "Department of Public Works",
    "final_address": "WILLOW ST & BROADWAY ST",
    "address_councildis": "A",
    "status": "Pending",
    "rowid": "846823",
    "final_x": "3664573.7",
    "final_y": "527065.28",
    "longitude": "-90.12166646185443",
    "latitude": "29.94374971083962",
    "geocoded_column": {
      "latitude": "29.94374971083962",
      "longitude": "-90.12166646185443"
    }
  },
  {
    "service_request": "2021-846822",
    "request_type": "Trash/Recycling",
    "request_reason": "Missed Trash Pick-Up",
    "date_created": "2021-12-08T16:23:08.000",
    "date_modified": "2021-12-08T16:23:08.000",
    "request_status": "Pending",
    "responsible_agency": "Department of Sanitation",
    "final_address": "2508 Dubreuil St",
    "address_councildis": "E",
    "status": "Assigned to Contractor",
    "contractor": "Metro Disposal",
    "rowid": "846822",
    "final_x": "3702717.39946",
    "final_y": "537930.701961",
    "longitude": "-90.00083850168309",
    "latitude": "29.97246153627941",
    "geocoded_column": {
      "latitude": "29.97246153627941",
      "longitude": "-90.00083850168309"
    }
  },
  {
    "service_request": "2021-846821",
    "request_type": "Roads/Drainage",
    "request_reason": "Pothole",
    "date_created": "2021-12-08T16:20:40.000",
    "date_modified": "2021-12-08T17:00:14.000",
    "request_status": "Pending",
    "responsible_agency": "Department of Public Works",
    "final_address": "BARONNE ST & JULIA ST",
    "address_councildis": "B",
    "status": "Pending",
    "rowid": "846821",
    "final_x": "3679611.1",
    "final_y": "528223.88",
    "longitude": "-90.07414916178107",
    "latitude": "29.94648967599105",
    "geocoded_column": {
      "latitude": "29.94648967599105",
      "longitude": "-90.07414916178107"
    }
  },
  {
    "service_request": "2021-846820",
    "request_type": "Traffic Signals/Signs/Striping/Streetlights",
    "request_reason": "Traffic Sign Missing/Damaged",
    "date_created": "2021-12-08T16:19:38.000",
    "date_modified": "2021-12-08T16:19:38.000",
    "request_status": "Pending",
    "responsible_agency": "Department of Public Works",
    "final_address": "300 Canal St",
    "address_councildis": "B",
    "status": "Pending",
    "rowid": "846820",
    "final_x": "3682143.72834",
    "final_y": "529836.705729",
    "longitude": "-90.06609644465293",
    "latitude": "29.950847632902086",
    "geocoded_column": {
      "latitude": "29.950847632902086",
      "longitude": "-90.06609644465293"
    }
  },
  {
    "service_request": "2021-846819",
    "request_type": "Trash/Recycling",
    "request_reason": "Replace Trash Cart",
    "date_created": "2021-12-08T16:17:38.000",
    "date_modified": "2021-12-08T16:17:38.000",
    "request_status": "Pending",
    "responsible_agency": "Department of Sanitation",
    "final_address": "1113 N Dupre St",
    "address_councildis": "A",
    "status": "Assigned to Contractor",
    "contractor": "Richards Disposal",
    "rowid": "846819",
    "final_x": "3676839.22945",
    "final_y": "538995.914762",
    "longitude": "-90.0825296800699",
    "latitude": "29.976192601313173",
    "geocoded_column": {
      "latitude": "29.976192601313173",
      "longitude": "-90.0825296800699"
    }
  },
  {
    "service_request": "2021-846818",
    "request_type": "Trash/Recycling",
    "request_reason": "Order Trash Cart",
    "date_created": "2021-12-08T16:17:18.000",
    "date_modified": "2021-12-08T17:00:17.000",
    "request_status": "Pending",
    "responsible_agency": "Department of Sanitation",
    "final_address": "1616 Eagle St",
    "address_councildis": "A",
    "status": "Assigned to Contractor",
    "contractor": "Richards Disposal",
    "rowid": "846818",
    "final_x": "3661137.21606",
    "final_y": "531213.124802",
    "longitude": "-90.1323791636624",
    "latitude": "29.955254428871672",
    "geocoded_column": {
      "latitude": "29.955254428871672",
      "longitude": "-90.1323791636624"
    }
  },
  {
    "service_request": "2021-846817",
    "request_type": "Trash/Recycling",
    "request_reason": "Replace Trash Cart",
    "date_created": "2021-12-08T16:16:24.000",
    "date_modified": "2021-12-08T17:00:20.000",
    "request_status": "Pending",
    "responsible_agency": "Department of Sanitation",
    "final_address": "7810 Mackenzie St",
    "address_councildis": "E",
    "status": "Assigned to Contractor",
    "contractor": "Metro Disposal",
    "rowid": "846817",
    "final_x": "3710562.42257",
    "final_y": "566690.835747",
    "longitude": "-89.97498603427654",
    "latitude": "30.05128758063742",
    "geocoded_column": {
      "latitude": "30.05128758063742",
      "longitude": "-89.97498603427654"
    }
  },
  {
    "service_request": "2021-846816",
    "request_type": "Roads/Drainage",
    "request_reason": "Catch Basin - Broken/Damage",
    "date_created": "2021-12-08T16:15:59.000",
    "date_modified": "2021-12-08T17:00:21.000",
    "request_status": "Pending",
    "responsible_agency": "Department of Public Works",
    "final_address": "CHEF MENTEUR HWY & DODT AVE",
    "address_councildis": "E",
    "status": "Pending",
    "rowid": "846816",
    "final_x": "3705672.2",
    "final_y": "553008.68",
    "longitude": "-89.99094892936071",
    "latitude": "30.013825509312756",
    "geocoded_column": {
      "latitude": "30.013825509312756",
      "longitude": "-89.99094892936071"
    }
  },
  {
    "service_request": "2021-846815",
    "request_type": "Health Related Questions",
    "request_reason": "Noise Ordinance Complaint",
    "date_created": "2021-12-08T16:09:12.000",
    "date_modified": "2021-12-08T17:00:24.000",
    "request_status": "Pending",
    "responsible_agency": "Health Department",
    "final_address": "2035 Conti St",
    "address_councildis": "B",
    "status": "Pending",
    "rowid": "846815",
    "final_x": "3678041.91061",
    "final_y": "534568.626053",
    "longitude": "-90.07888433723608",
    "latitude": "29.963982917268293",
    "geocoded_column": {
      "latitude": "29.963982917268293",
      "longitude": "-90.07888433723608"
    }
  },
  {
    "service_request": "2021-846814",
    "request_type": "Trash/Recycling",
    "request_reason": "Request a Large Item Pick Up",
    "date_created": "2021-12-08T16:04:34.000",
    "date_modified": "2021-12-08T17:00:25.000",
    "request_status": "Pending",
    "responsible_agency": "Department of Sanitation",
    "final_address": "520 N Salcedo St",
    "address_councildis": "A",
    "status": "Assigned to Contractor",
    "contractor": "Richards Disposal",
    "rowid": "846814",
    "final_x": "3675129.11259",
    "final_y": "537389.872264",
    "longitude": "-90.08798586862079",
    "latitude": "29.971827751089823",
    "geocoded_column": {
      "latitude": "29.971827751089823",
      "longitude": "-90.08798586862079"
    }
  },
  {
    "service_request": "2021-846813",
    "request_type": "Trash/Recycling",
    "request_reason": "Request a Large Item Pick Up",
    "date_created": "2021-12-08T16:00:09.000",
    "date_modified": "2021-12-08T16:00:14.000",
    "request_status": "Pending",
    "responsible_agency": "Department of Sanitation",
    "final_address": "7350 Newcastle St, New Orleans, Louisiana, 70126",
    "address_councildis": "E",
    "status": "Assigned to Contractor",
    "contractor": "Metro Disposal",
    "rowid": "846813",
    "final_x": "3697368.40349",
    "final_y": "558599.560732",
    "longitude": "-90.0169815864481",
    "latitude": "30.02946318135517",
    "geocoded_column": {
      "latitude": "30.02946318135517",
      "longitude": "-90.0169815864481"
    }
  },
  {
    "service_request": "2021-846812",
    "request_type": "Traffic Signals/Signs/Striping/Streetlights",
    "request_reason": "Street Light Outage/Malfunction",
    "date_created": "2021-12-08T15:55:22.000",
    "date_modified": "2021-12-08T16:00:16.000",
    "request_status": "Pending",
    "responsible_agency": "Department of Public Works",
    "final_address": "13358 Lourdes St",
    "address_councildis": "E",
    "status": "Pending",
    "contractor": "Royal Engineering",
    "rowid": "846812",
    "final_x": "3725653.16358",
    "final_y": "560747.393566",
    "longitude": "-89.92752030523835",
    "latitude": "30.03444505292903",
    "geocoded_column": {
      "latitude": "30.03444505292903",
      "longitude": "-89.92752030523835"
    }
  },
  {
    "service_request": "2021-846811",
    "request_type": "Traffic Signals/Signs/Striping/Streetlights",
    "request_reason": "Street Light Outage/Malfunction",
    "date_created": "2021-12-08T15:54:55.000",
    "date_modified": "2021-12-08T15:54:55.000",
    "request_status": "Pending",
    "responsible_agency": "Department of Public Works",
    "final_address": "PERLITA ST & OWENS BLVD",
    "address_councildis": "D",
    "status": "Pending",
    "contractor": "Royal Engineering",
    "rowid": "846811",
    "final_x": "3678761.3",
    "final_y": "549019.48",
    "longitude": "-90.07611186761319",
    "latitude": "30.003696060746037",
    "geocoded_column": {
      "latitude": "30.003696060746037",
      "longitude": "-90.07611186761319"
    }
  },
  {
    "service_request": "2021-846810",
    "request_type": "Property Maintenance",
    "request_reason": "Property Maintenance",
    "date_created": "2021-12-08T15:53:12.000",
    "date_modified": "2021-12-08T16:00:19.000",
    "request_status": "Pending",
    "responsible_agency": "Department of Code Enforcement",
    "final_address": "631 Broadway St",
    "address_councildis": "A",
    "status": "Pending",
    "rowid": "846810",
    "final_x": "3663189.55655",
    "final_y": "524927.238972",
    "longitude": "-90.12610771497562",
    "latitude": "29.93791095243781",
    "geocoded_column": {
      "latitude": "29.93791095243781",
      "longitude": "-90.12610771497562"
    }
  },
  {
    "service_request": "2021-846809",
    "request_type": "Trash/Recycling",
    "request_reason": "Order Recycling Cart",
    "date_created": "2021-12-08T15:48:20.000",
    "date_modified": "2021-12-08T16:00:20.000",
    "request_status": "Pending",
    "responsible_agency": "Department of Sanitation",
    "final_address": "2319 Dauphine St Unit F",
    "address_councildis": "C",
    "status": "Pending",
    "rowid": "846809",
    "final_x": "3685659.54223",
    "final_y": "535372.73383",
    "longitude": "-90.05480026750118",
    "latitude": "29.965962424129913",
    "geocoded_column": {
      "latitude": "29.965962424129913",
      "longitude": "-90.05480026750118"
    }
  },
  {
    "service_request": "2021-846808",
    "request_type": "Traffic Signals/Signs/Striping/Streetlights",
    "request_reason": "Disabled Parking Sign ",
    "date_created": "2021-12-08T15:47:50.000",
    "date_modified": "2021-12-08T15:47:50.000",
    "request_status": "Pending",
    "responsible_agency": "Department of Public Works",
    "final_address": "2413 S Robertson St",
    "address_councildis": "B",
    "status": "Pending",
    "rowid": "846808",
    "final_x": "3674830.78657",
    "final_y": "526192.82803",
    "longitude": "-90.08931195043175",
    "latitude": "29.941048530558167",
    "geocoded_column": {
      "latitude": "29.941048530558167",
      "longitude": "-90.08931195043175"
    }
  },
  {
    "service_request": "2021-846806",
    "request_type": "Parks & Parkways",
    "request_reason": "Request Tree Service (Right of Way/Public Property)",
    "date_created": "2021-12-08T15:46:13.000",
    "date_modified": "2021-12-08T15:46:13.000",
    "request_status": "Pending",
    "responsible_agency": "Department of Parks & Parkway",
    "final_address": "5647 Albany Ct",
    "address_councildis": "C",
    "status": "Pending",
    "rowid": "846806",
    "final_x": "3704561.55588",
    "final_y": "521433.177145",
    "longitude": "-89.99562263943751",
    "latitude": "29.927040132560784",
    "geocoded_column": {
      "latitude": "29.927040132560784",
      "longitude": "-89.99562263943751"
    }
  },
  {
    "service_request": "2021-846805",
    "request_type": "Trash/Recycling",
    "request_reason": "Request a Large Item Pick Up",
    "date_created": "2021-12-08T15:43:47.000",
    "date_modified": "2021-12-08T15:43:47.000",
    "request_status": "Pending",
    "responsible_agency": "Department of Sanitation",
    "final_address": "816 Mazant St",
    "address_councildis": "C",
    "status": "Assigned to Contractor",
    "contractor": "Metro Disposal",
    "rowid": "846805",
    "final_x": "3691825.17264",
    "final_y": "534222.214917",
    "longitude": "-90.03537061671601",
    "latitude": "29.962608294507177",
    "geocoded_column": {
      "latitude": "29.962608294507177",
      "longitude": "-90.03537061671601"
    }
  },
  {
    "service_request": "2021-846804",
    "request_type": "Abandoned Vehicles",
    "request_reason": "Abandoned/Junk Vehicles",
    "date_created": "2021-12-08T15:42:47.000",
    "date_modified": "2021-12-08T16:00:22.000",
    "request_status": "Pending",
    "responsible_agency": "Department of Public Works",
    "final_address": "1920 St Thomas St Apt A",
    "address_councildis": "B",
    "status": "Pending",
    "rowid": "846804",
    "final_x": "3680908.80994",
    "final_y": "521329.315961",
    "longitude": "-90.07029178446325",
    "latitude": "29.92749263530196",
    "geocoded_column": {
      "latitude": "29.92749263530196",
      "longitude": "-90.07029178446325"
    }
  },
  {
    "service_request": "2021-846803",
    "request_type": "Traffic Signals/Signs/Striping/Streetlights",
    "request_reason": "Street Light Outage/Malfunction",
    "date_created": "2021-12-08T15:42:38.000",
    "date_modified": "2021-12-08T15:42:39.000",
    "request_status": "Pending",
    "responsible_agency": "Department of Public Works",
    "final_address": "830 Union St",
    "address_councildis": "B",
    "status": "Pending",
    "contractor": "Royal Engineering",
    "rowid": "846803",
    "final_x": "3680196.45371",
    "final_y": "530082.433537",
    "longitude": "-90.07223640922949",
    "latitude": "29.951582374256713",
    "geocoded_column": {
      "latitude": "29.951582374256713",
      "longitude": "-90.07223640922949"
    }
  },
  {
    "service_request": "2021-846802",
    "request_type": "Trash/Recycling",
    "request_reason": "Order Trash Cart",
    "date_created": "2021-12-08T15:41:59.000",
    "date_modified": "2021-12-08T16:00:23.000",
    "request_status": "Pending",
    "responsible_agency": "Department of Sanitation",
    "final_address": "1229 Belleville St",
    "address_councildis": "C",
    "status": "Assigned to Contractor",
    "contractor": "Richards Disposal",
    "rowid": "846802",
    "final_x": "3687675.0879",
    "final_y": "526909.843902",
    "longitude": "-90.04873486804736",
    "latitude": "29.942630394251672",
    "geocoded_column": {
      "latitude": "29.942630394251672",
      "longitude": "-90.04873486804736"
    }
  },
  {
    "service_request": "2021-846801",
    "request_type": "Trash/Recycling",
    "request_reason": "Replace Trash Cart",
    "date_created": "2021-12-08T15:41:57.000",
    "date_modified": "2021-12-08T15:41:58.000",
    "request_status": "Pending",
    "responsible_agency": "Department of Sanitation",
    "final_address": "2334 Conti St",
    "address_councildis": "B",
    "status": "Assigned to Contractor",
    "contractor": "Richards Disposal",
    "rowid": "846801",
    "final_x": "3677155.7069",
    "final_y": "535155.116614",
    "longitude": "-90.08166265773417",
    "latitude": "29.965622214962035",
    "geocoded_column": {
      "latitude": "29.965622214962035",
      "longitude": "-90.08166265773417"
    }
  },
  {
    "service_request": "2021-846800",
    "request_type": "Abandoned Vehicles",
    "request_reason": "Abandoned/Junk Vehicles",
    "date_created": "2021-12-08T15:39:34.000",
    "date_modified": "2021-12-08T16:00:25.000",
    "request_status": "Pending",
    "responsible_agency": "Department of Public Works",
    "final_address": "802 Adele St",
    "address_councildis": "B",
    "status": "Pending",
    "rowid": "846800",
    "final_x": "3679965.94485",
    "final_y": "521607.069497",
    "longitude": "-90.07325853489883",
    "latitude": "29.928284910365363",
    "geocoded_column": {
      "latitude": "29.928284910365363",
      "longitude": "-90.07325853489883"
    }
  },
  {
    "service_request": "2021-846799",
    "request_type": "Trash/Recycling",
    "request_reason": "Request a Large Item Pick Up",
    "date_created": "2021-12-08T15:37:05.000",
    "date_modified": "2021-12-08T15:37:05.000",
    "request_status": "Pending",
    "responsible_agency": "Department of Sanitation",
    "final_address": "2808 Seine St",
    "address_councildis": "C",
    "status": "Assigned to Contractor",
    "contractor": "Richards Disposal",
    "rowid": "846799",
    "final_x": "3693363.14576",
    "final_y": "521041.724089",
    "longitude": "-90.03098699779967",
    "latitude": "29.926318499274164",
    "geocoded_column": {
      "latitude": "29.926318499274164",
      "longitude": "-90.03098699779967"
    }
  },
  {
    "service_request": "2021-846798",
    "request_type": "Trash/Recycling",
    "request_reason": "Request a Large Item Pick Up",
    "date_created": "2021-12-08T15:36:48.000",
    "date_modified": "2021-12-08T15:36:49.000",
    "request_status": "Pending",
    "responsible_agency": "Department of Sanitation",
    "final_address": "13101 River Rd",
    "address_councildis": "C",
    "status": "Assigned to Contractor",
    "contractor": "Richards Disposal",
    "rowid": "846798",
    "final_x": "3731364.13146",
    "final_y": "509168.950958",
    "longitude": "-89.91149569164105",
    "latitude": "29.892430410486305",
    "geocoded_column": {
      "latitude": "29.892430410486305",
      "longitude": "-89.91149569164105"
    }
  },
  {
    "service_request": "2021-846797",
    "request_type": "Parks & Parkways",
    "request_reason": "Request Tree Service (Right of Way/Public Property)",
    "date_created": "2021-12-08T15:32:06.000",
    "date_modified": "2021-12-08T15:32:06.000",
    "request_status": "Pending",
    "responsible_agency": "Department of Parks & Parkway",
    "final_address": "12 Carriage Ln",
    "address_councildis": "C",
    "status": "Pending",
    "rowid": "846797",
    "final_x": "3695940.59587",
    "final_y": "519889.315384",
    "longitude": "-90.0228923632517",
    "latitude": "29.923068964092447",
    "geocoded_column": {
      "latitude": "29.923068964092447",
      "longitude": "-90.0228923632517"
    }
  },
  {
    "service_request": "2021-846796",
    "request_type": "Trash/Recycling",
    "request_reason": "Replace Trash Cart",
    "date_created": "2021-12-08T15:30:20.000",
    "date_modified": "2021-12-08T16:00:27.000",
    "request_status": "Pending",
    "responsible_agency": "Department of Sanitation",
    "final_address": "1812 Charbonnet St",
    "address_councildis": "E",
    "status": "Assigned to Contractor",
    "contractor": "Metro Disposal",
    "rowid": "846796",
    "final_x": "3699278.00676",
    "final_y": "536360.494727",
    "longitude": "-90.01175783967423",
    "latitude": "29.96825356024086",
    "geocoded_column": {
      "latitude": "29.96825356024086",
      "longitude": "-90.01175783967423"
    }
  },
  {
    "service_request": "2021-846794",
    "request_type": "Trash/Recycling",
    "request_reason": "Order Recycling Cart",
    "date_created": "2021-12-08T15:22:39.000",
    "date_modified": "2021-12-08T16:00:28.000",
    "request_status": "Pending",
    "responsible_agency": "Department of Sanitation",
    "final_address": "8237 Hickory St",
    "address_councildis": "A",
    "status": "Pending",
    "rowid": "846794",
    "final_x": "3662943.61869",
    "final_y": "530389.46093",
    "longitude": "-90.12670256905744",
    "latitude": "29.952937436797246",
    "geocoded_column": {
      "latitude": "29.952937436797246",
      "longitude": "-90.12670256905744"
    }
  },
  {
    "service_request": "2021-846793",
    "request_type": "Trash/Recycling",
    "request_reason": "Order Recycling Cart",
    "date_created": "2021-12-08T15:21:47.000",
    "date_modified": "2021-12-08T16:00:30.000",
    "request_status": "Pending",
    "responsible_agency": "Department of Sanitation",
    "final_address": "8235 Hickory St",
    "address_councildis": "A",
    "status": "Pending",
    "rowid": "846793",
    "final_x": "3662949.97389",
    "final_y": "530382.590082",
    "longitude": "-90.1266827305072",
    "latitude": "29.95291836016481",
    "geocoded_column": {
      "latitude": "29.95291836016481",
      "longitude": "-90.1266827305072"
    }
  },
  {
    "service_request": "2021-846792",
    "request_type": "Trash/Recycling",
    "request_reason": "Order Trash Cart",
    "date_created": "2021-12-08T15:21:26.000",
    "date_modified": "2021-12-08T16:00:32.000",
    "request_status": "Pending",
    "responsible_agency": "Department of Sanitation",
    "final_address": "8235 Hickory St",
    "address_councildis": "A",
    "status": "Assigned to Contractor",
    "contractor": "Richards Disposal",
    "rowid": "846792",
    "final_x": "3662949.97389",
    "final_y": "530382.590082",
    "longitude": "-90.1266827305072",
    "latitude": "29.95291836016481",
    "geocoded_column": {
      "latitude": "29.95291836016481",
      "longitude": "-90.1266827305072"
    }
  },
  {
    "service_request": "2021-846791",
    "request_type": "Trash/Recycling",
    "request_reason": "Order Trash Cart",
    "date_created": "2021-12-08T15:20:32.000",
    "date_modified": "2021-12-08T16:00:35.000",
    "request_status": "Pending",
    "responsible_agency": "Department of Sanitation",
    "final_address": "8237 Hickory St",
    "address_councildis": "A",
    "status": "Assigned to Contractor",
    "contractor": "Richards Disposal",
    "rowid": "846791",
    "final_x": "3662943.61869",
    "final_y": "530389.46093",
    "longitude": "-90.12670256905744",
    "latitude": "29.952937436797246",
    "geocoded_column": {
      "latitude": "29.952937436797246",
      "longitude": "-90.12670256905744"
    }
  },
  {
    "service_request": "2021-846790",
    "request_type": "Roads/Drainage",
    "request_reason": "Pothole",
    "date_created": "2021-12-08T15:16:44.000",
    "date_modified": "2021-12-08T15:16:44.000",
    "request_status": "Pending",
    "responsible_agency": "Department of Public Works",
    "final_address": "4020 Clermont Dr",
    "address_councildis": "D",
    "status": "Pending",
    "rowid": "846790",
    "final_x": "3684946.60169",
    "final_y": "547176.636561",
    "longitude": "-90.05663637538807",
    "latitude": "29.99844084941792",
    "geocoded_column": {
      "latitude": "29.99844084941792",
      "longitude": "-90.05663637538807"
    }
  },
  {
    "service_request": "2021-846789",
    "request_type": "Trash/Recycling",
    "request_reason": "Illegal Dumping",
    "date_created": "2021-12-08T15:11:58.000",
    "date_modified": "2021-12-08T15:11:58.000",
    "request_status": "Pending",
    "responsible_agency": "Department of Sanitation",
    "final_address": "12 Carriage Ln",
    "address_councildis": "C",
    "status": "Pending",
    "rowid": "846789",
    "final_x": "3695940.59587",
    "final_y": "519889.315384",
    "longitude": "-90.0228923632517",
    "latitude": "29.923068964092447",
    "geocoded_column": {
      "latitude": "29.923068964092447",
      "longitude": "-90.0228923632517"
    }
  },
  {
    "service_request": "2021-846788",
    "request_type": "Trash/Recycling",
    "request_reason": "Request a Large Item Pick Up",
    "date_created": "2021-12-08T15:07:08.000",
    "date_modified": "2021-12-08T15:07:09.000",
    "request_status": "Pending",
    "responsible_agency": "Department of Sanitation",
    "final_address": "6057 St Anthony Ave",
    "address_councildis": "D",
    "status": "Assigned to Contractor",
    "contractor": "Metro Disposal",
    "rowid": "846788",
    "final_x": "3682057.25519",
    "final_y": "555413.376473",
    "longitude": "-90.06547590465868",
    "latitude": "30.021177108681346",
    "geocoded_column": {
      "latitude": "30.021177108681346",
      "longitude": "-90.06547590465868"
    }
  },
  {
    "service_request": "2021-846787",
    "request_type": "Trash/Recycling",
    "request_reason": "Missed Trash Pick-Up",
    "date_created": "2021-12-08T15:06:54.000",
    "date_modified": "2021-12-08T15:06:55.000",
    "request_status": "Pending",
    "responsible_agency": "Department of Sanitation",
    "final_address": "5624 Arts St",
    "address_councildis": "D",
    "status": "Assigned to Contractor",
    "contractor": "Metro Disposal",
    "rowid": "846787",
    "final_x": "3685781.32994",
    "final_y": "553795.757783",
    "longitude": "-90.0537659738516",
    "latitude": "30.016615425300134",
    "geocoded_column": {
      "latitude": "30.016615425300134",
      "longitude": "-90.0537659738516"
    }
  },
  {
    "service_request": "2021-846786",
    "request_type": "Trash/Recycling",
    "request_reason": "Request a Large Item Pick Up",
    "date_created": "2021-12-08T15:04:56.000",
    "date_modified": "2021-12-08T16:00:36.000",
    "request_status": "Pending",
    "responsible_agency": "Department of Sanitation",
    "final_address": "5025 New York Cir",
    "address_councildis": "D",
    "status": "Assigned to Contractor",
    "contractor": "Metro Disposal",
    "rowid": "846786",
    "final_x": "3691027.94697",
    "final_y": "557038.844122",
    "longitude": "-90.03707303524502",
    "latitude": "30.025370556941347",
    "geocoded_column": {
      "latitude": "30.025370556941347",
      "longitude": "-90.03707303524502"
    }
  },
  {
    "service_request": "2021-846785",
    "request_type": "Trash/Recycling",
    "request_reason": "Missed Trash Pick-Up",
    "date_created": "2021-12-08T15:01:13.000",
    "date_modified": "2021-12-08T16:00:37.000",
    "request_status": "Pending",
    "responsible_agency": "Department of Sanitation",
    "final_address": "2625 Pine St",
    "address_councildis": "A",
    "status": "Assigned to Contractor",
    "contractor": "Richards Disposal",
    "rowid": "846785",
    "final_x": "3666919.81319",
    "final_y": "530998.84781",
    "longitude": "-90.11412698075927",
    "latitude": "29.954497320293576",
    "geocoded_column": {
      "latitude": "29.954497320293576",
      "longitude": "-90.11412698075927"
    }
  },
  {
    "service_request": "2021-846784",
    "request_type": "Roads/Drainage",
    "request_reason": "Pothole",
    "date_created": "2021-12-08T14:55:29.000",
    "date_modified": "2021-12-08T15:00:46.000",
    "request_status": "Pending",
    "responsible_agency": "Department of Public Works",
    "final_address": "2724 S Saratoga St",
    "address_councildis": "B",
    "status": "Pending",
    "rowid": "846784",
    "final_x": "3675001.1643",
    "final_y": "524029.814844",
    "longitude": "-90.08884820547885",
    "latitude": "29.935095864563046",
    "geocoded_column": {
      "latitude": "29.935095864563046",
      "longitude": "-90.08884820547885"
    }
  },
  {
    "service_request": "2021-846783",
    "request_type": "Abandoned Vehicles",
    "request_reason": "Abandoned/Junk Vehicles",
    "date_created": "2021-12-08T14:50:43.000",
    "date_modified": "2021-12-08T17:14:23.000",
    "request_status": "Pending",
    "responsible_agency": "Department of Public Works",
    "final_address": "1208 Oretha Castle Haley Blvd, New Orleans, Louisiana, 70113",
    "address_councildis": "B",
    "status": "Reviewed",
    "rowid": "846783",
    "final_x": "3678562.10498",
    "final_y": "526992.028414",
    "longitude": "-90.07750383942653",
    "latitude": "29.94313414917292",
    "geocoded_column": {
      "latitude": "29.94313414917292",
      "longitude": "-90.07750383942653"
    }
  },
  {
    "service_request": "2021-846782",
    "request_type": "Trash/Recycling",
    "request_reason": "Illegal Dumping",
    "date_created": "2021-12-08T14:47:40.000",
    "date_modified": "2021-12-08T15:00:55.000",
    "request_status": "Pending",
    "responsible_agency": "Department of Sanitation",
    "final_address": "1815 Poland Ave",
    "address_councildis": "D",
    "status": "Pending",
    "rowid": "846782",
    "final_x": "3693644.43209",
    "final_y": "537784.076232",
    "longitude": "-90.02949767884695",
    "latitude": "29.972345362158176",
    "geocoded_column": {
      "latitude": "29.972345362158176",
      "longitude": "-90.02949767884695"
    }
  },
  {
    "service_request": "2021-846781",
    "request_type": "Trash/Recycling",
    "request_reason": "Request a Large Item Pick Up",
    "date_created": "2021-12-08T14:45:54.000",
    "date_modified": "2021-12-08T14:45:55.000",
    "request_status": "Pending",
    "responsible_agency": "Department of Sanitation",
    "final_address": "2939 Audubon St",
    "address_councildis": "B",
    "status": "Assigned to Contractor",
    "contractor": "Richards Disposal",
    "rowid": "846781",
    "final_x": "3667926.35629",
    "final_y": "531596.880195",
    "longitude": "-90.11092855588541",
    "latitude": "29.95611222625727",
    "geocoded_column": {
      "latitude": "29.95611222625727",
      "longitude": "-90.11092855588541"
    }
  },
  {
    "service_request": "2021-846780",
    "request_type": "Trash/Recycling",
    "request_reason": "Replace Trash Cart",
    "date_created": "2021-12-08T14:45:34.000",
    "date_modified": "2021-12-08T15:00:57.000",
    "request_status": "Pending",
    "responsible_agency": "Department of Sanitation",
    "final_address": "2446 Odin St",
    "address_councildis": "D",
    "status": "Assigned to Contractor",
    "contractor": "Metro Disposal",
    "rowid": "846780",
    "final_x": "3685600.21526",
    "final_y": "553139.385303",
    "longitude": "-90.05436136626433",
    "latitude": "30.01481620190926",
    "geocoded_column": {
      "latitude": "30.01481620190926",
      "longitude": "-90.05436136626433"
    }
  },
  {
    "service_request": "2021-846779",
    "request_type": "Abandoned Vehicles",
    "request_reason": "Abandoned/Junk Vehicles",
    "date_created": "2021-12-08T14:40:21.000",
    "date_modified": "2021-12-08T14:40:21.000",
    "request_status": "Pending",
    "responsible_agency": "Department of Public Works",
    "final_address": "1518 Elizardi Blvd",
    "address_councildis": "C",
    "status": "Pending",
    "rowid": "846779",
    "final_x": "3694781.62512",
    "final_y": "525584.274493",
    "longitude": "-90.02634571965419",
    "latitude": "29.938764553222278",
    "geocoded_column": {
      "latitude": "29.938764553222278",
      "longitude": "-90.02634571965419"
    }
  },
  {
    "service_request": "2021-846778",
    "request_type": "Abandoned Vehicles",
    "request_reason": "Abandoned/Junk Vehicles",
    "date_created": "2021-12-08T14:38:43.000",
    "date_modified": "2021-12-08T14:38:43.000",
    "request_status": "Pending",
    "responsible_agency": "Department of Public Works",
    "final_address": "1325 Poland Ave",
    "address_councildis": "D",
    "status": "Pending",
    "rowid": "846778",
    "final_x": "3693343.04208",
    "final_y": "535949.534535",
    "longitude": "-90.03051539182",
    "latitude": "29.967310449664357",
    "geocoded_column": {
      "latitude": "29.967310449664357",
      "longitude": "-90.03051539182"
    }
  },
  {
    "service_request": "2021-846777",
    "request_type": "Trash/Recycling",
    "request_reason": "Request a Large Item Pick Up",
    "date_created": "2021-12-08T14:38:37.000",
    "date_modified": "2021-12-08T15:00:58.000",
    "request_status": "Pending",
    "responsible_agency": "Department of Sanitation",
    "final_address": "7 Honeysuckle Ln",
    "address_councildis": "E",
    "status": "Assigned to Contractor",
    "contractor": "Metro Disposal",
    "rowid": "846777",
    "final_x": "3713104.45221",
    "final_y": "568109.006117",
    "longitude": "-89.96689814099983",
    "latitude": "30.055103866557758",
    "geocoded_column": {
      "latitude": "30.055103866557758",
      "longitude": "-89.96689814099983"
    }
  },
  {
    "service_request": "2021-846776",
    "request_type": "Trash/Recycling",
    "request_reason": "Illegal Dumping",
    "date_created": "2021-12-08T14:37:03.000",
    "date_modified": "2021-12-08T14:37:04.000",
    "request_status": "Pending",
    "responsible_agency": "Department of Sanitation",
    "final_address": "1300 Sumner St",
    "address_councildis": "C",
    "status": "Pending",
    "rowid": "846776",
    "final_x": "3691106.33718",
    "final_y": "526602.89203",
    "longitude": "-90.0379126108262",
    "latitude": "29.941680162519713",
    "geocoded_column": {
      "latitude": "29.941680162519713",
      "longitude": "-90.0379126108262"
    }
  },
  {
    "service_request": "2021-846775",
    "request_type": "Trash/Recycling",
    "request_reason": "Missed Trash Pick-Up",
    "date_created": "2021-12-08T14:33:47.000",
    "date_modified": "2021-12-08T14:33:48.000",
    "request_status": "Pending",
    "responsible_agency": "Department of Sanitation",
    "final_address": "11511 Morrison Rd",
    "address_councildis": "E",
    "status": "Assigned to Contractor",
    "contractor": "Metro Disposal",
    "rowid": "846775",
    "final_x": "3712545.59979",
    "final_y": "566033.916643",
    "longitude": "-89.96874265081156",
    "latitude": "30.04941652807791",
    "geocoded_column": {
      "latitude": "30.04941652807791",
      "longitude": "-89.96874265081156"
    }
  },
  {
    "service_request": "2021-846772",
    "request_type": "Traffic Signals/Signs/Striping/Streetlights",
    "request_reason": "Request for Traffic Calming due to Speeding",
    "date_created": "2021-12-08T14:26:52.000",
    "date_modified": "2021-12-08T15:01:13.000",
    "request_status": "Pending",
    "responsible_agency": "Department of Public Works",
    "final_address": "7400 BLK Pitt St",
    "address_councildis": "A",
    "status": "Pending",
    "rowid": "846772",
    "final_x": "3661285.06453",
    "final_y": "523435.092353",
    "longitude": "-90.13216977025519",
    "latitude": "29.933863055001247",
    "geocoded_column": {
      "latitude": "29.933863055001247",
      "longitude": "-90.13216977025519"
    }
  },
  {
    "service_request": "2021-846771",
    "request_type": "Trash/Recycling",
    "request_reason": "Missed Trash Pick-Up",
    "date_created": "2021-12-08T14:26:43.000",
    "date_modified": "2021-12-08T15:01:15.000",
    "request_status": "Pending",
    "responsible_agency": "Department of Sanitation",
    "final_address": "634 Eighth St",
    "address_councildis": "B",
    "status": "Assigned to Contractor",
    "contractor": "Richards Disposal",
    "rowid": "846771",
    "final_x": "3676938.26549",
    "final_y": "518905.502967",
    "longitude": "-90.08290932307021",
    "latitude": "29.920947681168073",
    "geocoded_column": {
      "latitude": "29.920947681168073",
      "longitude": "-90.08290932307021"
    }
  },
  {
    "service_request": "2021-846769",
    "request_type": "Roads/Drainage",
    "request_reason": "Street Subsidence (Sinking)",
    "date_created": "2021-12-08T14:25:34.000",
    "date_modified": "2021-12-08T15:01:20.000",
    "request_status": "Pending",
    "responsible_agency": "Department of Public Works",
    "final_address": "PIETY DR & MIRABEAU AVE",
    "address_councildis": "D",
    "status": "Pending",
    "rowid": "846769",
    "final_x": "3691488.3",
    "final_y": "551777.58",
    "longitude": "-90.03580664896427",
    "latitude": "30.010889716460877",
    "geocoded_column": {
      "latitude": "30.010889716460877",
      "longitude": "-90.03580664896427"
    }
  },
  {
    "service_request": "2021-846768",
    "request_type": "Trash/Recycling",
    "request_reason": "Dead Animal Pick Up",
    "date_created": "2021-12-08T14:21:17.000",
    "date_modified": "2021-12-08T15:01:23.000",
    "request_status": "Pending",
    "responsible_agency": "Department of Sanitation",
    "final_address": "1722 Congress St",
    "address_councildis": "D",
    "status": "Assigned to Contractor",
    "contractor": "Metro Disposal",
    "rowid": "846768",
    "final_x": "3691281.03094",
    "final_y": "538027.354121",
    "longitude": "-90.0369529886356",
    "latitude": "29.973088024424857",
    "geocoded_column": {
      "latitude": "29.973088024424857",
      "longitude": "-90.0369529886356"
    }
  },
  {
    "service_request": "2021-846767",
    "request_type": "Roads/Drainage",
    "request_reason": "Damaged Sidewalk",
    "date_created": "2021-12-08T14:19:25.000",
    "date_modified": "2021-12-08T15:01:24.000",
    "request_status": "Pending",
    "responsible_agency": "Department of Public Works",
    "final_address": "6101 Chatham Dr",
    "address_councildis": "D",
    "status": "Pending",
    "rowid": "846767",
    "final_x": "3679634.71887",
    "final_y": "555106.195865",
    "longitude": "-90.07314111363992",
    "latitude": "30.020405955549922",
    "geocoded_column": {
      "latitude": "30.020405955549922",
      "longitude": "-90.07314111363992"
    }
  },
  {
    "service_request": "2021-846766",
    "request_type": "Abandoned Vehicles",
    "request_reason": "Abandoned/Junk Vehicles",
    "date_created": "2021-12-08T14:16:32.000",
    "date_modified": "2021-12-08T14:16:33.000",
    "request_status": "Pending",
    "responsible_agency": "Department of Public Works",
    "final_address": "N VILLERE ST & ST ROCH AVE",
    "address_councildis": "C",
    "status": "Pending",
    "rowid": "846766",
    "final_x": "3686442.2",
    "final_y": "537533.38",
    "longitude": "-90.05225237651533",
    "latitude": "29.971879412440547",
    "geocoded_column": {
      "latitude": "29.971879412440547",
      "longitude": "-90.05225237651533"
    }
  },
  {
    "service_request": "2021-846765",
    "request_type": "Roads/Drainage",
    "request_reason": "Road Shoulder Repair",
    "date_created": "2021-12-08T14:14:23.000",
    "date_modified": "2021-12-08T15:01:33.000",
    "request_status": "Pending",
    "responsible_agency": "Department of Public Works",
    "final_address": "HARRISON CT & FRENCH ST",
    "address_councildis": "A",
    "status": "Pending",
    "rowid": "846765",
    "final_x": "3669464.4",
    "final_y": "548516.78",
    "longitude": "-90.10549941924714",
    "latitude": "30.0025910150049",
    "geocoded_column": {
      "latitude": "30.0025910150049",
      "longitude": "-90.10549941924714"
    }
  },
  {
    "service_request": "2021-846764",
    "request_type": "Roads/Drainage",
    "request_reason": "Road Shoulder Repair",
    "date_created": "2021-12-08T14:11:02.000",
    "date_modified": "2021-12-08T15:01:35.000",
    "request_status": "Pending",
    "responsible_agency": "Department of Public Works",
    "final_address": "HARRISON CT & FRENCH ST",
    "address_councildis": "A",
    "status": "Pending",
    "rowid": "846764",
    "final_x": "3669464.4",
    "final_y": "548516.78",
    "longitude": "-90.10549941924714",
    "latitude": "30.0025910150049",
    "geocoded_column": {
      "latitude": "30.0025910150049",
      "longitude": "-90.10549941924714"
    }
  },
  {
    "service_request": "2021-846763",
    "request_type": "Abandoned Vehicles",
    "request_reason": "Abandoned/Junk Vehicles",
    "date_created": "2021-12-08T14:11:01.000",
    "date_modified": "2021-12-08T14:11:01.000",
    "request_status": "Pending",
    "responsible_agency": "Department of Public Works",
    "final_address": "226 Seguin St",
    "address_councildis": "C",
    "status": "Pending",
    "rowid": "846763",
    "final_x": "3685918.04457",
    "final_y": "530688.92429",
    "longitude": "-90.05414905246006",
    "latitude": "29.953075627189648",
    "geocoded_column": {
      "latitude": "29.953075627189648",
      "longitude": "-90.05414905246006"
    }
  },
  {
    "service_request": "2021-846762",
    "request_type": "Trash/Recycling",
    "request_reason": "Order Recycling Cart",
    "date_created": "2021-12-08T14:10:45.000",
    "date_modified": "2021-12-08T15:01:45.000",
    "request_status": "Pending",
    "responsible_agency": "Department of Sanitation",
    "final_address": "1601 Constance St",
    "address_councildis": "B",
    "status": "Pending",
    "rowid": "846762",
    "final_x": "3680349.02395",
    "final_y": "522992.194299",
    "longitude": "-90.07200110670871",
    "latitude": "29.932081959191102",
    "geocoded_column": {
      "latitude": "29.932081959191102",
      "longitude": "-90.07200110670871"
    }
  },
  {
    "service_request": "2021-846760",
    "request_type": "Abandoned Vehicles",
    "request_reason": "Abandoned/Junk Vehicles",
    "date_created": "2021-12-08T13:56:47.000",
    "date_modified": "2021-12-08T13:56:47.000",
    "request_status": "Pending",
    "responsible_agency": "Department of Public Works",
    "final_address": "1002 N Carrollton Ave",
    "address_councildis": "A",
    "status": "Pending",
    "rowid": "846760",
    "final_x": "3673723.92731",
    "final_y": "541047.545739",
    "longitude": "-90.09229855935098",
    "latitude": "29.98192702410184",
    "geocoded_column": {
      "latitude": "29.98192702410184",
      "longitude": "-90.09229855935098"
    }
  },
  {
    "service_request": "2021-846759",
    "request_type": "Abandoned Vehicles",
    "request_reason": "Abandoned/Junk Vehicles",
    "date_created": "2021-12-08T13:51:42.000",
    "date_modified": "2021-12-08T14:00:49.000",
    "request_status": "Pending",
    "responsible_agency": "Department of Public Works",
    "final_address": "8600 BLK Apricot St",
    "address_councildis": "A",
    "status": "Pending",
    "rowid": "846759",
    "final_x": "3664384.36312",
    "final_y": "533934.342024",
    "longitude": "-90.12203498745261",
    "latitude": "29.962642908319186",
    "geocoded_column": {
      "latitude": "29.962642908319186",
      "longitude": "-90.12203498745261"
    }
  },
  {
    "service_request": "2021-846758",
    "request_type": "Property Maintenance",
    "request_reason": "Property Maintenance",
    "date_created": "2021-12-08T13:49:46.000",
    "date_modified": "2021-12-08T14:00:52.000",
    "request_status": "Pending",
    "responsible_agency": "Department of Code Enforcement",
    "final_address": "4756 Eastern St, New Orleans, Louisiana, 70122",
    "address_councildis": "D",
    "status": "Pending",
    "rowid": "846758",
    "final_x": "3687950.50268",
    "final_y": "550824.415765",
    "longitude": "-90.04701771938689",
    "latitude": "30.00837854379623",
    "geocoded_column": {
      "latitude": "30.00837854379623",
      "longitude": "-90.04701771938689"
    }
  },
  {
    "service_request": "2021-846757",
    "request_type": "Roads/Drainage",
    "request_reason": "Road Shoulder Repair",
    "date_created": "2021-12-08T13:47:07.000",
    "date_modified": "2021-12-08T14:00:54.000",
    "request_status": "Pending",
    "responsible_agency": "Department of Public Works",
    "final_address": "7630 Dune Dr",
    "address_councildis": "E",
    "status": "Pending",
    "rowid": "846757",
    "final_x": "3715288.73304",
    "final_y": "569033.29399",
    "longitude": "-89.95995914049863",
    "latitude": "30.057573475225144",
    "geocoded_column": {
      "latitude": "30.057573475225144",
      "longitude": "-89.95995914049863"
    }
  },
  {
    "service_request": "2021-846756",
    "request_type": "Trash/Recycling",
    "request_reason": "Request a Large Item Pick Up",
    "date_created": "2021-12-08T13:45:05.000",
    "date_modified": "2021-12-08T14:00:57.000",
    "request_status": "Pending",
    "responsible_agency": "Department of Sanitation",
    "final_address": "1615 Spain St, New Orleans, Louisiana, 70117",
    "address_councildis": "D",
    "status": "Assigned to Contractor",
    "contractor": "Metro Disposal",
    "rowid": "846756",
    "final_x": "3686008.01154",
    "final_y": "538377.259529",
    "longitude": "-90.05359384420694",
    "latitude": "29.974213126641224",
    "geocoded_column": {
      "latitude": "29.974213126641224",
      "longitude": "-90.05359384420694"
    }
  },
  {
    "service_request": "2021-846755",
    "request_type": "Roads/Drainage",
    "request_reason": "Pothole",
    "date_created": "2021-12-08T13:45:02.000",
    "date_modified": "2021-12-08T13:45:02.000",
    "request_status": "Pending",
    "responsible_agency": "Department of Public Works",
    "final_address": "2415 Milan St",
    "address_councildis": "B",
    "status": "Pending",
    "rowid": "846755",
    "final_x": "3671342.49793",
    "final_y": "523913.802108",
    "longitude": "-90.10040256341955",
    "latitude": "29.93488562199893",
    "geocoded_column": {
      "latitude": "29.93488562199893",
      "longitude": "-90.10040256341955"
    }
  },
  {
    "service_request": "2021-846754",
    "request_type": "Traffic Signals/Signs/Striping/Streetlights",
    "request_reason": "Traffic Sign Missing/Damaged",
    "date_created": "2021-12-08T13:44:10.000",
    "date_modified": "2021-12-08T13:44:10.000",
    "request_status": "Pending",
    "responsible_agency": "Department of Public Works",
    "final_address": "LAKESHORE DR & CARLSON DR",
    "address_councildis": "D",
    "status": "Pending",
    "rowid": "846754",
    "final_x": "3678015.8",
    "final_y": "557874.88",
    "longitude": "-90.07816057619343",
    "latitude": "30.028067685114827",
    "geocoded_column": {
      "latitude": "30.028067685114827",
      "longitude": "-90.07816057619343"
    }
  },
  {
    "service_request": "2021-846751",
    "request_type": "Trash/Recycling",
    "request_reason": "Order Recycling Cart",
    "date_created": "2021-12-08T13:42:51.000",
    "date_modified": "2021-12-08T13:42:51.000",
    "request_status": "Pending",
    "responsible_agency": "Department of Sanitation",
    "final_address": "8721 Pritchard Pl",
    "address_councildis": "A",
    "status": "Pending",
    "rowid": "846751",
    "final_x": "3664371.54932",
    "final_y": "534481.841605",
    "longitude": "-90.12205717522167",
    "latitude": "29.964148724986572",
    "geocoded_column": {
      "latitude": "29.964148724986572",
      "longitude": "-90.12205717522167"
    }
  },
  {
    "service_request": "2021-846750",
    "request_type": "Trash/Recycling",
    "request_reason": "Order Trash Cart",
    "date_created": "2021-12-08T13:40:27.000",
    "date_modified": "2021-12-08T14:00:59.000",
    "request_status": "Pending",
    "responsible_agency": "Department of Sanitation",
    "final_address": "1435 Eleonore St",
    "address_councildis": "A",
    "status": "Assigned to Contractor",
    "contractor": "Richards Disposal",
    "rowid": "846750",
    "final_x": "3665807.70541",
    "final_y": "521267.180921",
    "longitude": "-90.11796452988162",
    "latitude": "29.927770848841302",
    "geocoded_column": {
      "latitude": "29.927770848841302",
      "longitude": "-90.11796452988162"
    }
  },
  {
    "service_request": "2021-846749",
    "request_type": "Traffic Signals/Signs/Striping/Streetlights",
    "request_reason": "Street Light Outage/Malfunction",
    "date_created": "2021-12-08T13:38:23.000",
    "date_modified": "2021-12-08T13:38:24.000",
    "request_status": "Pending",
    "responsible_agency": "Department of Public Works",
    "final_address": "3628 Joliet St",
    "address_councildis": "A",
    "status": "Pending",
    "contractor": "Royal Engineering",
    "rowid": "846749",
    "final_x": "3666799.82823",
    "final_y": "535868.373831",
    "longitude": "-90.11434227080927",
    "latitude": "29.96789042363946",
    "geocoded_column": {
      "latitude": "29.96789042363946",
      "longitude": "-90.11434227080927"
    }
  },
  {
    "service_request": "2021-846748",
    "request_type": "Trash/Recycling",
    "request_reason": "Start Trash Service",
    "date_created": "2021-12-08T13:36:42.000",
    "date_modified": "2021-12-08T13:36:43.000",
    "request_status": "Pending",
    "responsible_agency": "Department of Sanitation",
    "final_address": "7064 Dreux Ave",
    "address_councildis": "E",
    "status": "Assigned to Contractor",
    "contractor": "Metro Disposal",
    "rowid": "846748",
    "final_x": "3701254.537",
    "final_y": "554360.47516",
    "longitude": "-90.00485686339911",
    "latitude": "30.01768399650114",
    "geocoded_column": {
      "latitude": "30.01768399650114",
      "longitude": "-90.00485686339911"
    }
  },
  {
    "service_request": "2021-846747",
    "request_type": "Trash/Recycling",
    "request_reason": "Order Trash Cart",
    "date_created": "2021-12-08T13:36:20.000",
    "date_modified": "2021-12-08T13:36:21.000",
    "request_status": "Pending",
    "responsible_agency": "Department of Sanitation",
    "final_address": "7064 Dreux Ave",
    "address_councildis": "E",
    "status": "Assigned to Contractor",
    "contractor": "Metro Disposal",
    "rowid": "846747",
    "final_x": "3701254.537",
    "final_y": "554360.47516",
    "longitude": "-90.00485686339911",
    "latitude": "30.01768399650114",
    "geocoded_column": {
      "latitude": "30.01768399650114",
      "longitude": "-90.00485686339911"
    }
  },
  {
    "service_request": "2021-846746",
    "request_type": "Trash/Recycling",
    "request_reason": "Damaged Caused By Contractor",
    "date_created": "2021-12-08T13:32:01.000",
    "date_modified": "2021-12-08T13:32:02.000",
    "request_status": "Pending",
    "responsible_agency": "Department of Sanitation",
    "final_address": "1519 S Norman C Francis Prkwy",
    "address_councildis": "B",
    "status": "Assigned to Contractor",
    "contractor": "Richards Disposal",
    "rowid": "846746",
    "final_x": "3669418.77594",
    "final_y": "531310.76237",
    "longitude": "-90.10622566455008",
    "latitude": "29.955281633456583",
    "geocoded_column": {
      "latitude": "29.955281633456583",
      "longitude": "-90.10622566455008"
    }
  },
  {
    "service_request": "2021-846745",
    "request_type": "Trash/Recycling",
    "request_reason": "Damaged Caused By Contractor",
    "date_created": "2021-12-08T13:31:44.000",
    "date_modified": "2021-12-08T13:31:44.000",
    "request_status": "Pending",
    "responsible_agency": "Department of Sanitation",
    "final_address": "1515 S Norman C Francis Prkwy",
    "address_councildis": "B",
    "status": "Assigned to Contractor",
    "contractor": "Richards Disposal",
    "rowid": "846745",
    "final_x": "3669475.85146",
    "final_y": "531356.810498",
    "longitude": "-90.10604388308494",
    "latitude": "29.955406569837624",
    "geocoded_column": {
      "latitude": "29.955406569837624",
      "longitude": "-90.10604388308494"
    }
  },
  {
    "service_request": "2021-846743",
    "request_type": "Trash/Recycling",
    "request_reason": "Dead Animal Pick Up",
    "date_created": "2021-12-08T13:26:59.000",
    "date_modified": "2021-12-08T13:26:59.000",
    "request_status": "Pending",
    "responsible_agency": "Department of Sanitation",
    "final_address": "1400 BLK Alix St",
    "address_councildis": "C",
    "status": "Assigned to Contractor",
    "contractor": "Richards Disposal",
    "rowid": "846743",
    "final_x": "3690049.85444",
    "final_y": "530246.688638",
    "longitude": "-90.04111839212516",
    "latitude": "29.951732153087892",
    "geocoded_column": {
      "latitude": "29.951732153087892",
      "longitude": "-90.04111839212516"
    }
  },
  {
    "service_request": "2021-846742",
    "request_type": "Trash/Recycling",
    "request_reason": "Missed Trash Pick-Up",
    "date_created": "2021-12-08T13:26:06.000",
    "date_modified": "2021-12-08T13:26:06.000",
    "request_status": "Pending",
    "responsible_agency": "Department of Sanitation",
    "final_address": "1000 BLK Austerlitz St",
    "address_councildis": "B",
    "status": "Assigned to Contractor",
    "contractor": "Richards Disposal",
    "rowid": "846742",
    "final_x": "3672814.7462",
    "final_y": "519514.264237",
    "longitude": "-90.09590467927049",
    "latitude": "29.922744668395495",
    "geocoded_column": {
      "latitude": "29.922744668395495",
      "longitude": "-90.09590467927049"
    }
  },
  {
    "service_request": "2021-846741",
    "request_type": "Traffic Signals/Signs/Striping/Streetlights",
    "request_reason": "Traffic Signal Malfunctioning/Damaged",
    "date_created": "2021-12-08T13:24:47.000",
    "date_modified": "2021-12-08T14:01:08.000",
    "request_status": "Pending",
    "responsible_agency": "Department of Public Works",
    "final_address": "ST CHARLES AVE & MELPOMENE AVE & MELPOMENE ST",
    "address_councildis": "B",
    "status": "Pending",
    "rowid": "846741",
    "final_x": "3679258.2",
    "final_y": "525533.36",
    "longitude": "-90.07535665505802",
    "latitude": "29.93910229906984",
    "geocoded_column": {
      "latitude": "29.93910229906984",
      "longitude": "-90.07535665505802"
    }
  },
  {
    "service_request": "2021-846739",
    "request_type": "Abandoned Vehicles",
    "request_reason": "Abandoned/Junk Vehicles",
    "date_created": "2021-12-08T13:10:57.000",
    "date_modified": "2021-12-08T13:16:29.000",
    "request_status": "Pending",
    "responsible_agency": "Department of Public Works",
    "status": "Inspected",
    "rowid": "846739",
    "longitude": "0.0",
    "latitude": "0.0",
    "geocoded_column": {
      "latitude": "0.0",
      "longitude": "0.0"
    }
  },
  {
    "service_request": "2021-846738",
    "request_type": "Trash/Recycling",
    "request_reason": "Request a Large Item Pick Up",
    "date_created": "2021-12-08T13:10:34.000",
    "date_modified": "2021-12-08T14:01:14.000",
    "request_status": "Pending",
    "responsible_agency": "Department of Sanitation",
    "final_address": "1340 Kerlerec St",
    "address_councildis": "C",
    "status": "Assigned to Contractor",
    "contractor": "Metro Disposal",
    "rowid": "846738",
    "final_x": "3682133.37826",
    "final_y": "536349.244423",
    "longitude": "-90.06590167125479",
    "latitude": "29.968755206444342",
    "geocoded_column": {
      "latitude": "29.968755206444342",
      "longitude": "-90.06590167125479"
    }
  },
  {
    "service_request": "2021-846737",
    "request_type": "Property Maintenance",
    "request_reason": "Property Maintenance",
    "date_created": "2021-12-08T13:09:03.000",
    "date_modified": "2021-12-08T14:01:21.000",
    "request_status": "Pending",
    "responsible_agency": "Department of Code Enforcement",
    "final_address": "8454 Morrison Rd",
    "address_councildis": "E",
    "status": "Pending",
    "rowid": "846737",
    "final_x": "3704153.11594",
    "final_y": "560889.20963",
    "longitude": "-89.99545770593257",
    "latitude": "30.035542761128102",
    "geocoded_column": {
      "latitude": "30.035542761128102",
      "longitude": "-89.99545770593257"
    }
  },
  {
    "service_request": "2021-846736",
    "request_type": "Trash/Recycling",
    "request_reason": "Request a Large Item Pick Up",
    "date_created": "2021-12-08T13:08:09.000",
    "date_modified": "2021-12-08T14:01:24.000",
    "request_status": "Pending",
    "responsible_agency": "Department of Sanitation",
    "final_address": "1242 Louisa St",
    "address_councildis": "C",
    "status": "Assigned to Contractor",
    "contractor": "Metro Disposal",
    "rowid": "846736",
    "final_x": "3689700.17347",
    "final_y": "536566.413831",
    "longitude": "-90.04199762929048",
    "latitude": "29.96912003724501",
    "geocoded_column": {
      "latitude": "29.96912003724501",
      "longitude": "-90.04199762929048"
    }
  },
  {
    "service_request": "2021-846735",
    "request_type": "Roads/Drainage",
    "request_reason": "Pothole",
    "date_created": "2021-12-08T13:08:03.000",
    "date_modified": "2021-12-08T13:08:03.000",
    "request_status": "Pending",
    "responsible_agency": "Department of Public Works",
    "final_address": "2400 Filmore Ave",
    "address_councildis": "D",
    "status": "Pending",
    "rowid": "846735",
    "final_x": "3685234.46364",
    "final_y": "552467.72591",
    "longitude": "-90.05554062793307",
    "latitude": "30.012980604678486",
    "geocoded_column": {
      "latitude": "30.012980604678486",
      "longitude": "-90.05554062793307"
    }
  },
  {
    "service_request": "2021-846734",
    "request_type": "Parks & Parkways",
    "request_reason": "Request Tree Service (Right of Way/Public Property)",
    "date_created": "2021-12-08T13:06:28.000",
    "date_modified": "2021-12-08T13:06:28.000",
    "request_status": "Pending",
    "responsible_agency": "Department of Parks & Parkway",
    "final_address": "7426 Dartmoor Dr",
    "address_councildis": "E",
    "status": "Pending",
    "rowid": "846734",
    "final_x": "3704858.07351",
    "final_y": "562045.492191",
    "longitude": "-89.99318719792855",
    "latitude": "30.038699432305062",
    "geocoded_column": {
      "latitude": "30.038699432305062",
      "longitude": "-89.99318719792855"
    }
  },
  {
    "service_request": "2021-846733",
    "request_type": "Trash/Recycling",
    "request_reason": "Order Trash Cart",
    "date_created": "2021-12-08T13:06:12.000",
    "date_modified": "2021-12-08T13:06:13.000",
    "request_status": "Pending",
    "responsible_agency": "Department of Sanitation",
    "final_address": "5527 Marigny St",
    "address_councildis": "D",
    "status": "Assigned to Contractor",
    "contractor": "Metro Disposal",
    "rowid": "846733",
    "final_x": "3684103.42165",
    "final_y": "553289.515159",
    "longitude": "-90.05908523060502",
    "latitude": "30.015274857417435",
    "geocoded_column": {
      "latitude": "30.015274857417435",
      "longitude": "-90.05908523060502"
    }
  },
  {
    "service_request": "2021-846730",
    "request_type": "Abandoned Vehicles",
    "request_reason": "Abandoned/Junk Vehicles",
    "date_created": "2021-12-08T12:59:42.000",
    "date_modified": "2021-12-08T13:00:15.000",
    "request_status": "Pending",
    "responsible_agency": "Department of Public Works",
    "final_address": "3920 Old Gentilly Rd",
    "address_councildis": "D",
    "status": "Pending",
    "rowid": "846730",
    "final_x": "3688678.77436",
    "final_y": "548606.099731",
    "longitude": "-90.04479569843652",
    "latitude": "30.00225648510939",
    "geocoded_column": {
      "latitude": "30.00225648510939",
      "longitude": "-90.04479569843652"
    }
  },
  {
    "service_request": "2021-846729",
    "request_type": "Trash/Recycling",
    "request_reason": "Replace Trash Cart",
    "date_created": "2021-12-08T12:49:47.000",
    "date_modified": "2021-12-08T13:00:18.000",
    "request_status": "Pending",
    "responsible_agency": "Department of Sanitation",
    "final_address": "2939 Audubon St",
    "address_councildis": "B",
    "status": "Assigned to Contractor",
    "contractor": "Richards Disposal",
    "rowid": "846729",
    "final_x": "3667926.35629",
    "final_y": "531596.880195",
    "longitude": "-90.11092855588541",
    "latitude": "29.95611222625727",
    "geocoded_column": {
      "latitude": "29.95611222625727",
      "longitude": "-90.11092855588541"
    }
  },
  {
    "service_request": "2021-846728",
    "request_type": "Abandoned Vehicles",
    "request_reason": "Abandoned/Junk Vehicles",
    "date_created": "2021-12-08T12:44:23.000",
    "date_modified": "2021-12-08T13:00:21.000",
    "request_status": "Pending",
    "responsible_agency": "Department of Public Works",
    "final_address": "1700 Spain St",
    "address_councildis": "D",
    "status": "Pending",
    "rowid": "846728",
    "final_x": "3685923.0333",
    "final_y": "538642.052873",
    "longitude": "-90.05385288653582",
    "latitude": "29.97494382496932",
    "geocoded_column": {
      "latitude": "29.97494382496932",
      "longitude": "-90.05385288653582"
    }
  },
  {
    "service_request": "2021-846724",
    "request_type": "Trash/Recycling",
    "request_reason": "Order Trash Cart",
    "date_created": "2021-12-08T12:38:20.000",
    "date_modified": "2021-12-08T13:00:22.000",
    "request_status": "Pending",
    "responsible_agency": "Department of Sanitation",
    "final_address": "New Orleans,LA",
    "status": "Assigned to Contractor",
    "rowid": "846724",
    "longitude": "0.0",
    "latitude": "0.0",
    "geocoded_column": {
      "latitude": "0.0",
      "longitude": "0.0"
    }
  },
  {
    "service_request": "2021-846723",
    "request_type": "Roads/Drainage",
    "request_reason": "Damaged Sidewalk",
    "date_created": "2021-12-08T12:37:55.000",
    "date_modified": "2021-12-08T13:42:58.000",
    "case_close_date": "2021-12-08T07:42:58.000",
    "request_status": "Closed",
    "responsible_agency": "Department of Public Works",
    "final_address": "8012 Arcadia Ln",
    "address_councildis": "E",
    "status": "Resolved",
    "rowid": "846723",
    "final_x": "3711659.30917",
    "final_y": "568090.808229",
    "longitude": "-89.97146657845148",
    "latitude": "30.055101136249625",
    "geocoded_column": {
      "latitude": "30.055101136249625",
      "longitude": "-89.97146657845148"
    }
  },
  {
    "service_request": "2021-846722",
    "request_type": "Trash/Recycling",
    "request_reason": "Order Trash Cart",
    "date_created": "2021-12-08T12:37:22.000",
    "date_modified": "2021-12-08T13:00:25.000",
    "request_status": "Pending",
    "responsible_agency": "Department of Sanitation",
    "final_address": "New Orleans,LA",
    "status": "Assigned to Contractor",
    "rowid": "846722",
    "longitude": "0.0",
    "latitude": "0.0",
    "geocoded_column": {
      "latitude": "0.0",
      "longitude": "0.0"
    }
  },
  {
    "service_request": "2021-846721",
    "request_type": "Parks & Parkways",
    "request_reason": "Tree Stump (removal, grind)",
    "date_created": "2021-12-08T12:36:31.000",
    "date_modified": "2021-12-08T12:36:31.000",
    "request_status": "Pending",
    "responsible_agency": "Department of Parks & Parkway",
    "final_address": "6555 Memphis St",
    "address_councildis": "A",
    "status": "Pending",
    "rowid": "846721",
    "final_x": "3669624.07943",
    "final_y": "551028.283669",
    "longitude": "-90.10490990952725",
    "latitude": "30.009492065982442",
    "geocoded_column": {
      "latitude": "30.009492065982442",
      "longitude": "-90.10490990952725"
    }
  },
  {
    "service_request": "2021-846720",
    "request_type": "Abandoned Vehicles",
    "request_reason": "Abandoned/Junk Vehicles",
    "date_created": "2021-12-08T12:36:01.000",
    "date_modified": "2021-12-08T12:36:01.000",
    "request_status": "Pending",
    "responsible_agency": "Department of Public Works",
    "status": "Inspected",
    "rowid": "846720",
    "longitude": "0.0",
    "latitude": "0.0",
    "geocoded_column": {
      "latitude": "0.0",
      "longitude": "0.0"
    }
  },
  {
    "service_request": "2021-846719",
    "request_type": "Trash/Recycling",
    "request_reason": "Order Recycling Cart",
    "date_created": "2021-12-08T12:31:56.000",
    "date_modified": "2021-12-08T12:31:56.000",
    "request_status": "Pending",
    "responsible_agency": "Department of Sanitation",
    "final_address": "3517 Encampment St",
    "address_councildis": "D",
    "status": "Pending",
    "rowid": "846719",
    "final_x": "3676714.38753",
    "final_y": "545546.674576",
    "longitude": "-90.08269815391198",
    "latitude": "29.994208665147827",
    "geocoded_column": {
      "latitude": "29.994208665147827",
      "longitude": "-90.08269815391198"
    }
  },
  {
    "service_request": "2021-846718",
    "request_type": "Roads/Drainage",
    "request_reason": "Pothole",
    "date_created": "2021-12-08T12:31:15.000",
    "date_modified": "2021-12-08T12:31:15.000",
    "request_status": "Pending",
    "responsible_agency": "Department of Public Works",
    "final_address": "3325 Fern St",
    "address_councildis": "B",
    "status": "Pending",
    "rowid": "846718",
    "final_x": "3667737.55681",
    "final_y": "533513.523716",
    "longitude": "-90.11146018532851",
    "latitude": "29.961387902220586",
    "geocoded_column": {
      "latitude": "29.961387902220586",
      "longitude": "-90.11146018532851"
    }
  },
  {
    "service_request": "2021-846717",
    "request_type": "Abandoned Vehicles",
    "request_reason": "Abandoned/Junk Vehicles",
    "date_created": "2021-12-08T12:31:11.000",
    "date_modified": "2021-12-08T12:31:11.000",
    "request_status": "Pending",
    "responsible_agency": "Department of Public Works",
    "final_address": "3131 Urquhart St",
    "address_councildis": "C",
    "status": "Pending",
    "rowid": "846717",
    "final_x": "3689463.67535",
    "final_y": "536701.729031",
    "longitude": "-90.04273969161328",
    "latitude": "29.969499433001527",
    "geocoded_column": {
      "latitude": "29.969499433001527",
      "longitude": "-90.04273969161328"
    }
  },
  {
    "service_request": "2021-846716",
    "request_type": "Trash/Recycling",
    "request_reason": "Order Trash Cart",
    "date_created": "2021-12-08T12:31:04.000",
    "date_modified": "2021-12-08T12:31:06.000",
    "request_status": "Pending",
    "responsible_agency": "Department of Sanitation",
    "final_address": "3517 Encampment St",
    "address_councildis": "D",
    "status": "Assigned to Contractor",
    "contractor": "Metro Disposal",
    "rowid": "846716",
    "final_x": "3676714.38753",
    "final_y": "545546.674576",
    "longitude": "-90.08269815391198",
    "latitude": "29.994208665147827",
    "geocoded_column": {
      "latitude": "29.994208665147827",
      "longitude": "-90.08269815391198"
    }
  },
  {
    "service_request": "2021-846715",
    "request_type": "Roads/Drainage",
    "request_reason": "Pothole",
    "date_created": "2021-12-08T12:30:21.000",
    "date_modified": "2021-12-08T12:30:21.000",
    "request_status": "Pending",
    "responsible_agency": "Department of Public Works",
    "final_address": "EDINBURGH ST & SHORT ST",
    "address_councildis": "B",
    "status": "Pending",
    "rowid": "846715",
    "final_x": "3667810.5",
    "final_y": "534126.98",
    "longitude": "-90.11120918103879",
    "latitude": "29.963072565320736",
    "geocoded_column": {
      "latitude": "29.963072565320736",
      "longitude": "-90.11120918103879"
    }
  },
  {
    "service_request": "2021-846714",
    "request_type": "Traffic Signals/Signs/Striping/Streetlights",
    "request_reason": "Street Light Outage/Malfunction",
    "date_created": "2021-12-08T12:30:17.000",
    "date_modified": "2021-12-08T13:00:26.000",
    "request_status": "Pending",
    "responsible_agency": "Department of Public Works",
    "final_address": "433 Vallette St",
    "address_councildis": "C",
    "status": "Pending",
    "contractor": "Royal Engineering",
    "rowid": "846714",
    "final_x": "3687504.42057",
    "final_y": "530087.095617",
    "longitude": "-90.04916127972682",
    "latitude": "29.951372013235126",
    "geocoded_column": {
      "latitude": "29.951372013235126",
      "longitude": "-90.04916127972682"
    }
  },
  {
    "service_request": "2021-846712",
    "request_type": "Roads/Drainage",
    "request_reason": "Pothole",
    "date_created": "2021-12-08T12:24:44.000",
    "date_modified": "2021-12-08T12:24:44.000",
    "request_status": "Pending",
    "responsible_agency": "Department of Public Works",
    "final_address": "8000 BLK Edinburgh St",
    "address_councildis": "B",
    "status": "Pending",
    "rowid": "846712",
    "final_x": "3667688.26334",
    "final_y": "534244.1229",
    "longitude": "-90.1115912467498",
    "latitude": "29.963398253848233",
    "geocoded_column": {
      "latitude": "29.963398253848233",
      "longitude": "-90.1115912467498"
    }
  },
  {
    "service_request": "2021-846711",
    "request_type": "Traffic Signals/Signs/Striping/Streetlights",
    "request_reason": "Street Light Outage/Malfunction",
    "date_created": "2021-12-08T12:24:05.000",
    "date_modified": "2021-12-08T12:24:06.000",
    "request_status": "Pending",
    "responsible_agency": "Department of Public Works",
    "final_address": "13617 Explorers Ave",
    "address_councildis": "E",
    "status": "Pending",
    "contractor": "Royal Engineering",
    "rowid": "846711",
    "final_x": "3725977.54694",
    "final_y": "568843.449381",
    "longitude": "-89.92618103221805",
    "latitude": "30.056694888409194",
    "geocoded_column": {
      "latitude": "30.056694888409194",
      "longitude": "-89.92618103221805"
    }
  },