[
  {
    "service_request": "2023-1027084",
    "request_type": "Property Maintenance",
    "request_reason": "Property Maintenance",
    "date_created": "2023-08-17T02:07:16.000",
    "date_modified": "2023-08-17T02:07:16.000",
    "request_status": "Pending",
    "responsible_agency": "Department of Code Enforcement",
    "final_address": "2056 Brutus St",
    "address_councildis": "D",
    "status": "Pending",
    "rowid": "1027084",
    "final_x": "3682913.1062",
    "final_y": "550174.043924",
    "longitude": "-90.06295519957543",
    "latitude": "30.006744785403377",
    "geocoded_column": {
      "latitude": "30.006744785403377",
      "longitude": "-90.06295519957543"
    }
  },
  {
    "service_request": "2023-1027083",
    "request_type": "Parks & Parkways",
    "request_reason": "Request Grass Cutting Service (City Owned Property)",
    "date_created": "2023-08-17T00:18:56.000",
    "date_modified": "2023-08-17T00:18:56.000",
    "request_status": "Pending",
    "responsible_agency": "Department of Parks & Parkway",
    "final_address": "5105 Prytania St",
    "address_councildis": "B",
    "status": "Pending",
    "rowid": "1027083",
    "final_x": "3668329.20602",
    "final_y": "520208.801464",
    "longitude": "-90.11004039337783",
    "latitude": "29.924786860279436",
    "geocoded_column": {
      "latitude": "29.924786860279436",
      "longitude": "-90.11004039337783"
    }
  },
  {
    "service_request": "2023-1027082",
    "request_type": "Abandoned Vehicles",
    "request_reason": "Abandoned/Junk Vehicles",
    "date_created": "2023-08-17T00:10:30.000",
    "date_modified": "2023-08-17T00:10:30.000",
    "request_status": "Pending",
    "responsible_agency": "Department of Public Works",
    "final_address": "1801 Fern St",
    "address_councildis": "A",
    "status": "Pending",
    "rowid": "1027082",
    "final_x": "3664008.98976",
    "final_y": "529411.681537",
    "longitude": "-90.12337118363833",
    "latitude": "29.950217968234927",
    "geocoded_column": {
      "latitude": "29.950217968234927",
      "longitude": "-90.12337118363833"
    }
  },
  {
    "service_request": "2023-1027080",
    "request_type": "Traffic Signals/Signs/Striping/Streetlights",
    "request_reason": "Street Light Outage/Malfunction",
    "date_created": "2023-08-16T23:26:50.000",
    "date_modified": "2023-08-16T23:26:51.000",
    "request_status": "Pending",
    "responsible_agency": "Department of Public Works",
    "final_address": "991 Harrison Ave",
    "address_councildis": "A",
    "status": "Assigned to Contractor",
    "contractor": "Legacy Professional Services",
    "rowid": "1027080",
    "final_x": "3670938.75163",
    "final_y": "549183.030995",
    "longitude": "-90.1008190982774",
    "latitude": "30.00437944949911",
    "geocoded_column": {
      "latitude": "30.00437944949911",
      "longitude": "-90.1008190982774"
    }
  },
  {
    "service_request": "2023-1027079",
    "request_type": "Traffic Signals/Signs/Striping/Streetlights",
    "request_reason": "Street Light Outage/Malfunction",
    "date_created": "2023-08-16T23:26:10.000",
    "date_modified": "2023-08-16T23:26:11.000",
    "request_status": "Pending",
    "responsible_agency": "Department of Public Works",
    "final_address": "991 Harrison Ave",
    "address_councildis": "A",
    "status": "Assigned to Contractor",
    "contractor": "Legacy Professional Services",
    "rowid": "1027079",
    "final_x": "3670938.75163",
    "final_y": "549183.030995",
    "longitude": "-90.1008190982774",
    "latitude": "30.00437944949911",
    "geocoded_column": {
      "latitude": "30.00437944949911",
      "longitude": "-90.1008190982774"
    }
  },
  {
    "service_request": "2023-1027078",
    "request_type": "Traffic Signals/Signs/Striping/Streetlights",
    "request_reason": "Street Light Outage/Malfunction",
    "date_created": "2023-08-16T23:25:25.000",
    "date_modified": "2023-08-16T23:25:26.000",
    "request_status": "Pending",
    "responsible_agency": "Department of Public Works",
    "final_address": "991 Harrison Ave",
    "address_councildis": "A",
    "status": "Assigned to Contractor",
    "contractor": "Legacy Professional Services",
    "rowid": "1027078",
    "final_x": "3670938.75163",
    "final_y": "549183.030995",
    "longitude": "-90.1008190982774",
    "latitude": "30.00437944949911",
    "geocoded_column": {
      "latitude": "30.00437944949911",
      "longitude": "-90.1008190982774"
    }
  },
  {
    "service_request": "2023-1027077",
    "request_type": "Traffic Signals/Signs/Striping/Streetlights",
    "request_reason": "Street Light Outage/Malfunction",
    "date_created": "2023-08-16T23:24:50.000",
    "date_modified": "2023-08-16T23:24:51.000",
    "request_status": "Pending",
    "responsible_agency": "Department of Public Works",
    "final_address": "991 Harrison Ave",
    "address_councildis": "A",
    "status": "Assigned to Contractor",
    "contractor": "Legacy Professional Services",
    "rowid": "1027077",
    "final_x": "3670938.75163",
    "final_y": "549183.030995",
    "longitude": "-90.1008190982774",
    "latitude": "30.00437944949911",
    "geocoded_column": {
      "latitude": "30.00437944949911",
      "longitude": "-90.1008190982774"
    }
  },
  {
    "service_request": "2023-1027076",
    "request_type": "Traffic Signals/Signs/Striping/Streetlights",
    "request_reason": "Street Light Outage/Malfunction",
    "date_created": "2023-08-16T23:24:10.000",
    "date_modified": "2023-08-16T23:24:10.000",
    "request_status": "Pending",
    "responsible_agency": "Department of Public Works",
    "final_address": "991 Harrison Ave",
    "address_councildis": "A",
    "status": "Assigned to Contractor",
    "contractor": "Legacy Professional Services",
    "rowid": "1027076",
    "final_x": "3670938.75163",
    "final_y": "549183.030995",
    "longitude": "-90.1008190982774",
    "latitude": "30.00437944949911",
    "geocoded_column": {
      "latitude": "30.00437944949911",
      "longitude": "-90.1008190982774"
    }
  },
  {
    "service_request": "2023-1027075",
    "request_type": "Traffic Signals/Signs/Striping/Streetlights",
    "request_reason": "Street Light Outage/Malfunction",
    "date_created": "2023-08-16T23:23:27.000",
    "date_modified": "2023-08-16T23:23:28.000",
    "request_status": "Pending",
    "responsible_agency": "Department of Public Works",
    "final_address": "991 Harrison Ave",
    "address_councildis": "A",
    "status": "Assigned to Contractor",
    "contractor": "Legacy Professional Services",
    "rowid": "1027075",
    "final_x": "3670938.75163",
    "final_y": "549183.030995",
    "longitude": "-90.1008190982774",
    "latitude": "30.00437944949911",
    "geocoded_column": {
      "latitude": "30.00437944949911",
      "longitude": "-90.1008190982774"
    }
  },
  {
    "service_request": "2023-1027074",
    "request_type": "Traffic Signals/Signs/Striping/Streetlights",
    "request_reason": "Street Light Outage/Malfunction",
    "date_created": "2023-08-16T23:19:07.000",
    "date_modified": "2023-08-16T23:19:07.000",
    "request_status": "Pending",
    "responsible_agency": "Department of Public Works",
    "final_address": "1309 Allen Toussaint Blvd",
    "address_councildis": "D",
    "status": "Assigned to Contractor",
    "contractor": "Legacy Professional Services",
    "rowid": "1027074",
    "final_x": "3677058.47528",
    "final_y": "555342.552793",
    "longitude": "-90.08127310265793",
    "latitude": "30.02113350658267",
    "geocoded_column": {
      "latitude": "30.02113350658267",
      "longitude": "-90.08127310265793"
    }
  },
  {
    "service_request": "2023-1027073",
    "request_type": "Traffic Signals/Signs/Striping/Streetlights",
    "request_reason": "Street Light Outage/Malfunction",
    "date_created": "2023-08-16T23:17:38.000",
    "date_modified": "2023-08-16T23:17:39.000",
    "request_status": "Pending",
    "responsible_agency": "Department of Public Works",
    "final_address": "6706 Orleans Ave",
    "address_councildis": "A",
    "status": "Assigned to Contractor",
    "contractor": "Legacy Professional Services",
    "rowid": "1027073",
    "final_x": "3671226.36955",
    "final_y": "551897.61263",
    "longitude": "-90.09981813651997",
    "latitude": "30.01183508387444",
    "geocoded_column": {
      "latitude": "30.01183508387444",
      "longitude": "-90.09981813651997"
    }
  },
  {
    "service_request": "2023-1027072",
    "request_type": "Traffic Signals/Signs/Striping/Streetlights",
    "request_reason": "Street Light Outage/Malfunction",
    "date_created": "2023-08-16T23:16:51.000",
    "date_modified": "2023-08-16T23:16:52.000",
    "request_status": "Pending",
    "responsible_agency": "Department of Public Works",
    "final_address": "6706 Orleans Ave",
    "address_councildis": "A",
    "status": "Assigned to Contractor",
    "contractor": "Legacy Professional Services",
    "rowid": "1027072",
    "final_x": "3671226.36955",
    "final_y": "551897.61263",
    "longitude": "-90.09981813651997",
    "latitude": "30.01183508387444",
    "geocoded_column": {
      "latitude": "30.01183508387444",
      "longitude": "-90.09981813651997"
    }
  },
  {
    "service_request": "2023-1027071",
    "request_type": "Traffic Signals/Signs/Striping/Streetlights",
    "request_reason": "Street Light Outage/Malfunction",
    "date_created": "2023-08-16T23:16:08.000",
    "date_modified": "2023-08-16T23:16:09.000",
    "request_status": "Pending",
    "responsible_agency": "Department of Public Works",
    "final_address": "6706 Orleans Ave",
    "address_councildis": "A",
    "status": "Assigned to Contractor",
    "contractor": "Legacy Professional Services",
    "rowid": "1027071",
    "final_x": "3671226.36955",
    "final_y": "551897.61263",
    "longitude": "-90.09981813651997",
    "latitude": "30.01183508387444",
    "geocoded_column": {
      "latitude": "30.01183508387444",
      "longitude": "-90.09981813651997"
    }
  },
  {
    "service_request": "2023-1027070",
    "request_type": "Traffic Signals/Signs/Striping/Streetlights",
    "request_reason": "Street Light Outage/Malfunction",
    "date_created": "2023-08-16T23:15:22.000",
    "date_modified": "2023-08-16T23:15:23.000",
    "request_status": "Pending",
    "responsible_agency": "Department of Public Works",
    "final_address": "6706 Orleans Ave",
    "address_councildis": "A",
    "status": "Assigned to Contractor",
    "contractor": "Legacy Professional Services",
    "rowid": "1027070",
    "final_x": "3671226.36955",
    "final_y": "551897.61263",
    "longitude": "-90.09981813651997",
    "latitude": "30.01183508387444",
    "geocoded_column": {
      "latitude": "30.01183508387444",
      "longitude": "-90.09981813651997"
    }
  },
  {
    "service_request": "2023-1027069",
    "request_type": "Traffic Signals/Signs/Striping/Streetlights",
    "request_reason": "Street Light Outage/Malfunction",
    "date_created": "2023-08-16T23:14:30.000",
    "date_modified": "2023-08-16T23:14:31.000",
    "request_status": "Pending",
    "responsible_agency": "Department of Public Works",
    "final_address": "6706 Orleans Ave",
    "address_councildis": "A",
    "status": "Assigned to Contractor",
    "contractor": "Legacy Professional Services",
    "rowid": "1027069",
    "final_x": "3671226.36955",
    "final_y": "551897.61263",
    "longitude": "-90.09981813651997",
    "latitude": "30.01183508387444",
    "geocoded_column": {
      "latitude": "30.01183508387444",
      "longitude": "-90.09981813651997"
    }
  },
  {
    "service_request": "2023-1027068",
    "request_type": "Traffic Signals/Signs/Striping/Streetlights",
    "request_reason": "Street Light Outage/Malfunction",
    "date_created": "2023-08-16T23:12:11.000",
    "date_modified": "2023-08-16T23:12:12.000",
    "request_status": "Pending",
    "responsible_agency": "Department of Public Works",
    "final_address": "1317 Jay St",
    "address_councildis": "D",
    "status": "Assigned to Contractor",
    "contractor": "Legacy Professional Services",
    "rowid": "1027068",
    "final_x": "3677321.95157",
    "final_y": "556174.949466",
    "longitude": "-90.08041183206373",
    "latitude": "30.023414376365775",
    "geocoded_column": {
      "latitude": "30.023414376365775",
      "longitude": "-90.08041183206373"
    }
  },
  {
    "service_request": "2023-1027067",
    "request_type": "Roads/Drainage",
    "request_reason": "Pothole",
    "date_created": "2023-08-16T22:45:08.000",
    "date_modified": "2023-08-16T22:45:08.000",
    "request_status": "Pending",
    "responsible_agency": "Department of Public Works",
    "final_address": "1401 Foucher St",
    "address_councildis": "B",
    "status": "Pending",
    "rowid": "1027067",
    "final_x": "3673950.68904",
    "final_y": "520582.149496",
    "longitude": "-90.09228244207547",
    "latitude": "29.925647229561278",
    "geocoded_column": {
      "latitude": "29.925647229561278",
      "longitude": "-90.09228244207547"
    }
  },
  {
    "service_request": "2023-1027066",
    "request_type": "Trash/Recycling",
    "request_reason": "Order Recycling Cart",
    "date_created": "2023-08-16T22:14:23.000",
    "date_modified": "2023-08-16T22:14:23.000",
    "request_status": "Pending",
    "responsible_agency": "Department of Sanitation",
    "final_address": "5605 Arts St",
    "address_councildis": "D",
    "status": "Pending",
    "rowid": "1027066",
    "final_x": "3685879.09276",
    "final_y": "553635.335959",
    "longitude": "-90.05346274704908",
    "latitude": "30.016171322061126",
    "geocoded_column": {
      "latitude": "30.016171322061126",
      "longitude": "-90.05346274704908"
    }
  },
  {
    "service_request": "2023-1027065",
    "request_type": "Property Maintenance",
    "request_reason": "Property Maintenance",
    "date_created": "2023-08-16T22:04:39.000",
    "date_modified": "2023-08-16T22:04:39.000",
    "request_status": "Pending",
    "responsible_agency": "Department of Code Enforcement",
    "final_address": "2127 Congress St",
    "address_councildis": "D",
    "status": "Pending",
    "rowid": "1027065",
    "final_x": "3691745.53801",
    "final_y": "539568.979786",
    "longitude": "-90.0354308409088",
    "latitude": "29.977312488457997",
    "geocoded_column": {
      "latitude": "29.977312488457997",
      "longitude": "-90.0354308409088"
    }
  },
  {
    "service_request": "2023-1027064",
    "request_type": "Roads/Drainage",
    "request_reason": "Pothole",
    "date_created": "2023-08-16T21:52:26.000",
    "date_modified": "2023-08-16T21:52:26.000",
    "request_status": "Pending",
    "responsible_agency": "Department of Public Works",
    "final_address": "4315 Pitt St",
    "address_councildis": "B",
    "status": "Pending",
    "rowid": "1027064",
    "final_x": "3671135.74062",
    "final_y": "520647.281017",
    "longitude": "-90.10116618834792",
    "latitude": "29.92590985375874",
    "geocoded_column": {
      "latitude": "29.92590985375874",
      "longitude": "-90.10116618834792"
    }
  },
  {
    "service_request": "2023-1027063",
    "request_type": "Trash/Recycling",
    "request_reason": "Replace Trash Cart",
    "date_created": "2023-08-16T21:43:44.000",
    "date_modified": "2023-08-16T21:43:44.000",
    "request_status": "Pending",
    "responsible_agency": "Department of Sanitation",
    "final_address": "3547 Rue Colette",
    "address_councildis": "C",
    "status": "Assigned to Contractor",
    "contractor": "Richards Disposal",
    "rowid": "1027063",
    "final_x": "3704479.78526",
    "final_y": "517420.01055",
    "longitude": "-89.99602861928297",
    "latitude": "29.916007938923745",
    "geocoded_column": {
      "latitude": "29.916007938923745",
      "longitude": "-89.99602861928297"
    }
  },
  {
    "service_request": "2023-1027062",
    "request_type": "Traffic Signals/Signs/Striping/Streetlights",
    "request_reason": "Street Light Outage/Malfunction",
    "date_created": "2023-08-16T21:30:38.000",
    "date_modified": "2023-08-16T21:30:39.000",
    "request_status": "Pending",
    "responsible_agency": "Department of Public Works",
    "final_address": "6706 Orleans Ave",
    "address_councildis": "A",
    "status": "Assigned to Contractor",
    "contractor": "Legacy Professional Services",
    "rowid": "1027062",
    "final_x": "3671226.36955",
    "final_y": "551897.61263",
    "longitude": "-90.09981813651997",
    "latitude": "30.01183508387444",
    "geocoded_column": {
      "latitude": "30.01183508387444",
      "longitude": "-90.09981813651997"
    }
  },
  {
    "service_request": "2023-1027061",
    "request_type": "Traffic Signals/Signs/Striping/Streetlights",
    "request_reason": "Street Light Outage/Malfunction",
    "date_created": "2023-08-16T21:25:31.000",
    "date_modified": "2023-08-16T21:25:32.000",
    "request_status": "Pending",
    "responsible_agency": "Department of Public Works",
    "final_address": "1316 Frankfort St",
    "address_councildis": "D",
    "status": "Assigned to Contractor",
    "contractor": "Legacy Professional Services",
    "rowid": "1027061",
    "final_x": "3677296.98773",
    "final_y": "555743.565401",
    "longitude": "-90.08050561615948",
    "latitude": "30.022228977441443",
    "geocoded_column": {
      "latitude": "30.022228977441443",
      "longitude": "-90.08050561615948"
    }
  },
  {
    "service_request": "2023-1027060",
    "request_type": "Traffic Signals/Signs/Striping/Streetlights",
    "request_reason": "Street Light Outage/Malfunction",
    "date_created": "2023-08-16T21:23:43.000",
    "date_modified": "2023-08-16T21:23:44.000",
    "request_status": "Pending",
    "responsible_agency": "Department of Public Works",
    "final_address": "6300 Beauregard Ave",
    "address_councildis": "D",
    "status": "Assigned to Contractor",
    "contractor": "Legacy Professional Services",
    "rowid": "1027060",
    "final_x": "3676250.30683",
    "final_y": "555475.808281",
    "longitude": "-90.08382209799248",
    "latitude": "30.021524167859827",
    "geocoded_column": {
      "latitude": "30.021524167859827",
      "longitude": "-90.08382209799248"
    }
  },
  {
    "service_request": "2023-1027059",
    "request_type": "Traffic Signals/Signs/Striping/Streetlights",
    "request_reason": "Street Light Outage/Malfunction",
    "date_created": "2023-08-16T21:18:24.000",
    "date_modified": "2023-08-16T21:18:25.000",
    "request_status": "Pending",
    "responsible_agency": "Department of Public Works",
    "final_address": "4223 Stephen Girard Ave",
    "address_councildis": "D",
    "status": "Assigned to Contractor",
    "contractor": "Legacy Professional Services",
    "rowid": "1027059",
    "final_x": "3690076.62179",
    "final_y": "550010.109844",
    "longitude": "-90.04032969433759",
    "latitude": "30.006073702625734",
    "geocoded_column": {
      "latitude": "30.006073702625734",
      "longitude": "-90.04032969433759"
    }
  },
  {
    "service_request": "2023-1027058",
    "request_type": "Traffic Signals/Signs/Striping/Streetlights",
    "request_reason": "Street Light Outage/Malfunction",
    "date_created": "2023-08-16T21:17:05.000",
    "date_modified": "2023-08-16T21:17:06.000",
    "request_status": "Pending",
    "responsible_agency": "Department of Public Works",
    "final_address": "7813 Jeannette St",
    "address_councildis": "A",
    "status": "Assigned to Contractor",
    "contractor": "Legacy Professional Services",
    "rowid": "1027058",
    "final_x": "3663445.84871",
    "final_y": "528498.508736",
    "longitude": "-90.12517969580665",
    "latitude": "29.947723375945074",
    "geocoded_column": {
      "latitude": "29.947723375945074",
      "longitude": "-90.12517969580665"
    }
  },
  {
    "service_request": "2023-1027057",
    "request_type": "Utility Poles",
    "request_reason": "Utility Pole Leaning",
    "date_created": "2023-08-16T21:05:46.000",
    "date_modified": "2023-08-16T21:05:52.000",
    "request_status": "Pending",
    "responsible_agency": "Utility Company Collective",
    "final_address": "2400 BLK Saint Ann St",
    "address_councildis": "D",
    "status": "Pending",
    "rowid": "1027057",
    "final_x": "3677872.36928",
    "final_y": "536495.357571",
    "longitude": "-90.07935314677705",
    "latitude": "29.969285875708994",
    "geocoded_column": {
      "latitude": "29.969285875708994",
      "longitude": "-90.07935314677705"
    }
  },
  {
    "service_request": "2023-1027056",
    "request_type": "Traffic Signals/Signs/Striping/Streetlights",
    "request_reason": "Street Light Outage/Malfunction",
    "date_created": "2023-08-16T20:57:50.000",
    "date_modified": "2023-08-16T20:57:51.000",
    "request_status": "Pending",
    "responsible_agency": "Department of Public Works",
    "final_address": "2301 Peniston St",
    "address_councildis": "B",
    "status": "Assigned to Contractor",
    "contractor": "Legacy Professional Services",
    "rowid": "1027056",
    "final_x": "3672327.84782",
    "final_y": "523603.363515",
    "longitude": "-90.09730239123564",
    "latitude": "29.934002826368733",
    "geocoded_column": {
      "latitude": "29.934002826368733",
      "longitude": "-90.09730239123564"
    }
  },
  {
    "service_request": "2023-1027055",
    "request_type": "Traffic Signals/Signs/Striping/Streetlights",
    "request_reason": "Street Light Outage/Malfunction",
    "date_created": "2023-08-16T20:41:07.000",
    "date_modified": "2023-08-16T20:41:08.000",
    "request_status": "Pending",
    "responsible_agency": "Department of Public Works",
    "final_address": "6400 BLK Wales St",
    "address_councildis": "E",
    "status": "Assigned to Contractor",
    "contractor": "Legacy Professional Services",
    "rowid": "1027055",
    "final_x": "3696469.5542",
    "final_y": "559912.318283",
    "longitude": "-90.01977436414809",
    "latitude": "30.033101123588658",
    "geocoded_column": {
      "latitude": "30.033101123588658",
      "longitude": "-90.01977436414809"
    }
  },
  {
    "service_request": "2023-1027053",
    "request_type": "Property Maintenance",
    "request_reason": "Property Maintenance",
    "date_created": "2023-08-16T20:28:00.000",
    "date_modified": "2023-08-16T20:28:00.000",
    "request_status": "Pending",
    "responsible_agency": "Department of Code Enforcement",
    "final_address": "4217 Clio St",
    "address_councildis": "B",
    "status": "Pending",
    "rowid": "1027053",
    "final_x": "3671496.71956",
    "final_y": "531578.496323",
    "longitude": "-90.09965516364916",
    "latitude": "29.95595646083317",
    "geocoded_column": {
      "latitude": "29.95595646083317",
      "longitude": "-90.09965516364916"
    }
  },
  {
    "service_request": "2023-1027052",
    "request_type": "Trash/Recycling",
    "request_reason": "Missed Trash Pick-Up",
    "date_created": "2023-08-16T20:26:33.000",
    "date_modified": "2023-08-16T20:26:33.000",
    "request_status": "Pending",
    "responsible_agency": "Department of Sanitation",
    "final_address": "2200 BLK Selma St",
    "address_councildis": "D",
    "status": "Assigned to Contractor",
    "contractor": "IV Waste",
    "rowid": "1027052",
    "final_x": "3683951.5881",
    "final_y": "551359.145101",
    "longitude": "-90.05963274931807",
    "latitude": "30.009971685056204",
    "geocoded_column": {
      "latitude": "30.009971685056204",
      "longitude": "-90.05963274931807"
    }
  },
  {
    "service_request": "2023-1027051",
    "request_type": "Roads/Drainage",
    "request_reason": "Pothole",
    "date_created": "2023-08-16T20:24:31.000",
    "date_modified": "2023-08-16T20:24:31.000",
    "request_status": "Pending",
    "responsible_agency": "Department of Public Works",
    "final_address": "1300 BLK Esplanade Ave",
    "address_councildis": "C",
    "status": "Pending",
    "rowid": "1027051",
    "final_x": "3681953.09669",
    "final_y": "536003.751927",
    "longitude": "-90.06648307383387",
    "latitude": "29.967810702998598",
    "geocoded_column": {
      "latitude": "29.967810702998598",
      "longitude": "-90.06648307383387"
    }
  },
  {
    "service_request": "2023-1027050",
    "request_type": "Trash/Recycling",
    "request_reason": "MIssed Recycling Pick-Up",
    "date_created": "2023-08-16T20:20:35.000",
    "date_modified": "2023-08-16T20:20:36.000",
    "request_status": "Pending",
    "responsible_agency": "Department of Sanitation",
    "final_address": "3502 Piedmont Dr",
    "address_councildis": "D",
    "status": "Assigned to Contractor",
    "contractor": "IV Waste",
    "rowid": "1027050",
    "final_x": "3686236.20745",
    "final_y": "545527.080336",
    "longitude": "-90.05262076340996",
    "latitude": "29.993865590421258",
    "geocoded_column": {
      "latitude": "29.993865590421258",
      "longitude": "-90.05262076340996"
    }
  },
  {
    "service_request": "2023-1027049",
    "request_type": "Traffic Signals/Signs/Striping/Streetlights",
    "request_reason": "Street Light Outage/Malfunction",
    "date_created": "2023-08-16T20:15:52.000",
    "date_modified": "2023-08-16T20:15:52.000",
    "request_status": "Pending",
    "responsible_agency": "Department of Public Works",
    "final_address": "2628 Palmyra St",
    "address_councildis": "B",
    "status": "Assigned to Contractor",
    "contractor": "Legacy Professional Services",
    "rowid": "1027049",
    "final_x": "3675100.83118",
    "final_y": "534253.833157",
    "longitude": "-90.08818281082607",
    "latitude": "29.963205550045963",
    "geocoded_column": {
      "latitude": "29.963205550045963",
      "longitude": "-90.08818281082607"
    }
  },
  {
    "service_request": "2023-1027048",
    "request_type": "Roads/Drainage",
    "request_reason": "Pothole",
    "date_created": "2023-08-16T20:11:41.000",
    "date_modified": "2023-08-16T20:11:41.000",
    "request_status": "Pending",
    "responsible_agency": "Department of Public Works",
    "final_address": "7300 BLK Newcastle St",
    "address_councildis": "E",
    "status": "Pending",
    "rowid": "1027048",
    "final_x": "3697493.32906",
    "final_y": "558528.838439",
    "longitude": "-90.01658939425725",
    "latitude": "30.029264775425368",
    "geocoded_column": {
      "latitude": "30.029264775425368",
      "longitude": "-90.01658939425725"
    }
  },
  {
    "service_request": "2023-1027047",
    "request_type": "Trash/Recycling",
    "request_reason": "MIssed Recycling Pick-Up",
    "date_created": "2023-08-16T20:11:00.000",
    "date_modified": "2023-08-16T20:11:01.000",
    "request_status": "Pending",
    "responsible_agency": "Department of Sanitation",
    "final_address": "2400 Hudson Pl",
    "address_councildis": "C",
    "status": "Assigned to Contractor",
    "contractor": "Richards Disposal",
    "rowid": "1027047",
    "final_x": "3703670.05591",
    "final_y": "522344.499578",
    "longitude": "-89.99840333602641",
    "latitude": "29.929574539983918",
    "geocoded_column": {
      "latitude": "29.929574539983918",
      "longitude": "-89.99840333602641"
    }
  },
  {
    "service_request": "2023-1027046",
    "request_type": "Trash/Recycling",
    "request_reason": "Request a Large Item Pick Up",
    "date_created": "2023-08-16T20:09:18.000",
    "date_modified": "2023-08-16T20:09:19.000",
    "request_status": "Pending",
    "responsible_agency": "Department of Sanitation",
    "final_address": "2400 Hudson Pl",
    "address_councildis": "C",
    "status": "Assigned to Contractor",
    "contractor": "Richards Disposal",
    "rowid": "1027046",
    "final_x": "3703670.05591",
    "final_y": "522344.499578",
    "longitude": "-89.99840333602641",
    "latitude": "29.929574539983918",
    "geocoded_column": {
      "latitude": "29.929574539983918",
      "longitude": "-89.99840333602641"
    }
  },
  {
    "service_request": "2023-1027045",
    "request_type": "Trash/Recycling",
    "request_reason": "Request a Large Item Pick Up",
    "date_created": "2023-08-16T20:06:22.000",
    "date_modified": "2023-08-16T20:06:23.000",
    "request_status": "Pending",
    "responsible_agency": "Department of Sanitation",
    "final_address": "1843 Marigny St",
    "address_councildis": "D",
    "status": "Assigned to Contractor",
    "contractor": "IV Waste",
    "rowid": "1027045",
    "final_x": "3685217.64853",
    "final_y": "539254.242634",
    "longitude": "-90.05605911542231",
    "latitude": "29.97664877134958",
    "geocoded_column": {
      "latitude": "29.97664877134958",
      "longitude": "-90.05605911542231"
    }
  },
  {
    "service_request": "2023-1027044",
    "request_type": "Traffic Signals/Signs/Striping/Streetlights",
    "request_reason": "Request for Stop Sign",
    "date_created": "2023-08-16T19:49:47.000",
    "date_modified": "2023-08-16T19:49:47.000",
    "request_status": "Pending",
    "responsible_agency": "Department of Public Works",
    "final_address": "3505 Urquhart St",
    "address_councildis": "C",
    "status": "Pending",
    "rowid": "1027044",
    "final_x": "3690710.96764",
    "final_y": "536387.828551",
    "longitude": "-90.038811852412",
    "latitude": "29.968597629426025",
    "geocoded_column": {
      "latitude": "29.968597629426025",
      "longitude": "-90.038811852412"
    }
  },
  {
    "service_request": "2023-1027043",
    "request_type": "Trash/Recycling",
    "request_reason": "Missed Trash Pick-Up",
    "date_created": "2023-08-16T19:46:19.000",
    "date_modified": "2023-08-16T19:46:20.000",
    "request_status": "Pending",
    "responsible_agency": "Department of Sanitation",
    "final_address": "3015 Carondelet St",
    "address_councildis": "B",
    "status": "Assigned to Contractor",
    "contractor": "Richards Disposal",
    "rowid": "1027043",
    "final_x": "3674871.98971",
    "final_y": "522343.308602",
    "longitude": "-90.08931381443753",
    "latitude": "29.93046237769801",
    "geocoded_column": {
      "latitude": "29.93046237769801",
      "longitude": "-90.08931381443753"
    }
  },
  {
    "service_request": "2023-1027042",
    "request_type": "Trash/Recycling",
    "request_reason": "Request a Large Item Pick Up",
    "date_created": "2023-08-16T19:41:40.000",
    "date_modified": "2023-08-16T19:41:41.000",
    "request_status": "Pending",
    "responsible_agency": "Department of Sanitation",
    "final_address": "4531 Shalimar Dr",
    "address_councildis": "D",
    "status": "Assigned to Contractor",
    "contractor": "Waste Pro",
    "rowid": "1027042",
    "final_x": "3697347.63005",
    "final_y": "553143.409431",
    "longitude": "-90.01724525979908",
    "latitude": "30.01446149458443",
    "geocoded_column": {
      "latitude": "30.01446149458443",
      "longitude": "-90.01724525979908"
    }
  },
  {
    "service_request": "2023-1027041",
    "request_type": "Roads/Drainage",
    "request_reason": "Street Flooding / Drainage",
    "date_created": "2023-08-16T19:34:16.000",
    "date_modified": "2023-08-16T19:34:16.000",
    "request_status": "Pending",
    "responsible_agency": "Department of Public Works",
    "final_address": "13244 Willowbrook Dr",
    "address_councildis": "E",
    "status": "Pending",
    "rowid": "1027041",
    "final_x": "3727019.68851",
    "final_y": "564104.316385",
    "longitude": "-89.92307139832494",
    "latitude": "30.043629029777804",
    "geocoded_column": {
      "latitude": "30.043629029777804",
      "longitude": "-89.92307139832494"
    }
  },
  {
    "service_request": "2023-1027040",
    "request_type": "Trash/Recycling",
    "request_reason": "Missed Trash Pick-Up",
    "date_created": "2023-08-16T19:32:36.000",
    "date_modified": "2023-08-16T19:32:37.000",
    "request_status": "Pending",
    "responsible_agency": "Department of Sanitation",
    "final_address": "5007 Freret St",
    "address_councildis": "B",
    "status": "Assigned to Contractor",
    "contractor": "Richards Disposal",
    "rowid": "1027040",
    "final_x": "3668694.34106",
    "final_y": "523965.897852",
    "longitude": "-90.10876103121382",
    "latitude": "29.935106952994353",
    "geocoded_column": {
      "latitude": "29.935106952994353",
      "longitude": "-90.10876103121382"
    }
  },
  {
    "service_request": "2023-1027039",
    "request_type": "Trash/Recycling",
    "request_reason": "Start Trash Service",
    "date_created": "2023-08-16T19:27:20.000",
    "date_modified": "2023-08-16T19:27:21.000",
    "request_status": "Pending",
    "responsible_agency": "Department of Sanitation",
    "final_address": "1637 Constantinople St",
    "address_councildis": "B",
    "status": "Assigned to Contractor",
    "contractor": "Richards Disposal",
    "rowid": "1027039",
    "final_x": "3672355.79643",
    "final_y": "521346.330233",
    "longitude": "-90.09729102126529",
    "latitude": "29.927795883384068",
    "geocoded_column": {
      "latitude": "29.927795883384068",
      "longitude": "-90.09729102126529"
    }
  },
  {
    "service_request": "2023-1027038",
    "request_type": "Trash/Recycling",
    "request_reason": "Missed Trash Pick-Up",
    "date_created": "2023-08-16T19:10:28.000",
    "date_modified": "2023-08-16T19:10:29.000",
    "request_status": "Pending",
    "responsible_agency": "Department of Sanitation",
    "final_address": "6305 General Pershing St",
    "address_councildis": "B",
    "status": "Assigned to Contractor",
    "contractor": "Richards Disposal",
    "rowid": "1027038",
    "final_x": "3668097.81857",
    "final_y": "530436.889858",
    "longitude": "-90.11042622674755",
    "latitude": "29.952917602151903",
    "geocoded_column": {
      "latitude": "29.952917602151903",
      "longitude": "-90.11042622674755"
    }
  },
  {
    "service_request": "2023-1027037",
    "request_type": "Abandoned Vehicles",
    "request_reason": "Abandoned/Junk Vehicles",
    "date_created": "2023-08-16T19:07:43.000",
    "date_modified": "2023-08-16T19:07:43.000",
    "request_status": "Pending",
    "responsible_agency": "Department of Public Works",
    "final_address": "6700 BLK Lake Willow Dr",
    "address_councildis": "E",
    "status": "Pending",
    "rowid": "1027037",
    "final_x": "3703664.19336",
    "final_y": "559099.774305",
    "longitude": "-89.99706872181194",
    "latitude": "30.030638200168887",
    "geocoded_column": {
      "latitude": "30.030638200168887",
      "longitude": "-89.99706872181194"
    }
  },
  {
    "service_request": "2023-1027036",
    "request_type": "Property Maintenance",
    "request_reason": "Property Maintenance",
    "date_created": "2023-08-16T19:07:29.000",
    "date_modified": "2023-08-16T19:07:29.000",
    "request_status": "Pending",
    "responsible_agency": "Department of Code Enforcement",
    "final_address": "7311 Chef Menteur Hwy",
    "address_councildis": "E",
    "status": "Pending",
    "rowid": "1027036",
    "final_x": "3702011.05655",
    "final_y": "552341.183318",
    "longitude": "-90.00254067441115",
    "latitude": "30.01210757443189",
    "geocoded_column": {
      "latitude": "30.01210757443189",
      "longitude": "-90.00254067441115"
    }
  },
  {
    "service_request": "2023-1027035",
    "request_type": "Trash/Recycling",
    "request_reason": "Order Recycling Cart",
    "date_created": "2023-08-16T19:00:38.000",
    "date_modified": "2023-08-16T19:00:38.000",
    "request_status": "Pending",
    "responsible_agency": "Department of Sanitation",
    "final_address": "2820 Seine St",
    "address_councildis": "C",
    "status": "Pending",
    "rowid": "1027035",
    "final_x": "3693471.39517",
    "final_y": "520989.974713",
    "longitude": "-90.03064714373777",
    "latitude": "29.926172822508182",
    "geocoded_column": {
      "latitude": "29.926172822508182",
      "longitude": "-90.03064714373777"
    }
  },
  {
    "service_request": "2023-1027034",
    "request_type": "Abandoned Vehicles",
    "request_reason": "Abandoned/Junk Vehicles",
    "date_created": "2023-08-16T18:58:27.000",
    "date_modified": "2023-08-16T18:58:27.000",
    "request_status": "Pending",
    "responsible_agency": "Department of Public Works",
    "final_address": "2822 Milan St",
    "address_councildis": "B",
    "status": "Pending",
    "rowid": "1027034",
    "final_x": "3671113.93748",
    "final_y": "525352.600893",
    "longitude": "-90.10107527928686",
    "latitude": "29.93884861354001",
    "geocoded_column": {
      "latitude": "29.93884861354001",
      "longitude": "-90.10107527928686"
    }
  },
  {
    "service_request": "2023-1027033",
    "request_type": "Roads/Drainage",
    "request_reason": "Man hole cover issue",
    "date_created": "2023-08-16T18:57:15.000",
    "date_modified": "2023-08-16T18:57:15.000",
    "request_status": "Pending",
    "responsible_agency": "Department of Public Works",
    "final_address": "2300 BLK Dumaine St",
    "address_councildis": "D",
    "status": "Pending",
    "rowid": "1027033",
    "final_x": "3678379.43225",
    "final_y": "536583.863956",
    "longitude": "-90.07774874002679",
    "latitude": "29.969513969934006",
    "geocoded_column": {
      "latitude": "29.969513969934006",
      "longitude": "-90.07774874002679"
    }
  },
  {
    "service_request": "2023-1027032",
    "request_type": "Roads/Drainage",
    "request_reason": "Pothole",
    "date_created": "2023-08-16T18:50:47.000",
    "date_modified": "2023-08-16T18:50:47.000",
    "request_status": "Pending",
    "responsible_agency": "Department of Public Works",
    "final_address": "3629 Prytania St",
    "address_councildis": "B",
    "status": "Pending",
    "rowid": "1027032",
    "final_x": "3673410.74836",
    "final_y": "520712.326393",
    "longitude": "-90.09398242884356",
    "latitude": "29.926021243402264",
    "geocoded_column": {
      "latitude": "29.926021243402264",
      "longitude": "-90.09398242884356"
    }
  },
  {
    "service_request": "2023-1027031",
    "request_type": "Roads/Drainage",
    "request_reason": "Catch Basin - Broken/Damage",
    "date_created": "2023-08-16T18:42:49.000",
    "date_modified": "2023-08-16T18:42:49.000",
    "request_status": "Pending",
    "responsible_agency": "Department of Public Works",
    "final_address": "7041 Read Blvd",
    "address_councildis": "E",
    "status": "Pending",
    "rowid": "1027031",
    "final_x": "3709938.31352",
    "final_y": "562367.871391",
    "longitude": "-89.97712034033415",
    "latitude": "30.039421493220715",
    "geocoded_column": {
      "latitude": "30.039421493220715",
      "longitude": "-89.97712034033415"
    }
  },
  {
    "service_request": "2023-1027030",
    "request_type": "Trash/Recycling",
    "request_reason": "Return Trash Cart",
    "date_created": "2023-08-16T18:41:24.000",
    "date_modified": "2023-08-16T18:41:25.000",
    "request_status": "Pending",
    "responsible_agency": "Department of Sanitation",
    "final_address": "2100 Ellen Park Pl",
    "address_councildis": "C",
    "status": "Assigned to Contractor",
    "contractor": "Richards Disposal",
    "rowid": "1027030",
    "final_x": "3703001.60945",
    "final_y": "523174.987963",
    "longitude": "-90.00048298973115",
    "latitude": "29.931879490008896",
    "geocoded_column": {
      "latitude": "29.931879490008896",
      "longitude": "-90.00048298973115"
    }
  },
  {
    "service_request": "2023-1027029",
    "request_type": "Trash/Recycling",
    "request_reason": "Request a Large Item Pick Up",
    "date_created": "2023-08-16T18:19:29.000",
    "date_modified": "2023-08-16T18:19:30.000",
    "request_status": "Pending",
    "responsible_agency": "Department of Sanitation",
    "final_address": "1422 Andry St",
    "address_councildis": "E",
    "status": "Assigned to Contractor",
    "contractor": "Waste Pro",
    "rowid": "1027029",
    "final_x": "3697479.83459",
    "final_y": "535268.111174",
    "longitude": "-90.01747613031921",
    "latitude": "29.965306799578453",
    "geocoded_column": {
      "latitude": "29.965306799578453",
      "longitude": "-90.01747613031921"
    }
  },
  {
    "service_request": "2023-1027028",
    "request_type": "Abandoned Vehicles",
    "request_reason": "Abandoned/Junk Vehicles",
    "date_created": "2023-08-16T18:17:28.000",
    "date_modified": "2023-08-16T18:19:38.000",
    "request_status": "Pending",
    "responsible_agency": "Department of Public Works",
    "final_address": "2061 Mandolin St",
    "address_councildis": "D",
    "status": "Pending",
    "rowid": "1027028",
    "final_x": "3683070.98402",
    "final_y": "548441.75957",
    "longitude": "-90.0625171191641",
    "latitude": "30.00197681344459",
    "geocoded_column": {
      "latitude": "30.00197681344459",
      "longitude": "-90.0625171191641"
    }
  },
  {
    "service_request": "2023-1027027",
    "request_type": "Trash/Recycling",
    "request_reason": "Missed Trash Pick-Up",
    "date_created": "2023-08-16T18:16:30.000",
    "date_modified": "2023-08-16T18:16:31.000",
    "request_status": "Pending",
    "responsible_agency": "Department of Sanitation",
    "final_address": "4022 Prentiss Ave",
    "address_councildis": "D",
    "status": "Assigned to Contractor",
    "contractor": "IV Waste",
    "rowid": "1027027",
    "final_x": "3688822.52246",
    "final_y": "554220.228952",
    "longitude": "-90.0441420370358",
    "latitude": "30.017688832233258",
    "geocoded_column": {
      "latitude": "30.017688832233258",
      "longitude": "-90.0441420370358"
    }
  },
  {
    "service_request": "2023-1027026",
    "request_type": "Roads/Drainage",
    "request_reason": "Pothole",
    "date_created": "2023-08-16T18:13:26.000",
    "date_modified": "2023-08-16T18:13:26.000",
    "request_status": "Pending",
    "responsible_agency": "Department of Public Works",
    "final_address": "1423 General Pershing St",
    "address_councildis": "B",
    "status": "Pending",
    "rowid": "1027026",
    "final_x": "3671330.69185",
    "final_y": "520571.244024",
    "longitude": "-90.1005533659415",
    "latitude": "29.925695010510914",
    "geocoded_column": {
      "latitude": "29.925695010510914",
      "longitude": "-90.1005533659415"
    }
  },
  {
    "service_request": "2023-1027025",
    "request_type": "Trash/Recycling",
    "request_reason": "Return Trash Cart",
    "date_created": "2023-08-16T18:06:54.000",
    "date_modified": "2023-08-16T18:06:54.000",
    "request_status": "Pending",
    "responsible_agency": "Department of Sanitation",
    "final_address": "7824 Sandy Cove Dr",
    "address_councildis": "E",
    "status": "Assigned to Contractor",
    "contractor": "Waste Pro",
    "rowid": "1027025",
    "final_x": "3715034.28088",
    "final_y": "570008.361318",
    "longitude": "-89.96072650231936",
    "latitude": "30.06026289143848",
    "geocoded_column": {
      "latitude": "30.06026289143848",
      "longitude": "-89.96072650231936"
    }
  },
  {
    "service_request": "2023-1027024",
    "request_type": "Trash/Recycling",
    "request_reason": "Request a Large Item Pick Up",
    "date_created": "2023-08-16T18:01:39.000",
    "date_modified": "2023-08-16T18:01:39.000",
    "request_status": "Pending",
    "responsible_agency": "Department of Sanitation",
    "final_address": "1808 Hillary St",
    "address_councildis": "A",
    "status": "Assigned to Contractor",
    "contractor": "Richards Disposal",
    "rowid": "1027024",
    "final_x": "3664739.05888",
    "final_y": "528800.660352",
    "longitude": "-90.12108641121492",
    "latitude": "29.948516639292844",
    "geocoded_column": {
      "latitude": "29.948516639292844",
      "longitude": "-90.12108641121492"
    }
  },
  {
    "service_request": "2023-1027023",
    "request_type": "Roads/Drainage",
    "request_reason": "Street Subsidence (Sinking)",
    "date_created": "2023-08-16T17:57:47.000",
    "date_modified": "2023-08-16T17:57:47.000",
    "request_status": "Pending",
    "responsible_agency": "Department of Public Works",
    "final_address": "0 BLK English Turn Pkwy",
    "address_councildis": "C",
    "status": "Pending",
    "rowid": "1027023",
    "final_x": "3714478.8315",
    "final_y": "516189.451005",
    "longitude": "-89.96451447055301",
    "latitude": "29.912299665809115",
    "geocoded_column": {
      "latitude": "29.912299665809115",
      "longitude": "-89.96451447055301"
    }
  },
  {
    "service_request": "2023-1027022",
    "request_type": "Trash/Recycling",
    "request_reason": "Repair Trash Cart",
    "date_created": "2023-08-16T17:52:15.000",
    "date_modified": "2023-08-16T17:52:16.000",
    "request_status": "Pending",
    "responsible_agency": "Department of Sanitation",
    "final_address": "1736 Valmont St",
    "address_councildis": "B",
    "status": "Assigned to Contractor",
    "contractor": "Richards Disposal",
    "rowid": "1027022",
    "final_x": "3667904.17389",
    "final_y": "522135.264762",
    "longitude": "-90.11131722851702",
    "latitude": "29.930096492868557",
    "geocoded_column": {
      "latitude": "29.930096492868557",
      "longitude": "-90.11131722851702"
    }
  },
  {
    "service_request": "2023-1027021",
    "request_type": "Trash/Recycling",
    "request_reason": "Request a Large Item Pick Up",
    "date_created": "2023-08-16T17:44:07.000",
    "date_modified": "2023-08-16T17:44:08.000",
    "request_status": "Pending",
    "responsible_agency": "Department of Sanitation",
    "final_address": "4701 Citrus Dr",
    "address_councildis": "E",
    "status": "Assigned to Contractor",
    "contractor": "Waste Pro",
    "rowid": "1027021",
    "final_x": "3710885.21003",
    "final_y": "555492.231833",
    "longitude": "-89.9743855975947",
    "latitude": "30.020485353466555",
    "geocoded_column": {
      "latitude": "30.020485353466555",
      "longitude": "-89.9743855975947"
    }
  },
  {
    "service_request": "2023-1027020",
    "request_type": "Roads/Drainage",
    "request_reason": "Pothole",
    "date_created": "2023-08-16T17:42:34.000",
    "date_modified": "2023-08-16T17:42:34.000",
    "request_status": "Pending",
    "responsible_agency": "Department of Public Works",
    "final_address": "3900 BLK Cadillac St",
    "address_councildis": "D",
    "status": "Pending",
    "rowid": "1027020",
    "final_x": "3676961.10897",
    "final_y": "546588.895455",
    "longitude": "-90.08188283683425",
    "latitude": "29.997066999649807",
    "geocoded_column": {
      "latitude": "29.997066999649807",
      "longitude": "-90.08188283683425"
    }
  },
  {
    "service_request": "2023-1027019",
    "request_type": "Trash/Recycling",
    "request_reason": "Request a Large Item Pick Up",
    "date_created": "2023-08-16T17:41:20.000",
    "date_modified": "2023-08-16T17:41:20.000",
    "request_status": "Pending",
    "responsible_agency": "Department of Sanitation",
    "final_address": "138 N Norman C Francis Pkwy, New Orleans, Louisiana, 70119",
    "status": "Assigned to Contractor",
    "rowid": "1027019",
    "longitude": "0.0",
    "latitude": "0.0",
    "geocoded_column": {
      "latitude": "0.0",
      "longitude": "0.0"
    }
  },
  {
    "service_request": "2023-1027018",
    "request_type": "Trash/Recycling",
    "request_reason": "Replace Trash Cart",
    "date_created": "2023-08-16T17:33:17.000",
    "date_modified": "2023-08-16T17:33:18.000",
    "request_status": "Pending",
    "responsible_agency": "Department of Sanitation",
    "final_address": "7929 Freret St",
    "address_councildis": "A",
    "status": "Assigned to Contractor",
    "contractor": "Richards Disposal",
    "rowid": "1027018",
    "final_x": "3661926.85114",
    "final_y": "527522.518655",
    "longitude": "-90.13000815603785",
    "latitude": "29.9450836666227",
    "geocoded_column": {
      "latitude": "29.9450836666227",
      "longitude": "-90.13000815603785"
    }
  },
  {
    "service_request": "2023-1027017",
    "request_type": "Trash/Recycling",
    "request_reason": "Replace Recycling Cart",
    "date_created": "2023-08-16T17:30:50.000",
    "date_modified": "2023-08-16T17:30:50.000",
    "request_status": "Pending",
    "responsible_agency": "Department of Sanitation",
    "final_address": "1020 Milan St",
    "address_councildis": "B",
    "status": "Pending",
    "rowid": "1027017",
    "final_x": "3671708.38395",
    "final_y": "519408.948407",
    "longitude": "-90.09940061456574",
    "latitude": "29.922487890081033",
    "geocoded_column": {
      "latitude": "29.922487890081033",
      "longitude": "-90.09940061456574"
    }
  },
  {
    "service_request": "2023-1027016",
    "request_type": "Property Maintenance",
    "request_reason": "Property Maintenance",
    "date_created": "2023-08-16T17:21:54.000",
    "date_modified": "2023-08-16T17:21:54.000",
    "request_status": "Pending",
    "responsible_agency": "Department of Code Enforcement",
    "final_address": "13100 Curran Rd",
    "address_councildis": "E",
    "status": "Pending",
    "rowid": "1027016",
    "final_x": "3715728.06623",
    "final_y": "569707.607846",
    "longitude": "-89.95854490727325",
    "latitude": "30.05941307385292",
    "geocoded_column": {
      "latitude": "30.05941307385292",
      "longitude": "-89.95854490727325"
    }
  },
  {
    "service_request": "2023-1027015",
    "request_type": "Property Maintenance",
    "request_reason": "Property Maintenance",
    "date_created": "2023-08-16T17:19:58.000",
    "date_modified": "2023-08-16T17:19:58.000",
    "request_status": "Pending",
    "responsible_agency": "Department of Code Enforcement",
    "final_address": "1936 N Johnson St",
    "address_councildis": "D",
    "status": "Pending",
    "rowid": "1027015",
    "final_x": "3683208.41116",
    "final_y": "539348.02305",
    "longitude": "-90.06240161564783",
    "latitude": "29.976968065971576",
    "geocoded_column": {
      "latitude": "29.976968065971576",
      "longitude": "-90.06240161564783"
    }
  },
  {
    "service_request": "2023-1027014",
    "request_type": "Abandoned Vehicles",
    "request_reason": "Abandoned/Junk Vehicles",
    "date_created": "2023-08-16T17:18:33.000",
    "date_modified": "2023-08-16T17:18:33.000",
    "request_status": "Pending",
    "responsible_agency": "Department of Public Works",
    "final_address": "4500 BLK Toulouse St",
    "address_councildis": "A",
    "status": "Pending",
    "rowid": "1027014",
    "final_x": "3670720.89048",
    "final_y": "540865.993187",
    "longitude": "-90.1017897677463",
    "latitude": "29.981516907803467",
    "geocoded_column": {
      "latitude": "29.981516907803467",
      "longitude": "-90.1017897677463"
    }
  },
  {
    "service_request": "2023-1027013",
    "request_type": "Trash/Recycling",
    "request_reason": "MIssed Recycling Pick-Up",
    "date_created": "2023-08-16T17:16:04.000",
    "date_modified": "2023-08-16T17:16:05.000",
    "request_status": "Pending",
    "responsible_agency": "Department of Sanitation",
    "final_address": "2527 Cleveland Ave",
    "address_councildis": "B",
    "status": "Assigned to Contractor",
    "contractor": "Richards Disposal",
    "rowid": "1027013",
    "final_x": "3675734.17345",
    "final_y": "534376.653573",
    "longitude": "-90.08617856593321",
    "latitude": "29.963524325457225",
    "geocoded_column": {
      "latitude": "29.963524325457225",
      "longitude": "-90.08617856593321"
    }
  },
  {
    "service_request": "2023-1027012",
    "request_type": "Trash/Recycling",
    "request_reason": "MIssed Recycling Pick-Up",
    "date_created": "2023-08-16T17:15:18.000",
    "date_modified": "2023-08-16T17:15:18.000",
    "request_status": "Pending",
    "responsible_agency": "Department of Sanitation",
    "final_address": "2527 Cleveland Ave",
    "address_councildis": "B",
    "status": "Assigned to Contractor",
    "contractor": "Richards Disposal",
    "rowid": "1027012",
    "final_x": "3675734.17345",
    "final_y": "534376.653573",
    "longitude": "-90.08617856593321",
    "latitude": "29.963524325457225",
    "geocoded_column": {
      "latitude": "29.963524325457225",
      "longitude": "-90.08617856593321"
    }
  },
  {
    "service_request": "2023-1027011",
    "request_type": "Property Maintenance",
    "request_reason": "Property Maintenance",
    "date_created": "2023-08-16T17:13:44.000",
    "date_modified": "2023-08-16T17:13:44.000",
    "request_status": "Pending",
    "responsible_agency": "Department of Code Enforcement",
    "final_address": "1932 N Johnson St",
    "address_councildis": "D",
    "status": "Pending",
    "rowid": "1027011",
    "final_x": "3683177.50216",
    "final_y": "539455.516618",
    "longitude": "-90.06249547068461",
    "latitude": "29.977264578407954",
    "geocoded_column": {
      "latitude": "29.977264578407954",
      "longitude": "-90.06249547068461"
    }
  },
  {
    "service_request": "2023-1027010",
    "request_type": "Roads/Drainage",
    "request_reason": "Damaged Sidewalk",
    "date_created": "2023-08-16T17:10:13.000",
    "date_modified": "2023-08-16T17:10:13.000",
    "request_status": "Pending",
    "responsible_agency": "Department of Public Works",
    "final_address": "3629 Franklin Ave",
    "address_councildis": "D",
    "status": "Pending",
    "rowid": "1027010",
    "final_x": "3687202.00034",
    "final_y": "546322.39336",
    "longitude": "-90.04954182435986",
    "latitude": "29.996022698181992",
    "geocoded_column": {
      "latitude": "29.996022698181992",
      "longitude": "-90.04954182435986"
    }
  },
  {
    "service_request": "2023-1027008",
    "request_type": "Parks & Parkways",
    "request_reason": "Request Tree Service (Right of Way/Public Property)",
    "date_created": "2023-08-16T17:10:04.000",
    "date_modified": "2023-08-16T17:10:04.000",
    "request_status": "Pending",
    "responsible_agency": "Department of Parks & Parkway",
    "final_address": "1722 Seventh St",
    "address_councildis": "B",
    "status": "Pending",
    "rowid": "1027008",
    "final_x": "3674886.18523",
    "final_y": "522562.795514",
    "longitude": "-90.08926147840613",
    "latitude": "29.931065471727308",
    "geocoded_column": {
      "latitude": "29.931065471727308",
      "longitude": "-90.08926147840613"
    }
  },
  {
    "service_request": "2023-1027007",
    "request_type": "Trash/Recycling",
    "request_reason": "Replace Trash Cart",
    "date_created": "2023-08-16T17:08:41.000",
    "date_modified": "2023-08-16T17:08:41.000",
    "request_status": "Pending",
    "responsible_agency": "Department of Sanitation",
    "final_address": "3511 River Oaks Dr",
    "address_councildis": "C",
    "status": "Assigned to Contractor",
    "contractor": "Richards Disposal",
    "rowid": "1027007",
    "final_x": "3701316.83965",
    "final_y": "518134.013366",
    "longitude": "-90.00598593702196",
    "latitude": "29.918072326560722",
    "geocoded_column": {
      "latitude": "29.918072326560722",
      "longitude": "-90.00598593702196"
    }
  },
  {
    "service_request": "2023-1027005",
    "request_type": "Parks & Parkways",
    "request_reason": "Request Tree Service (Right of Way/Public Property)",
    "date_created": "2023-08-16T17:07:09.000",
    "date_modified": "2023-08-16T17:07:09.000",
    "request_status": "Pending",
    "responsible_agency": "Department of Parks & Parkway",
    "final_address": "1722 Seventh St",
    "address_councildis": "B",
    "status": "Pending",
    "rowid": "1027005",
    "final_x": "3674886.18523",
    "final_y": "522562.795514",
    "longitude": "-90.08926147840613",
    "latitude": "29.931065471727308",
    "geocoded_column": {
      "latitude": "29.931065471727308",
      "longitude": "-90.08926147840613"
    }
  },
  {
    "service_request": "2023-1027004",
    "request_type": "Trash/Recycling",
    "request_reason": "Request a Large Item Pick Up",
    "date_created": "2023-08-16T17:03:48.000",
    "date_modified": "2023-08-16T17:03:49.000",
    "request_status": "Pending",
    "responsible_agency": "Department of Sanitation",
    "final_address": "2228 Tricou St",
    "address_councildis": "E",
    "status": "Assigned to Contractor",
    "contractor": "Waste Pro",
    "rowid": "1027004",
    "final_x": "3701787.41732",
    "final_y": "537221.405896",
    "longitude": "-90.00380152094841",
    "latitude": "29.970540933358343",
    "geocoded_column": {
      "latitude": "29.970540933358343",
      "longitude": "-90.00380152094841"
    }
  },
  {
    "service_request": "2023-1027002",
    "request_type": "Parks & Parkways",
    "request_reason": "Request Tree Service (Right of Way/Public Property)",
    "date_created": "2023-08-16T16:59:11.000",
    "date_modified": "2023-08-16T16:59:11.000",
    "request_status": "Pending",
    "responsible_agency": "Department of Parks & Parkway",
    "final_address": "1722 Seventh St",
    "address_councildis": "B",
    "status": "Pending",
    "rowid": "1027002",
    "final_x": "3674886.18523",
    "final_y": "522562.795514",
    "longitude": "-90.08926147840613",
    "latitude": "29.931065471727308",
    "geocoded_column": {
      "latitude": "29.931065471727308",
      "longitude": "-90.08926147840613"
    }
  },
  {
    "service_request": "2023-1027001",
    "request_type": "Trash/Recycling",
    "request_reason": "Missed Trash Pick-Up",
    "date_created": "2023-08-16T16:55:50.000",
    "date_modified": "2023-08-16T16:55:51.000",
    "request_status": "Pending",
    "responsible_agency": "Department of Sanitation",
    "final_address": "8701 Aberdeen Rd",
    "address_councildis": "E",
    "status": "Assigned to Contractor",
    "contractor": "Waste Pro",
    "rowid": "1027001",
    "final_x": "3704581.75108",
    "final_y": "562309.915871",
    "longitude": "-89.9940506785556",
    "latitude": "30.039435376576918",
    "geocoded_column": {
      "latitude": "30.039435376576918",
      "longitude": "-89.9940506785556"
    }
  },
  {
    "service_request": "2023-1027000",
    "request_type": "Traffic Signals/Signs/Striping/Streetlights",
    "request_reason": "Request for Stop Sign",
    "date_created": "2023-08-16T16:52:25.000",
    "date_modified": "2023-08-16T16:52:25.000",
    "request_status": "Pending",
    "responsible_agency": "Department of Public Works",
    "final_address": "FRERET ST & VALENCE ST",
    "address_councildis": "B",
    "status": "Pending",
    "rowid": "1027000",
    "final_x": "3669428.6",
    "final_y": "523937.68",
    "longitude": "-90.10644392655435",
    "latitude": "29.93500776557353",
    "geocoded_column": {
      "latitude": "29.93500776557353",
      "longitude": "-90.10644392655435"
    }
  },
  {
    "service_request": "2023-1026999",
    "request_type": "Property Maintenance",
    "request_reason": "Property Maintenance",
    "date_created": "2023-08-16T16:52:01.000",
    "date_modified": "2023-08-16T16:52:02.000",
    "request_status": "Pending",
    "responsible_agency": "Department of Code Enforcement",
    "final_address": "4402 Reynes St",
    "address_councildis": "E",
    "status": "Pending",
    "rowid": "1026999",
    "final_x": "3699273.46404",
    "final_y": "553113.590871",
    "longitude": "-90.01116169931306",
    "latitude": "30.01431854310329",
    "geocoded_column": {
      "latitude": "30.01431854310329",
      "longitude": "-90.01116169931306"
    }
  },
  {
    "service_request": "2023-1026998",
    "request_type": "Trash/Recycling",
    "request_reason": "Missed Trash Pick-Up",
    "date_created": "2023-08-16T16:51:17.000",
    "date_modified": "2023-08-16T16:51:18.000",
    "request_status": "Pending",
    "responsible_agency": "Department of Sanitation",
    "final_address": "7600 BLK Symmes Ave",
    "address_councildis": "E",
    "status": "Assigned to Contractor",
    "contractor": "Waste Pro",
    "rowid": "1026998",
    "final_x": "3707766.53883",
    "final_y": "564763.765273",
    "longitude": "-89.98389456226346",
    "latitude": "30.046079746944162",
    "geocoded_column": {
      "latitude": "30.046079746944162",
      "longitude": "-89.98389456226346"
    }
  },
  {
    "service_request": "2023-1026997",
    "request_type": "Trash/Recycling",
    "request_reason": "Missed Trash Pick-Up",
    "date_created": "2023-08-16T16:48:47.000",
    "date_modified": "2023-08-16T16:48:47.000",
    "request_status": "Pending",
    "responsible_agency": "Department of Sanitation",
    "final_address": "1925 Orleans Ave",
    "address_councildis": "D",
    "status": "Assigned to Contractor",
    "contractor": "Richards Disposal",
    "rowid": "1026997",
    "final_x": "3679141.87631",
    "final_y": "535326.062726",
    "longitude": "-90.07538448678316",
    "latitude": "29.96603245203055",
    "geocoded_column": {
      "latitude": "29.96603245203055",
      "longitude": "-90.07538448678316"
    }
  },
  {
    "service_request": "2023-1026996",
    "request_type": "Trash/Recycling",
    "request_reason": "Request a Large Item Pick Up",
    "date_created": "2023-08-16T16:46:25.000",
    "date_modified": "2023-08-16T16:46:25.000",
    "request_status": "Pending",
    "responsible_agency": "Department of Sanitation",
    "final_address": "4657 Chantilly Dr",
    "address_councildis": "E",
    "status": "Assigned to Contractor",
    "contractor": "Waste Pro",
    "rowid": "1026996",
    "final_x": "3701002.63217",
    "final_y": "553779.226711",
    "longitude": "-90.00567405799599",
    "latitude": "30.016093812742938",
    "geocoded_column": {
      "latitude": "30.016093812742938",
      "longitude": "-90.00567405799599"
    }
  },
  {
    "service_request": "2023-1026995",
    "request_type": "Trash/Recycling",
    "request_reason": "Request a Large Item Pick Up",
    "date_created": "2023-08-16T16:37:20.000",
    "date_modified": "2023-08-16T16:37:20.000",
    "request_status": "Pending",
    "responsible_agency": "Department of Sanitation",
    "final_address": "6538 Vicksburg St",
    "address_councildis": "A",
    "status": "Assigned to Contractor",
    "contractor": "IV Waste",
    "rowid": "1026995",
    "final_x": "3669115.35918",
    "final_y": "550981.745813",
    "longitude": "-90.10651871356046",
    "latitude": "30.009379089528597",
    "geocoded_column": {
      "latitude": "30.009379089528597",
      "longitude": "-90.10651871356046"
    }
  },
  {
    "service_request": "2023-1026994",
    "request_type": "Trash/Recycling",
    "request_reason": "MIssed Recycling Pick-Up",
    "date_created": "2023-08-16T16:36:57.000",
    "date_modified": "2023-08-16T16:36:58.000",
    "request_status": "Pending",
    "responsible_agency": "Department of Sanitation",
    "final_address": "336 N St Patrick St",
    "address_councildis": "A",
    "status": "Assigned to Contractor",
    "contractor": "Richards Disposal",
    "rowid": "1026994",
    "final_x": "3669827.07572",
    "final_y": "540709.638795",
    "longitude": "-90.104618152505",
    "latitude": "29.981113371098054",
    "geocoded_column": {
      "latitude": "29.981113371098054",
      "longitude": "-90.104618152505"
    }
  },
  {
    "service_request": "2023-1026993",
    "request_type": "Trash/Recycling",
    "request_reason": "Order Trash Cart",
    "date_created": "2023-08-16T16:34:36.000",
    "date_modified": "2023-08-16T16:34:37.000",
    "request_status": "Pending",
    "responsible_agency": "Department of Sanitation",
    "final_address": "3324 Third St",
    "address_councildis": "B",
    "status": "Assigned to Contractor",
    "contractor": "Richards Disposal",
    "rowid": "1026993",
    "final_x": "3672946.44852",
    "final_y": "528095.334527",
    "longitude": "-90.0951962574467",
    "latitude": "29.946335918411176",
    "geocoded_column": {
      "latitude": "29.946335918411176",
      "longitude": "-90.0951962574467"
    }
  },
  {
    "service_request": "2023-1026992",
    "request_type": "Property Maintenance",
    "request_reason": "Property Maintenance",
    "date_created": "2023-08-16T16:31:41.000",
    "date_modified": "2023-08-16T16:31:41.000",
    "request_status": "Pending",
    "responsible_agency": "Department of Code Enforcement",
    "final_address": "2645 Lavender St",
    "address_councildis": "D",
    "status": "Pending",
    "rowid": "1026992",
    "final_x": "3687491.47273",
    "final_y": "547043.866193",
    "longitude": "-90.04860185247229",
    "latitude": "29.997997567287026",
    "geocoded_column": {
      "latitude": "29.997997567287026",
      "longitude": "-90.04860185247229"
    }
  },
  {
    "service_request": "2023-1026991",
    "request_type": "Traffic Signals/Signs/Striping/Streetlights",
    "request_reason": "Disabled Parking Sign ",
    "date_created": "2023-08-16T16:31:30.000",
    "date_modified": "2023-08-16T16:31:31.000",
    "request_status": "Pending",
    "responsible_agency": "Department of Public Works",
    "final_address": "3301 Montegut St",
    "address_councildis": "D",
    "status": "Pending",
    "rowid": "1026991",
    "final_x": "3690695.916",
    "final_y": "544836.681039",
    "longitude": "-90.03855788626656",
    "latitude": "29.991829428322053",
    "geocoded_column": {
      "latitude": "29.991829428322053",
      "longitude": "-90.03855788626656"
    }
  },
  {
    "service_request": "2023-1026990",
    "request_type": "Parks & Parkways",
    "request_reason": "Request Tree Service (Right of Way/Public Property)",
    "date_created": "2023-08-16T16:29:56.000",
    "date_modified": "2023-08-16T16:29:57.000",
    "request_status": "Pending",
    "responsible_agency": "Department of Parks & Parkway",
    "final_address": "1500 BLK Jena St",
    "address_councildis": "B",
    "status": "Pending",
    "rowid": "1026990",
    "final_x": "3670466.64",
    "final_y": "520655.137939",
    "longitude": "-90.10327808025794",
    "latitude": "29.925951225027898",
    "geocoded_column": {
      "latitude": "29.925951225027898",
      "longitude": "-90.10327808025794"
    }
  },
  {
    "service_request": "2023-1026989",
    "request_type": "Trash/Recycling",
    "request_reason": "Request a Large Item Pick Up",
    "date_created": "2023-08-16T16:23:59.000",
    "date_modified": "2023-08-16T16:24:00.000",
    "request_status": "Pending",
    "responsible_agency": "Department of Sanitation",
    "final_address": "218 N Prieur St",
    "address_councildis": "B",
    "status": "Assigned to Contractor",
    "contractor": "Richards Disposal",
    "rowid": "1026989",
    "final_x": "3677928.95227",
    "final_y": "533886.418309",
    "longitude": "-90.07926462782333",
    "latitude": "29.962110477143725",
    "geocoded_column": {
      "latitude": "29.962110477143725",
      "longitude": "-90.07926462782333"
    }
  },
  {
    "service_request": "2023-1026988",
    "request_type": "Trash/Recycling",
    "request_reason": "Missed Trash Pick-Up",
    "date_created": "2023-08-16T16:21:54.000",
    "date_modified": "2023-08-16T16:21:54.000",
    "request_status": "Pending",
    "responsible_agency": "Department of Sanitation",
    "final_address": "5121 E Easterlyn Cir",
    "address_councildis": "E",
    "status": "Assigned to Contractor",
    "contractor": "Waste Pro",
    "rowid": "1026988",
    "final_x": "3718914.51647",
    "final_y": "561002.822814",
    "longitude": "-89.94880535083591",
    "latitude": "30.035372983802443",
    "geocoded_column": {
      "latitude": "30.035372983802443",
      "longitude": "-89.94880535083591"
    }
  },
  {
    "service_request": "2023-1026987",
    "request_type": "Trash/Recycling",
    "request_reason": "Repair Trash Cart",
    "date_created": "2023-08-16T16:17:52.000",
    "date_modified": "2023-08-16T16:17:52.000",
    "request_status": "Pending",
    "responsible_agency": "Department of Sanitation",
    "final_address": "4900 Gilbert St",
    "address_councildis": "E",
    "status": "Assigned to Contractor",
    "contractor": "Waste Pro",
    "rowid": "1026987",
    "final_x": "3729392.77734",
    "final_y": "562508.973855",
    "longitude": "-89.9156339178009",
    "latitude": "30.039161982147174",
    "geocoded_column": {
      "latitude": "30.039161982147174",
      "longitude": "-89.9156339178009"
    }
  },
  {
    "service_request": "2023-1026986",
    "request_type": "Trash/Recycling",
    "request_reason": "Replace Trash Cart",
    "date_created": "2023-08-16T16:17:37.000",
    "date_modified": "2023-08-16T16:17:38.000",
    "request_status": "Pending",
    "responsible_agency": "Department of Sanitation",
    "final_address": "4025 Banks St",
    "address_councildis": "A",
    "status": "Assigned to Contractor",
    "contractor": "Richards Disposal",
    "rowid": "1026986",
    "final_x": "3670620.49979",
    "final_y": "537277.5394",
    "longitude": "-90.10222862285204",
    "latitude": "29.97165284059686",
    "geocoded_column": {
      "latitude": "29.97165284059686",
      "longitude": "-90.10222862285204"
    }
  },
  {
    "service_request": "2023-1026985",
    "request_type": "Trash/Recycling",
    "request_reason": "Replace Trash Cart",
    "date_created": "2023-08-16T16:16:56.000",
    "date_modified": "2023-08-16T16:16:56.000",
    "request_status": "Pending",
    "responsible_agency": "Department of Sanitation",
    "final_address": "4900 Gilbert St",
    "address_councildis": "E",
    "status": "Assigned to Contractor",
    "contractor": "Waste Pro",
    "rowid": "1026985",
    "final_x": "3729392.77734",
    "final_y": "562508.973855",
    "longitude": "-89.9156339178009",
    "latitude": "30.039161982147174",
    "geocoded_column": {
      "latitude": "30.039161982147174",
      "longitude": "-89.9156339178009"
    }
  },
  {
    "service_request": "2023-1026984",
    "request_type": "Traffic Signals/Signs/Striping/Streetlights",
    "request_reason": "Traffic Sign Missing/Damaged",
    "date_created": "2023-08-16T16:11:14.000",
    "date_modified": "2023-08-16T16:11:15.000",
    "request_status": "Pending",
    "responsible_agency": "Department of Public Works",
    "final_address": "HICKERSON DR & GRANT ST",
    "address_councildis": "E",
    "status": "Pending",
    "rowid": "1026984",
    "final_x": "3710457.8",
    "final_y": "554920.18",
    "longitude": "-89.97575748582076",
    "latitude": "30.018926365317586",
    "geocoded_column": {
      "latitude": "30.018926365317586",
      "longitude": "-89.97575748582076"
    }
  },
  {
    "service_request": "2023-1026983",
    "request_type": "Trash/Recycling",
    "request_reason": "Missed Trash Pick-Up",
    "date_created": "2023-08-16T16:11:12.000",
    "date_modified": "2023-08-16T16:35:14.000",
    "case_close_date": "2023-08-16T11:35:14.000",
    "request_status": "Closed",
    "responsible_agency": "Department of Sanitation",
    "final_address": "8741 Aberdeen Rd",
    "address_councildis": "E",
    "status": "Assigned to Contractor",
    "contractor": "Waste Pro",
    "contractor_action": "Completed",
    "rowid": "1026983",
    "final_x": "3704782.37035",
    "final_y": "562416.635615",
    "longitude": "-89.99341272302453",
    "latitude": "30.039722364728703",
    "geocoded_column": {
      "latitude": "30.039722364728703",
      "longitude": "-89.99341272302453"
    }
  },
  {
    "service_request": "2023-1026982",
    "request_type": "Roads/Drainage",
    "request_reason": "Pothole",
    "date_created": "2023-08-16T16:06:49.000",
    "date_modified": "2023-08-16T16:06:49.000",
    "request_status": "Pending",
    "responsible_agency": "Department of Public Works",
    "final_address": "5024 Pontchartrain Blvd",
    "address_councildis": "A",
    "status": "Pending",
    "rowid": "1026982",
    "final_x": "3666782.53492",
    "final_y": "539669.24097",
    "longitude": "-90.11426918052314",
    "latitude": "29.97834204510771",
    "geocoded_column": {
      "latitude": "29.97834204510771",
      "longitude": "-90.11426918052314"
    }
  },
  {
    "service_request": "2023-1026981",
    "request_type": "Trash/Recycling",
    "request_reason": "Illegal Dumping",
    "date_created": "2023-08-16T16:04:25.000",
    "date_modified": "2023-08-16T16:04:25.000",
    "request_status": "Pending",
    "responsible_agency": "Department of Sanitation",
    "final_address": "ANNETTE ST & N ROMAN ST",
    "address_councildis": "D",
    "status": "Pending",
    "rowid": "1026981",
    "final_x": "3682939.8",
    "final_y": "538727.28",
    "longitude": "-90.06327170497366",
    "latitude": "29.97526942829095",
    "geocoded_column": {
      "latitude": "29.97526942829095",
      "longitude": "-90.06327170497366"
    }
  },
  {
    "service_request": "2023-1026980",
    "request_type": "Trash/Recycling",
    "request_reason": "Repair Recycling Cart",
    "date_created": "2023-08-16T16:04:06.000",
    "date_modified": "2023-08-16T16:04:07.000",
    "request_status": "Pending",
    "responsible_agency": "Department of Sanitation",
    "final_address": "1719 Pressburg Dr",
    "address_councildis": "D",
    "status": "Pending",
    "rowid": "1026980",
    "final_x": "3679794.87112",
    "final_y": "554234.067096",
    "longitude": "-90.07266539957693",
    "latitude": "30.018003074652906",
    "geocoded_column": {
      "latitude": "30.018003074652906",
      "longitude": "-90.07266539957693"
    }
  },
  {
    "service_request": "2023-1026979",
    "request_type": "Roads/Drainage",
    "request_reason": "Pothole",
    "date_created": "2023-08-16T16:00:04.000",
    "date_modified": "2023-08-16T16:01:24.000",
    "case_close_date": "2023-08-16T11:01:24.000",
    "request_status": "Closed",
    "responsible_agency": "Department of Public Works",
    "final_address": "1421 Constantinople St",
    "address_councildis": "B",
    "status": "Not Enough Information- Resubmittal Required",
    "rowid": "1026979",
    "final_x": "3672433.24257",
    "final_y": "520667.657465",
    "longitude": "-90.09706965638372",
    "latitude": "29.925927453713577",
    "geocoded_column": {
      "latitude": "29.925927453713577",
      "longitude": "-90.09706965638372"
    }
  },
  {
    "service_request": "2023-1026978",
    "request_type": "Trash/Recycling",
    "request_reason": "Request a Large Item Pick Up",
    "date_created": "2023-08-16T15:56:02.000",
    "date_modified": "2023-08-16T15:56:03.000",
    "request_status": "Pending",
    "responsible_agency": "Department of Sanitation",
    "final_address": "1206 Touro St",
    "address_councildis": "C",
    "status": "Assigned to Contractor",
    "contractor": "IV Waste",
    "rowid": "1026978",
    "final_x": "3684168.95804",
    "final_y": "536683.043271",
    "longitude": "-90.05946147947584",
    "latitude": "29.96961096968141",
    "geocoded_column": {
      "latitude": "29.96961096968141",
      "longitude": "-90.05946147947584"
    }
  },
  {
    "service_request": "2023-1026977",
    "request_type": "Traffic Signals/Signs/Striping/Streetlights",
    "request_reason": "Street Light Outage/Malfunction",
    "date_created": "2023-08-16T15:54:32.000",
    "date_modified": "2023-08-16T15:54:33.000",
    "request_status": "Pending",
    "responsible_agency": "Department of Public Works",
    "final_address": "367 Sharon Dr",
    "address_councildis": "A",
    "status": "Assigned to Contractor",
    "contractor": "Legacy Professional Services",
    "rowid": "1026977",
    "final_x": "3664557.72724",
    "final_y": "547232.448849",
    "longitude": "-90.12104323440909",
    "latitude": "29.999203203377817",
    "geocoded_column": {
      "latitude": "29.999203203377817",
      "longitude": "-90.12104323440909"
    }
  },
  {
    "service_request": "2023-1026976",
    "request_type": "Roads/Drainage",
    "request_reason": "Pothole",
    "date_created": "2023-08-16T15:54:19.000",
    "date_modified": "2023-08-16T16:02:46.000",
    "case_close_date": "2023-08-16T11:02:46.000",
    "request_status": "Closed",
    "responsible_agency": "Department of Public Works",
    "final_address": "1312 Milan St",
    "address_councildis": "B",
    "status": "Not Enough Information- Resubmittal Required",
    "rowid": "1026976",
    "final_x": "3671625.82823",
    "final_y": "520286.919608",
    "longitude": "-90.09963137110304",
    "latitude": "29.92490447494246",
    "geocoded_column": {
      "latitude": "29.92490447494246",
      "longitude": "-90.09963137110304"
    }
  },
  {
    "service_request": "2023-1026975",
    "request_type": "Trash/Recycling",
    "request_reason": "Request a Large Item Pick Up",
    "date_created": "2023-08-16T15:53:51.000",
    "date_modified": "2023-08-16T16:16:50.000",
    "request_status": "Pending",
    "responsible_agency": "Department of Sanitation",
    "final_address": "2339 Nashville Ave",
    "address_councildis": "A",
    "status": "Assigned to Contractor",
    "contractor": "Richards Disposal",
    "rowid": "1026975",
    "final_x": "3667110.42017",
    "final_y": "524825.975868",
    "longitude": "-90.11373257887897",
    "latitude": "29.93751834241758",
    "geocoded_column": {
      "latitude": "29.93751834241758",
      "longitude": "-90.11373257887897"
    }
  },
  {
    "service_request": "2023-1026974",
    "request_type": "Traffic Signals/Signs/Striping/Streetlights",
    "request_reason": "Street Light Outage/Malfunction",
    "date_created": "2023-08-16T15:53:06.000",
    "date_modified": "2023-08-16T15:53:07.000",
    "request_status": "Pending",
    "responsible_agency": "Department of Public Works",
    "final_address": "367 Sharon Dr",
    "address_councildis": "A",
    "status": "Assigned to Contractor",
    "contractor": "Legacy Professional Services",
    "rowid": "1026974",
    "final_x": "3664557.72724",
    "final_y": "547232.448849",
    "longitude": "-90.12104323440909",
    "latitude": "29.999203203377817",
    "geocoded_column": {
      "latitude": "29.999203203377817",
      "longitude": "-90.12104323440909"
    }
  },
  {
    "service_request": "2023-1026973",
    "request_type": "Trash/Recycling",
    "request_reason": "Request a Large Item Pick Up",
    "date_created": "2023-08-16T15:47:50.000",
    "date_modified": "2023-08-16T15:47:51.000",
    "request_status": "Pending",
    "responsible_agency": "Department of Sanitation",
    "final_address": "218 S Murat St",
    "address_councildis": "A",
    "status": "Assigned to Contractor",
    "contractor": "Richards Disposal",
    "rowid": "1026973",
    "final_x": "3669369.52942",
    "final_y": "538904.628426",
    "longitude": "-90.10612435303464",
    "latitude": "29.976163685948126",
    "geocoded_column": {
      "latitude": "29.976163685948126",
      "longitude": "-90.10612435303464"
    }
  },
  {
    "service_request": "2023-1026971",
    "request_type": "Trash/Recycling",
    "request_reason": "Request a Large Item Pick Up",
    "date_created": "2023-08-16T15:40:49.000",
    "date_modified": "2023-08-16T15:40:50.000",
    "request_status": "Pending",
    "responsible_agency": "Department of Sanitation",
    "final_address": "2435 First St",
    "address_councildis": "B",
    "status": "Assigned to Contractor",
    "contractor": "Richards Disposal",
    "rowid": "1026971",
    "final_x": "3675228.47931",
    "final_y": "525888.432317",
    "longitude": "-90.08806680446573",
    "latitude": "29.94019966406219",
    "geocoded_column": {
      "latitude": "29.94019966406219",
      "longitude": "-90.08806680446573"
    }
  },
  {
    "service_request": "2023-1026970",
    "request_type": "Roads/Drainage",
    "request_reason": "Pothole",
    "date_created": "2023-08-16T15:40:18.000",
    "date_modified": "2023-08-16T15:40:18.000",
    "request_status": "Pending",
    "responsible_agency": "Department of Public Works",
    "final_address": "7227 Benjamin St",
    "address_councildis": "A",
    "status": "Pending",
    "rowid": "1026970",
    "final_x": "3662265.62016",
    "final_y": "524049.864444",
    "longitude": "-90.12905378623202",
    "latitude": "29.935525183944705",
    "geocoded_column": {
      "latitude": "29.935525183944705",
      "longitude": "-90.12905378623202"
    }
  },
  {
    "service_request": "2023-1026969",
    "request_type": "Trash/Recycling",
    "request_reason": "Replace Trash Cart",
    "date_created": "2023-08-16T15:37:35.000",
    "date_modified": "2023-08-16T15:37:36.000",
    "request_status": "Pending",
    "responsible_agency": "Department of Sanitation",
    "final_address": "8741 Gervais St",
    "address_councildis": "E",
    "status": "Assigned to Contractor",
    "contractor": "Waste Pro",
    "rowid": "1026969",
    "final_x": "3704471.55012",
    "final_y": "563069.597664",
    "longitude": "-89.99437088916426",
    "latitude": "30.041527743008537",
    "geocoded_column": {
      "latitude": "30.041527743008537",
      "longitude": "-89.99437088916426"
    }
  },
  {
    "service_request": "2023-1026968",
    "request_type": "Roads/Drainage",
    "request_reason": "Catch Basin - Clogged",
    "date_created": "2023-08-16T15:35:40.000",
    "date_modified": "2023-08-16T15:35:40.000",
    "request_status": "Pending",
    "responsible_agency": "Department of Public Works",
    "final_address": "2318 S Johnson St",
    "address_councildis": "B",
    "status": "Pending",
    "rowid": "1026968",
    "final_x": "3673605.8571",
    "final_y": "528626.48544",
    "longitude": "-90.09309611832428",
    "latitude": "29.947776799994553",
    "geocoded_column": {
      "latitude": "29.947776799994553",
      "longitude": "-90.09309611832428"
    }
  },
  {
    "service_request": "2023-1026967",
    "request_type": "Parks & Parkways",
    "request_reason": "Request Tree Service (Right of Way/Public Property)",
    "date_created": "2023-08-16T15:33:54.000",
    "date_modified": "2023-08-16T15:33:55.000",
    "request_status": "Pending",
    "responsible_agency": "Department of Parks & Parkway",
    "final_address": "4626 Nighthart St",
    "address_councildis": "E",
    "status": "Pending",
    "rowid": "1026967",
    "final_x": "3716077.71154",
    "final_y": "556587.179994",
    "longitude": "-89.95793752683821",
    "latitude": "30.02332567648016",
    "geocoded_column": {
      "latitude": "30.02332567648016",
      "longitude": "-89.95793752683821"
    }
  },
  {
    "service_request": "2023-1026966",
    "request_type": "Roads/Drainage",
    "request_reason": "Pothole",
    "date_created": "2023-08-16T15:31:30.000",
    "date_modified": "2023-08-16T15:31:30.000",
    "request_status": "Pending",
    "responsible_agency": "Department of Public Works",
    "final_address": "1207 Carondelet St Unit B",
    "address_councildis": "B",
    "status": "Pending",
    "rowid": "1026966",
    "final_x": "3679266.03675",
    "final_y": "526578.588542",
    "longitude": "-90.07529568318263",
    "latitude": "29.941976094408133",
    "geocoded_column": {
      "latitude": "29.941976094408133",
      "longitude": "-90.07529568318263"
    }
  },
  {
    "service_request": "2023-1026965",
    "request_type": "Trash/Recycling",
    "request_reason": "Order Recycling Cart",
    "date_created": "2023-08-16T15:30:47.000",
    "date_modified": "2023-08-16T15:30:47.000",
    "request_status": "Pending",
    "responsible_agency": "Department of Sanitation",
    "final_address": "4626 Nighthart St",
    "address_councildis": "E",
    "status": "Pending",
    "rowid": "1026965",
    "final_x": "3716077.71154",
    "final_y": "556587.179994",
    "longitude": "-89.95793752683821",
    "latitude": "30.02332567648016",
    "geocoded_column": {
      "latitude": "30.02332567648016",
      "longitude": "-89.95793752683821"
    }
  },
  {
    "service_request": "2023-1026964",
    "request_type": "Trash/Recycling",
    "request_reason": "Missed Trash Pick-Up",
    "date_created": "2023-08-16T15:26:54.000",
    "date_modified": "2023-08-16T16:35:45.000",
    "case_close_date": "2023-08-16T11:35:45.000",
    "request_status": "Closed",
    "responsible_agency": "Department of Sanitation",
    "final_address": "8721 Aberdeen Rd",
    "address_councildis": "E",
    "status": "Assigned to Contractor",
    "contractor": "Waste Pro",
    "contractor_action": "Completed",
    "rowid": "1026964",
    "final_x": "3704685.75185",
    "final_y": "562367.240223",
    "longitude": "-89.99371988976154",
    "latitude": "30.03958965314262",
    "geocoded_column": {
      "latitude": "30.03958965314262",
      "longitude": "-89.99371988976154"
    }
  },
  {
    "service_request": "2023-1026963",
    "request_type": "Mosquito, Termite & Rodent Control",
    "request_reason": "Rodent Complaint (Rats)",
    "date_created": "2023-08-16T15:26:51.000",
    "date_modified": "2023-08-16T15:26:51.000",
    "request_status": "Pending",
    "responsible_agency": "Mosquito, Termite & Rodent Control Board",
    "final_address": "18 Crane St",
    "address_councildis": "D",
    "status": "Pending",
    "rowid": "1026963",
    "final_x": "3673288.82964",
    "final_y": "554712.659544",
    "longitude": "-90.09320568217507",
    "latitude": "30.019514247600625",
    "geocoded_column": {
      "latitude": "30.019514247600625",
      "longitude": "-90.09320568217507"
    }
  },
  {
    "service_request": "2023-1026962",
    "request_type": "Trash/Recycling",
    "request_reason": "Order Recycling Cart",
    "date_created": "2023-08-16T15:25:44.000",
    "date_modified": "2023-08-16T15:25:46.000",
    "request_status": "Pending",
    "responsible_agency": "Department of Sanitation",
    "final_address": "215 14Th St",
    "address_councildis": "A",
    "status": "Pending",
    "rowid": "1026962",
    "final_x": "3665497.68948",
    "final_y": "548155.564242",
    "longitude": "-90.11804293056603",
    "latitude": "30.001714075138924",
    "geocoded_column": {
      "latitude": "30.001714075138924",
      "longitude": "-90.11804293056603"
    }
  },
  {
    "service_request": "2023-1026961",
    "request_type": "Trash/Recycling",
    "request_reason": "Repair Trash Cart",
    "date_created": "2023-08-16T15:25:10.000",
    "date_modified": "2023-08-16T15:25:10.000",
    "request_status": "Pending",
    "responsible_agency": "Department of Sanitation",
    "final_address": "4146 Vendome Pl",
    "address_councildis": "B",
    "status": "Assigned to Contractor",
    "contractor": "Richards Disposal",
    "rowid": "1026961",
    "final_x": "3668818.58644",
    "final_y": "530799.967362",
    "longitude": "-90.10813809474072",
    "latitude": "29.953894774899908",
    "geocoded_column": {
      "latitude": "29.953894774899908",
      "longitude": "-90.10813809474072"
    }
  },
  {
    "service_request": "2023-1026960",
    "request_type": "Trash/Recycling",
    "request_reason": "Request a Large Item Pick Up",
    "date_created": "2023-08-16T15:24:45.000",
    "date_modified": "2023-08-16T15:24:45.000",
    "request_status": "Pending",
    "responsible_agency": "Department of Sanitation",
    "final_address": "4975 Redwood St",
    "address_councildis": "E",
    "status": "Assigned to Contractor",
    "contractor": "Waste Pro",
    "rowid": "1026960",
    "final_x": "3712414.6492",
    "final_y": "557643.141659",
    "longitude": "-89.96947218977422",
    "latitude": "30.026349544272808",
    "geocoded_column": {
      "latitude": "30.026349544272808",
      "longitude": "-89.96947218977422"
    }
  },
  {
    "service_request": "2023-1026959",
    "request_type": "Roads/Drainage",
    "request_reason": "Service Cut",
    "date_created": "2023-08-16T15:24:20.000",
    "date_modified": "2023-08-16T15:24:20.000",
    "request_status": "Pending",
    "responsible_agency": "Department of Public Works",
    "final_address": "7300 BLK Newcastle St",
    "address_councildis": "E",
    "status": "Pending",
    "rowid": "1026959",
    "final_x": "3697493.32906",
    "final_y": "558528.838439",
    "longitude": "-90.01658939425725",
    "latitude": "30.029264775425368",
    "geocoded_column": {
      "latitude": "30.029264775425368",
      "longitude": "-90.01658939425725"
    }
  },
  {
    "service_request": "2023-1026958",
    "request_type": "Trash/Recycling",
    "request_reason": "Order Trash Cart",
    "date_created": "2023-08-16T15:24:10.000",
    "date_modified": "2023-08-16T15:24:10.000",
    "request_status": "Pending",
    "responsible_agency": "Department of Sanitation",
    "final_address": "215 14Th St",
    "address_councildis": "A",
    "status": "Assigned to Contractor",
    "contractor": "IV Waste",
    "rowid": "1026958",
    "final_x": "3665497.68948",
    "final_y": "548155.564242",
    "longitude": "-90.11804293056603",
    "latitude": "30.001714075138924",
    "geocoded_column": {
      "latitude": "30.001714075138924",
      "longitude": "-90.11804293056603"
    }
  },
  {
    "service_request": "2023-1026957",
    "request_type": "Roads/Drainage",
    "request_reason": "Debris in Roadway",
    "date_created": "2023-08-16T15:18:15.000",
    "date_modified": "2023-08-16T15:18:15.000",
    "request_status": "Pending",
    "responsible_agency": "Department of Public Works",
    "status": "Pending",
    "rowid": "1026957",
    "longitude": "0.0",
    "latitude": "0.0",
    "geocoded_column": {
      "latitude": "0.0",
      "longitude": "0.0"
    }
  },
  {
    "service_request": "2023-1026956",
    "request_type": "Trash/Recycling",
    "request_reason": "Request a Large Item Pick Up",
    "date_created": "2023-08-16T15:16:17.000",
    "date_modified": "2023-08-16T15:16:18.000",
    "request_status": "Pending",
    "responsible_agency": "Department of Sanitation",
    "final_address": "3301 Bienville Ave",
    "address_councildis": "B",
    "status": "Assigned to Contractor",
    "contractor": "Richards Disposal",
    "rowid": "1026956",
    "final_x": "3674080.97998",
    "final_y": "537158.226888",
    "longitude": "-90.09130397065829",
    "latitude": "29.971222086097352",
    "geocoded_column": {
      "latitude": "29.971222086097352",
      "longitude": "-90.09130397065829"
    }
  },
  {
    "service_request": "2023-1026955",
    "request_type": "Trash/Recycling",
    "request_reason": "Missed Trash Pick-Up",
    "date_created": "2023-08-16T15:15:31.000",
    "date_modified": "2023-08-16T16:37:11.000",
    "case_close_date": "2023-08-16T11:37:11.000",
    "request_status": "Closed",
    "responsible_agency": "Department of Sanitation",
    "final_address": "4819 Sandalwood St",
    "address_councildis": "E",
    "status": "Invalid Request",
    "contractor": "Waste Pro",
    "contractor_action": "Invalid Pick-Up",
    "rowid": "1026955",
    "final_x": "3712267.88645",
    "final_y": "556532.61193",
    "longitude": "-89.96997769083417",
    "latitude": "30.023300827996255",
    "geocoded_column": {
      "latitude": "30.023300827996255",
      "longitude": "-89.96997769083417"
    }
  },
  {
    "service_request": "2023-1026954",
    "request_type": "Roads/Drainage",
    "request_reason": "Pothole",
    "date_created": "2023-08-16T15:15:29.000",
    "date_modified": "2023-08-16T15:17:49.000",
    "case_close_date": "2023-08-16T10:17:49.000",
    "request_status": "Closed",
    "responsible_agency": "Department of Public Works",
    "final_address": "1315 Peniston St",
    "address_councildis": "B",
    "status": "Not Enough Information- Resubmittal Required",
    "rowid": "1026954",
    "final_x": "3673101.31451",
    "final_y": "520423.11276",
    "longitude": "-90.09496908964098",
    "latitude": "29.925235197927364",
    "geocoded_column": {
      "latitude": "29.925235197927364",
      "longitude": "-90.09496908964098"
    }
  },
  {
    "service_request": "2023-1026953",
    "request_type": "Property Maintenance",
    "request_reason": "Property Maintenance",
    "date_created": "2023-08-16T15:13:27.000",
    "date_modified": "2023-08-16T15:13:27.000",
    "request_status": "Pending",
    "responsible_agency": "Department of Code Enforcement",
    "status": "Pending",
    "rowid": "1026953",
    "longitude": "0.0",
    "latitude": "0.0",
    "geocoded_column": {
      "latitude": "0.0",
      "longitude": "0.0"
    }
  },
  {
    "service_request": "2023-1026952",
    "request_type": "Property Maintenance",
    "request_reason": "Property Maintenance",
    "date_created": "2023-08-16T15:11:24.000",
    "date_modified": "2023-08-16T15:11:24.000",
    "request_status": "Pending",
    "responsible_agency": "Department of Code Enforcement",
    "status": "Pending",
    "rowid": "1026952",
    "longitude": "0.0",
    "latitude": "0.0",
    "geocoded_column": {
      "latitude": "0.0",
      "longitude": "0.0"
    }
  },
  {
    "service_request": "2023-1026951",
    "request_type": "Roads/Drainage",
    "request_reason": "Debris in Roadway",
    "date_created": "2023-08-16T15:09:53.000",
    "date_modified": "2023-08-16T15:09:53.000",
    "request_status": "Pending",
    "responsible_agency": "Department of Public Works",
    "final_address": "1342 Feliciana St",
    "address_councildis": "C",
    "status": "Pending",
    "rowid": "1026951",
    "final_x": "3688972.4959",
    "final_y": "537151.880968",
    "longitude": "-90.04427487944068",
    "latitude": "29.970752395548974",
    "geocoded_column": {
      "latitude": "29.970752395548974",
      "longitude": "-90.04427487944068"
    }
  },
  {
    "service_request": "2023-1026950",
    "request_type": "Roads/Drainage",
    "request_reason": "Pothole",
    "date_created": "2023-08-16T15:06:48.000",
    "date_modified": "2023-08-16T15:06:48.000",
    "request_status": "Pending",
    "responsible_agency": "Department of Public Works",
    "final_address": "1320 Montegut St",
    "address_councildis": "C",
    "status": "Pending",
    "rowid": "1026950",
    "final_x": "3688623.38761",
    "final_y": "537020.802696",
    "longitude": "-90.04538205609813",
    "latitude": "29.970402770766466",
    "geocoded_column": {
      "latitude": "29.970402770766466",
      "longitude": "-90.04538205609813"
    }
  },
  {
    "service_request": "2023-1026949",
    "request_type": "Abandoned Vehicles",
    "request_reason": "Abandoned/Junk Vehicles",
    "date_created": "2023-08-16T15:05:21.000",
    "date_modified": "2023-08-16T15:05:21.000",
    "request_status": "Pending",
    "responsible_agency": "Department of Public Works",
    "status": "Pending",
    "rowid": "1026949",
    "longitude": "0.0",
    "latitude": "0.0",
    "geocoded_column": {
      "latitude": "0.0",
      "longitude": "0.0"
    }
  },
  {
    "service_request": "2023-1026948",
    "request_type": "Trash/Recycling",
    "request_reason": "Order Recycling Cart",
    "date_created": "2023-08-16T15:04:36.000",
    "date_modified": "2023-08-16T15:04:36.000",
    "request_status": "Pending",
    "responsible_agency": "Department of Sanitation",
    "final_address": "5859 West End Blvd",
    "address_councildis": "A",
    "status": "Pending",
    "rowid": "1026948",
    "final_x": "3666485.56052",
    "final_y": "546926.517649",
    "longitude": "-90.11496341693643",
    "latitude": "29.998305774247612",
    "geocoded_column": {
      "latitude": "29.998305774247612",
      "longitude": "-90.11496341693643"
    }
  },
  {
    "service_request": "2023-1026947",
    "request_type": "Roads/Drainage",
    "request_reason": "Damaged Sidewalk",
    "date_created": "2023-08-16T15:03:33.000",
    "date_modified": "2023-08-16T15:03:33.000",
    "request_status": "Pending",
    "responsible_agency": "Department of Public Works",
    "final_address": "1830 Congress St",
    "address_councildis": "D",
    "status": "Pending",
    "rowid": "1026947",
    "final_x": "3691396.64668",
    "final_y": "538460.120201",
    "longitude": "-90.03657238499581",
    "latitude": "29.974274380499434",
    "geocoded_column": {
      "latitude": "29.974274380499434",
      "longitude": "-90.03657238499581"
    }
  },
  {
    "service_request": "2023-1026946",
    "request_type": "Traffic Signals/Signs/Striping/Streetlights",
    "request_reason": "Street Light Outage/Malfunction",
    "date_created": "2023-08-16T14:55:30.000",
    "date_modified": "2023-08-16T14:55:30.000",
    "request_status": "Pending",
    "responsible_agency": "Department of Public Works",
    "final_address": "DUMAINE ST & WILSON DR",
    "address_councildis": "A",
    "status": "Assigned to Contractor",
    "contractor": "Legacy Professional Services",
    "rowid": "1026946",
    "final_x": "3674091.0",
    "final_y": "539858.58",
    "longitude": "-90.09117987685747",
    "latitude": "29.978646838909015",
    "geocoded_column": {
      "latitude": "29.978646838909015",
      "longitude": "-90.09117987685747"
    }
  },
  {
    "service_request": "2023-1026945",
    "request_type": "Traffic Signals/Signs/Striping/Streetlights",
    "request_reason": "Street Light Outage/Malfunction",
    "date_created": "2023-08-16T14:53:58.000",
    "date_modified": "2023-08-16T14:53:58.000",
    "request_status": "Pending",
    "responsible_agency": "Department of Public Works",
    "final_address": "Elaine Place & Wilson Drive",
    "address_councildis": "A",
    "status": "Assigned to Contractor",
    "contractor": "Legacy Professional Services",
    "rowid": "1026945",
    "final_x": "3674041.57595",
    "final_y": "539425.494346",
    "longitude": "-90.09135080282688",
    "latitude": "29.977457474497157",
    "geocoded_column": {
      "latitude": "29.977457474497157",
      "longitude": "-90.09135080282688"
    }
  },
  {
    "service_request": "2023-1026944",
    "request_type": "Trash/Recycling",
    "request_reason": "Request a Large Item Pick Up",
    "date_created": "2023-08-16T14:52:43.000",
    "date_modified": "2023-08-16T14:52:45.000",
    "request_status": "Pending",
    "responsible_agency": "Department of Sanitation",
    "final_address": "2327 Franklin Ave",
    "address_councildis": "D",
    "status": "Assigned to Contractor",
    "contractor": "IV Waste",
    "rowid": "1026944",
    "final_x": "3687631.09961",
    "final_y": "541168.60558",
    "longitude": "-90.04836890752634",
    "latitude": "29.981838398323543",
    "geocoded_column": {
      "latitude": "29.981838398323543",
      "longitude": "-90.04836890752634"
    }
  },
  {
    "service_request": "2023-1026943",
    "request_type": "Traffic Signals/Signs/Striping/Streetlights",
    "request_reason": "Street Light Outage/Malfunction",
    "date_created": "2023-08-16T14:51:58.000",
    "date_modified": "2023-08-16T14:51:58.000",
    "request_status": "Pending",
    "responsible_agency": "Department of Public Works",
    "final_address": "800 BLK Wilson Dr",
    "address_councildis": "A",
    "status": "Assigned to Contractor",
    "contractor": "Legacy Professional Services",
    "rowid": "1026943",
    "final_x": "3674065.99927",
    "final_y": "539641.88015",
    "longitude": "-90.09126625756139",
    "latitude": "29.978051733601955",
    "geocoded_column": {
      "latitude": "29.978051733601955",
      "longitude": "-90.09126625756139"
    }
  },
  {
    "service_request": "2023-1026942",
    "request_type": "Traffic Signals/Signs/Striping/Streetlights",
    "request_reason": "Street Light Outage/Malfunction",
    "date_created": "2023-08-16T14:50:24.000",
    "date_modified": "2023-08-16T14:50:24.000",
    "request_status": "Pending",
    "responsible_agency": "Department of Public Works",
    "final_address": "855 Wilson Dr",
    "address_councildis": "A",
    "status": "Assigned to Contractor",
    "contractor": "Legacy Professional Services",
    "rowid": "1026942",
    "final_x": "3674029.82881",
    "final_y": "539676.240522",
    "longitude": "-90.09137932059602",
    "latitude": "29.978147290917736",
    "geocoded_column": {
      "latitude": "29.978147290917736",
      "longitude": "-90.09137932059602"
    }
  },