[
  {
    "service_request": "2024-1095558",
    "request_type": "Roads/Drainage",
    "request_reason": "Pothole",
    "date_created": "2024-05-21T23:52:34.000",
    "date_modified": "2024-05-21T23:52:34.000",
    "request_status": "Pending",
    "responsible_agency": "Department of Public Works",
    "final_address": "1200 BLK Henry Clay Ave",
    "address_councildis": "A",
    "status": "Pending",
    "rowid": "1095558",
    "final_x": "3664350.46588",
    "final_y": "520999.069994",
    "longitude": "-90.12257365301132",
    "latitude": "29.927076048458613",
    "geocoded_column": {
      "latitude": "29.927076048458613",
      "longitude": "-90.12257365301132"
    }
  },
  {
    "service_request": "2024-1095556",
    "request_type": "Roads/Drainage",
    "request_reason": "Pothole",
    "date_created": "2024-05-21T23:16:28.000",
    "date_modified": "2024-05-21T23:16:28.000",
    "request_status": "Pending",
    "responsible_agency": "Department of Public Works",
    "final_address": "1422 General Pershing St",
    "address_councildis": "B",
    "status": "Pending",
    "rowid": "1095556",
    "final_x": "3671239.44116",
    "final_y": "520532.324984",
    "longitude": "-90.10084273889387",
    "latitude": "29.925590694745555",
    "geocoded_column": {
      "latitude": "29.925590694745555",
      "longitude": "-90.10084273889387"
    }
  },
  {
    "service_request": "2024-1095555",
    "request_type": "Property Maintenance",
    "request_reason": "Property Maintenance",
    "date_created": "2024-05-21T22:56:41.000",
    "date_modified": "2024-05-21T22:56:41.000",
    "request_status": "Pending",
    "responsible_agency": "Department of Code Enforcement",
    "final_address": "13529 St Marie Ct",
    "address_councildis": "E",
    "status": "Pending",
    "rowid": "1095555",
    "final_x": "3724007.19782",
    "final_y": "569169.957094",
    "longitude": "-89.93239629351808",
    "latitude": "30.057659032287305",
    "geocoded_column": {
      "latitude": "30.057659032287305",
      "longitude": "-89.93239629351808"
    }
  },
  {
    "service_request": "2024-1095554",
    "request_type": "Property Maintenance",
    "request_reason": "Property Maintenance",
    "date_created": "2024-05-21T22:55:36.000",
    "date_modified": "2024-05-21T22:55:36.000",
    "request_status": "Pending",
    "responsible_agency": "Department of Code Enforcement",
    "final_address": "Columbus Street & Marais Street",
    "address_councildis": "C",
    "status": "Pending",
    "rowid": "1095554",
    "final_x": "3682666.57672",
    "final_y": "536380.946631",
    "longitude": "-90.0642166916763",
    "latitude": "29.96882614890167",
    "geocoded_column": {
      "latitude": "29.96882614890167",
      "longitude": "-90.0642166916763"
    }
  },
  {
    "service_request": "2024-1095553",
    "request_type": "Roads/Drainage",
    "request_reason": "Pothole",
    "date_created": "2024-05-21T22:41:50.000",
    "date_modified": "2024-05-21T22:41:50.000",
    "request_status": "Pending",
    "responsible_agency": "Department of Public Works",
    "final_address": "IBERVILLE ST & HELENA ST",
    "address_councildis": "A",
    "status": "Pending",
    "rowid": "1095553",
    "final_x": "3668500.9",
    "final_y": "540872.78",
    "longitude": "-90.10880131989474",
    "latitude": "29.98160099019757",
    "geocoded_column": {
      "latitude": "29.98160099019757",
      "longitude": "-90.10880131989474"
    }
  },
  {
    "service_request": "2024-1095552",
    "request_type": "Traffic Signals/Signs/Striping/Streetlights",
    "request_reason": "Street Light Outage/Malfunction",
    "date_created": "2024-05-21T21:20:40.000",
    "date_modified": "2024-05-21T21:20:41.000",
    "request_status": "Pending",
    "responsible_agency": "Department of Public Works",
    "final_address": "3021 Jena St",
    "address_councildis": "B",
    "status": "Assigned to Contractor",
    "contractor": "Legacy Professional Services",
    "rowid": "1095552",
    "final_x": "3669966.7906",
    "final_y": "526093.56499",
    "longitude": "-90.10467187796287",
    "latitude": "29.940919896787673",
    "geocoded_column": {
      "latitude": "29.940919896787673",
      "longitude": "-90.10467187796287"
    }
  },
  {
    "service_request": "2024-1095551",
    "request_type": "Trash/Recycling",
    "request_reason": "Request a Large Item Pick Up",
    "date_created": "2024-05-21T21:20:12.000",
    "date_modified": "2024-05-21T21:20:13.000",
    "request_status": "Pending",
    "responsible_agency": "Department of Sanitation",
    "final_address": "810 Lesseps St",
    "address_councildis": "C",
    "status": "Assigned to Contractor",
    "contractor": "IV Waste",
    "rowid": "1095551",
    "final_x": "3692408.00566",
    "final_y": "534043.787717",
    "longitude": "-90.03353650775145",
    "latitude": "29.962099515949006",
    "geocoded_column": {
      "latitude": "29.962099515949006",
      "longitude": "-90.03353650775145"
    }
  },
  {
    "service_request": "2024-1095550",
    "request_type": "Trash/Recycling",
    "request_reason": "Request a Large Item Pick Up",
    "date_created": "2024-05-21T21:19:39.000",
    "date_modified": "2024-05-21T21:19:40.000",
    "request_status": "Pending",
    "responsible_agency": "Department of Sanitation",
    "final_address": "1836 Milan St",
    "address_councildis": "B",
    "status": "Assigned to Contractor",
    "contractor": "IV Waste",
    "rowid": "1095550",
    "final_x": "3671441.31169",
    "final_y": "521959.758714",
    "longitude": "-90.10015699973437",
    "latitude": "29.929509708075912",
    "geocoded_column": {
      "latitude": "29.929509708075912",
      "longitude": "-90.10015699973437"
    }
  },
  {
    "service_request": "2024-1095549",
    "request_type": "Trash/Recycling",
    "request_reason": "Request a Large Item Pick Up",
    "date_created": "2024-05-21T21:05:11.000",
    "date_modified": "2024-05-21T21:05:12.000",
    "request_status": "Pending",
    "responsible_agency": "Department of Sanitation",
    "final_address": "4441 Eastview Dr, New Orleans, Louisiana, 70126",
    "address_councildis": "E",
    "status": "Assigned to Contractor",
    "contractor": "Waste Pro",
    "rowid": "1095549",
    "final_x": "3705310.42199",
    "final_y": "553668.028119",
    "longitude": "-89.99206756791003",
    "latitude": "30.015650112467114",
    "geocoded_column": {
      "latitude": "30.015650112467114",
      "longitude": "-89.99206756791003"
    }
  },
  {
    "service_request": "2024-1095548",
    "request_type": "Trash/Recycling",
    "request_reason": "Missed Trash Pick-Up",
    "date_created": "2024-05-21T20:58:10.000",
    "date_modified": "2024-05-21T20:58:10.000",
    "request_status": "Pending",
    "responsible_agency": "Department of Sanitation",
    "final_address": "4444 Dodt Ave, New Orleans, Louisiana, 70126",
    "address_councildis": "E",
    "status": "Assigned to Contractor",
    "contractor": "Waste Pro",
    "rowid": "1095548",
    "final_x": "3705551.04625",
    "final_y": "553695.131799",
    "longitude": "-89.99130630817118",
    "latitude": "30.01571689027482",
    "geocoded_column": {
      "latitude": "30.01571689027482",
      "longitude": "-89.99130630817118"
    }
  },
  {
    "service_request": "2024-1095547",
    "request_type": "Trash/Recycling",
    "request_reason": "Replace Trash Cart",
    "date_created": "2024-05-21T20:49:42.000",
    "date_modified": "2024-05-21T20:49:42.000",
    "request_status": "Pending",
    "responsible_agency": "Department of Sanitation",
    "final_address": "4959 Perelli Dr",
    "address_councildis": "E",
    "status": "Assigned to Contractor",
    "contractor": "Waste Pro",
    "rowid": "1095547",
    "final_x": "3711654.1205",
    "final_y": "557504.679835",
    "longitude": "-89.97188054569989",
    "latitude": "30.02599369752653",
    "geocoded_column": {
      "latitude": "30.02599369752653",
      "longitude": "-89.97188054569989"
    }
  },
  {
    "service_request": "2024-1095546",
    "request_type": "Trash/Recycling",
    "request_reason": "Request a Large Item Pick Up",
    "date_created": "2024-05-21T20:48:13.000",
    "date_modified": "2024-05-21T20:48:14.000",
    "request_status": "Pending",
    "responsible_agency": "Department of Sanitation",
    "final_address": "7901 Nelson St",
    "address_councildis": "A",
    "status": "Assigned to Contractor",
    "contractor": "IV Waste",
    "rowid": "1095546",
    "final_x": "3665717.81389",
    "final_y": "531414.921027",
    "longitude": "-90.117908503142",
    "latitude": "29.955676498430584",
    "geocoded_column": {
      "latitude": "29.955676498430584",
      "longitude": "-90.117908503142"
    }
  },
  {
    "service_request": "2024-1095545",
    "request_type": "Trash/Recycling",
    "request_reason": "Illegal Dumping",
    "date_created": "2024-05-21T20:36:10.000",
    "date_modified": "2024-05-21T20:36:10.000",
    "request_status": "Pending",
    "responsible_agency": "Department of Sanitation",
    "final_address": "2562 Jonquil St",
    "address_councildis": "D",
    "status": "Pending",
    "rowid": "1095545",
    "final_x": "3686799.48854",
    "final_y": "547159.288593",
    "longitude": "-90.05078373407476",
    "latitude": "29.99833625254322",
    "geocoded_column": {
      "latitude": "29.99833625254322",
      "longitude": "-90.05078373407476"
    }
  },
  {
    "service_request": "2024-1095544",
    "request_type": "Trash/Recycling",
    "request_reason": "Request a Large Item Pick Up",
    "date_created": "2024-05-21T20:23:56.000",
    "date_modified": "2024-05-21T20:23:57.000",
    "request_status": "Pending",
    "responsible_agency": "Department of Sanitation",
    "final_address": "2022 N Miro St",
    "address_councildis": "D",
    "status": "Assigned to Contractor",
    "contractor": "IV Waste",
    "rowid": "1095544",
    "final_x": "3683385.40348",
    "final_y": "540220.829003",
    "longitude": "-90.06181202852405",
    "latitude": "29.979362578081844",
    "geocoded_column": {
      "latitude": "29.979362578081844",
      "longitude": "-90.06181202852405"
    }
  },
  {
    "service_request": "2024-1095543",
    "request_type": "Trash/Recycling",
    "request_reason": "Replace Trash Cart",
    "date_created": "2024-05-21T20:16:48.000",
    "date_modified": "2024-05-21T20:16:48.000",
    "request_status": "Pending",
    "responsible_agency": "Department of Sanitation",
    "final_address": "4944 Meadowbank Dr",
    "address_councildis": "E",
    "status": "Assigned to Contractor",
    "contractor": "Waste Pro",
    "rowid": "1095543",
    "final_x": "3718844.84466",
    "final_y": "558275.075228",
    "longitude": "-89.94912965582834",
    "latitude": "30.027875093042976",
    "geocoded_column": {
      "latitude": "30.027875093042976",
      "longitude": "-89.94912965582834"
    }
  },
  {
    "service_request": "2024-1095542",
    "request_type": "Trash/Recycling",
    "request_reason": "Order Recycling Cart",
    "date_created": "2024-05-21T19:09:03.000",
    "date_modified": "2024-05-21T19:09:03.000",
    "request_status": "Pending",
    "responsible_agency": "Department of Sanitation",
    "final_address": "2737 Iberville St",
    "address_councildis": "B",
    "status": "Pending",
    "rowid": "1095542",
    "final_x": "3675387.95163",
    "final_y": "535752.706439",
    "longitude": "-90.08722464214715",
    "latitude": "29.967318363063253",
    "geocoded_column": {
      "latitude": "29.967318363063253",
      "longitude": "-90.08722464214715"
    }
  },
  {
    "service_request": "2024-1095541",
    "request_type": "Trash/Recycling",
    "request_reason": "Request a Large Item Pick Up",
    "date_created": "2024-05-21T18:52:55.000",
    "date_modified": "2024-05-21T18:52:56.000",
    "request_status": "Pending",
    "responsible_agency": "Department of Sanitation",
    "final_address": "203 Audubon Blvd",
    "address_councildis": "A",
    "status": "Assigned to Contractor",
    "contractor": "IV Waste",
    "rowid": "1095541",
    "final_x": "3666360.57639",
    "final_y": "528402.465856",
    "longitude": "-90.11597993864528",
    "latitude": "29.947374463402497",
    "geocoded_column": {
      "latitude": "29.947374463402497",
      "longitude": "-90.11597993864528"
    }
  },
  {
    "service_request": "2024-1095540",
    "request_type": "Trash/Recycling",
    "request_reason": "Request a Large Item Pick Up",
    "date_created": "2024-05-21T18:42:18.000",
    "date_modified": "2024-05-21T18:42:19.000",
    "request_status": "Pending",
    "responsible_agency": "Department of Sanitation",
    "final_address": "7614 Burthe St",
    "address_councildis": "A",
    "status": "Assigned to Contractor",
    "contractor": "IV Waste",
    "rowid": "1095540",
    "final_x": "3662458.37811",
    "final_y": "526453.54195",
    "longitude": "-90.1283654446115",
    "latitude": "29.942128962552445",
    "geocoded_column": {
      "latitude": "29.942128962552445",
      "longitude": "-90.1283654446115"
    }
  },
  {
    "service_request": "2024-1095539",
    "request_type": "Trash/Recycling",
    "request_reason": "Request a Large Item Pick Up",
    "date_created": "2024-05-21T18:41:42.000",
    "date_modified": "2024-05-21T18:41:42.000",
    "request_status": "Pending",
    "responsible_agency": "Department of Sanitation",
    "final_address": "7614 Burthe St",
    "address_councildis": "A",
    "status": "Assigned to Contractor",
    "contractor": "IV Waste",
    "rowid": "1095539",
    "final_x": "3662458.37811",
    "final_y": "526453.54195",
    "longitude": "-90.1283654446115",
    "latitude": "29.942128962552445",
    "geocoded_column": {
      "latitude": "29.942128962552445",
      "longitude": "-90.1283654446115"
    }
  },
  {
    "service_request": "2024-1095538",
    "request_type": "Trash/Recycling",
    "request_reason": "Missed Trash Pick-Up",
    "date_created": "2024-05-21T18:39:58.000",
    "date_modified": "2024-05-21T18:39:58.000",
    "request_status": "Pending",
    "responsible_agency": "Department of Sanitation",
    "final_address": "8064 Superior Dr",
    "address_councildis": "E",
    "status": "Assigned to Contractor",
    "contractor": "Waste Pro",
    "rowid": "1095538",
    "final_x": "3717726.32658",
    "final_y": "572849.286185",
    "longitude": "-89.95210891498638",
    "latitude": "30.067985304457867",
    "geocoded_column": {
      "latitude": "30.067985304457867",
      "longitude": "-89.95210891498638"
    }
  },
  {
    "service_request": "2024-1095536",
    "request_type": "Trash/Recycling",
    "request_reason": "Order Recycling Cart",
    "date_created": "2024-05-21T18:33:37.000",
    "date_modified": "2024-05-21T18:33:37.000",
    "request_status": "Pending",
    "responsible_agency": "Department of Sanitation",
    "final_address": "5260 Beaucaire St",
    "address_councildis": "E",
    "status": "Pending",
    "rowid": "1095536",
    "final_x": "3724416.03116",
    "final_y": "562783.095904",
    "longitude": "-89.93135104890678",
    "latitude": "30.040084073538118",
    "geocoded_column": {
      "latitude": "30.040084073538118",
      "longitude": "-89.93135104890678"
    }
  },
  {
    "service_request": "2024-1095535",
    "request_type": "Property Maintenance",
    "request_reason": "Property Maintenance",
    "date_created": "2024-05-21T18:27:32.000",
    "date_modified": "2024-05-21T18:27:32.000",
    "request_status": "Pending",
    "responsible_agency": "Department of Code Enforcement",
    "final_address": "3121 Annunciation St",
    "address_councildis": "B",
    "status": "Pending",
    "rowid": "1095535",
    "final_x": "3676546.61473",
    "final_y": "519211.558199",
    "longitude": "-90.08413505594008",
    "latitude": "29.921800980631584",
    "geocoded_column": {
      "latitude": "29.921800980631584",
      "longitude": "-90.08413505594008"
    }
  },
  {
    "service_request": "2024-1095534",
    "request_type": "Trash/Recycling",
    "request_reason": "Replace Trash Cart",
    "date_created": "2024-05-21T18:25:37.000",
    "date_modified": "2024-05-21T18:25:37.000",
    "request_status": "Pending",
    "responsible_agency": "Department of Sanitation",
    "final_address": "365 Millaudon St",
    "address_councildis": "A",
    "status": "Assigned to Contractor",
    "contractor": "IV Waste",
    "rowid": "1095534",
    "final_x": "3661850.40947",
    "final_y": "524512.494204",
    "longitude": "-90.13034928283288",
    "latitude": "29.936809262376077",
    "geocoded_column": {
      "latitude": "29.936809262376077",
      "longitude": "-90.13034928283288"
    }
  },
  {
    "service_request": "2024-1095532",
    "request_type": "Trash/Recycling",
    "request_reason": "Request a Large Item Pick Up",
    "date_created": "2024-05-21T18:14:36.000",
    "date_modified": "2024-05-21T18:14:37.000",
    "request_status": "Pending",
    "responsible_agency": "Department of Sanitation",
    "final_address": "0 BLK Brownlee Ct",
    "address_councildis": "E",
    "status": "Assigned to Contractor",
    "contractor": "Waste Pro",
    "rowid": "1095532",
    "final_x": "3712627.45102",
    "final_y": "567256.93778",
    "longitude": "-89.96843790870709",
    "latitude": "30.05277665832809",
    "geocoded_column": {
      "latitude": "30.05277665832809",
      "longitude": "-89.96843790870709"
    }
  },
  {
    "service_request": "2024-1095531",
    "request_type": "Mosquito, Termite & Rodent Control",
    "request_reason": "Rodent Complaint (Rats)",
    "date_created": "2024-05-21T18:13:58.000",
    "date_modified": "2024-05-21T18:13:58.000",
    "request_status": "Pending",
    "responsible_agency": "Mosquito, Termite & Rodent Control Board",
    "final_address": "1222 Frenchmen St",
    "address_councildis": "C",
    "status": "Pending",
    "rowid": "1095531",
    "final_x": "3684510.02377",
    "final_y": "536832.931464",
    "longitude": "-90.05837909912964",
    "latitude": "29.97001267975877",
    "geocoded_column": {
      "latitude": "29.97001267975877",
      "longitude": "-90.05837909912964"
    }
  },
  {
    "service_request": "2024-1095530",
    "request_type": "Roads/Drainage",
    "request_reason": "Ditch Issue",
    "date_created": "2024-05-21T17:52:38.000",
    "date_modified": "2024-05-21T17:52:38.000",
    "request_status": "Pending",
    "responsible_agency": "Department of Public Works",
    "final_address": "6500 Coventry St",
    "address_councildis": "E",
    "status": "Pending",
    "rowid": "1095530",
    "final_x": "3697413.81431",
    "final_y": "558958.862812",
    "longitude": "-90.01682504491404",
    "latitude": "30.030449689750757",
    "geocoded_column": {
      "latitude": "30.030449689750757",
      "longitude": "-90.01682504491404"
    }
  },
  {
    "service_request": "2024-1095529",
    "request_type": "Property Maintenance",
    "request_reason": "Property Maintenance",
    "date_created": "2024-05-21T17:52:11.000",
    "date_modified": "2024-05-21T17:52:11.000",
    "request_status": "Pending",
    "responsible_agency": "Department of Code Enforcement",
    "final_address": "4601 Magazine St",
    "address_councildis": "B",
    "status": "Pending",
    "rowid": "1095529",
    "final_x": "3670222.87009",
    "final_y": "518830.320631",
    "longitude": "-90.10410938815441",
    "latitude": "29.92094075087251",
    "geocoded_column": {
      "latitude": "29.92094075087251",
      "longitude": "-90.10410938815441"
    }
  },
  {
    "service_request": "2024-1095528",
    "request_type": "Trash/Recycling",
    "request_reason": "Request a Large Item Pick Up",
    "date_created": "2024-05-21T17:46:29.000",
    "date_modified": "2024-05-21T17:46:30.000",
    "request_status": "Pending",
    "responsible_agency": "Department of Sanitation",
    "final_address": "4744 Cardenas Dr",
    "address_councildis": "E",
    "status": "Assigned to Contractor",
    "contractor": "Waste Pro",
    "rowid": "1095528",
    "final_x": "3713611.42341",
    "final_y": "556371.594778",
    "longitude": "-89.9657385190626",
    "latitude": "30.02281407098994",
    "geocoded_column": {
      "latitude": "30.02281407098994",
      "longitude": "-89.9657385190626"
    }
  },
  {
    "service_request": "2024-1095527",
    "request_type": "Trash/Recycling",
    "request_reason": "Request a Large Item Pick Up",
    "date_created": "2024-05-21T17:45:11.000",
    "date_modified": "2024-05-21T17:45:12.000",
    "request_status": "Pending",
    "responsible_agency": "Department of Sanitation",
    "final_address": "7607 Plum St",
    "address_councildis": "A",
    "status": "Assigned to Contractor",
    "contractor": "IV Waste",
    "rowid": "1095527",
    "final_x": "3663498.80423",
    "final_y": "527512.237311",
    "longitude": "-90.12504533124681",
    "latitude": "29.945009910622566",
    "geocoded_column": {
      "latitude": "29.945009910622566",
      "longitude": "-90.12504533124681"
    }
  },
  {
    "service_request": "2024-1095526",
    "request_type": "Trash/Recycling",
    "request_reason": "Request a Large Item Pick Up",
    "date_created": "2024-05-21T17:32:21.000",
    "date_modified": "2024-05-21T17:32:22.000",
    "request_status": "Pending",
    "responsible_agency": "Department of Sanitation",
    "final_address": "7169 Parkside Ct",
    "address_councildis": "E",
    "status": "Assigned to Contractor",
    "contractor": "Waste Pro",
    "rowid": "1095526",
    "final_x": "3704391.8794",
    "final_y": "560507.756126",
    "longitude": "-89.99471726024105",
    "latitude": "30.03448624598184",
    "geocoded_column": {
      "latitude": "30.03448624598184",
      "longitude": "-89.99471726024105"
    }
  },
  {
    "service_request": "2024-1095525",
    "request_type": "Property Maintenance",
    "request_reason": "Property Maintenance",
    "date_created": "2024-05-21T17:24:08.000",
    "date_modified": "2024-05-21T17:24:08.000",
    "request_status": "Pending",
    "responsible_agency": "Department of Code Enforcement",
    "final_address": "4528 Freret St",
    "address_councildis": "B",
    "status": "Pending",
    "rowid": "1095525",
    "final_x": "3669841.90055",
    "final_y": "523938.333308",
    "longitude": "-90.10513911435855",
    "latitude": "29.934997387234766",
    "geocoded_column": {
      "latitude": "29.934997387234766",
      "longitude": "-90.10513911435855"
    }
  },
  {
    "service_request": "2024-1095524",
    "request_type": "Roads/Drainage",
    "request_reason": "Damaged Sidewalk",
    "date_created": "2024-05-21T17:19:48.000",
    "date_modified": "2024-05-21T17:19:48.000",
    "request_status": "Pending",
    "responsible_agency": "Department of Public Works",
    "final_address": "1208 Webster St",
    "address_councildis": "A",
    "status": "Pending",
    "rowid": "1095524",
    "final_x": "3664577.68128",
    "final_y": "520827.326713",
    "longitude": "-90.12186212177069",
    "latitude": "29.92659720484693",
    "geocoded_column": {
      "latitude": "29.92659720484693",
      "longitude": "-90.12186212177069"
    }
  },
  {
    "service_request": "2024-1095523",
    "request_type": "Trash/Recycling",
    "request_reason": "Request a Large Item Pick Up",
    "date_created": "2024-05-21T17:19:35.000",
    "date_modified": "2024-05-21T17:19:36.000",
    "request_status": "Pending",
    "responsible_agency": "Department of Sanitation",
    "final_address": "4700 Cardenas Dr",
    "address_councildis": "E",
    "status": "Assigned to Contractor",
    "contractor": "Waste Pro",
    "rowid": "1095523",
    "final_x": "3713644.22271",
    "final_y": "556044.230809",
    "longitude": "-89.965647228498",
    "latitude": "30.021912872819005",
    "geocoded_column": {
      "latitude": "30.021912872819005",
      "longitude": "-89.965647228498"
    }
  },
  {
    "service_request": "2024-1095522",
    "request_type": "Trash/Recycling",
    "request_reason": "Illegal Dumping",
    "date_created": "2024-05-21T17:18:15.000",
    "date_modified": "2024-05-21T17:18:15.000",
    "request_status": "Pending",
    "responsible_agency": "Department of Sanitation",
    "final_address": "8100 Chef Menteur Hwy",
    "address_councildis": "E",
    "status": "Pending",
    "rowid": "1095522",
    "final_x": "3705383.53463",
    "final_y": "552831.202838",
    "longitude": "-89.99186752093784",
    "latitude": "30.013346810691676",
    "geocoded_column": {
      "latitude": "30.013346810691676",
      "longitude": "-89.99186752093784"
    }
  },
  {
    "service_request": "2024-1095521",
    "request_type": "Trash/Recycling",
    "request_reason": "Missed Trash Pick-Up",
    "date_created": "2024-05-21T17:15:58.000",
    "date_modified": "2024-05-21T17:15:59.000",
    "request_status": "Pending",
    "responsible_agency": "Department of Sanitation",
    "final_address": "7120 Cove Dr",
    "address_councildis": "E",
    "status": "Assigned to Contractor",
    "contractor": "Waste Pro",
    "rowid": "1095521",
    "final_x": "3700148.92119",
    "final_y": "558653.036252",
    "longitude": "-90.00819330337508",
    "latitude": "30.029522094407916",
    "geocoded_column": {
      "latitude": "30.029522094407916",
      "longitude": "-90.00819330337508"
    }
  },
  {
    "service_request": "2024-1095520",
    "request_type": "Trash/Recycling",
    "request_reason": "Illegal Dumping",
    "date_created": "2024-05-21T17:15:06.000",
    "date_modified": "2024-05-21T17:15:06.000",
    "request_status": "Pending",
    "responsible_agency": "Department of Sanitation",
    "final_address": "8654 Chef Menteur Hwy",
    "address_councildis": "E",
    "status": "Pending",
    "rowid": "1095520",
    "final_x": "3707561.37931",
    "final_y": "553211.248855",
    "longitude": "-89.9849726144283",
    "latitude": "30.01432150470112",
    "geocoded_column": {
      "latitude": "30.01432150470112",
      "longitude": "-89.9849726144283"
    }
  },
  {
    "service_request": "2024-1095519",
    "request_type": "Roads/Drainage",
    "request_reason": "Pothole",
    "date_created": "2024-05-21T17:11:08.000",
    "date_modified": "2024-05-21T17:11:08.000",
    "request_status": "Pending",
    "responsible_agency": "Department of Public Works",
    "final_address": "3327 Tulane Ave",
    "address_councildis": "B",
    "status": "Pending",
    "rowid": "1095519",
    "final_x": "3672105.55207",
    "final_y": "534967.769926",
    "longitude": "-90.09761726085706",
    "latitude": "29.96525779544592",
    "geocoded_column": {
      "latitude": "29.96525779544592",
      "longitude": "-90.09761726085706"
    }
  },
  {
    "service_request": "2024-1095518",
    "request_type": "Trash/Recycling",
    "request_reason": "Request a Large Item Pick Up",
    "date_created": "2024-05-21T17:06:45.000",
    "date_modified": "2024-05-21T17:06:46.000",
    "request_status": "Pending",
    "responsible_agency": "Department of Sanitation",
    "final_address": "1719 Desire St, New Orleans, Louisiana, 70117",
    "status": "Assigned to Contractor",
    "rowid": "1095518",
    "longitude": "0.0",
    "latitude": "0.0",
    "geocoded_column": {
      "latitude": "0.0",
      "longitude": "0.0"
    }
  },
  {
    "service_request": "2024-1095517",
    "request_type": "Trash/Recycling",
    "request_reason": "MIssed Recycling Pick-Up",
    "date_created": "2024-05-21T16:59:10.000",
    "date_modified": "2024-05-21T16:59:11.000",
    "request_status": "Pending",
    "responsible_agency": "Department of Sanitation",
    "final_address": "8701 Aberdeen Rd",
    "address_councildis": "E",
    "status": "Assigned to Contractor",
    "contractor": "Waste Pro",
    "rowid": "1095517",
    "final_x": "3704581.75108",
    "final_y": "562309.915871",
    "longitude": "-89.9940506785556",
    "latitude": "30.039435376576918",
    "geocoded_column": {
      "latitude": "30.039435376576918",
      "longitude": "-89.9940506785556"
    }
  },
  {
    "service_request": "2024-1095516",
    "request_type": "Trash/Recycling",
    "request_reason": "Order Trash Cart",
    "date_created": "2024-05-21T16:58:27.000",
    "date_modified": "2024-05-21T16:58:28.000",
    "request_status": "Pending",
    "responsible_agency": "Department of Sanitation",
    "final_address": "4901 Elysian Fields Ave",
    "address_councildis": "D",
    "status": "Assigned to Contractor",
    "contractor": "IV Waste",
    "rowid": "1095516",
    "final_x": "3683964.26901",
    "final_y": "550760.843221",
    "longitude": "-90.05961369786571",
    "latitude": "30.008326184431944",
    "geocoded_column": {
      "latitude": "30.008326184431944",
      "longitude": "-90.05961369786571"
    }
  },
  {
    "service_request": "2024-1095515",
    "request_type": "Trash/Recycling",
    "request_reason": "Missed Trash Pick-Up",
    "date_created": "2024-05-21T16:57:18.000",
    "date_modified": "2024-05-21T16:57:19.000",
    "request_status": "Pending",
    "responsible_agency": "Department of Sanitation",
    "final_address": "11010 Willowbrae Dr",
    "address_councildis": "E",
    "status": "Assigned to Contractor",
    "contractor": "Waste Pro",
    "rowid": "1095515",
    "final_x": "3711452.26552",
    "final_y": "564565.463777",
    "longitude": "-89.97225335401306",
    "latitude": "30.04541463214501",
    "geocoded_column": {
      "latitude": "30.04541463214501",
      "longitude": "-89.97225335401306"
    }
  },
  {
    "service_request": "2024-1095514",
    "request_type": "Trash/Recycling",
    "request_reason": "Repair Recycling Cart",
    "date_created": "2024-05-21T16:53:02.000",
    "date_modified": "2024-05-21T16:53:02.000",
    "request_status": "Pending",
    "responsible_agency": "Department of Sanitation",
    "final_address": "2666 Gladiolus St",
    "address_councildis": "D",
    "status": "Pending",
    "rowid": "1095514",
    "final_x": "3687563.79362",
    "final_y": "547513.273618",
    "longitude": "-90.0483567633485",
    "latitude": "29.99928603820175",
    "geocoded_column": {
      "latitude": "29.99928603820175",
      "longitude": "-90.0483567633485"
    }
  },
  {
    "service_request": "2024-1095513",
    "request_type": "Trash/Recycling",
    "request_reason": "Request a Large Item Pick Up",
    "date_created": "2024-05-21T16:52:36.000",
    "date_modified": "2024-05-21T16:52:37.000",
    "request_status": "Pending",
    "responsible_agency": "Department of Sanitation",
    "final_address": "7530 Burke Ave",
    "address_councildis": "E",
    "status": "Assigned to Contractor",
    "contractor": "Waste Pro",
    "rowid": "1095513",
    "final_x": "3705518.27031",
    "final_y": "562710.52528",
    "longitude": "-89.99107619237093",
    "latitude": "30.040506762886057",
    "geocoded_column": {
      "latitude": "30.040506762886057",
      "longitude": "-89.99107619237093"
    }
  },
  {
    "service_request": "2024-1095512",
    "request_type": "Traffic Signals/Signs/Striping/Streetlights",
    "request_reason": "Additional signage",
    "date_created": "2024-05-21T16:51:54.000",
    "date_modified": "2024-05-21T16:51:54.000",
    "request_status": "Pending",
    "responsible_agency": "Department of Public Works",
    "final_address": "CURRAN BLVD & JONLEE DR",
    "address_councildis": "E",
    "status": "Pending",
    "rowid": "1095512",
    "final_x": "3716888.6",
    "final_y": "570794.88",
    "longitude": "-89.95483523751743",
    "latitude": "30.062364283821246",
    "geocoded_column": {
      "latitude": "30.062364283821246",
      "longitude": "-89.95483523751743"
    }
  },
  {
    "service_request": "2024-1095511",
    "request_type": "Trash/Recycling",
    "request_reason": "Order Trash Cart",
    "date_created": "2024-05-21T16:49:25.000",
    "date_modified": "2024-05-21T16:49:26.000",
    "request_status": "Pending",
    "responsible_agency": "Department of Sanitation",
    "final_address": "3220 Luna St",
    "address_councildis": "C",
    "status": "Assigned to Contractor",
    "contractor": "Richards Disposal",
    "rowid": "1095511",
    "final_x": "3696381.19741",
    "final_y": "528011.566207",
    "longitude": "-90.02120796682831",
    "latitude": "29.945388498530882",
    "geocoded_column": {
      "latitude": "29.945388498530882",
      "longitude": "-90.02120796682831"
    }
  },
  {
    "service_request": "2024-1095510",
    "request_type": "Traffic Signals/Signs/Striping/Streetlights",
    "request_reason": "Street Light Outage/Malfunction",
    "date_created": "2024-05-21T16:47:13.000",
    "date_modified": "2024-05-21T16:47:14.000",
    "request_status": "Pending",
    "responsible_agency": "Department of Public Works",
    "final_address": "2530 Clover St",
    "address_councildis": "D",
    "status": "Assigned to Contractor",
    "contractor": "Legacy Professional Services",
    "rowid": "1095510",
    "final_x": "3686631.51746",
    "final_y": "546554.825745",
    "longitude": "-90.0513357167874",
    "latitude": "29.99667936604779",
    "geocoded_column": {
      "latitude": "29.99667936604779",
      "longitude": "-90.0513357167874"
    }
  },
  {
    "service_request": "2024-1095509",
    "request_type": "Trash/Recycling",
    "request_reason": "Repair Trash Cart",
    "date_created": "2024-05-21T16:46:09.000",
    "date_modified": "2024-05-21T16:46:10.000",
    "request_status": "Pending",
    "responsible_agency": "Department of Sanitation",
    "final_address": "7560 Wave Dr",
    "address_councildis": "E",
    "status": "Assigned to Contractor",
    "contractor": "Waste Pro",
    "rowid": "1095509",
    "final_x": "3715112.84306",
    "final_y": "568448.203685",
    "longitude": "-89.96053725704094",
    "latitude": "30.05597051316982",
    "geocoded_column": {
      "latitude": "30.05597051316982",
      "longitude": "-89.96053725704094"
    }
  },
  {
    "service_request": "2024-1095508",
    "request_type": "Trash/Recycling",
    "request_reason": "Order Trash Cart",
    "date_created": "2024-05-21T16:43:49.000",
    "date_modified": "2024-05-21T16:43:50.000",
    "request_status": "Pending",
    "responsible_agency": "Department of Sanitation",
    "final_address": "3321 Fourth St",
    "address_councildis": "B",
    "status": "Assigned to Contractor",
    "contractor": "IV Waste",
    "rowid": "1095508",
    "final_x": "3672762.18958",
    "final_y": "527936.414207",
    "longitude": "-90.09578344782766",
    "latitude": "29.945904413030615",
    "geocoded_column": {
      "latitude": "29.945904413030615",
      "longitude": "-90.09578344782766"
    }
  },
  {
    "service_request": "2024-1095507",
    "request_type": "Roads/Drainage",
    "request_reason": "Debris in Roadway",
    "date_created": "2024-05-21T16:37:29.000",
    "date_modified": "2024-05-21T16:37:29.000",
    "request_status": "Pending",
    "responsible_agency": "Department of Public Works",
    "final_address": "1210 Peniston St",
    "address_councildis": "B",
    "status": "Pending",
    "rowid": "1095507",
    "final_x": "3673070.73268",
    "final_y": "520149.477688",
    "longitude": "-90.0950749614316",
    "latitude": "29.924483698017024",
    "geocoded_column": {
      "latitude": "29.924483698017024",
      "longitude": "-90.0950749614316"
    }
  },
  {
    "service_request": "2024-1095505",
    "request_type": "Trash/Recycling",
    "request_reason": "Request a Large Item Pick Up",
    "date_created": "2024-05-21T16:34:55.000",
    "date_modified": "2024-05-21T16:34:56.000",
    "request_status": "Pending",
    "responsible_agency": "Department of Sanitation",
    "final_address": "25800 Chef Menteur Hwy",
    "address_councildis": "E",
    "status": "Assigned to Contractor",
    "contractor": "Waste Pro",
    "rowid": "1095505",
    "final_x": "3782064.82898",
    "final_y": "601184.608004",
    "longitude": "-89.74748923034238",
    "latitude": "30.143603796421992",
    "geocoded_column": {
      "latitude": "30.143603796421992",
      "longitude": "-89.74748923034238"
    }
  },
  {
    "service_request": "2024-1095504",
    "request_type": "Trash/Recycling",
    "request_reason": "Request a Large Item Pick Up",
    "date_created": "2024-05-21T16:33:32.000",
    "date_modified": "2024-05-21T16:33:32.000",
    "request_status": "Pending",
    "responsible_agency": "Department of Sanitation",
    "final_address": "7400 Dalewood Rd",
    "address_councildis": "E",
    "status": "Assigned to Contractor",
    "contractor": "Waste Pro",
    "rowid": "1095504",
    "final_x": "3700112.82218",
    "final_y": "559678.814621",
    "longitude": "-90.00826989057227",
    "latitude": "30.032343736472466",
    "geocoded_column": {
      "latitude": "30.032343736472466",
      "longitude": "-90.00826989057227"
    }
  },
  {
    "service_request": "2024-1095503",
    "request_type": "Trash/Recycling",
    "request_reason": "Replace Recycling Cart",
    "date_created": "2024-05-21T16:27:42.000",
    "date_modified": "2024-05-21T16:27:42.000",
    "request_status": "Pending",
    "responsible_agency": "Department of Sanitation",
    "final_address": "308 12Th St",
    "address_councildis": "A",
    "status": "Pending",
    "rowid": "1095503",
    "final_x": "3665026.38816",
    "final_y": "547776.907154",
    "longitude": "-90.11954449779694",
    "latitude": "30.000686634559212",
    "geocoded_column": {
      "latitude": "30.000686634559212",
      "longitude": "-90.11954449779694"
    }
  },
  {
    "service_request": "2024-1095502",
    "request_type": "Trash/Recycling",
    "request_reason": "Replace Trash Cart",
    "date_created": "2024-05-21T16:26:19.000",
    "date_modified": "2024-05-21T16:26:20.000",
    "request_status": "Pending",
    "responsible_agency": "Department of Sanitation",
    "final_address": "308 12Th St",
    "address_councildis": "A",
    "status": "Assigned to Contractor",
    "contractor": "IV Waste",
    "rowid": "1095502",
    "final_x": "3665026.38816",
    "final_y": "547776.907154",
    "longitude": "-90.11954449779694",
    "latitude": "30.000686634559212",
    "geocoded_column": {
      "latitude": "30.000686634559212",
      "longitude": "-90.11954449779694"
    }
  },
  {
    "service_request": "2024-1095501",
    "request_type": "Abandoned Vehicles",
    "request_reason": "Abandoned/Junk Vehicles",
    "date_created": "2024-05-21T16:24:36.000",
    "date_modified": "2024-05-21T16:24:36.000",
    "request_status": "Pending",
    "responsible_agency": "Department of Public Works",
    "final_address": "4528 Flake Ave",
    "address_councildis": "E",
    "status": "Pending",
    "rowid": "1095501",
    "final_x": "3706161.30705",
    "final_y": "554085.902616",
    "longitude": "-89.98936369564717",
    "latitude": "30.01677169246157",
    "geocoded_column": {
      "latitude": "30.01677169246157",
      "longitude": "-89.98936369564717"
    }
  },
  {
    "service_request": "2024-1095500",
    "request_type": "Abandoned Vehicles",
    "request_reason": "Abandoned/Junk Vehicles",
    "date_created": "2024-05-21T16:19:07.000",
    "date_modified": "2024-05-21T16:19:08.000",
    "request_status": "Pending",
    "responsible_agency": "Department of Public Works",
    "final_address": "1012 Marengo St",
    "address_councildis": "B",
    "status": "Pending",
    "rowid": "1095500",
    "final_x": "3672061.73294",
    "final_y": "519390.395383",
    "longitude": "-90.09828586346265",
    "latitude": "29.922426407537305",
    "geocoded_column": {
      "latitude": "29.922426407537305",
      "longitude": "-90.09828586346265"
    }
  },
  {
    "service_request": "2024-1095499",
    "request_type": "Roads/Drainage",
    "request_reason": "Accessibility Ramps, Curbs and Sidewalk Repair",
    "date_created": "2024-05-21T16:18:07.000",
    "date_modified": "2024-05-21T16:18:07.000",
    "request_status": "Pending",
    "responsible_agency": "Department of Public Works",
    "final_address": "LAKE FOREST BLVD & PARC BRITTANY BLVD",
    "address_councildis": "E",
    "status": "Pending",
    "rowid": "1095499",
    "final_x": "3703013.1",
    "final_y": "556785.28",
    "longitude": "-89.99921133030972",
    "latitude": "30.024295099116646",
    "geocoded_column": {
      "latitude": "30.024295099116646",
      "longitude": "-89.99921133030972"
    }
  },
  {
    "service_request": "2024-1095498",
    "request_type": "Abandoned Vehicles",
    "request_reason": "Abandoned/Junk Vehicles",
    "date_created": "2024-05-21T16:18:05.000",
    "date_modified": "2024-05-21T16:18:05.000",
    "request_status": "Pending",
    "responsible_agency": "Department of Public Works",
    "final_address": "1012 Marengo St",
    "address_councildis": "B",
    "status": "Pending",
    "rowid": "1095498",
    "final_x": "3672061.73294",
    "final_y": "519390.395383",
    "longitude": "-90.09828586346265",
    "latitude": "29.922426407537305",
    "geocoded_column": {
      "latitude": "29.922426407537305",
      "longitude": "-90.09828586346265"
    }
  },
  {
    "service_request": "2024-1095497",
    "request_type": "Roads/Drainage",
    "request_reason": "Accessibility Ramps, Curbs and Sidewalk Repair",
    "date_created": "2024-05-21T16:17:14.000",
    "date_modified": "2024-05-21T16:17:14.000",
    "request_status": "Pending",
    "responsible_agency": "Department of Public Works",
    "final_address": "6700 BLK Parc Brittany Blvd",
    "address_councildis": "E",
    "status": "Pending",
    "rowid": "1095497",
    "final_x": "3702849.46697",
    "final_y": "557437.378351",
    "longitude": "-89.99970439515853",
    "latitude": "30.026093355335906",
    "geocoded_column": {
      "latitude": "30.026093355335906",
      "longitude": "-89.99970439515853"
    }
  },
  {
    "service_request": "2024-1095496",
    "request_type": "Roads/Drainage",
    "request_reason": "Accessibility Ramps, Curbs and Sidewalk Repair",
    "date_created": "2024-05-21T16:15:32.000",
    "date_modified": "2024-05-21T16:15:32.000",
    "request_status": "Pending",
    "responsible_agency": "Department of Public Works",
    "final_address": "10000 BLK Lake Forest Blvd",
    "address_councildis": "E",
    "status": "Pending",
    "rowid": "1095496",
    "final_x": "3711461.65512",
    "final_y": "560114.299835",
    "longitude": "-89.97239076530158",
    "latitude": "30.033175406024203",
    "geocoded_column": {
      "latitude": "30.033175406024203",
      "longitude": "-89.97239076530158"
    }
  },
  {
    "service_request": "2024-1095495",
    "request_type": "Roads/Drainage",
    "request_reason": "Accessibility Ramps, Curbs and Sidewalk Repair",
    "date_created": "2024-05-21T16:14:49.000",
    "date_modified": "2024-05-21T16:14:50.000",
    "request_status": "Pending",
    "responsible_agency": "Department of Public Works",
    "final_address": "5600 BLK Mayo Rd",
    "address_councildis": "E",
    "status": "Pending",
    "rowid": "1095495",
    "final_x": "3702576.84087",
    "final_y": "556491.604324",
    "longitude": "-90.00060061299112",
    "latitude": "30.023501563545338",
    "geocoded_column": {
      "latitude": "30.023501563545338",
      "longitude": "-90.00060061299112"
    }
  },
  {
    "service_request": "2024-1095494",
    "request_type": "Roads/Drainage",
    "request_reason": "Accessibility Ramps, Curbs and Sidewalk Repair",
    "date_created": "2024-05-21T16:14:28.000",
    "date_modified": "2024-05-21T16:14:28.000",
    "request_status": "Pending",
    "responsible_agency": "Department of Public Works",
    "final_address": "5601 Mayo Rd",
    "address_councildis": "E",
    "status": "Pending",
    "rowid": "1095494",
    "final_x": "3702902.47562",
    "final_y": "556331.187802",
    "longitude": "-89.99957758223488",
    "latitude": "30.023050061769222",
    "geocoded_column": {
      "latitude": "30.023050061769222",
      "longitude": "-89.99957758223488"
    }
  },
  {
    "service_request": "2024-1095493",
    "request_type": "Trash/Recycling",
    "request_reason": "MIssed Recycling Pick-Up",
    "date_created": "2024-05-21T16:12:54.000",
    "date_modified": "2024-05-21T16:12:55.000",
    "request_status": "Pending",
    "responsible_agency": "Department of Sanitation",
    "final_address": "8520 Bill St",
    "address_councildis": "E",
    "status": "Assigned to Contractor",
    "contractor": "Waste Pro",
    "rowid": "1095493",
    "final_x": "3703539.41911",
    "final_y": "563044.233632",
    "longitude": "-89.99731767508419",
    "latitude": "30.041487918765867",
    "geocoded_column": {
      "latitude": "30.041487918765867",
      "longitude": "-89.99731767508419"
    }
  },
  {
    "service_request": "2024-1095492",
    "request_type": "Traffic Signals/Signs/Striping/Streetlights",
    "request_reason": "Street Light Outage/Malfunction",
    "date_created": "2024-05-21T16:08:47.000",
    "date_modified": "2024-05-21T16:08:48.000",
    "request_status": "Pending",
    "responsible_agency": "Department of Public Works",
    "final_address": "6031 Perrier St",
    "address_councildis": "A",
    "status": "Assigned to Contractor",
    "contractor": "Legacy Professional Services",
    "rowid": "1095492",
    "final_x": "3664876.20525",
    "final_y": "520636.762041",
    "longitude": "-90.1209261245309",
    "latitude": "29.92606452997952",
    "geocoded_column": {
      "latitude": "29.92606452997952",
      "longitude": "-90.1209261245309"
    }
  },
  {
    "service_request": "2024-1095491",
    "request_type": "Trash/Recycling",
    "request_reason": "Request a Large Item Pick Up",
    "date_created": "2024-05-21T16:08:10.000",
    "date_modified": "2024-05-21T16:08:11.000",
    "request_status": "Pending",
    "responsible_agency": "Department of Sanitation",
    "final_address": "4774 Knight Dr",
    "address_councildis": "E",
    "status": "Assigned to Contractor",
    "contractor": "Waste Pro",
    "rowid": "1095491",
    "final_x": "3708036.20856",
    "final_y": "555793.807257",
    "longitude": "-89.98337627292959",
    "latitude": "30.021407167163957",
    "geocoded_column": {
      "latitude": "30.021407167163957",
      "longitude": "-89.98337627292959"
    }
  },
  {
    "service_request": "2024-1095490",
    "request_type": "Abandoned Vehicles",
    "request_reason": "Abandoned/Junk Vehicles",
    "date_created": "2024-05-21T16:05:06.000",
    "date_modified": "2024-05-21T16:05:06.000",
    "request_status": "Pending",
    "responsible_agency": "Department of Public Works",
    "final_address": "3405 Coliseum St",
    "address_councildis": "B",
    "status": "Pending",
    "rowid": "1095490",
    "final_x": "3674488.45704",
    "final_y": "520571.029496",
    "longitude": "-90.09058525042185",
    "latitude": "29.925600626643256",
    "geocoded_column": {
      "latitude": "29.925600626643256",
      "longitude": "-90.09058525042185"
    }
  },
  {
    "service_request": "2024-1095489",
    "request_type": "Trash/Recycling",
    "request_reason": "Illegal Dumping",
    "date_created": "2024-05-21T16:04:30.000",
    "date_modified": "2024-05-21T16:04:31.000",
    "request_status": "Pending",
    "responsible_agency": "Department of Sanitation",
    "final_address": "DWYER RD & MAYO RD",
    "address_councildis": "E",
    "status": "Pending",
    "rowid": "1095489",
    "final_x": "3702830.1",
    "final_y": "555955.48",
    "longitude": "-89.99982008739879",
    "latitude": "30.022019326193803",
    "geocoded_column": {
      "latitude": "30.022019326193803",
      "longitude": "-89.99982008739879"
    }
  },
  {
    "service_request": "2024-1095488",
    "request_type": "Property Maintenance",
    "request_reason": "Property Maintenance",
    "date_created": "2024-05-21T16:01:27.000",
    "date_modified": "2024-05-21T16:01:27.000",
    "request_status": "Pending",
    "responsible_agency": "Department of Code Enforcement",
    "final_address": "1633 Lauradale Dr",
    "address_councildis": "C",
    "status": "Pending",
    "rowid": "1095488",
    "final_x": "3692718.50461",
    "final_y": "525170.140221",
    "longitude": "-90.0328740311639",
    "latitude": "29.937690371483743",
    "geocoded_column": {
      "latitude": "29.937690371483743",
      "longitude": "-90.0328740311639"
    }
  },
  {
    "service_request": "2024-1095487",
    "request_type": "Parks & Parkways",
    "request_reason": "Request Tree Service (Right of Way/Public Property)",
    "date_created": "2024-05-21T15:59:46.000",
    "date_modified": "2024-05-21T15:59:46.000",
    "request_status": "Pending",
    "responsible_agency": "Department of Parks & Parkway",
    "final_address": "LAKE FOREST BLVD & MAYO RD",
    "address_councildis": "E",
    "status": "Pending",
    "rowid": "1095487",
    "final_x": "3702502.5",
    "final_y": "556568.19",
    "longitude": "-90.00083269889926",
    "latitude": "30.023714521944257",
    "geocoded_column": {
      "latitude": "30.023714521944257",
      "longitude": "-90.00083269889926"
    }
  },
  {
    "service_request": "2024-1095486",
    "request_type": "Abandoned Vehicles",
    "request_reason": "Abandoned/Junk Vehicles",
    "date_created": "2024-05-21T15:59:03.000",
    "date_modified": "2024-05-21T15:59:03.000",
    "request_status": "Pending",
    "responsible_agency": "Department of Public Works",
    "final_address": "823 N Claiborne Ave",
    "address_councildis": "D",
    "status": "Pending",
    "rowid": "1095486",
    "final_x": "3679982.92399",
    "final_y": "535143.478662",
    "longitude": "-90.07273482468943",
    "latitude": "29.96550499288831",
    "geocoded_column": {
      "latitude": "29.96550499288831",
      "longitude": "-90.07273482468943"
    }
  },
  {
    "service_request": "2024-1095485",
    "request_type": "Trash/Recycling",
    "request_reason": "Request a Large Item Pick Up",
    "date_created": "2024-05-21T15:59:02.000",
    "date_modified": "2024-05-21T15:59:02.000",
    "request_status": "Pending",
    "responsible_agency": "Department of Sanitation",
    "final_address": "805 Mandeville St",
    "address_councildis": "C",
    "status": "Assigned to Contractor",
    "contractor": "IV Waste",
    "rowid": "1095485",
    "final_x": "3685883.47215",
    "final_y": "535353.143174",
    "longitude": "-90.05409379541527",
    "latitude": "29.96590168437675",
    "geocoded_column": {
      "latitude": "29.96590168437675",
      "longitude": "-90.05409379541527"
    }
  },
  {
    "service_request": "2024-1095484",
    "request_type": "Trash/Recycling",
    "request_reason": "Request a Large Item Pick Up",
    "date_created": "2024-05-21T15:58:35.000",
    "date_modified": "2024-05-21T15:58:35.000",
    "request_status": "Pending",
    "responsible_agency": "Department of Sanitation",
    "final_address": "9200 Hayne Blvd",
    "address_councildis": "E",
    "status": "Assigned to Contractor",
    "contractor": "Waste Pro",
    "rowid": "1095484",
    "final_x": "3705243.33291",
    "final_y": "564493.699873",
    "longitude": "-89.99187910410643",
    "latitude": "30.045418639048687",
    "geocoded_column": {
      "latitude": "30.045418639048687",
      "longitude": "-89.99187910410643"
    }
  },
  {
    "service_request": "2024-1095483",
    "request_type": "Parks & Parkways",
    "request_reason": "Request Tree Service (Right of Way/Public Property)",
    "date_created": "2024-05-21T15:57:45.000",
    "date_modified": "2024-05-21T15:58:21.000",
    "request_status": "Pending",
    "responsible_agency": "Department of Parks & Parkway",
    "final_address": "7455 Bullard Ave",
    "address_councildis": "E",
    "status": "Pending",
    "rowid": "1095483",
    "final_x": "3713500.37106",
    "final_y": "567048.602276",
    "longitude": "-89.9656867414686",
    "latitude": "30.052175201360296",
    "geocoded_column": {
      "latitude": "30.052175201360296",
      "longitude": "-89.9656867414686"
    }
  },
  {
    "service_request": "2024-1095482",
    "request_type": "Trash/Recycling",
    "request_reason": "Repair Trash Cart",
    "date_created": "2024-05-21T15:57:12.000",
    "date_modified": "2024-05-21T15:57:12.000",
    "request_status": "Pending",
    "responsible_agency": "Department of Sanitation",
    "final_address": "7501 E Oak Ridge Ct",
    "address_councildis": "E",
    "status": "Assigned to Contractor",
    "contractor": "Waste Pro",
    "rowid": "1095482",
    "final_x": "3713946.69931",
    "final_y": "567948.791781",
    "longitude": "-89.96424205070028",
    "latitude": "30.05463569891443",
    "geocoded_column": {
      "latitude": "30.05463569891443",
      "longitude": "-89.96424205070028"
    }
  },
  {
    "service_request": "2024-1095481",
    "request_type": "Trash/Recycling",
    "request_reason": "Request a Large Item Pick Up",
    "date_created": "2024-05-21T15:56:12.000",
    "date_modified": "2024-05-21T15:56:13.000",
    "request_status": "Pending",
    "responsible_agency": "Department of Sanitation",
    "final_address": "2513 Carondelet St",
    "address_councildis": "B",
    "status": "Assigned to Contractor",
    "contractor": "IV Waste",
    "rowid": "1095481",
    "final_x": "3676354.83829",
    "final_y": "523321.977211",
    "longitude": "-90.0845990134301",
    "latitude": "29.933109047008063",
    "geocoded_column": {
      "latitude": "29.933109047008063",
      "longitude": "-90.0845990134301"
    }
  },
  {
    "service_request": "2024-1095480",
    "request_type": "Abandoned Vehicles",
    "request_reason": "Abandoned/Junk Vehicles",
    "date_created": "2024-05-21T15:55:59.000",
    "date_modified": "2024-05-21T15:55:59.000",
    "request_status": "Pending",
    "responsible_agency": "Department of Public Works",
    "final_address": "4518 Chestnut St",
    "address_councildis": "B",
    "status": "Pending",
    "rowid": "1095480",
    "final_x": "3670422.72122",
    "final_y": "519429.546423",
    "longitude": "-90.10345824497558",
    "latitude": "29.922582534880192",
    "geocoded_column": {
      "latitude": "29.922582534880192",
      "longitude": "-90.10345824497558"
    }
  },
  {
    "service_request": "2024-1095478",
    "request_type": "Roads/Drainage",
    "request_reason": "Road Shoulder Repair",
    "date_created": "2024-05-21T15:54:46.000",
    "date_modified": "2024-05-21T15:54:46.000",
    "request_status": "Pending",
    "responsible_agency": "Department of Public Works",
    "final_address": "1521 Webster St",
    "address_councildis": "A",
    "status": "Pending",
    "rowid": "1095478",
    "final_x": "3665172.71917",
    "final_y": "522143.293626",
    "longitude": "-90.11993975188861",
    "latitude": "29.93019838632039",
    "geocoded_column": {
      "latitude": "29.93019838632039",
      "longitude": "-90.11993975188861"
    }
  },
  {
    "service_request": "2024-1095479",
    "request_type": "Abandoned Vehicles",
    "request_reason": "Abandoned/Junk Vehicles",
    "date_created": "2024-05-21T15:54:46.000",
    "date_modified": "2024-05-21T15:54:46.000",
    "request_status": "Pending",
    "responsible_agency": "Department of Public Works",
    "final_address": "4518 Chestnut St",
    "address_councildis": "B",
    "status": "Pending",
    "rowid": "1095479",
    "final_x": "3670422.72122",
    "final_y": "519429.546423",
    "longitude": "-90.10345824497558",
    "latitude": "29.922582534880192",
    "geocoded_column": {
      "latitude": "29.922582534880192",
      "longitude": "-90.10345824497558"
    }
  },
  {
    "service_request": "2024-1095477",
    "request_type": "Roads/Drainage",
    "request_reason": "Road Shoulder Repair",
    "date_created": "2024-05-21T15:54:45.000",
    "date_modified": "2024-05-21T15:54:45.000",
    "request_status": "Pending",
    "responsible_agency": "Department of Public Works",
    "final_address": "1521 Webster St",
    "address_councildis": "A",
    "status": "Pending",
    "rowid": "1095477",
    "final_x": "3665172.71917",
    "final_y": "522143.293626",
    "longitude": "-90.11993975188861",
    "latitude": "29.93019838632039",
    "geocoded_column": {
      "latitude": "29.93019838632039",
      "longitude": "-90.11993975188861"
    }
  },
  {
    "service_request": "2024-1095476",
    "request_type": "Parks & Parkways",
    "request_reason": "Request Tree Service (Right of Way/Public Property)",
    "date_created": "2024-05-21T15:54:24.000",
    "date_modified": "2024-05-21T15:55:02.000",
    "request_status": "Pending",
    "responsible_agency": "Department of Parks & Parkway",
    "final_address": "7425 Weaver Ave",
    "address_councildis": "E",
    "status": "Pending",
    "rowid": "1095476",
    "final_x": "3707737.96228",
    "final_y": "563873.994145",
    "longitude": "-89.98401799278115",
    "latitude": "30.04363415705006",
    "geocoded_column": {
      "latitude": "30.04363415705006",
      "longitude": "-89.98401799278115"
    }
  },
  {
    "service_request": "2024-1095475",
    "request_type": "Abandoned Vehicles",
    "request_reason": "Abandoned/Junk Vehicles",
    "date_created": "2024-05-21T15:50:05.000",
    "date_modified": "2024-05-21T15:50:05.000",
    "request_status": "Pending",
    "responsible_agency": "Department of Public Works",
    "final_address": "4518 Chestnut St",
    "address_councildis": "B",
    "status": "Pending",
    "rowid": "1095475",
    "final_x": "3670422.72122",
    "final_y": "519429.546423",
    "longitude": "-90.10345824497558",
    "latitude": "29.922582534880192",
    "geocoded_column": {
      "latitude": "29.922582534880192",
      "longitude": "-90.10345824497558"
    }
  },
  {
    "service_request": "2024-1095474",
    "request_type": "Property Maintenance",
    "request_reason": "Property Maintenance",
    "date_created": "2024-05-21T15:46:57.000",
    "date_modified": "2024-05-21T15:46:57.000",
    "request_status": "Pending",
    "responsible_agency": "Department of Code Enforcement",
    "final_address": "3711 Clara St",
    "address_councildis": "B",
    "status": "Pending",
    "rowid": "1095474",
    "final_x": "3671971.77543",
    "final_y": "525357.090813",
    "longitude": "-90.09836682907198",
    "latitude": "29.93883556481152",
    "geocoded_column": {
      "latitude": "29.93883556481152",
      "longitude": "-90.09836682907198"
    }
  },
  {
    "service_request": "2024-1095473",
    "request_type": "Abandoned Vehicles",
    "request_reason": "Abandoned/Junk Vehicles",
    "date_created": "2024-05-21T15:45:52.000",
    "date_modified": "2024-05-21T15:45:52.000",
    "request_status": "Pending",
    "responsible_agency": "Department of Public Works",
    "final_address": "8020 Breakwater Dr",
    "address_councildis": "A",
    "status": "Pending",
    "rowid": "1095473",
    "final_x": "3665610.33229",
    "final_y": "557841.241243",
    "longitude": "-90.11736237058395",
    "latitude": "30.028343007884065",
    "geocoded_column": {
      "latitude": "30.028343007884065",
      "longitude": "-90.11736237058395"
    }
  },
  {
    "service_request": "2024-1095472",
    "request_type": "Abandoned Vehicles",
    "request_reason": "Abandoned/Junk Vehicles",
    "date_created": "2024-05-21T15:44:55.000",
    "date_modified": "2024-05-21T15:44:55.000",
    "request_status": "Pending",
    "responsible_agency": "Department of Public Works",
    "final_address": "4416 Kennon Ave",
    "address_councildis": "D",
    "status": "Pending",
    "rowid": "1095472",
    "final_x": "3677391.3195",
    "final_y": "548596.772755",
    "longitude": "-90.08045446696444",
    "latitude": "30.00257502593228",
    "geocoded_column": {
      "latitude": "30.00257502593228",
      "longitude": "-90.08045446696444"
    }
  },
  {
    "service_request": "2024-1095471",
    "request_type": "Trash/Recycling",
    "request_reason": "Return Trash Cart",
    "date_created": "2024-05-21T15:43:20.000",
    "date_modified": "2024-05-21T15:43:20.000",
    "request_status": "Pending",
    "responsible_agency": "Department of Sanitation",
    "final_address": "5520 Bentley Dr",
    "address_councildis": "E",
    "status": "Assigned to Contractor",
    "contractor": "Waste Pro",
    "rowid": "1095471",
    "final_x": "3703941.93393",
    "final_y": "556507.312602",
    "longitude": "-89.99628665543415",
    "latitude": "30.023501027468242",
    "geocoded_column": {
      "latitude": "30.023501027468242",
      "longitude": "-89.99628665543415"
    }
  },
  {
    "service_request": "2024-1095470",
    "request_type": "Property Maintenance",
    "request_reason": "Property Maintenance",
    "date_created": "2024-05-21T15:41:55.000",
    "date_modified": "2024-05-21T15:41:55.000",
    "request_status": "Pending",
    "responsible_agency": "Department of Code Enforcement",
    "final_address": "3711 Clara St",
    "address_councildis": "B",
    "status": "Pending",
    "rowid": "1095470",
    "final_x": "3671971.77543",
    "final_y": "525357.090813",
    "longitude": "-90.09836682907198",
    "latitude": "29.93883556481152",
    "geocoded_column": {
      "latitude": "29.93883556481152",
      "longitude": "-90.09836682907198"
    }
  },
  {
    "service_request": "2024-1095469",
    "request_type": "Trash/Recycling",
    "request_reason": "Order Trash Cart",
    "date_created": "2024-05-21T15:41:29.000",
    "date_modified": "2024-05-21T15:41:29.000",
    "request_status": "Pending",
    "responsible_agency": "Department of Sanitation",
    "final_address": "5520 Bentley Dr",
    "address_councildis": "E",
    "status": "Assigned to Contractor",
    "contractor": "Waste Pro",
    "rowid": "1095469",
    "final_x": "3703941.93393",
    "final_y": "556507.312602",
    "longitude": "-89.99628665543415",
    "latitude": "30.023501027468242",
    "geocoded_column": {
      "latitude": "30.023501027468242",
      "longitude": "-89.99628665543415"
    }
  },
  {
    "service_request": "2024-1095468",
    "request_type": "Abandoned Vehicles",
    "request_reason": "Abandoned/Junk Vehicles",
    "date_created": "2024-05-21T15:40:17.000",
    "date_modified": "2024-05-21T15:40:17.000",
    "request_status": "Pending",
    "responsible_agency": "Department of Public Works",
    "final_address": "8514 Forshey St",
    "address_councildis": "A",
    "status": "Pending",
    "rowid": "1095468",
    "final_x": "3665819.54599",
    "final_y": "534954.936134",
    "longitude": "-90.11746865552709",
    "latitude": "29.965407410713322",
    "geocoded_column": {
      "latitude": "29.965407410713322",
      "longitude": "-90.11746865552709"
    }
  },
  {
    "service_request": "2024-1095467",
    "request_type": "Trash/Recycling",
    "request_reason": "Repair Trash Cart",
    "date_created": "2024-05-21T15:39:56.000",
    "date_modified": "2024-05-21T15:39:57.000",
    "request_status": "Pending",
    "responsible_agency": "Department of Sanitation",
    "final_address": "515 Adams St",
    "address_councildis": "A",
    "status": "Assigned to Contractor",
    "contractor": "IV Waste",
    "rowid": "1095467",
    "final_x": "3661528.15117",
    "final_y": "525635.843837",
    "longitude": "-90.13132947025012",
    "latitude": "29.939907417521294",
    "geocoded_column": {
      "latitude": "29.939907417521294",
      "longitude": "-90.13132947025012"
    }
  },
  {
    "service_request": "2024-1095466",
    "request_type": "Traffic Signals/Signs/Striping/Streetlights",
    "request_reason": "Street Light Outage/Malfunction",
    "date_created": "2024-05-21T15:39:24.000",
    "date_modified": "2024-05-21T15:39:25.000",
    "request_status": "Pending",
    "responsible_agency": "Department of Public Works",
    "final_address": "11000 BLK Zenith St",
    "address_councildis": "E",
    "status": "Assigned to Contractor",
    "contractor": "Legacy Professional Services",
    "rowid": "1095466",
    "final_x": "3710815.81357",
    "final_y": "565577.630443",
    "longitude": "-89.97422688927003",
    "latitude": "30.048218454398572",
    "geocoded_column": {
      "latitude": "30.048218454398572",
      "longitude": "-89.97422688927003"
    }
  },
  {
    "service_request": "2024-1095465",
    "request_type": "Abandoned Vehicles",
    "request_reason": "Abandoned/Junk Vehicles",
    "date_created": "2024-05-21T15:35:35.000",
    "date_modified": "2024-05-21T15:37:25.000",
    "request_status": "Pending",
    "responsible_agency": "Department of Public Works",
    "final_address": "3400 Cherry St",
    "address_councildis": "A",
    "status": "Pending",
    "rowid": "1095465",
    "final_x": "3664109.86068",
    "final_y": "537087.441736",
    "longitude": "-90.122796640506",
    "latitude": "29.971320870424215",
    "geocoded_column": {
      "latitude": "29.971320870424215",
      "longitude": "-90.122796640506"
    }
  },
  {
    "service_request": "2024-1095464",
    "request_type": "Trash/Recycling",
    "request_reason": "Request a Large Item Pick Up",
    "date_created": "2024-05-21T15:35:34.000",
    "date_modified": "2024-05-21T15:35:35.000",
    "request_status": "Pending",
    "responsible_agency": "Department of Sanitation",
    "final_address": "9500 Chef Menteur Hwy",
    "address_councildis": "E",
    "status": "Assigned to Contractor",
    "contractor": "Waste Pro",
    "rowid": "1095464",
    "final_x": "3710906.85733",
    "final_y": "553942.271384",
    "longitude": "-89.97437528203032",
    "latitude": "30.01622286136128",
    "geocoded_column": {
      "latitude": "30.01622286136128",
      "longitude": "-89.97437528203032"
    }
  },
  {
    "service_request": "2024-1095463",
    "request_type": "Trash/Recycling",
    "request_reason": "Repair Trash Cart",
    "date_created": "2024-05-21T15:34:32.000",
    "date_modified": "2024-05-21T15:34:32.000",
    "request_status": "Pending",
    "responsible_agency": "Department of Sanitation",
    "final_address": "3351 Huntlee Dr",
    "address_councildis": "C",
    "status": "Assigned to Contractor",
    "contractor": "Richards Disposal",
    "rowid": "1095463",
    "final_x": "3701681.39722",
    "final_y": "518854.413879",
    "longitude": "-90.00480887063578",
    "latitude": "29.92004156385627",
    "geocoded_column": {
      "latitude": "29.92004156385627",
      "longitude": "-90.00480887063578"
    }
  },
  {
    "service_request": "2024-1095461",
    "request_type": "Abandoned Vehicles",
    "request_reason": "Abandoned/Junk Vehicles",
    "date_created": "2024-05-21T15:21:26.000",
    "date_modified": "2024-05-21T15:21:26.000",
    "request_status": "Pending",
    "responsible_agency": "Department of Public Works",
    "final_address": "900 BLK N Claiborne Ave",
    "address_councildis": "D",
    "status": "Pending",
    "rowid": "1095461",
    "final_x": "3680277.94485",
    "final_y": "535374.857844",
    "longitude": "-90.07179511726878",
    "latitude": "29.966132278690242",
    "geocoded_column": {
      "latitude": "29.966132278690242",
      "longitude": "-90.07179511726878"
    }
  },
  {
    "service_request": "2024-1095460",
    "request_type": "Trash/Recycling",
    "request_reason": "Request a Large Item Pick Up",
    "date_created": "2024-05-21T15:20:06.000",
    "date_modified": "2024-05-21T15:20:07.000",
    "request_status": "Pending",
    "responsible_agency": "Department of Sanitation",
    "final_address": "2731 N Rampart St",
    "address_councildis": "C",
    "status": "Assigned to Contractor",
    "contractor": "IV Waste",
    "rowid": "1095460",
    "final_x": "3687572.01526",
    "final_y": "535921.250823",
    "longitude": "-90.04874132883502",
    "latitude": "29.96741183994846",
    "geocoded_column": {
      "latitude": "29.96741183994846",
      "longitude": "-90.04874132883502"
    }
  },
  {
    "service_request": "2024-1095459",
    "request_type": "Property Maintenance",
    "request_reason": "Property Maintenance",
    "date_created": "2024-05-21T15:16:51.000",
    "date_modified": "2024-05-21T15:16:51.000",
    "request_status": "Pending",
    "responsible_agency": "Department of Code Enforcement",
    "final_address": "9956 E Rockton Cir",
    "address_councildis": "E",
    "status": "Pending",
    "rowid": "1095459",
    "final_x": "3708816.37886",
    "final_y": "562822.08144",
    "longitude": "-89.98064900925228",
    "latitude": "30.040706854958994",
    "geocoded_column": {
      "latitude": "30.040706854958994",
      "longitude": "-89.98064900925228"
    }
  },
  {
    "service_request": "2024-1095458",
    "request_type": "Trash/Recycling",
    "request_reason": "Request a Large Item Pick Up",
    "date_created": "2024-05-21T15:16:19.000",
    "date_modified": "2024-05-21T15:16:20.000",
    "request_status": "Pending",
    "responsible_agency": "Department of Sanitation",
    "final_address": "11018 Dreux Ave",
    "address_councildis": "E",
    "status": "Assigned to Contractor",
    "contractor": "Waste Pro",
    "rowid": "1095458",
    "final_x": "3716152.87749",
    "final_y": "556210.58665",
    "longitude": "-89.95771430692847",
    "latitude": "30.022287713269897",
    "geocoded_column": {
      "latitude": "30.022287713269897",
      "longitude": "-89.95771430692847"
    }
  },
  {
    "service_request": "2024-1095457",
    "request_type": "Parks & Parkways",
    "request_reason": "Request Tree Service (Right of Way/Public Property)",
    "date_created": "2024-05-21T15:12:44.000",
    "date_modified": "2024-05-21T15:12:45.000",
    "request_status": "Pending",
    "responsible_agency": "Department of Parks & Parkway",
    "final_address": "5900 BLK Wright Rd",
    "address_councildis": "E",
    "status": "Pending",
    "rowid": "1095457",
    "final_x": "3713674.79243",
    "final_y": "561909.055103",
    "longitude": "-89.96532939469212",
    "latitude": "30.038037802016213",
    "geocoded_column": {
      "latitude": "30.038037802016213",
      "longitude": "-89.96532939469212"
    }
  },
  {
    "service_request": "2024-1095456",
    "request_type": "Trash/Recycling",
    "request_reason": "Request a Large Item Pick Up",
    "date_created": "2024-05-21T15:12:37.000",
    "date_modified": "2024-05-21T15:12:38.000",
    "request_status": "Pending",
    "responsible_agency": "Department of Sanitation",
    "final_address": "4801 Gallier Dr",
    "address_councildis": "D",
    "status": "Assigned to Contractor",
    "contractor": "IV Waste",
    "rowid": "1095456",
    "final_x": "3692196.28579",
    "final_y": "551513.383125",
    "longitude": "-90.03357932033585",
    "latitude": "30.01014120986062",
    "geocoded_column": {
      "latitude": "30.01014120986062",
      "longitude": "-90.03357932033585"
    }
  },
  {
    "service_request": "2024-1095455",
    "request_type": "Trash/Recycling",
    "request_reason": "Request a Large Item Pick Up",
    "date_created": "2024-05-21T15:12:36.000",
    "date_modified": "2024-05-21T15:12:36.000",
    "request_status": "Pending",
    "responsible_agency": "Department of Sanitation",
    "final_address": "4582 Burton Rd",
    "address_councildis": "E",
    "status": "Assigned to Contractor",
    "contractor": "Waste Pro",
    "rowid": "1095455",
    "final_x": "3762563.1432",
    "final_y": "574105.60209",
    "longitude": "-89.8103217601152",
    "latitude": "30.06987725878452",
    "geocoded_column": {
      "latitude": "30.06987725878452",
      "longitude": "-89.8103217601152"
    }
  },
  {
    "service_request": "2024-1095454",
    "request_type": "Trash/Recycling",
    "request_reason": "Replace Trash Cart",
    "date_created": "2024-05-21T15:10:59.000",
    "date_modified": "2024-05-21T15:12:04.000",
    "request_status": "Pending",
    "responsible_agency": "Department of Sanitation",
    "final_address": "3500 Rue Colette",
    "address_councildis": "C",
    "status": "Assigned to Contractor",
    "contractor": "Richards Disposal",
    "rowid": "1095454",
    "final_x": "3704595.90538",
    "final_y": "517814.579126",
    "longitude": "-89.9956475624371",
    "latitude": "29.917089139563732",
    "geocoded_column": {
      "latitude": "29.917089139563732",
      "longitude": "-89.9956475624371"
    }
  },
  {
    "service_request": "2024-1095453",
    "request_type": "Parks & Parkways",
    "request_reason": "Request Tree Service (Right of Way/Public Property)",
    "date_created": "2024-05-21T15:10:55.000",
    "date_modified": "2024-05-21T15:10:55.000",
    "request_status": "Pending",
    "responsible_agency": "Department of Parks & Parkway",
    "final_address": "3877 Pauger St",
    "address_councildis": "D",
    "status": "Pending",
    "rowid": "1095453",
    "final_x": "3683220.25551",
    "final_y": "544956.584399",
    "longitude": "-90.06216769714112",
    "latitude": "29.992389273806253",
    "geocoded_column": {
      "latitude": "29.992389273806253",
      "longitude": "-90.06216769714112"
    }
  },
  {
    "service_request": "2024-1095452",
    "request_type": "Trash/Recycling",
    "request_reason": "Request a Large Item Pick Up",
    "date_created": "2024-05-21T15:09:26.000",
    "date_modified": "2024-05-21T15:09:26.000",
    "request_status": "Pending",
    "responsible_agency": "Department of Sanitation",
    "final_address": "4341 Fort Macomb Rd",
    "address_councildis": "E",
    "status": "Assigned to Contractor",
    "contractor": "Waste Pro",
    "rowid": "1095452",
    "final_x": "3763800.68304",
    "final_y": "573033.935145",
    "longitude": "-89.80645482556814",
    "latitude": "30.06688538580689",
    "geocoded_column": {
      "latitude": "30.06688538580689",
      "longitude": "-89.80645482556814"
    }
  },
  {
    "service_request": "2024-1095451",
    "request_type": "Trash/Recycling",
    "request_reason": "Request a Large Item Pick Up",
    "date_created": "2024-05-21T15:09:11.000",
    "date_modified": "2024-05-21T15:09:11.000",
    "request_status": "Pending",
    "responsible_agency": "Department of Sanitation",
    "final_address": "1341 Annette St",
    "address_councildis": "C",
    "status": "Assigned to Contractor",
    "contractor": "IV Waste",
    "rowid": "1095451",
    "final_x": "3683136.8038",
    "final_y": "536865.122568",
    "longitude": "-90.06271473163969",
    "latitude": "29.970143136201198",
    "geocoded_column": {
      "latitude": "29.970143136201198",
      "longitude": "-90.06271473163969"
    }
  },
  {
    "service_request": "2024-1095450",
    "request_type": "Traffic Signals/Signs/Striping/Streetlights",
    "request_reason": "Street Light Outage/Malfunction",
    "date_created": "2024-05-21T15:07:06.000",
    "date_modified": "2024-05-21T15:07:07.000",
    "request_status": "Pending",
    "responsible_agency": "Department of Public Works",
    "final_address": "2924 New Orleans St",
    "address_councildis": "D",
    "status": "Assigned to Contractor",
    "contractor": "Legacy Professional Services",
    "rowid": "1095450",
    "final_x": "3681785.9085",
    "final_y": "543316.466318",
    "longitude": "-90.06675578716542",
    "latitude": "29.987923203404154",
    "geocoded_column": {
      "latitude": "29.987923203404154",
      "longitude": "-90.06675578716542"
    }
  },
  {
    "service_request": "2024-1095449",
    "request_type": "Trash/Recycling",
    "request_reason": "Repair Trash Cart",
    "date_created": "2024-05-21T15:06:04.000",
    "date_modified": "2024-05-21T15:06:04.000",
    "request_status": "Pending",
    "responsible_agency": "Department of Sanitation",
    "final_address": "7316 Hickman St",
    "address_councildis": "E",
    "status": "Assigned to Contractor",
    "contractor": "Waste Pro",
    "rowid": "1095449",
    "final_x": "3706493.90359",
    "final_y": "562537.051616",
    "longitude": "-89.98799933042862",
    "latitude": "30.039998318268815",
    "geocoded_column": {
      "latitude": "30.039998318268815",
      "longitude": "-89.98799933042862"
    }
  },
  {
    "service_request": "2024-1095448",
    "request_type": "Parks & Parkways",
    "request_reason": "Request Tree Service (Right of Way/Public Property)",
    "date_created": "2024-05-21T15:03:40.000",
    "date_modified": "2024-05-21T15:03:40.000",
    "request_status": "Pending",
    "responsible_agency": "Department of Parks & Parkway",
    "final_address": "1900 Beck St",
    "address_councildis": "C",
    "status": "Pending",
    "rowid": "1095448",
    "final_x": "3700080.32842",
    "final_y": "523950.795068",
    "longitude": "-90.00967680911316",
    "latitude": "29.93410580259068",
    "geocoded_column": {
      "latitude": "29.93410580259068",
      "longitude": "-90.00967680911316"
    }
  },
  {
    "service_request": "2024-1095447",
    "request_type": "Trash/Recycling",
    "request_reason": "Request a Large Item Pick Up",
    "date_created": "2024-05-21T15:03:37.000",
    "date_modified": "2024-05-21T15:03:38.000",
    "request_status": "Pending",
    "responsible_agency": "Department of Sanitation",
    "final_address": "4923 Tchoupitoulas St",
    "address_councildis": "B",
    "status": "Assigned to Contractor",
    "contractor": "IV Waste",
    "rowid": "1095447",
    "final_x": "3668754.87278",
    "final_y": "517261.336117",
    "longitude": "-90.10879613225505",
    "latitude": "29.916669758838445",
    "geocoded_column": {
      "latitude": "29.916669758838445",
      "longitude": "-90.10879613225505"
    }
  },
  {
    "service_request": "2024-1095446",
    "request_type": "Parks & Parkways",
    "request_reason": "Request Tree Service (Right of Way/Public Property)",
    "date_created": "2024-05-21T15:03:18.000",
    "date_modified": "2024-05-21T15:03:19.000",
    "request_status": "Pending",
    "responsible_agency": "Department of Parks & Parkway",
    "final_address": "5416 LaSalle St",
    "address_councildis": "A",
    "status": "Pending",
    "rowid": "1095446",
    "final_x": "3667645.77754",
    "final_y": "523592.996091",
    "longitude": "-90.1120838995846",
    "latitude": "29.934112363939825",
    "geocoded_column": {
      "latitude": "29.934112363939825",
      "longitude": "-90.1120838995846"
    }
  },
  {
    "service_request": "2024-1095445",
    "request_type": "Trash/Recycling",
    "request_reason": "Dead Animal Pick Up",
    "date_created": "2024-05-21T15:02:47.000",
    "date_modified": "2024-05-21T16:35:17.000",
    "case_close_date": "2024-05-21T11:35:17.000",
    "request_status": "Closed",
    "responsible_agency": "Department of Sanitation",
    "final_address": "LEON C SIMON DR & PRESS DR",
    "address_councildis": "D",
    "status": "Assigned to Contractor",
    "contractor": "IV Waste",
    "contractor_action": "Completed",
    "rowid": "1095445",
    "final_x": "3688313.4",
    "final_y": "558321.98",
    "longitude": "-90.04560501316018",
    "latitude": "30.028982859086746",
    "geocoded_column": {
      "latitude": "30.028982859086746",
      "longitude": "-90.04560501316018"
    }
  },
  {
    "service_request": "2024-1095444",
    "request_type": "Trash/Recycling",
    "request_reason": "Request a Large Item Pick Up",
    "date_created": "2024-05-21T14:59:36.000",
    "date_modified": "2024-05-21T14:59:36.000",
    "request_status": "Pending",
    "responsible_agency": "Department of Sanitation",
    "final_address": "1610 First St",
    "address_councildis": "B",
    "status": "Assigned to Contractor",
    "contractor": "IV Waste",
    "rowid": "1095444",
    "final_x": "3676869.66862",
    "final_y": "523262.326203",
    "longitude": "-90.08297578299579",
    "latitude": "29.932929588857792",
    "geocoded_column": {
      "latitude": "29.932929588857792",
      "longitude": "-90.08297578299579"
    }
  },
  {
    "service_request": "2024-1095443",
    "request_type": "Trash/Recycling",
    "request_reason": "Request a Large Item Pick Up",
    "date_created": "2024-05-21T14:58:22.000",
    "date_modified": "2024-05-21T14:58:22.000",
    "request_status": "Pending",
    "responsible_agency": "Department of Sanitation",
    "final_address": "4928 Constance St",
    "address_councildis": "B",
    "status": "Assigned to Contractor",
    "contractor": "IV Waste",
    "rowid": "1095443",
    "final_x": "3668747.17972",
    "final_y": "518172.358774",
    "longitude": "-90.10878968402984",
    "latitude": "29.919175010431918",
    "geocoded_column": {
      "latitude": "29.919175010431918",
      "longitude": "-90.10878968402984"
    }
  },
  {
    "service_request": "2024-1095442",
    "request_type": "Trash/Recycling",
    "request_reason": "Return Recycling Cart",
    "date_created": "2024-05-21T14:58:12.000",
    "date_modified": "2024-05-21T14:58:13.000",
    "request_status": "Pending",
    "responsible_agency": "Department of Sanitation",
    "final_address": "5230 Laurel St",
    "address_councildis": "B",
    "status": "Pending",
    "rowid": "1095442",
    "final_x": "3667769.40756",
    "final_y": "517827.236598",
    "longitude": "-90.11188763622705",
    "latitude": "29.9182547289633",
    "geocoded_column": {
      "latitude": "29.9182547289633",
      "longitude": "-90.11188763622705"
    }
  },
  {
    "service_request": "2024-1095441",
    "request_type": "Trash/Recycling",
    "request_reason": "Repair Trash Cart",
    "date_created": "2024-05-21T14:56:22.000",
    "date_modified": "2024-05-21T14:56:22.000",
    "request_status": "Pending",
    "responsible_agency": "Department of Sanitation",
    "final_address": "2426 Clover St",
    "address_councildis": "D",
    "status": "Assigned to Contractor",
    "contractor": "IV Waste",
    "rowid": "1095441",
    "final_x": "3686335.24802",
    "final_y": "546496.642833",
    "longitude": "-90.05227366804247",
    "latitude": "29.996528495002412",
    "geocoded_column": {
      "latitude": "29.996528495002412",
      "longitude": "-90.05227366804247"
    }
  },
  {
    "service_request": "2024-1095440",
    "request_type": "Trash/Recycling",
    "request_reason": "Request a Large Item Pick Up",
    "date_created": "2024-05-21T14:55:45.000",
    "date_modified": "2024-05-21T14:55:46.000",
    "request_status": "Pending",
    "responsible_agency": "Department of Sanitation",
    "final_address": "1304 Felicity St",
    "address_councildis": "B",
    "status": "Assigned to Contractor",
    "contractor": "IV Waste",
    "rowid": "1095440",
    "final_x": "3679424.33384",
    "final_y": "523572.192379",
    "longitude": "-90.07490015088608",
    "latitude": "29.933704719432168",
    "geocoded_column": {
      "latitude": "29.933704719432168",
      "longitude": "-90.07490015088608"
    }
  },
  {
    "service_request": "2024-1095438",
    "request_type": "Trash/Recycling",
    "request_reason": "Order Recycling Cart",
    "date_created": "2024-05-21T14:54:50.000",
    "date_modified": "2024-05-21T14:54:51.000",
    "request_status": "Pending",
    "responsible_agency": "Department of Sanitation",
    "final_address": "29 Thrasher St",
    "address_councildis": "D",
    "status": "Pending",
    "rowid": "1095438",
    "final_x": "3672323.35227",
    "final_y": "556246.822682",
    "longitude": "-90.09620393885305",
    "latitude": "30.02376134223056",
    "geocoded_column": {
      "latitude": "30.02376134223056",
      "longitude": "-90.09620393885305"
    }
  },
  {
    "service_request": "2024-1095437",
    "request_type": "Trash/Recycling",
    "request_reason": "Order Recycling Cart",
    "date_created": "2024-05-21T14:48:10.000",
    "date_modified": "2024-05-21T14:48:11.000",
    "request_status": "Pending",
    "responsible_agency": "Department of Sanitation",
    "final_address": "3135 Delachaise St",
    "address_councildis": "B",
    "status": "Pending",
    "rowid": "1095437",
    "final_x": "3671748.76923",
    "final_y": "526702.713854",
    "longitude": "-90.09902512350592",
    "latitude": "29.942542197259854",
    "geocoded_column": {
      "latitude": "29.942542197259854",
      "longitude": "-90.09902512350592"
    }
  },
  {
    "service_request": "2024-1095436",
    "request_type": "Trash/Recycling",
    "request_reason": "Order Trash Cart",
    "date_created": "2024-05-21T14:47:32.000",
    "date_modified": "2024-05-21T14:47:33.000",
    "request_status": "Pending",
    "responsible_agency": "Department of Sanitation",
    "final_address": "3135 Delachaise St",
    "address_councildis": "B",
    "status": "Assigned to Contractor",
    "contractor": "IV Waste",
    "rowid": "1095436",
    "final_x": "3671748.76923",
    "final_y": "526702.713854",
    "longitude": "-90.09902512350592",
    "latitude": "29.942542197259854",
    "geocoded_column": {
      "latitude": "29.942542197259854",
      "longitude": "-90.09902512350592"
    }
  },
  {
    "service_request": "2024-1095435",
    "request_type": "Trash/Recycling",
    "request_reason": "Repair Trash Cart",
    "date_created": "2024-05-21T14:45:58.000",
    "date_modified": "2024-05-21T14:45:58.000",
    "request_status": "Pending",
    "responsible_agency": "Department of Sanitation",
    "final_address": "3133 Delachaise St",
    "address_councildis": "B",
    "status": "Assigned to Contractor",
    "contractor": "IV Waste",
    "rowid": "1095435",
    "final_x": "3671751.37339",
    "final_y": "526690.603902",
    "longitude": "-90.09901731341672",
    "latitude": "29.942508821706646",
    "geocoded_column": {
      "latitude": "29.942508821706646",
      "longitude": "-90.09901731341672"
    }
  },
  {
    "service_request": "2024-1095434",
    "request_type": "Trash/Recycling",
    "request_reason": "Request a Large Item Pick Up",
    "date_created": "2024-05-21T14:43:41.000",
    "date_modified": "2024-05-21T14:43:41.000",
    "request_status": "Pending",
    "responsible_agency": "Department of Sanitation",
    "final_address": "2901 Hudson St",
    "address_councildis": "C",
    "status": "Assigned to Contractor",
    "contractor": "Richards Disposal",
    "rowid": "1095434",
    "final_x": "3693778.78179",
    "final_y": "520406.987832",
    "longitude": "-90.02969775446245",
    "latitude": "29.92456019319011",
    "geocoded_column": {
      "latitude": "29.92456019319011",
      "longitude": "-90.02969775446245"
    }
  },
  {
    "service_request": "2024-1095433",
    "request_type": "Traffic Signals/Signs/Striping/Streetlights",
    "request_reason": "Street Light Outage/Malfunction",
    "date_created": "2024-05-21T14:42:46.000",
    "date_modified": "2024-05-21T14:42:47.000",
    "request_status": "Pending",
    "responsible_agency": "Department of Public Works",
    "final_address": "4501 Laine Ave",
    "address_councildis": "E",
    "status": "Assigned to Contractor",
    "contractor": "Legacy Professional Services",
    "rowid": "1095433",
    "final_x": "3705899.38679",
    "final_y": "553811.082199",
    "longitude": "-89.99020142494736",
    "latitude": "30.016024486653752",
    "geocoded_column": {
      "latitude": "30.016024486653752",
      "longitude": "-89.99020142494736"
    }
  },
  {
    "service_request": "2024-1095432",
    "request_type": "Trash/Recycling",
    "request_reason": "Request a Large Item Pick Up",
    "date_created": "2024-05-21T14:40:51.000",
    "date_modified": "2024-05-21T14:40:52.000",
    "request_status": "Pending",
    "responsible_agency": "Department of Sanitation",
    "final_address": "4737 Bancroft Dr",
    "address_councildis": "D",
    "status": "Assigned to Contractor",
    "contractor": "IV Waste",
    "rowid": "1095432",
    "final_x": "3676400.2724",
    "final_y": "549702.118292",
    "longitude": "-90.08354722943483",
    "latitude": "30.005644092969806",
    "geocoded_column": {
      "latitude": "30.005644092969806",
      "longitude": "-90.08354722943483"
    }
  },
  {
    "service_request": "2024-1095431",
    "request_type": "Trash/Recycling",
    "request_reason": "Request a Large Item Pick Up",
    "date_created": "2024-05-21T14:34:42.000",
    "date_modified": "2024-05-21T14:34:43.000",
    "request_status": "Pending",
    "responsible_agency": "Department of Sanitation",
    "final_address": "3236 Sabine St",
    "address_councildis": "C",
    "status": "Assigned to Contractor",
    "contractor": "Richards Disposal",
    "rowid": "1095431",
    "final_x": "3695079.22742",
    "final_y": "517872.247158",
    "longitude": "-90.02568402005211",
    "latitude": "29.917549766596093",
    "geocoded_column": {
      "latitude": "29.917549766596093",
      "longitude": "-90.02568402005211"
    }
  },
  {
    "service_request": "2024-1095430",
    "request_type": "Trash/Recycling",
    "request_reason": "Request a Large Item Pick Up",
    "date_created": "2024-05-21T14:30:12.000",
    "date_modified": "2024-05-21T14:30:13.000",
    "request_status": "Pending",
    "responsible_agency": "Department of Sanitation",
    "final_address": "5236 Beaver Dr",
    "address_councildis": "E",
    "status": "Assigned to Contractor",
    "contractor": "Waste Pro",
    "rowid": "1095430",
    "final_x": "3717651.38469",
    "final_y": "559260.901852",
    "longitude": "-89.95286333173483",
    "latitude": "30.03062530873654",
    "geocoded_column": {
      "latitude": "30.03062530873654",
      "longitude": "-89.95286333173483"
    }
  },
  {
    "service_request": "2024-1095429",
    "request_type": "Roads/Drainage",
    "request_reason": "Damaged Sidewalk",
    "date_created": "2024-05-21T14:27:01.000",
    "date_modified": "2024-05-21T14:27:01.000",
    "request_status": "Pending",
    "responsible_agency": "Department of Public Works",
    "final_address": "1710 Lakeshore Dr",
    "address_councildis": "D",
    "status": "Pending",
    "rowid": "1095429",
    "final_x": "3678200.92354",
    "final_y": "558006.585819",
    "longitude": "-90.07757103606485",
    "latitude": "30.028424250645944",
    "geocoded_column": {
      "latitude": "30.028424250645944",
      "longitude": "-90.07757103606485"
    }
  },
  {
    "service_request": "2024-1095428",
    "request_type": "Trash/Recycling",
    "request_reason": "Replace Trash Cart",
    "date_created": "2024-05-21T14:23:01.000",
    "date_modified": "2024-05-21T14:23:02.000",
    "request_status": "Pending",
    "responsible_agency": "Department of Sanitation",
    "final_address": "2 Marywood Ct",
    "address_councildis": "E",
    "status": "Assigned to Contractor",
    "contractor": "Waste Pro",
    "rowid": "1095428",
    "final_x": "3712817.2101",
    "final_y": "566284.280419",
    "longitude": "-89.96787477479275",
    "latitude": "30.05009602998006",
    "geocoded_column": {
      "latitude": "30.05009602998006",
      "longitude": "-89.96787477479275"
    }
  },
  {
    "service_request": "2024-1095427",
    "request_type": "Trash/Recycling",
    "request_reason": "Repair Trash Cart",
    "date_created": "2024-05-21T14:19:38.000",
    "date_modified": "2024-05-21T14:19:39.000",
    "request_status": "Pending",
    "responsible_agency": "Department of Sanitation",
    "final_address": "701 Fourth St",
    "address_councildis": "B",
    "status": "Assigned to Contractor",
    "contractor": "IV Waste",
    "rowid": "1095427",
    "final_x": "3678149.10504",
    "final_y": "519798.113592",
    "longitude": "-90.07905640765863",
    "latitude": "29.923365682674557",
    "geocoded_column": {
      "latitude": "29.923365682674557",
      "longitude": "-90.07905640765863"
    }
  },
  {
    "service_request": "2024-1095426",
    "request_type": "Roads/Drainage",
    "request_reason": "Street Subsidence (Sinking)",
    "date_created": "2024-05-21T14:15:28.000",
    "date_modified": "2024-05-21T14:15:29.000",
    "request_status": "Pending",
    "responsible_agency": "Department of Public Works",
    "final_address": "4558 Dale St",
    "address_councildis": "E",
    "status": "Pending",
    "rowid": "1095426",
    "final_x": "3699446.17162",
    "final_y": "554068.37148",
    "longitude": "-90.01058120900085",
    "latitude": "30.016938347154714",
    "geocoded_column": {
      "latitude": "30.016938347154714",
      "longitude": "-90.01058120900085"
    }
  },
  {
    "service_request": "2024-1095425",
    "request_type": "Trash/Recycling",
    "request_reason": "Illegal Dumping",
    "date_created": "2024-05-21T14:14:40.000",
    "date_modified": "2024-05-21T14:14:41.000",
    "request_status": "Pending",
    "responsible_agency": "Department of Sanitation",
    "final_address": "14566 Beekman Rd",
    "address_councildis": "E",
    "status": "Pending",
    "rowid": "1095425",
    "final_x": "3721086.73612",
    "final_y": "572994.197289",
    "longitude": "-89.94148055501043",
    "latitude": "30.06827194174913",
    "geocoded_column": {
      "latitude": "30.06827194174913",
      "longitude": "-89.94148055501043"
    }
  },
  {
    "service_request": "2024-1095424",
    "request_type": "Abandoned Vehicles",
    "request_reason": "Abandoned/Junk Vehicles",
    "date_created": "2024-05-21T14:13:48.000",
    "date_modified": "2024-05-21T14:13:48.000",
    "request_status": "Pending",
    "responsible_agency": "Department of Public Works",
    "final_address": "1205 Elysian Fields Ave",
    "address_councildis": "C",
    "status": "Pending",
    "rowid": "1095424",
    "final_x": "3685092.35637",
    "final_y": "536725.209799",
    "longitude": "-90.0565438289897",
    "latitude": "29.96969865338815",
    "geocoded_column": {
      "latitude": "29.96969865338815",
      "longitude": "-90.0565438289897"
    }
  },
  {
    "service_request": "2024-1095423",
    "request_type": "Trash/Recycling",
    "request_reason": "Request a Large Item Pick Up",
    "date_created": "2024-05-21T14:13:29.000",
    "date_modified": "2024-05-21T14:13:29.000",
    "request_status": "Pending",
    "responsible_agency": "Department of Sanitation",
    "final_address": "4558 Dale St",
    "address_councildis": "E",
    "status": "Assigned to Contractor",
    "contractor": "Waste Pro",
    "rowid": "1095423",
    "final_x": "3699446.17162",
    "final_y": "554068.37148",
    "longitude": "-90.01058120900085",
    "latitude": "30.016938347154714",
    "geocoded_column": {
      "latitude": "30.016938347154714",
      "longitude": "-90.01058120900085"
    }
  },
  {
    "service_request": "2024-1095422",
    "request_type": "Property Maintenance",
    "request_reason": "Property Maintenance",
    "date_created": "2024-05-21T14:12:25.000",
    "date_modified": "2024-05-21T15:10:12.000",
    "case_close_date": "2024-05-21T10:10:12.000",
    "request_status": "Closed",
    "responsible_agency": "Department of Parks & Parkway",
    "final_address": "6735 Argonne Blvd",
    "address_councildis": "A",
    "status": "Referred to External Agency",
    "rowid": "1095422",
    "final_x": "3670684.86919",
    "final_y": "552127.170838",
    "longitude": "-90.10152117299083",
    "latitude": "30.012482305336974",
    "geocoded_column": {
      "latitude": "30.012482305336974",
      "longitude": "-90.10152117299083"
    }
  },
  {
    "service_request": "2024-1095421",
    "request_type": "Trash/Recycling",
    "request_reason": "Repair Trash Cart",
    "date_created": "2024-05-21T14:12:13.000",
    "date_modified": "2024-05-21T14:12:14.000",
    "request_status": "Pending",
    "responsible_agency": "Department of Sanitation",
    "final_address": "700 BLK Fourth St",
    "address_councildis": "B",
    "status": "Assigned to Contractor",
    "contractor": "IV Waste",
    "rowid": "1095421",
    "final_x": "3678033.33911",
    "final_y": "519917.241777",
    "longitude": "-90.07941772214406",
    "latitude": "29.923696730460698",
    "geocoded_column": {
      "latitude": "29.923696730460698",
      "longitude": "-90.07941772214406"
    }
  },
  {
    "service_request": "2024-1095420",
    "request_type": "Mosquito, Termite & Rodent Control",
    "request_reason": "Rodent Complaint (Rats)",
    "date_created": "2024-05-21T14:08:00.000",
    "date_modified": "2024-05-21T14:08:00.000",
    "request_status": "Pending",
    "responsible_agency": "Mosquito, Termite & Rodent Control Board",
    "final_address": "7444 Garfield St",
    "address_councildis": "A",
    "status": "Pending",
    "rowid": "1095420",
    "final_x": "3661256.47866",
    "final_y": "523857.930043",
    "longitude": "-90.132246022619",
    "latitude": "29.935026549521503",
    "geocoded_column": {
      "latitude": "29.935026549521503",
      "longitude": "-90.132246022619"
    }
  },
  {
    "service_request": "2024-1095419",
    "request_type": "Abandoned Vehicles",
    "request_reason": "Abandoned/Junk Vehicles",
    "date_created": "2024-05-21T14:06:18.000",
    "date_modified": "2024-05-21T14:06:18.000",
    "request_status": "Pending",
    "responsible_agency": "Department of Public Works",
    "final_address": "1701 St Thomas St",
    "address_councildis": "B",
    "status": "Pending",
    "rowid": "1095419",
    "final_x": "3681317.88616",
    "final_y": "522003.649722",
    "longitude": "-90.06897694345304",
    "latitude": "29.929334426274345",
    "geocoded_column": {
      "latitude": "29.929334426274345",
      "longitude": "-90.06897694345304"
    }
  },
  {
    "service_request": "2024-1095418",
    "request_type": "Trash/Recycling",
    "request_reason": "Replace Trash Cart",
    "date_created": "2024-05-21T14:03:56.000",
    "date_modified": "2024-05-21T14:03:57.000",
    "request_status": "Pending",
    "responsible_agency": "Department of Sanitation",
    "final_address": "2821 Bennett St",
    "address_councildis": "C",
    "status": "Assigned to Contractor",
    "contractor": "Richards Disposal",
    "rowid": "1095418",
    "final_x": "3710439.9587",
    "final_y": "518862.594999",
    "longitude": "-89.97716227475792",
    "latitude": "29.919781926051048",
    "geocoded_column": {
      "latitude": "29.919781926051048",
      "longitude": "-89.97716227475792"
    }
  },
  {
    "service_request": "2024-1095417",
    "request_type": "Abandoned Vehicles",
    "request_reason": "Abandoned/Junk Vehicles",
    "date_created": "2024-05-21T14:02:50.000",
    "date_modified": "2024-05-21T14:02:50.000",
    "request_status": "Pending",
    "responsible_agency": "Department of Public Works",
    "final_address": "1701 St Thomas St",
    "address_councildis": "B",
    "status": "Pending",
    "rowid": "1095417",
    "final_x": "3681317.88616",
    "final_y": "522003.649722",
    "longitude": "-90.06897694345304",
    "latitude": "29.929334426274345",
    "geocoded_column": {
      "latitude": "29.929334426274345",
      "longitude": "-90.06897694345304"
    }
  },
  {
    "service_request": "2024-1095416",
    "request_type": "Trash/Recycling",
    "request_reason": "Replace Trash Cart",
    "date_created": "2024-05-21T13:59:33.000",
    "date_modified": "2024-05-21T13:59:34.000",
    "request_status": "Pending",
    "responsible_agency": "Department of Sanitation",
    "final_address": "2719 General Pershing St",
    "address_councildis": "B",
    "status": "Assigned to Contractor",
    "contractor": "IV Waste",
    "rowid": "1095416",
    "final_x": "3670887.56238",
    "final_y": "524946.022013",
    "longitude": "-90.10180376898649",
    "latitude": "29.937737345370355",
    "geocoded_column": {
      "latitude": "29.937737345370355",
      "longitude": "-90.10180376898649"
    }
  },
  {
    "service_request": "2024-1095414",
    "request_type": "Trash/Recycling",
    "request_reason": "Order Trash Cart",
    "date_created": "2024-05-21T13:57:08.000",
    "date_modified": "2024-05-21T13:57:09.000",
    "request_status": "Pending",
    "responsible_agency": "Department of Sanitation",
    "final_address": "717 Leboeuf St",
    "address_councildis": "C",
    "status": "Assigned to Contractor",
    "contractor": "Richards Disposal",
    "rowid": "1095414",
    "final_x": "3689747.29052",
    "final_y": "528839.950784",
    "longitude": "-90.04212379407986",
    "latitude": "29.94787348652845",
    "geocoded_column": {
      "latitude": "29.94787348652845",
      "longitude": "-90.04212379407986"
    }
  },