[
  {
    "service_request": "2022-851380",
    "request_type": "Property Maintenance",
    "request_reason": "Property Maintenance",
    "date_created": "2022-01-03T00:50:51.000",
    "date_modified": "2022-01-03T00:50:51.000",
    "request_status": "Pending",
    "responsible_agency": "Department of Code Enforcement",
    "final_address": "9800 Lake Forest Blvd",
    "address_councildis": "E",
    "status": "Pending",
    "rowid": "851380",
    "final_x": "3709283.69912",
    "final_y": "558662.502684",
    "longitude": "-89.97932747113909",
    "latitude": "30.029254484440223",
    "geocoded_column": {
      "latitude": "30.029254484440223",
      "longitude": "-89.97932747113909"
    }
  },
  {
    "service_request": "2022-851379",
    "request_type": "Roads/Drainage",
    "request_reason": "Street Flooding / Drainage",
    "date_created": "2022-01-03T00:32:01.000",
    "date_modified": "2022-01-03T00:32:01.000",
    "request_status": "Pending",
    "responsible_agency": "Department of Public Works",
    "final_address": "9951 Lake Forest Blvd",
    "address_councildis": "E",
    "status": "Pending",
    "rowid": "851379",
    "final_x": "3710888.08561",
    "final_y": "559885.788637",
    "longitude": "-89.9742118493147",
    "latitude": "30.032565810015807",
    "geocoded_column": {
      "latitude": "30.032565810015807",
      "longitude": "-89.9742118493147"
    }
  },
  {
    "service_request": "2022-851378",
    "request_type": "COVID-19",
    "request_reason": "COVID-19 Business Non-Compliance",
    "date_created": "2022-01-03T00:30:42.000",
    "date_modified": "2022-01-03T00:30:43.000",
    "request_status": "Pending",
    "responsible_agency": "Safety and Permits",
    "final_address": "1300 Perdido St",
    "address_councildis": "B",
    "status": "Pending",
    "rowid": "851378",
    "final_x": "3678683.48347",
    "final_y": "530227.987073",
    "longitude": "-90.07700859883013",
    "latitude": "29.952028297123956",
    "geocoded_column": {
      "latitude": "29.952028297123956",
      "longitude": "-90.07700859883013"
    }
  },
  {
    "service_request": "2022-851377",
    "request_type": "Roads/Drainage",
    "request_reason": "Catch Basin - Clogged",
    "date_created": "2022-01-03T00:00:53.000",
    "date_modified": "2022-01-03T00:00:53.000",
    "request_status": "Pending",
    "responsible_agency": "Department of Public Works",
    "final_address": "130 S Norman C Francis Prkwy",
    "address_councildis": "B",
    "status": "Pending",
    "rowid": "851377",
    "final_x": "3673117.55713",
    "final_y": "536368.578695",
    "longitude": "-90.09437356298893",
    "latitude": "29.969079499818395",
    "geocoded_column": {
      "latitude": "29.969079499818395",
      "longitude": "-90.09437356298893"
    }
  },
  {
    "service_request": "2022-851376",
    "request_type": "COVID-19",
    "request_reason": "COVID-19 Business Non-Compliance",
    "date_created": "2022-01-02T22:46:43.000",
    "date_modified": "2022-01-02T22:46:44.000",
    "request_status": "Pending",
    "responsible_agency": "Safety and Permits",
    "final_address": "1212 N Rampart St Ste 100",
    "address_councildis": "C",
    "status": "Pending",
    "rowid": "851376",
    "final_x": "3682605.14114",
    "final_y": "534874.734278",
    "longitude": "-90.06446338323636",
    "latitude": "29.964686454502193",
    "geocoded_column": {
      "latitude": "29.964686454502193",
      "longitude": "-90.06446338323636"
    }
  },
  {
    "service_request": "2022-851375",
    "request_type": "COVID-19",
    "request_reason": "COVID-19 Business Non-Compliance",
    "date_created": "2022-01-02T21:52:04.000",
    "date_modified": "2022-01-02T21:52:06.000",
    "request_status": "Pending",
    "responsible_agency": "Safety and Permits",
    "final_address": "1300 Perdido St",
    "address_councildis": "B",
    "status": "Pending",
    "rowid": "851375",
    "final_x": "3678683.48347",
    "final_y": "530227.987073",
    "longitude": "-90.07700859883013",
    "latitude": "29.952028297123956",
    "geocoded_column": {
      "latitude": "29.952028297123956",
      "longitude": "-90.07700859883013"
    }
  },
  {
    "service_request": "2022-851374",
    "request_type": "Roads/Drainage",
    "request_reason": "Damaged Sidewalk",
    "date_created": "2022-01-02T20:53:44.000",
    "date_modified": "2022-01-02T20:53:44.000",
    "request_status": "Pending",
    "responsible_agency": "Department of Public Works",
    "final_address": "801 Girod St",
    "address_councildis": "B",
    "status": "Pending",
    "rowid": "851374",
    "final_x": "3680051.05787",
    "final_y": "528702.695936",
    "longitude": "-90.07274342708176",
    "latitude": "29.947792958209924",
    "geocoded_column": {
      "latitude": "29.947792958209924",
      "longitude": "-90.07274342708176"
    }
  },
  {
    "service_request": "2022-851373",
    "request_type": "Trash/Recycling",
    "request_reason": "Request a Large Item Pick Up",
    "date_created": "2022-01-02T20:27:00.000",
    "date_modified": "2022-01-02T20:27:01.000",
    "request_status": "Pending",
    "responsible_agency": "Department of Sanitation",
    "final_address": "1728 Harmony St",
    "address_councildis": "B",
    "status": "Assigned to Contractor",
    "contractor": "Richards Disposal",
    "rowid": "851373",
    "final_x": "3674539.13115",
    "final_y": "522414.341114",
    "longitude": "-90.09036216732484",
    "latitude": "29.93066762663222",
    "geocoded_column": {
      "latitude": "29.93066762663222",
      "longitude": "-90.09036216732484"
    }
  },
  {
    "service_request": "2022-851372",
    "request_type": "Trash/Recycling",
    "request_reason": "Illegal Dumping",
    "date_created": "2022-01-02T20:05:25.000",
    "date_modified": "2022-01-02T20:05:25.000",
    "request_status": "Pending",
    "responsible_agency": "Department of Sanitation",
    "final_address": "1933 Foucher St",
    "address_councildis": "B",
    "status": "Pending",
    "rowid": "851372",
    "final_x": "3673079.35284",
    "final_y": "522583.819898",
    "longitude": "-90.0949647012997",
    "latitude": "29.931177099493596",
    "geocoded_column": {
      "latitude": "29.931177099493596",
      "longitude": "-90.0949647012997"
    }
  },
  {
    "service_request": "2022-851371",
    "request_type": "Trash/Recycling",
    "request_reason": "Order Recycling Cart",
    "date_created": "2022-01-02T19:42:26.000",
    "date_modified": "2022-01-02T19:42:26.000",
    "request_status": "Pending",
    "responsible_agency": "Department of Sanitation",
    "final_address": "10341 Plainfield Dr",
    "address_councildis": "E",
    "status": "Pending",
    "rowid": "851371",
    "final_x": "3710764.00619",
    "final_y": "563146.904416",
    "longitude": "-89.97448173520952",
    "latitude": "30.04153662481903",
    "geocoded_column": {
      "latitude": "30.04153662481903",
      "longitude": "-89.97448173520952"
    }
  },
  {
    "service_request": "2022-851369",
    "request_type": "COVID-19",
    "request_reason": "COVID-19 Business Non-Compliance",
    "date_created": "2022-01-02T19:31:30.000",
    "date_modified": "2022-01-02T19:31:31.000",
    "request_status": "Pending",
    "responsible_agency": "Safety and Permits",
    "final_address": "713 St Louis St",
    "address_councildis": "C",
    "status": "Pending",
    "rowid": "851369",
    "final_x": "3682018.93",
    "final_y": "531975.985795",
    "longitude": "-90.06641580905911",
    "latitude": "29.956733722655002",
    "geocoded_column": {
      "latitude": "29.956733722655002",
      "longitude": "-90.06641580905911"
    }
  },
  {
    "service_request": "2022-851368",
    "request_type": "Trash/Recycling",
    "request_reason": "Missed Trash Pick-Up",
    "date_created": "2022-01-02T19:25:40.000",
    "date_modified": "2022-01-02T19:25:41.000",
    "request_status": "Pending",
    "responsible_agency": "Department of Sanitation",
    "final_address": "734 Herald St, New Orleans, Louisiana, 70131",
    "address_councildis": "C",
    "status": "Assigned to Contractor",
    "contractor": "Richards Disposal",
    "rowid": "851368",
    "final_x": "3702315.60689",
    "final_y": "519639.643192",
    "longitude": "-90.00277820904427",
    "latitude": "29.9221804399578",
    "geocoded_column": {
      "latitude": "29.9221804399578",
      "longitude": "-90.00277820904427"
    }
  },
  {
    "service_request": "2022-851367",
    "request_type": "COVID-19",
    "request_reason": "COVID-19 Business Non-Compliance",
    "date_created": "2022-01-02T18:58:29.000",
    "date_modified": "2022-01-02T19:01:01.000",
    "request_status": "Pending",
    "responsible_agency": "Safety and Permits",
    "final_address": "2700 Napoleon Ave",
    "address_councildis": "B",
    "status": "Pending",
    "rowid": "851367",
    "final_x": "3670329.10676",
    "final_y": "524901.711484",
    "longitude": "-90.10356836305975",
    "latitude": "29.93763199795991",
    "geocoded_column": {
      "latitude": "29.93763199795991",
      "longitude": "-90.10356836305975"
    }
  },
  {
    "service_request": "2022-851366",
    "request_type": "Trash/Recycling",
    "request_reason": "Missed Trash Pick-Up",
    "date_created": "2022-01-02T18:45:17.000",
    "date_modified": "2022-01-02T18:45:18.000",
    "request_status": "Pending",
    "responsible_agency": "Department of Sanitation",
    "final_address": "5527 Hurst St",
    "address_councildis": "A",
    "status": "Assigned to Contractor",
    "contractor": "Richards Disposal",
    "rowid": "851366",
    "final_x": "3666769.26189",
    "final_y": "521461.699513",
    "longitude": "-90.11492258342324",
    "latitude": "29.92827763430591",
    "geocoded_column": {
      "latitude": "29.92827763430591",
      "longitude": "-90.11492258342324"
    }
  },
  {
    "service_request": "2022-851365",
    "request_type": "Traffic Signals/Signs/Striping/Streetlights",
    "request_reason": "Street Light Outage/Malfunction",
    "date_created": "2022-01-02T18:38:12.000",
    "date_modified": "2022-01-02T18:38:12.000",
    "request_status": "Pending",
    "responsible_agency": "Department of Public Works",
    "final_address": "1478 Aviators St",
    "address_councildis": "D",
    "status": "Pending",
    "contractor": "Royal Engineering",
    "rowid": "851365",
    "final_x": "3678182.89557",
    "final_y": "554832.542808",
    "longitude": "-90.07773790882693",
    "latitude": "30.019697332775763",
    "geocoded_column": {
      "latitude": "30.019697332775763",
      "longitude": "-90.07773790882693"
    }
  },
  {
    "service_request": "2022-851364",
    "request_type": "Traffic Signals/Signs/Striping/Streetlights",
    "request_reason": "Street Light Outage/Malfunction",
    "date_created": "2022-01-02T18:33:34.000",
    "date_modified": "2022-01-02T18:33:35.000",
    "request_status": "Pending",
    "responsible_agency": "Department of Public Works",
    "final_address": "7001 Argonne Blvd",
    "address_councildis": "A",
    "status": "Pending",
    "contractor": "Royal Engineering",
    "rowid": "851364",
    "final_x": "3670831.58932",
    "final_y": "553889.032535",
    "longitude": "-90.10099775075899",
    "latitude": "30.0173224626137",
    "geocoded_column": {
      "latitude": "30.0173224626137",
      "longitude": "-90.10099775075899"
    }
  },
  {
    "service_request": "2022-851363",
    "request_type": "Traffic Signals/Signs/Striping/Streetlights",
    "request_reason": "Street Light Outage/Malfunction",
    "date_created": "2022-01-02T18:15:06.000",
    "date_modified": "2022-01-02T18:15:07.000",
    "request_status": "Pending",
    "responsible_agency": "Department of Public Works",
    "final_address": "4201 Woodland Dr",
    "address_councildis": "C",
    "status": "Pending",
    "contractor": "Royal Engineering",
    "rowid": "851363",
    "final_x": "3705279.9571",
    "final_y": "515277.967988",
    "longitude": "-89.99358203754556",
    "latitude": "29.910092356057415",
    "geocoded_column": {
      "latitude": "29.910092356057415",
      "longitude": "-89.99358203754556"
    }
  },
  {
    "service_request": "2022-851362",
    "request_type": "Traffic Signals/Signs/Striping/Streetlights",
    "request_reason": "Traffic Signal Malfunctioning/Damaged",
    "date_created": "2022-01-02T18:13:07.000",
    "date_modified": "2022-01-02T18:13:07.000",
    "request_status": "Pending",
    "responsible_agency": "Department of Public Works",
    "final_address": "GENERAL MEYER AVE & WOODLAND DR & WOODLAND PL",
    "address_councildis": "C",
    "status": "Pending",
    "rowid": "851362",
    "final_x": "3705605.3",
    "final_y": "521490.58",
    "longitude": "-89.99232571732016",
    "latitude": "29.92716442391466",
    "geocoded_column": {
      "latitude": "29.92716442391466",
      "longitude": "-89.99232571732016"
    }
  },
  {
    "service_request": "2022-851361",
    "request_type": "COVID-19",
    "request_reason": "COVID-19 Business Non-Compliance",
    "date_created": "2022-01-02T17:51:04.000",
    "date_modified": "2022-01-02T17:51:05.000",
    "request_status": "Pending",
    "responsible_agency": "Safety and Permits",
    "final_address": "1111 Gravier St",
    "address_councildis": "B",
    "status": "Pending",
    "rowid": "851361",
    "final_x": "3679519.89135",
    "final_y": "530682.39341",
    "longitude": "-90.07435185120141",
    "latitude": "29.953252519253937",
    "geocoded_column": {
      "latitude": "29.953252519253937",
      "longitude": "-90.07435185120141"
    }
  },
  {
    "service_request": "2022-851360",
    "request_type": "Trash/Recycling",
    "request_reason": "Missed Trash Pick-Up",
    "date_created": "2022-01-02T17:47:29.000",
    "date_modified": "2022-01-02T17:47:30.000",
    "request_status": "Pending",
    "responsible_agency": "Department of Sanitation",
    "final_address": "2620 State St",
    "address_councildis": "A",
    "status": "Assigned to Contractor",
    "contractor": "Richards Disposal",
    "rowid": "851360",
    "final_x": "3666914.62829",
    "final_y": "526293.21779",
    "longitude": "-90.1143014292644",
    "latitude": "29.941558515318416",
    "geocoded_column": {
      "latitude": "29.941558515318416",
      "longitude": "-90.1143014292644"
    }
  },
  {
    "service_request": "2022-851359",
    "request_type": "Parks & Parkways",
    "request_reason": "Request Tree Service (Right of Way/Public Property)",
    "date_created": "2022-01-02T17:31:18.000",
    "date_modified": "2022-01-02T17:31:18.000",
    "request_status": "Pending",
    "responsible_agency": "Department of Parks & Parkway",
    "final_address": "830 Governor Nicholls St",
    "address_councildis": "C",
    "status": "Pending",
    "rowid": "851359",
    "final_x": "3683147.67772",
    "final_y": "534268.053893",
    "longitude": "-90.06277133623854",
    "latitude": "29.96300176115507",
    "geocoded_column": {
      "latitude": "29.96300176115507",
      "longitude": "-90.06277133623854"
    }
  },
  {
    "service_request": "2022-851357",
    "request_type": "Trash/Recycling",
    "request_reason": "Repair Trash Cart",
    "date_created": "2022-01-02T17:21:14.000",
    "date_modified": "2022-01-02T17:21:15.000",
    "request_status": "Pending",
    "responsible_agency": "Department of Sanitation",
    "final_address": "130 N Olympia St",
    "address_councildis": "A",
    "status": "Assigned to Contractor",
    "contractor": "Richards Disposal",
    "rowid": "851357",
    "final_x": "3669656.36897",
    "final_y": "539844.861962",
    "longitude": "-90.10518659842106",
    "latitude": "29.97874056013733",
    "geocoded_column": {
      "latitude": "29.97874056013733",
      "longitude": "-90.10518659842106"
    }
  },
  {
    "service_request": "2022-851356",
    "request_type": "Trash/Recycling",
    "request_reason": "Missed Trash Pick-Up",
    "date_created": "2022-01-02T17:16:15.000",
    "date_modified": "2022-01-02T17:16:16.000",
    "request_status": "Pending",
    "responsible_agency": "Department of Sanitation",
    "final_address": "321 Alonzo St",
    "address_councildis": "A",
    "status": "Assigned to Contractor",
    "contractor": "Richards Disposal",
    "rowid": "851356",
    "final_x": "3664633.28365",
    "final_y": "517570.918774",
    "longitude": "-90.12179528947192",
    "latitude": "29.91764148554684",
    "geocoded_column": {
      "latitude": "29.91764148554684",
      "longitude": "-90.12179528947192"
    }
  },
  {
    "service_request": "2022-851355",
    "request_type": "Traffic Signals/Signs/Striping/Streetlights",
    "request_reason": "Traffic Signal Malfunctioning/Damaged",
    "date_created": "2022-01-02T17:02:08.000",
    "date_modified": "2022-01-02T17:02:08.000",
    "request_status": "Pending",
    "responsible_agency": "Department of Public Works",
    "final_address": "DECATUR ST & ESPLANADE AVE",
    "address_councildis": "C",
    "status": "Pending",
    "rowid": "851355",
    "final_x": "3684676.2",
    "final_y": "533964.28",
    "longitude": "-90.05795513555637",
    "latitude": "29.962119795166075",
    "geocoded_column": {
      "latitude": "29.962119795166075",
      "longitude": "-90.05795513555637"
    }
  },
  {
    "service_request": "2022-851354",
    "request_type": "Trash/Recycling",
    "request_reason": "Missed Trash Pick-Up",
    "date_created": "2022-01-02T17:00:19.000",
    "date_modified": "2022-01-02T17:00:19.000",
    "request_status": "Pending",
    "responsible_agency": "Department of Sanitation",
    "final_address": "8121 Zimple St",
    "address_councildis": "A",
    "status": "Assigned to Contractor",
    "contractor": "Richards Disposal",
    "rowid": "851354",
    "final_x": "3661617.28358",
    "final_y": "528270.96448",
    "longitude": "-90.1309607653579",
    "latitude": "29.947150589155818",
    "geocoded_column": {
      "latitude": "29.947150589155818",
      "longitude": "-90.1309607653579"
    }
  },
  {
    "service_request": "2022-851353",
    "request_type": "Property Maintenance",
    "request_reason": "Property Maintenance",
    "date_created": "2022-01-02T16:58:33.000",
    "date_modified": "2022-01-02T16:58:33.000",
    "request_status": "Pending",
    "responsible_agency": "Department of Code Enforcement",
    "final_address": "7725 Mercier St",
    "address_councildis": "E",
    "status": "Pending",
    "rowid": "851353",
    "final_x": "3711225.52965",
    "final_y": "566888.032292",
    "longitude": "-89.97288279019264",
    "latitude": "30.05180816013644",
    "geocoded_column": {
      "latitude": "30.05180816013644",
      "longitude": "-89.97288279019264"
    }
  },
  {
    "service_request": "2022-851352",
    "request_type": "Traffic Signals/Signs/Striping/Streetlights",
    "request_reason": "Road Surface Marking Maintenance-Traffic Control",
    "date_created": "2022-01-02T16:48:22.000",
    "date_modified": "2022-01-02T16:48:22.000",
    "request_status": "Pending",
    "responsible_agency": "Department of Public Works",
    "final_address": "411 N Rampart St",
    "address_councildis": "C",
    "status": "Pending",
    "rowid": "851352",
    "final_x": "3680720.17365",
    "final_y": "532605.47418",
    "longitude": "-90.07049495610136",
    "latitude": "29.958504023160284",
    "geocoded_column": {
      "latitude": "29.958504023160284",
      "longitude": "-90.07049495610136"
    }
  },
  {
    "service_request": "2022-851350",
    "request_type": "Trash/Recycling",
    "request_reason": "Repair Trash Cart",
    "date_created": "2022-01-02T16:38:29.000",
    "date_modified": "2022-01-02T16:38:30.000",
    "request_status": "Pending",
    "responsible_agency": "Department of Sanitation",
    "final_address": "2758 Hudson Pl",
    "address_councildis": "C",
    "status": "Assigned to Contractor",
    "contractor": "Richards Disposal",
    "rowid": "851350",
    "final_x": "3703428.6058",
    "final_y": "520490.108152",
    "longitude": "-89.99923370239075",
    "latitude": "29.92448334015456",
    "geocoded_column": {
      "latitude": "29.92448334015456",
      "longitude": "-89.99923370239075"
    }
  },
  {
    "service_request": "2022-851349",
    "request_type": "Traffic Signals/Signs/Striping/Streetlights",
    "request_reason": "Traffic Signal Malfunctioning/Damaged",
    "date_created": "2022-01-02T16:36:19.000",
    "date_modified": "2022-01-02T16:36:19.000",
    "request_status": "Pending",
    "responsible_agency": "Department of Public Works",
    "final_address": "837 Gravier St",
    "address_councildis": "B",
    "status": "Pending",
    "rowid": "851349",
    "final_x": "3680203.48085",
    "final_y": "530400.816706",
    "longitude": "-90.07220315643896",
    "latitude": "29.95245760812071",
    "geocoded_column": {
      "latitude": "29.95245760812071",
      "longitude": "-90.07220315643896"
    }
  },
  {
    "service_request": "2022-851348",
    "request_type": "Abandoned Vehicles",
    "request_reason": "Abandoned/Junk Vehicles",
    "date_created": "2022-01-02T16:29:24.000",
    "date_modified": "2022-01-02T16:29:24.000",
    "request_status": "Pending",
    "responsible_agency": "Department of Public Works",
    "final_address": "1301 Pelican Ave",
    "address_councildis": "C",
    "status": "Pending",
    "rowid": "851348",
    "final_x": "3689654.25878",
    "final_y": "530639.083522",
    "longitude": "-90.04235353033296",
    "latitude": "29.95282336489632",
    "geocoded_column": {
      "latitude": "29.95282336489632",
      "longitude": "-90.04235353033296"
    }
  },
  {
    "service_request": "2022-851347",
    "request_type": "Trash/Recycling",
    "request_reason": "Order Trash Cart",
    "date_created": "2022-01-02T15:49:02.000",
    "date_modified": "2022-01-02T15:49:03.000",
    "request_status": "Pending",
    "responsible_agency": "Department of Sanitation",
    "final_address": "1516 Robert St",
    "address_councildis": "B",
    "status": "Assigned to Contractor",
    "contractor": "Richards Disposal",
    "rowid": "851347",
    "final_x": "3668617.50503",
    "final_y": "520561.9822",
    "longitude": "-90.10911841476718",
    "latitude": "29.925749528965472",
    "geocoded_column": {
      "latitude": "29.925749528965472",
      "longitude": "-90.10911841476718"
    }
  },
  {
    "service_request": "2022-851346",
    "request_type": "Trash/Recycling",
    "request_reason": "Request a Large Item Pick Up",
    "date_created": "2022-01-02T15:47:28.000",
    "date_modified": "2022-01-02T15:47:29.000",
    "request_status": "Pending",
    "responsible_agency": "Department of Sanitation",
    "final_address": "1516 Robert St",
    "address_councildis": "B",
    "status": "Assigned to Contractor",
    "contractor": "Richards Disposal",
    "rowid": "851346",
    "final_x": "3668617.50503",
    "final_y": "520561.9822",
    "longitude": "-90.10911841476718",
    "latitude": "29.925749528965472",
    "geocoded_column": {
      "latitude": "29.925749528965472",
      "longitude": "-90.10911841476718"
    }
  },
  {
    "service_request": "2022-851345",
    "request_type": "Traffic Signals/Signs/Striping/Streetlights",
    "request_reason": "Request for Stop Sign",
    "date_created": "2022-01-02T15:45:44.000",
    "date_modified": "2022-01-02T15:45:44.000",
    "request_status": "Pending",
    "responsible_agency": "Department of Public Works",
    "final_address": "S Saratoga St & Second St, New Orleans, Louisiana, 70113",
    "status": "Pending",
    "rowid": "851345",
    "longitude": "0.0",
    "latitude": "0.0",
    "geocoded_column": {
      "latitude": "0.0",
      "longitude": "0.0"
    }
  },
  {
    "service_request": "2022-851344",
    "request_type": "Traffic Signals/Signs/Striping/Streetlights",
    "request_reason": "Traffic Signal Malfunctioning/Damaged",
    "date_created": "2022-01-02T15:33:40.000",
    "date_modified": "2022-01-02T15:35:30.000",
    "request_status": "Pending",
    "responsible_agency": "Department of Public Works",
    "final_address": "TOULOUSE ST & DECATUR ST",
    "address_councildis": "C",
    "status": "Pending",
    "rowid": "851344",
    "final_x": "3682943.7",
    "final_y": "531690.38",
    "longitude": "-90.0635056798676",
    "latitude": "29.9559202566575",
    "geocoded_column": {
      "latitude": "29.9559202566575",
      "longitude": "-90.0635056798676"
    }
  },
  {
    "service_request": "2022-851343",
    "request_type": "Trash/Recycling",
    "request_reason": "Request a Large Item Pick Up",
    "date_created": "2022-01-02T15:27:07.000",
    "date_modified": "2022-01-02T15:27:08.000",
    "request_status": "Pending",
    "responsible_agency": "Department of Sanitation",
    "final_address": "2738 Peniston St",
    "address_councildis": "B",
    "status": "Assigned to Contractor",
    "contractor": "Richards Disposal",
    "rowid": "851343",
    "final_x": "3671856.16366",
    "final_y": "525217.979709",
    "longitude": "-90.09873656137229",
    "latitude": "29.938456480157573",
    "geocoded_column": {
      "latitude": "29.938456480157573",
      "longitude": "-90.09873656137229"
    }
  },
  {
    "service_request": "2022-851342",
    "request_type": "Trash/Recycling",
    "request_reason": "Missed Trash Pick-Up",
    "date_created": "2022-01-02T15:24:30.000",
    "date_modified": "2022-01-02T15:24:31.000",
    "request_status": "Pending",
    "responsible_agency": "Department of Sanitation",
    "final_address": "1662 State St",
    "address_councildis": "A",
    "status": "Assigned to Contractor",
    "contractor": "Richards Disposal",
    "rowid": "851342",
    "final_x": "3665910.96052",
    "final_y": "523230.624891",
    "longitude": "-90.1175728131946",
    "latitude": "29.933166685542844",
    "geocoded_column": {
      "latitude": "29.933166685542844",
      "longitude": "-90.1175728131946"
    }
  },
  {
    "service_request": "2022-851341",
    "request_type": "COVID-19",
    "request_reason": "COVID-19 Business Non-Compliance",
    "date_created": "2022-01-02T15:20:49.000",
    "date_modified": "2022-01-02T15:20:50.000",
    "request_status": "Pending",
    "responsible_agency": "Safety and Permits",
    "final_address": "300 Canal St",
    "address_councildis": "B",
    "status": "Pending",
    "rowid": "851341",
    "final_x": "3682143.72834",
    "final_y": "529836.705729",
    "longitude": "-90.06609644465293",
    "latitude": "29.950847632902086",
    "geocoded_column": {
      "latitude": "29.950847632902086",
      "longitude": "-90.06609644465293"
    }
  },
  {
    "service_request": "2022-851340",
    "request_type": "Trash/Recycling",
    "request_reason": "Request a Large Item Pick Up",
    "date_created": "2022-01-02T15:18:52.000",
    "date_modified": "2022-01-02T15:18:53.000",
    "request_status": "Pending",
    "responsible_agency": "Department of Sanitation",
    "final_address": "1040 Jourdan Ave, New Orleans, Louisiana, 70117",
    "status": "Assigned to Contractor",
    "rowid": "851340",
    "longitude": "0.0",
    "latitude": "0.0",
    "geocoded_column": {
      "latitude": "0.0",
      "longitude": "0.0"
    }
  },
  {
    "service_request": "2022-851339",
    "request_type": "COVID-19",
    "request_reason": "COVID-19 Business Non-Compliance",
    "date_created": "2022-01-02T15:18:03.000",
    "date_modified": "2022-01-02T15:18:04.000",
    "request_status": "Pending",
    "responsible_agency": "Safety and Permits",
    "final_address": "200 Poydras St",
    "address_councildis": "B",
    "status": "Pending",
    "rowid": "851339",
    "final_x": "3682469.45116",
    "final_y": "528843.14304",
    "longitude": "-90.06510270074563",
    "latitude": "29.948105761756697",
    "geocoded_column": {
      "latitude": "29.948105761756697",
      "longitude": "-90.06510270074563"
    }
  },
  {
    "service_request": "2022-851338",
    "request_type": "Trash/Recycling",
    "request_reason": "Request a Large Item Pick Up",
    "date_created": "2022-01-02T15:12:02.000",
    "date_modified": "2022-01-02T15:12:02.000",
    "request_status": "Pending",
    "responsible_agency": "Department of Sanitation",
    "final_address": "915 Second St",
    "address_councildis": "B",
    "status": "Assigned to Contractor",
    "contractor": "Richards Disposal",
    "rowid": "851338",
    "final_x": "3678177.90869",
    "final_y": "520872.187449",
    "longitude": "-90.07892836854434",
    "latitude": "29.9263181697581",
    "geocoded_column": {
      "latitude": "29.9263181697581",
      "longitude": "-90.07892836854434"
    }
  },
  {
    "service_request": "2022-851337",
    "request_type": "Trash/Recycling",
    "request_reason": "Missed Trash Pick-Up",
    "date_created": "2022-01-02T14:43:47.000",
    "date_modified": "2022-01-02T14:43:48.000",
    "request_status": "Pending",
    "responsible_agency": "Department of Sanitation",
    "final_address": "2030 Palmer Ave",
    "address_councildis": "A",
    "status": "Assigned to Contractor",
    "contractor": "Richards Disposal",
    "rowid": "851337",
    "final_x": "3665831.25466",
    "final_y": "524541.984572",
    "longitude": "-90.11778052280778",
    "latitude": "29.93677483208753",
    "geocoded_column": {
      "latitude": "29.93677483208753",
      "longitude": "-90.11778052280778"
    }
  },
  {
    "service_request": "2022-851336",
    "request_type": "Trash/Recycling",
    "request_reason": "Missed Trash Pick-Up",
    "date_created": "2022-01-02T14:43:30.000",
    "date_modified": "2022-01-02T14:43:31.000",
    "request_status": "Pending",
    "responsible_agency": "Department of Sanitation",
    "final_address": "1128 Nashville Ave",
    "address_councildis": "A",
    "status": "Assigned to Contractor",
    "contractor": "Richards Disposal",
    "rowid": "851336",
    "final_x": "3665732.63508",
    "final_y": "520218.262968",
    "longitude": "-90.11823662329108",
    "latitude": "29.924888844462647",
    "geocoded_column": {
      "latitude": "29.924888844462647",
      "longitude": "-90.11823662329108"
    }
  },
  {
    "service_request": "2022-851335",
    "request_type": "Trash/Recycling",
    "request_reason": "Illegal Dumping",
    "date_created": "2022-01-02T14:31:26.000",
    "date_modified": "2022-01-02T14:31:26.000",
    "request_status": "Pending",
    "responsible_agency": "Department of Code Enforcement",
    "final_address": "7432 Scottsdale Dr",
    "address_councildis": "E",
    "status": "Pending",
    "rowid": "851335",
    "final_x": "3704161.43409",
    "final_y": "561669.727263",
    "longitude": "-89.99540261868756",
    "latitude": "30.037688611237325",
    "geocoded_column": {
      "latitude": "30.037688611237325",
      "longitude": "-89.99540261868756"
    }
  },
  {
    "service_request": "2022-851334",
    "request_type": "Roads/Drainage",
    "request_reason": "Catch Basin - Clogged",
    "date_created": "2022-01-02T14:30:34.000",
    "date_modified": "2022-01-02T14:30:34.000",
    "request_status": "Pending",
    "responsible_agency": "Department of Public Works",
    "final_address": "DESAIX BLVD & WISNER BLVD",
    "address_councildis": "A",
    "status": "Pending",
    "rowid": "851334",
    "final_x": "3675121.18",
    "final_y": "543735.29",
    "longitude": "-90.08779308599924",
    "latitude": "29.989275706250247",
    "geocoded_column": {
      "latitude": "29.989275706250247",
      "longitude": "-90.08779308599924"
    }
  },
  {
    "service_request": "2022-851333",
    "request_type": "Roads/Drainage",
    "request_reason": "Catch Basin - Clogged",
    "date_created": "2022-01-02T14:30:00.000",
    "date_modified": "2022-01-02T14:30:00.000",
    "request_status": "Pending",
    "responsible_agency": "Department of Public Works",
    "final_address": "DESAIX BLVD & WISNER BLVD",
    "address_councildis": "A",
    "status": "Pending",
    "rowid": "851333",
    "final_x": "3675121.18",
    "final_y": "543735.29",
    "longitude": "-90.08779308599924",
    "latitude": "29.989275706250247",
    "geocoded_column": {
      "latitude": "29.989275706250247",
      "longitude": "-90.08779308599924"
    }
  },
  {
    "service_request": "2022-851332",
    "request_type": "Property Maintenance",
    "request_reason": "Property Maintenance",
    "date_created": "2022-01-02T14:29:55.000",
    "date_modified": "2022-01-02T14:29:55.000",
    "request_status": "Pending",
    "responsible_agency": "Department of Code Enforcement",
    "final_address": "7432 Scottsdale Dr",
    "address_councildis": "E",
    "status": "Pending",
    "rowid": "851332",
    "final_x": "3704161.43409",
    "final_y": "561669.727263",
    "longitude": "-89.99540261868756",
    "latitude": "30.037688611237325",
    "geocoded_column": {
      "latitude": "30.037688611237325",
      "longitude": "-89.99540261868756"
    }
  },
  {
    "service_request": "2022-851331",
    "request_type": "Roads/Drainage",
    "request_reason": "Catch Basin - Clogged",
    "date_created": "2022-01-02T14:29:29.000",
    "date_modified": "2022-01-02T14:29:30.000",
    "request_status": "Pending",
    "responsible_agency": "Department of Public Works",
    "final_address": "DESAIX BLVD & WISNER BLVD",
    "address_councildis": "A",
    "status": "Pending",
    "rowid": "851331",
    "final_x": "3675121.18",
    "final_y": "543735.29",
    "longitude": "-90.08779308599924",
    "latitude": "29.989275706250247",
    "geocoded_column": {
      "latitude": "29.989275706250247",
      "longitude": "-90.08779308599924"
    }
  },
  {
    "service_request": "2022-851330",
    "request_type": "Traffic Signals/Signs/Striping/Streetlights",
    "request_reason": "Traffic Signal Malfunctioning/Damaged",
    "date_created": "2022-01-02T14:18:25.000",
    "date_modified": "2022-01-02T14:18:25.000",
    "request_status": "Pending",
    "responsible_agency": "Department of Public Works",
    "final_address": "Baronne St, New Orleans, Louisiana, 70115",
    "address_councildis": "B",
    "status": "Pending",
    "rowid": "851330",
    "final_x": "3676702.61678",
    "final_y": "524326.366076",
    "longitude": "-90.083466513146",
    "latitude": "29.93586036166277",
    "geocoded_column": {
      "latitude": "29.93586036166277",
      "longitude": "-90.083466513146"
    }
  },
  {
    "service_request": "2022-851329",
    "request_type": "Trash/Recycling",
    "request_reason": "Order Trash Cart",
    "date_created": "2022-01-02T14:11:16.000",
    "date_modified": "2022-01-02T14:11:17.000",
    "request_status": "Pending",
    "responsible_agency": "Department of Sanitation",
    "final_address": "2631 Iberville St",
    "address_councildis": "B",
    "status": "Assigned to Contractor",
    "contractor": "Richards Disposal",
    "rowid": "851329",
    "final_x": "3675907.41582",
    "final_y": "535339.781958",
    "longitude": "-90.08559836514091",
    "latitude": "29.966167417021545",
    "geocoded_column": {
      "latitude": "29.966167417021545",
      "longitude": "-90.08559836514091"
    }
  },
  {
    "service_request": "2022-851328",
    "request_type": "Traffic Signals/Signs/Striping/Streetlights",
    "request_reason": "Street Light Knocked Down/Leaning",
    "date_created": "2022-01-02T14:07:43.000",
    "date_modified": "2022-01-02T14:07:43.000",
    "request_status": "Pending",
    "responsible_agency": "Department of Public Works",
    "final_address": "3530 Hyman Ct",
    "address_councildis": "C",
    "status": "Pending",
    "contractor": "Royal Engineering",
    "rowid": "851328",
    "final_x": "3700995.31921",
    "final_y": "517971.407478",
    "longitude": "-90.00700673637469",
    "latitude": "29.917635453228566",
    "geocoded_column": {
      "latitude": "29.917635453228566",
      "longitude": "-90.00700673637469"
    }
  },
  {
    "service_request": "2022-851327",
    "request_type": "Traffic Signals/Signs/Striping/Streetlights",
    "request_reason": "Street Light Outage/Malfunction",
    "date_created": "2022-01-02T14:04:49.000",
    "date_modified": "2022-01-02T14:04:50.000",
    "request_status": "Pending",
    "responsible_agency": "Department of Public Works",
    "final_address": "3530 Hyman Ct",
    "address_councildis": "C",
    "status": "Pending",
    "contractor": "Royal Engineering",
    "rowid": "851327",
    "final_x": "3700995.31921",
    "final_y": "517971.407478",
    "longitude": "-90.00700673637469",
    "latitude": "29.917635453228566",
    "geocoded_column": {
      "latitude": "29.917635453228566",
      "longitude": "-90.00700673637469"
    }
  },
  {
    "service_request": "2022-851326",
    "request_type": "Trash/Recycling",
    "request_reason": "Order Recycling Cart",
    "date_created": "2022-01-02T13:57:03.000",
    "date_modified": "2022-01-02T13:57:03.000",
    "request_status": "Pending",
    "responsible_agency": "Department of Sanitation",
    "final_address": "813 Clouet St",
    "address_councildis": "C",
    "status": "Pending",
    "rowid": "851326",
    "final_x": "3688783.68502",
    "final_y": "534985.549894",
    "longitude": "-90.04494809195158",
    "latitude": "29.964801582520025",
    "geocoded_column": {
      "latitude": "29.964801582520025",
      "longitude": "-90.04494809195158"
    }
  },
  {
    "service_request": "2022-851325",
    "request_type": "Property Maintenance",
    "request_reason": "Property Maintenance",
    "date_created": "2022-01-02T13:35:35.000",
    "date_modified": "2022-01-02T13:35:35.000",
    "request_status": "Pending",
    "responsible_agency": "Department of Code Enforcement",
    "final_address": "2404 Frenchmen St",
    "address_councildis": "D",
    "status": "Pending",
    "rowid": "851325",
    "final_x": "3684173.32034",
    "final_y": "541109.865164",
    "longitude": "-90.05929225855515",
    "latitude": "29.98178305048799",
    "geocoded_column": {
      "latitude": "29.98178305048799",
      "longitude": "-90.05929225855515"
    }
  },
  {
    "service_request": "2022-851324",
    "request_type": "Trash/Recycling",
    "request_reason": "Missed Trash Pick-Up",
    "date_created": "2022-01-02T13:34:22.000",
    "date_modified": "2022-01-02T13:34:22.000",
    "request_status": "Pending",
    "responsible_agency": "Department of Sanitation",
    "final_address": "5516 Wingate Dr",
    "address_councildis": "D",
    "status": "Assigned to Contractor",
    "contractor": "Metro Disposal",
    "rowid": "851324",
    "final_x": "3681279.29852",
    "final_y": "553273.959895",
    "longitude": "-90.0680086765932",
    "latitude": "30.015318139026817",
    "geocoded_column": {
      "latitude": "30.015318139026817",
      "longitude": "-90.0680086765932"
    }
  },
  {
    "service_request": "2022-851323",
    "request_type": "Trash/Recycling",
    "request_reason": "Illegal Dumping",
    "date_created": "2022-01-02T13:32:08.000",
    "date_modified": "2022-01-02T13:32:08.000",
    "request_status": "Pending",
    "responsible_agency": "Department of Sanitation",
    "final_address": "2400 Frenchmen St",
    "address_councildis": "D",
    "status": "Pending",
    "rowid": "851323",
    "final_x": "3684175.33602",
    "final_y": "541089.71758",
    "longitude": "-90.05928659965244",
    "latitude": "29.981727590092156",
    "geocoded_column": {
      "latitude": "29.981727590092156",
      "longitude": "-90.05928659965244"
    }
  },
  {
    "service_request": "2022-851321",
    "request_type": "Trash/Recycling",
    "request_reason": "Request a Large Item Pick Up",
    "date_created": "2022-01-02T13:13:07.000",
    "date_modified": "2022-01-02T13:13:07.000",
    "request_status": "Pending",
    "responsible_agency": "Department of Sanitation",
    "final_address": "4318 Annunciation St",
    "address_councildis": "B",
    "status": "Assigned to Contractor",
    "contractor": "Richards Disposal",
    "rowid": "851321",
    "final_x": "3671405.59195",
    "final_y": "517740.400822",
    "longitude": "-90.10041308079752",
    "latitude": "29.9179088768141",
    "geocoded_column": {
      "latitude": "29.9179088768141",
      "longitude": "-90.10041308079752"
    }
  },
  {
    "service_request": "2022-851320",
    "request_type": "Trash/Recycling",
    "request_reason": "Missed Trash Pick-Up",
    "date_created": "2022-01-02T13:04:07.000",
    "date_modified": "2022-01-02T13:04:08.000",
    "request_status": "Pending",
    "responsible_agency": "Department of Sanitation",
    "final_address": "401 Henry Clay Ave",
    "address_councildis": "A",
    "status": "Assigned to Contractor",
    "contractor": "Richards Disposal",
    "rowid": "851320",
    "final_x": "3663323.44538",
    "final_y": "518259.537782",
    "longitude": "-90.125906834101",
    "latitude": "29.919572990303546",
    "geocoded_column": {
      "latitude": "29.919572990303546",
      "longitude": "-90.125906834101"
    }
  },
  {
    "service_request": "2022-851319",
    "request_type": "Abandoned Vehicles",
    "request_reason": "Abandoned/Junk Vehicles",
    "date_created": "2022-01-02T12:53:34.000",
    "date_modified": "2022-01-02T12:55:26.000",
    "request_status": "Pending",
    "responsible_agency": "Department of Public Works",
    "final_address": "2204 Music St",
    "address_councildis": "D",
    "status": "Pending",
    "rowid": "851319",
    "final_x": "3686488.3039",
    "final_y": "540566.251147",
    "longitude": "-90.05199966450509",
    "latitude": "29.980217325125405",
    "geocoded_column": {
      "latitude": "29.980217325125405",
      "longitude": "-90.05199966450509"
    }
  },
  {
    "service_request": "2022-851318",
    "request_type": "Abandoned Vehicles",
    "request_reason": "Abandoned/Junk Vehicles",
    "date_created": "2022-01-02T12:53:31.000",
    "date_modified": "2022-01-02T12:53:33.000",
    "request_status": "Pending",
    "responsible_agency": "Department of Public Works",
    "final_address": "2313 Soniat St",
    "address_councildis": "B",
    "status": "Pending",
    "rowid": "851318",
    "final_x": "3668561.20897",
    "final_y": "524056.30726",
    "longitude": "-90.10917828057886",
    "latitude": "29.93535946141555",
    "geocoded_column": {
      "latitude": "29.93535946141555",
      "longitude": "-90.10917828057886"
    }
  },
  {
    "service_request": "2022-851316",
    "request_type": "Property Maintenance",
    "request_reason": "Property Maintenance",
    "date_created": "2022-01-02T12:33:33.000",
    "date_modified": "2022-01-02T12:33:33.000",
    "request_status": "Pending",
    "responsible_agency": "Department of Code Enforcement",
    "final_address": "4216 Franklin Ave",
    "address_councildis": "D",
    "status": "Pending",
    "rowid": "851316",
    "final_x": "3686896.4127",
    "final_y": "548540.92277",
    "longitude": "-90.05042868517074",
    "latitude": "30.002132263512657",
    "geocoded_column": {
      "latitude": "30.002132263512657",
      "longitude": "-90.05042868517074"
    }
  },
  {
    "service_request": "2022-851315",
    "request_type": "Property Maintenance",
    "request_reason": "Property Maintenance",
    "date_created": "2022-01-02T12:33:32.000",
    "date_modified": "2022-01-02T12:33:32.000",
    "request_status": "Pending",
    "responsible_agency": "Department of Code Enforcement",
    "final_address": "4216 Franklin Ave",
    "address_councildis": "D",
    "status": "Pending",
    "rowid": "851315",
    "final_x": "3686896.4127",
    "final_y": "548540.92277",
    "longitude": "-90.05042868517074",
    "latitude": "30.002132263512657",
    "geocoded_column": {
      "latitude": "30.002132263512657",
      "longitude": "-90.05042868517074"
    }
  },
  {
    "service_request": "2022-851314",
    "request_type": "Property Maintenance",
    "request_reason": "Property Maintenance",
    "date_created": "2022-01-02T12:33:24.000",
    "date_modified": "2022-01-02T12:33:24.000",
    "request_status": "Pending",
    "responsible_agency": "Department of Code Enforcement",
    "final_address": "4216 Franklin Ave",
    "address_councildis": "D",
    "status": "Pending",
    "rowid": "851314",
    "final_x": "3686896.4127",
    "final_y": "548540.92277",
    "longitude": "-90.05042868517074",
    "latitude": "30.002132263512657",
    "geocoded_column": {
      "latitude": "30.002132263512657",
      "longitude": "-90.05042868517074"
    }
  },
  {
    "service_request": "2022-851313",
    "request_type": "Trash/Recycling",
    "request_reason": "Order Recycling Cart",
    "date_created": "2022-01-02T12:27:56.000",
    "date_modified": "2022-01-02T12:27:56.000",
    "request_status": "Pending",
    "responsible_agency": "Department of Sanitation",
    "final_address": "5615 Annunciation St",
    "address_councildis": "A",
    "status": "Pending",
    "rowid": "851313",
    "final_x": "3665693.02759",
    "final_y": "517602.68031",
    "longitude": "-90.11844919216583",
    "latitude": "29.9176979670105",
    "geocoded_column": {
      "latitude": "29.9176979670105",
      "longitude": "-90.11844919216583"
    }
  },
  {
    "service_request": "2022-851312",
    "request_type": "Trash/Recycling",
    "request_reason": "Repair Trash Cart",
    "date_created": "2022-01-02T12:13:46.000",
    "date_modified": "2022-01-02T12:13:47.000",
    "request_status": "Pending",
    "responsible_agency": "Department of Sanitation",
    "final_address": "1836 Desire St",
    "address_councildis": "D",
    "status": "Assigned to Contractor",
    "contractor": "Metro Disposal",
    "rowid": "851312",
    "final_x": "3690869.49225",
    "final_y": "538632.959561",
    "longitude": "-90.0382310864434",
    "latitude": "29.974766021005358",
    "geocoded_column": {
      "latitude": "29.974766021005358",
      "longitude": "-90.0382310864434"
    }
  },
  {
    "service_request": "2022-851311",
    "request_type": "Traffic Signals/Signs/Striping/Streetlights",
    "request_reason": "Traffic Sign Missing/Damaged",
    "date_created": "2022-01-02T12:13:14.000",
    "date_modified": "2022-01-02T12:13:14.000",
    "request_status": "Pending",
    "responsible_agency": "Department of Public Works",
    "final_address": "2261 N Robertson St",
    "address_councildis": "C",
    "status": "Pending",
    "rowid": "851311",
    "final_x": "3685495.63766",
    "final_y": "537857.645065",
    "longitude": "-90.05523034169128",
    "latitude": "29.972800093356998",
    "geocoded_column": {
      "latitude": "29.972800093356998",
      "longitude": "-90.05523034169128"
    }
  },
  {
    "service_request": "2022-851310",
    "request_type": "Parks & Parkways",
    "request_reason": "Request Tree Service (Right of Way/Public Property)",
    "date_created": "2022-01-02T12:08:05.000",
    "date_modified": "2022-01-02T12:09:11.000",
    "request_status": "Pending",
    "responsible_agency": "Department of Parks & Parkway",
    "final_address": "838 Mandeville St",
    "address_councildis": "C",
    "status": "Pending",
    "rowid": "851310",
    "final_x": "3685806.60847",
    "final_y": "535599.033158",
    "longitude": "-90.05432786050307",
    "latitude": "29.966580155856843",
    "geocoded_column": {
      "latitude": "29.966580155856843",
      "longitude": "-90.05432786050307"
    }
  },
  {
    "service_request": "2022-851309",
    "request_type": "Roads/Drainage",
    "request_reason": "Street Flooding / Drainage",
    "date_created": "2022-01-02T12:07:39.000",
    "date_modified": "2022-01-02T12:07:39.000",
    "request_status": "Pending",
    "responsible_agency": "Department of Public Works",
    "final_address": "1501 Mandeville St",
    "address_councildis": "C",
    "status": "Pending",
    "rowid": "851309",
    "final_x": "3685693.2742",
    "final_y": "537873.872585",
    "longitude": "-90.05460559774029",
    "latitude": "29.972838650290722",
    "geocoded_column": {
      "latitude": "29.972838650290722",
      "longitude": "-90.05460559774029"
    }
  },
  {
    "service_request": "2022-851308",
    "request_type": "Trash/Recycling",
    "request_reason": "Missed Trash Pick-Up",
    "date_created": "2022-01-02T11:55:18.000",
    "date_modified": "2022-01-02T11:55:19.000",
    "request_status": "Pending",
    "responsible_agency": "Department of Sanitation",
    "final_address": "2729 Edna St",
    "address_councildis": "D",
    "status": "Assigned to Contractor",
    "contractor": "Metro Disposal",
    "rowid": "851308",
    "final_x": "3689619.9638",
    "final_y": "545327.968975",
    "longitude": "-90.04193909236174",
    "latitude": "29.993213679326495",
    "geocoded_column": {
      "latitude": "29.993213679326495",
      "longitude": "-90.04193909236174"
    }
  },
  {
    "service_request": "2022-851307",
    "request_type": "Abandoned Vehicles",
    "request_reason": "Abandoned/Junk Vehicles",
    "date_created": "2022-01-02T11:52:50.000",
    "date_modified": "2022-01-02T11:52:50.000",
    "request_status": "Pending",
    "responsible_agency": "Department of Public Works",
    "final_address": "1020 N Carrollton Ave",
    "address_councildis": "A",
    "status": "Pending",
    "rowid": "851307",
    "final_x": "3673817.22766",
    "final_y": "541137.605452",
    "longitude": "-90.0920007903434",
    "latitude": "29.982171878507195",
    "geocoded_column": {
      "latitude": "29.982171878507195",
      "longitude": "-90.0920007903434"
    }
  },
  {
    "service_request": "2022-851306",
    "request_type": "Abandoned Vehicles",
    "request_reason": "Abandoned/Junk Vehicles",
    "date_created": "2022-01-02T11:45:59.000",
    "date_modified": "2022-01-02T11:46:00.000",
    "request_status": "Pending",
    "responsible_agency": "Department of Public Works",
    "final_address": "228 S Dupre St",
    "address_councildis": "B",
    "status": "Pending",
    "rowid": "851306",
    "final_x": "3674240.61876",
    "final_y": "535072.066374",
    "longitude": "-90.09087124810083",
    "latitude": "29.9654810909553",
    "geocoded_column": {
      "latitude": "29.9654810909553",
      "longitude": "-90.09087124810083"
    }
  },
  {
    "service_request": "2022-851304",
    "request_type": "Property Maintenance",
    "request_reason": "Property Maintenance",
    "date_created": "2022-01-02T11:41:11.000",
    "date_modified": "2022-01-02T11:41:11.000",
    "request_status": "Pending",
    "responsible_agency": "Department of Code Enforcement",
    "final_address": "4216 Franklin Ave",
    "address_councildis": "D",
    "status": "Pending",
    "rowid": "851304",
    "final_x": "3686896.4127",
    "final_y": "548540.92277",
    "longitude": "-90.05042868517074",
    "latitude": "30.002132263512657",
    "geocoded_column": {
      "latitude": "30.002132263512657",
      "longitude": "-90.05042868517074"
    }
  },
  {
    "service_request": "2022-851303",
    "request_type": "COVID-19",
    "request_reason": "COVID-19 Business Non-Compliance",
    "date_created": "2022-01-02T11:26:56.000",
    "date_modified": "2022-01-02T11:26:57.000",
    "request_status": "Pending",
    "responsible_agency": "Safety and Permits",
    "final_address": "601 Julia St",
    "address_councildis": "B",
    "status": "Pending",
    "rowid": "851303",
    "final_x": "3680753.44405",
    "final_y": "527980.228927",
    "longitude": "-90.07055085586124",
    "latitude": "29.945785149994595",
    "geocoded_column": {
      "latitude": "29.945785149994595",
      "longitude": "-90.07055085586124"
    }
  },
  {
    "service_request": "2022-851302",
    "request_type": "Trash/Recycling",
    "request_reason": "Replace Trash Cart",
    "date_created": "2022-01-02T11:25:22.000",
    "date_modified": "2022-01-02T11:25:22.000",
    "request_status": "Pending",
    "responsible_agency": "Department of Sanitation",
    "final_address": "1625 Annette St",
    "address_councildis": "D",
    "status": "Assigned to Contractor",
    "contractor": "Metro Disposal",
    "rowid": "851302",
    "final_x": "3683069.80015",
    "final_y": "538238.144777",
    "longitude": "-90.06287825867639",
    "latitude": "29.973920513869214",
    "geocoded_column": {
      "latitude": "29.973920513869214",
      "longitude": "-90.06287825867639"
    }
  },
  {
    "service_request": "2022-851301",
    "request_type": "Safety & Permits",
    "request_reason": "Licenses & Permits",
    "date_created": "2022-01-02T11:22:29.000",
    "date_modified": "2022-01-02T11:22:29.000",
    "request_status": "Pending",
    "responsible_agency": "Safety and Permits",
    "final_address": "7653 Lafourche St",
    "address_councildis": "E",
    "status": "Pending",
    "rowid": "851301",
    "final_x": "3710172.26597",
    "final_y": "565670.635618",
    "longitude": "-89.97625736947083",
    "latitude": "30.048495153946828",
    "geocoded_column": {
      "latitude": "30.048495153946828",
      "longitude": "-89.97625736947083"
    }
  },
  {
    "service_request": "2022-851300",
    "request_type": "Traffic Signals/Signs/Striping/Streetlights",
    "request_reason": "Traffic Sign Missing/Damaged",
    "date_created": "2022-01-02T11:08:45.000",
    "date_modified": "2022-01-02T11:08:45.000",
    "request_status": "Pending",
    "responsible_agency": "Department of Public Works",
    "final_address": "3138 Magazine St",
    "address_councildis": "B",
    "status": "Pending",
    "rowid": "851300",
    "final_x": "3675849.56033",
    "final_y": "519982.702264",
    "longitude": "-90.08630887079022",
    "latitude": "29.923942255466056",
    "geocoded_column": {
      "latitude": "29.923942255466056",
      "longitude": "-90.08630887079022"
    }
  },
  {
    "service_request": "2022-851299",
    "request_type": "Trash/Recycling",
    "request_reason": "Missed Trash Pick-Up",
    "date_created": "2022-01-02T11:05:26.000",
    "date_modified": "2022-01-02T11:05:27.000",
    "request_status": "Pending",
    "responsible_agency": "Department of Sanitation",
    "final_address": "3500 Nashville Ave",
    "address_councildis": "A",
    "status": "Assigned to Contractor",
    "contractor": "Richards Disposal",
    "rowid": "851299",
    "final_x": "3668090.92346",
    "final_y": "528521.980224",
    "longitude": "-90.11051252513589",
    "latitude": "29.94765242738636",
    "geocoded_column": {
      "latitude": "29.94765242738636",
      "longitude": "-90.11051252513589"
    }
  },
  {
    "service_request": "2022-851298",
    "request_type": "Trash/Recycling",
    "request_reason": "Request a Large Item Pick Up",
    "date_created": "2022-01-02T10:51:47.000",
    "date_modified": "2022-01-02T10:51:47.000",
    "request_status": "Pending",
    "responsible_agency": "Department of Sanitation",
    "final_address": "917 N Prieur St",
    "address_councildis": "D",
    "status": "Assigned to Contractor",
    "contractor": "Richards Disposal",
    "rowid": "851298",
    "final_x": "3679414.24315",
    "final_y": "535959.543303",
    "longitude": "-90.07450238178198",
    "latitude": "29.96776608241213",
    "geocoded_column": {
      "latitude": "29.96776608241213",
      "longitude": "-90.07450238178198"
    }
  },
  {
    "service_request": "2022-851297",
    "request_type": "Trash/Recycling",
    "request_reason": "Missed Trash Pick-Up",
    "date_created": "2022-01-02T10:41:47.000",
    "date_modified": "2022-01-02T10:41:48.000",
    "request_status": "Pending",
    "responsible_agency": "Department of Sanitation",
    "final_address": "5828 Magnolia St",
    "address_councildis": "A",
    "status": "Assigned to Contractor",
    "contractor": "Richards Disposal",
    "rowid": "851297",
    "final_x": "3666802.00109",
    "final_y": "524902.680572",
    "longitude": "-90.114703708006",
    "latitude": "29.937738278607156",
    "geocoded_column": {
      "latitude": "29.937738278607156",
      "longitude": "-90.114703708006"
    }
  },
  {
    "service_request": "2022-851296",
    "request_type": "Abandoned Vehicles",
    "request_reason": "Abandoned/Junk Vehicles",
    "date_created": "2022-01-02T10:28:11.000",
    "date_modified": "2022-01-02T10:28:11.000",
    "request_status": "Pending",
    "responsible_agency": "Department of Public Works",
    "final_address": "1327 Esplanade Ave",
    "address_councildis": "C",
    "status": "Pending",
    "rowid": "851296",
    "final_x": "3682006.594",
    "final_y": "536079.828679",
    "longitude": "-90.0663114712774",
    "latitude": "29.968018261421562",
    "geocoded_column": {
      "latitude": "29.968018261421562",
      "longitude": "-90.0663114712774"
    }
  },
  {
    "service_request": "2022-851295",
    "request_type": "Trash/Recycling",
    "request_reason": "Missed Trash Pick-Up",
    "date_created": "2022-01-02T10:28:06.000",
    "date_modified": "2022-01-02T10:28:07.000",
    "request_status": "Pending",
    "responsible_agency": "Department of Sanitation",
    "final_address": "2243 State St",
    "address_councildis": "A",
    "status": "Assigned to Contractor",
    "contractor": "Richards Disposal",
    "rowid": "851295",
    "final_x": "3666662.12135",
    "final_y": "525000.517885",
    "longitude": "-90.11514203708604",
    "latitude": "29.938011389707736",
    "geocoded_column": {
      "latitude": "29.938011389707736",
      "longitude": "-90.11514203708604"
    }
  },
  {
    "service_request": "2022-851294",
    "request_type": "Trash/Recycling",
    "request_reason": "Replace Trash Cart",
    "date_created": "2022-01-02T10:23:10.000",
    "date_modified": "2022-01-02T10:23:10.000",
    "request_status": "Pending",
    "responsible_agency": "Department of Sanitation",
    "final_address": "2201 Baronne St",
    "address_councildis": "B",
    "status": "Assigned to Contractor",
    "contractor": "Richards Disposal",
    "rowid": "851294",
    "final_x": "3676954.11726",
    "final_y": "524507.461948",
    "longitude": "-90.08266628060909",
    "latitude": "29.936350770250172",
    "geocoded_column": {
      "latitude": "29.936350770250172",
      "longitude": "-90.08266628060909"
    }
  },
  {
    "service_request": "2022-851293",
    "request_type": "Trash/Recycling",
    "request_reason": "Replace Recycling Cart",
    "date_created": "2022-01-02T10:22:41.000",
    "date_modified": "2022-01-02T10:22:41.000",
    "request_status": "Pending",
    "responsible_agency": "Department of Sanitation",
    "final_address": "2201 Baronne St",
    "address_councildis": "B",
    "status": "Pending",
    "rowid": "851293",
    "final_x": "3676954.11726",
    "final_y": "524507.461948",
    "longitude": "-90.08266628060909",
    "latitude": "29.936350770250172",
    "geocoded_column": {
      "latitude": "29.936350770250172",
      "longitude": "-90.08266628060909"
    }
  },
  {
    "service_request": "2022-851292",
    "request_type": "Trash/Recycling",
    "request_reason": "Replace Trash Cart",
    "date_created": "2022-01-02T10:18:43.000",
    "date_modified": "2022-01-02T10:18:44.000",
    "request_status": "Pending",
    "responsible_agency": "Department of Sanitation",
    "final_address": "3721 Palmyra St",
    "address_councildis": "A",
    "status": "Assigned to Contractor",
    "contractor": "Richards Disposal",
    "rowid": "851292",
    "final_x": "3671744.58375",
    "final_y": "536909.953544",
    "longitude": "-90.09869109639047",
    "latitude": "29.970608847093633",
    "geocoded_column": {
      "latitude": "29.970608847093633",
      "longitude": "-90.09869109639047"
    }
  },
  {
    "service_request": "2022-851291",
    "request_type": "Traffic Signals/Signs/Striping/Streetlights",
    "request_reason": "Traffic Signal Malfunctioning/Damaged",
    "date_created": "2022-01-02T09:55:31.000",
    "date_modified": "2022-01-02T09:55:31.000",
    "request_status": "Pending",
    "responsible_agency": "Department of Public Works",
    "final_address": "COMMON ST & CAMP ST",
    "address_councildis": "B",
    "status": "Pending",
    "rowid": "851291",
    "final_x": "3681332.9",
    "final_y": "530132.78",
    "longitude": "-90.06864630952465",
    "latitude": "29.95168636947479",
    "geocoded_column": {
      "latitude": "29.95168636947479",
      "longitude": "-90.06864630952465"
    }
  },
  {
    "service_request": "2022-851290",
    "request_type": "Property Maintenance",
    "request_reason": "Property Maintenance",
    "date_created": "2022-01-02T09:47:44.000",
    "date_modified": "2022-01-02T09:47:44.000",
    "request_status": "Pending",
    "responsible_agency": "Department of Code Enforcement",
    "final_address": "4801 Dryades St",
    "address_councildis": "B",
    "status": "Pending",
    "rowid": "851290",
    "final_x": "3669221.27143",
    "final_y": "521877.320378",
    "longitude": "-90.107168068312",
    "latitude": "29.929348538940957",
    "geocoded_column": {
      "latitude": "29.929348538940957",
      "longitude": "-90.107168068312"
    }
  },
  {
    "service_request": "2022-851289",
    "request_type": "Trash/Recycling",
    "request_reason": "Missed Trash Pick-Up",
    "date_created": "2022-01-02T09:47:12.000",
    "date_modified": "2022-01-02T09:47:13.000",
    "request_status": "Pending",
    "responsible_agency": "Department of Sanitation",
    "final_address": "739 Nashville Ave",
    "address_councildis": "A",
    "status": "Assigned to Contractor",
    "contractor": "Richards Disposal",
    "rowid": "851289",
    "final_x": "3665566.26196",
    "final_y": "518940.889655",
    "longitude": "-90.11880455045511",
    "latitude": "29.921381319205416",
    "geocoded_column": {
      "latitude": "29.921381319205416",
      "longitude": "-90.11880455045511"
    }
  },
  {
    "service_request": "2022-851288",
    "request_type": "Trash/Recycling",
    "request_reason": "Missed Trash Pick-Up",
    "date_created": "2022-01-02T09:30:55.000",
    "date_modified": "2022-01-02T09:30:55.000",
    "request_status": "Pending",
    "responsible_agency": "Department of Sanitation",
    "final_address": "8120 Burthe St",
    "address_councildis": "A",
    "status": "Assigned to Contractor",
    "contractor": "Richards Disposal",
    "rowid": "851288",
    "final_x": "3661112.54829",
    "final_y": "527677.742271",
    "longitude": "-90.13257404092307",
    "latitude": "29.945533970943654",
    "geocoded_column": {
      "latitude": "29.945533970943654",
      "longitude": "-90.13257404092307"
    }
  },
  {
    "service_request": "2022-851287",
    "request_type": "Roads/Drainage",
    "request_reason": "Street Flooding / Drainage",
    "date_created": "2022-01-02T08:56:22.000",
    "date_modified": "2022-01-02T08:56:22.000",
    "request_status": "Pending",
    "responsible_agency": "Department of Public Works",
    "final_address": "4025 Cleveland Ave",
    "address_councildis": "A",
    "status": "Pending",
    "rowid": "851287",
    "final_x": "3671076.22798",
    "final_y": "537881.130633",
    "longitude": "-90.1007688557221",
    "latitude": "29.973299041724918",
    "geocoded_column": {
      "latitude": "29.973299041724918",
      "longitude": "-90.1007688557221"
    }
  },
  {
    "service_request": "2022-851286",
    "request_type": "Abandoned Vehicles",
    "request_reason": "Abandoned/Junk Vehicles",
    "date_created": "2022-01-02T08:33:50.000",
    "date_modified": "2022-01-02T08:35:53.000",
    "request_status": "Pending",
    "responsible_agency": "Department of Public Works",
    "final_address": "2431 Decatur St",
    "address_councildis": "C",
    "status": "Pending",
    "rowid": "851286",
    "final_x": "3686193.23804",
    "final_y": "534275.599173",
    "longitude": "-90.05315358437193",
    "latitude": "29.962929298979606",
    "geocoded_column": {
      "latitude": "29.962929298979606",
      "longitude": "-90.05315358437193"
    }
  },
  {
    "service_request": "2022-851285",
    "request_type": "Trash/Recycling",
    "request_reason": "Missed Trash Pick-Up",
    "date_created": "2022-01-02T08:19:45.000",
    "date_modified": "2022-01-02T08:19:46.000",
    "request_status": "Pending",
    "responsible_agency": "Department of Sanitation",
    "final_address": "3815 Nashville Ave",
    "address_councildis": "A",
    "status": "Assigned to Contractor",
    "contractor": "Richards Disposal",
    "rowid": "851285",
    "final_x": "3668589.50964",
    "final_y": "529533.329921",
    "longitude": "-90.10890416584348",
    "latitude": "29.95041866943906",
    "geocoded_column": {
      "latitude": "29.95041866943906",
      "longitude": "-90.10890416584348"
    }
  },
  {
    "service_request": "2022-851284",
    "request_type": "Trash/Recycling",
    "request_reason": "Missed Trash Pick-Up",
    "date_created": "2022-01-02T08:16:28.000",
    "date_modified": "2022-01-02T08:16:29.000",
    "request_status": "Pending",
    "responsible_agency": "Department of Sanitation",
    "final_address": "4329 St Anthony Ave",
    "address_councildis": "D",
    "status": "Assigned to Contractor",
    "contractor": "Metro Disposal",
    "rowid": "851284",
    "final_x": "3682594.26095",
    "final_y": "548669.129875",
    "longitude": "-90.0640151819332",
    "latitude": "30.002616529455683",
    "geocoded_column": {
      "latitude": "30.002616529455683",
      "longitude": "-90.0640151819332"
    }
  },
  {
    "service_request": "2022-851283",
    "request_type": "Trash/Recycling",
    "request_reason": "Missed Trash Pick-Up",
    "date_created": "2022-01-02T08:14:11.000",
    "date_modified": "2022-01-02T08:14:12.000",
    "request_status": "Pending",
    "responsible_agency": "Department of Sanitation",
    "final_address": "4433 Allen St",
    "address_councildis": "D",
    "status": "Assigned to Contractor",
    "contractor": "Metro Disposal",
    "rowid": "851283",
    "final_x": "3681811.31631",
    "final_y": "548948.177171",
    "longitude": "-90.06647885861494",
    "latitude": "30.00340763433988",
    "geocoded_column": {
      "latitude": "30.00340763433988",
      "longitude": "-90.06647885861494"
    }
  },
  {
    "service_request": "2022-851282",
    "request_type": "Trash/Recycling",
    "request_reason": "Missed Trash Pick-Up",
    "date_created": "2022-01-02T08:11:37.000",
    "date_modified": "2022-01-02T08:11:38.000",
    "request_status": "Pending",
    "responsible_agency": "Department of Sanitation",
    "final_address": "1220 Gallier St",
    "address_councildis": "C",
    "status": "Assigned to Contractor",
    "contractor": "Metro Disposal",
    "rowid": "851282",
    "final_x": "3690564.23542",
    "final_y": "536177.716295",
    "longitude": "-90.03928273286918",
    "latitude": "29.96802445196129",
    "geocoded_column": {
      "latitude": "29.96802445196129",
      "longitude": "-90.03928273286918"
    }
  },
  {
    "service_request": "2022-851281",
    "request_type": "Traffic Signals/Signs/Striping/Streetlights",
    "request_reason": "Street Light Outage/Malfunction",
    "date_created": "2022-01-02T08:07:56.000",
    "date_modified": "2022-01-02T08:07:56.000",
    "request_status": "Pending",
    "responsible_agency": "Department of Public Works",
    "final_address": "PRATT DR & PRESSBURG ST",
    "address_councildis": "D",
    "status": "Pending",
    "contractor": "Royal Engineering",
    "rowid": "851281",
    "final_x": "3680229.3",
    "final_y": "554191.28",
    "longitude": "-90.07129425928488",
    "latitude": "30.017872276263756",
    "geocoded_column": {
      "latitude": "30.017872276263756",
      "longitude": "-90.07129425928488"
    }
  },
  {
    "service_request": "2022-851280",
    "request_type": "Traffic Signals/Signs/Striping/Streetlights",
    "request_reason": "Additional signage",
    "date_created": "2022-01-02T08:07:06.000",
    "date_modified": "2022-01-02T08:07:06.000",
    "request_status": "Pending",
    "responsible_agency": "Department of Public Works",
    "final_address": "1126 Euterpe St",
    "address_councildis": "B",
    "status": "Pending",
    "rowid": "851280",
    "final_x": "3680064.51663",
    "final_y": "524228.904828",
    "longitude": "-90.0728563197537",
    "latitude": "29.935491113772937",
    "geocoded_column": {
      "latitude": "29.935491113772937",
      "longitude": "-90.0728563197537"
    }
  },
  {
    "service_request": "2022-851279",
    "request_type": "Trash/Recycling",
    "request_reason": "Replace Trash Cart",
    "date_created": "2022-01-02T07:49:29.000",
    "date_modified": "2022-01-02T07:49:29.000",
    "request_status": "Pending",
    "responsible_agency": "Department of Sanitation",
    "final_address": "10122 Dreux Ave",
    "address_councildis": "E",
    "status": "Assigned to Contractor",
    "contractor": "Metro Disposal",
    "rowid": "851279",
    "final_x": "3713043.02968",
    "final_y": "555841.127961",
    "longitude": "-89.96755447287349",
    "latitude": "30.021374137288113",
    "geocoded_column": {
      "latitude": "30.021374137288113",
      "longitude": "-89.96755447287349"
    }
  },
  {
    "service_request": "2022-851278",
    "request_type": "Trash/Recycling",
    "request_reason": "Missed Trash Pick-Up",
    "date_created": "2022-01-02T07:46:26.000",
    "date_modified": "2022-01-02T07:46:27.000",
    "request_status": "Pending",
    "responsible_agency": "Department of Sanitation",
    "final_address": "2736 Octavia St",
    "address_councildis": "A",
    "status": "Assigned to Contractor",
    "contractor": "Richards Disposal",
    "rowid": "851278",
    "final_x": "3667901.85767",
    "final_y": "525666.879741",
    "longitude": "-90.11120563047973",
    "latitude": "29.939807371131554",
    "geocoded_column": {
      "latitude": "29.939807371131554",
      "longitude": "-90.11120563047973"
    }
  },
  {
    "service_request": "2022-851277",
    "request_type": "Traffic Signals/Signs/Striping/Streetlights",
    "request_reason": "Street Light Outage/Malfunction",
    "date_created": "2022-01-02T07:40:06.000",
    "date_modified": "2022-01-02T07:40:07.000",
    "request_status": "Pending",
    "responsible_agency": "Department of Public Works",
    "final_address": "130 Baronne St",
    "address_councildis": "B",
    "status": "Pending",
    "contractor": "Royal Engineering",
    "rowid": "851277",
    "final_x": "3680426.27157",
    "final_y": "530856.204162",
    "longitude": "-90.07148385040512",
    "latitude": "29.953703025792713",
    "geocoded_column": {
      "latitude": "29.953703025792713",
      "longitude": "-90.07148385040512"
    }
  },
  {
    "service_request": "2022-851276",
    "request_type": "Property Maintenance",
    "request_reason": "Property Maintenance",
    "date_created": "2022-01-02T01:33:17.000",
    "date_modified": "2022-01-02T01:33:17.000",
    "request_status": "Pending",
    "responsible_agency": "Department of Code Enforcement",
    "final_address": "7940 Read Blvd",
    "address_councildis": "E",
    "status": "Pending",
    "rowid": "851276",
    "final_x": "3707837.93982",
    "final_y": "565571.63869",
    "longitude": "-89.98363882551544",
    "latitude": "30.048298762947898",
    "geocoded_column": {
      "latitude": "30.048298762947898",
      "longitude": "-89.98363882551544"
    }
  },
  {
    "service_request": "2022-851275",
    "request_type": "Roads/Drainage",
    "request_reason": "Debris in Roadway",
    "date_created": "2022-01-02T00:06:31.000",
    "date_modified": "2022-01-02T00:06:31.000",
    "request_status": "Pending",
    "responsible_agency": "Department of Public Works",
    "final_address": "6901 Pritchard Pl",
    "address_councildis": "B",
    "status": "Pending",
    "rowid": "851275",
    "final_x": "3668093.09537",
    "final_y": "531119.838786",
    "longitude": "-90.11041812550769",
    "latitude": "29.954795626696427",
    "geocoded_column": {
      "latitude": "29.954795626696427",
      "longitude": "-90.11041812550769"
    }
  },
  {
    "service_request": "2022-851274",
    "request_type": "Trash/Recycling",
    "request_reason": "Order Recycling Cart",
    "date_created": "2022-01-01T23:19:49.000",
    "date_modified": "2022-01-01T23:19:49.000",
    "request_status": "Pending",
    "responsible_agency": "Department of Sanitation",
    "final_address": "5424 Milne St",
    "address_councildis": "A",
    "status": "Pending",
    "rowid": "851274",
    "final_x": "3666591.36666",
    "final_y": "543670.932046",
    "longitude": "-90.11473854852561",
    "latitude": "29.98935093383078",
    "geocoded_column": {
      "latitude": "29.98935093383078",
      "longitude": "-90.11473854852561"
    }
  },
  {
    "service_request": "2022-851273",
    "request_type": "Mayor's Request",
    "request_reason": "Requests to the Mayor",
    "date_created": "2022-01-01T21:55:10.000",
    "date_modified": "2022-01-01T21:55:10.000",
    "request_status": "Pending",
    "responsible_agency": "Executive Office of the Mayor",
    "final_address": "3400 BLK Jackson Ave",
    "address_councildis": "B",
    "status": "Pending",
    "rowid": "851273",
    "final_x": "3673644.55162",
    "final_y": "528875.802272",
    "longitude": "-90.0929654228831",
    "latitude": "29.94846118738616",
    "geocoded_column": {
      "latitude": "29.94846118738616",
      "longitude": "-90.0929654228831"
    }
  },
  {
    "service_request": "2022-851272",
    "request_type": "Traffic Signals/Signs/Striping/Streetlights",
    "request_reason": "Request for Stop Sign",
    "date_created": "2022-01-01T21:53:42.000",
    "date_modified": "2022-01-01T21:53:42.000",
    "request_status": "Pending",
    "responsible_agency": "Department of Public Works",
    "final_address": "8324 Hammond St",
    "address_councildis": "E",
    "status": "Pending",
    "rowid": "851272",
    "final_x": "3705911.60587",
    "final_y": "555687.620377",
    "longitude": "-89.99009331408364",
    "latitude": "30.021183848427782",
    "geocoded_column": {
      "latitude": "30.021183848427782",
      "longitude": "-89.99009331408364"
    }
  },
  {
    "service_request": "2022-851271",
    "request_type": "Trash/Recycling",
    "request_reason": "Order Recycling Cart",
    "date_created": "2022-01-01T21:37:56.000",
    "date_modified": "2022-01-01T21:37:56.000",
    "request_status": "Pending",
    "responsible_agency": "Department of Sanitation",
    "final_address": "6315 S Rocheblave St",
    "address_councildis": "A",
    "status": "Pending",
    "rowid": "851271",
    "final_x": "3667338.72724",
    "final_y": "528958.339648",
    "longitude": "-90.1128728368482",
    "latitude": "29.94887432511642",
    "geocoded_column": {
      "latitude": "29.94887432511642",
      "longitude": "-90.1128728368482"
    }
  },
  {
    "service_request": "2022-851270",
    "request_type": "Parks & Parkways",
    "request_reason": "Request Grass Cutting Service (City Owned Property)",
    "date_created": "2022-01-01T21:37:30.000",
    "date_modified": "2022-01-01T21:37:30.000",
    "request_status": "Pending",
    "responsible_agency": "Department of Parks & Parkway",
    "final_address": "10151 Curran Rd",
    "address_councildis": "E",
    "status": "Pending",
    "rowid": "851270",
    "final_x": "3708719.03985",
    "final_y": "565335.506146",
    "longitude": "-89.98086287402072",
    "latitude": "30.047620926854986",
    "geocoded_column": {
      "latitude": "30.047620926854986",
      "longitude": "-89.98086287402072"
    }
  },
  {
    "service_request": "2022-851269",
    "request_type": "Abandoned Vehicles",
    "request_reason": "Abandoned/Junk Vehicles",
    "date_created": "2022-01-01T20:31:06.000",
    "date_modified": "2022-01-01T20:31:06.000",
    "request_status": "Pending",
    "responsible_agency": "Department of Public Works",
    "final_address": "11226 Notaway Ln",
    "address_councildis": "E",
    "status": "Pending",
    "rowid": "851269",
    "final_x": "3717740.80697",
    "final_y": "559313.975709",
    "longitude": "-89.95257873812537",
    "latitude": "30.03076827795563",
    "geocoded_column": {
      "latitude": "30.03076827795563",
      "longitude": "-89.95257873812537"
    }
  },
  {
    "service_request": "2022-851268",
    "request_type": "Traffic Signals/Signs/Striping/Streetlights",
    "request_reason": "Traffic Signal Malfunctioning/Damaged",
    "date_created": "2022-01-01T20:26:07.000",
    "date_modified": "2022-01-01T20:26:07.000",
    "request_status": "Pending",
    "responsible_agency": "Department of Public Works",
    "final_address": "MARTIN LUTHER KING JR BLVD & ST CHARLES AVE & MELPOMENE AVE",
    "address_councildis": "B",
    "status": "Pending",
    "rowid": "851268",
    "final_x": "3679175.06",
    "final_y": "525530.77",
    "longitude": "-90.07561922787677",
    "latitude": "29.93909768696377",
    "geocoded_column": {
      "latitude": "29.93909768696377",
      "longitude": "-90.07561922787677"
    }
  },
  {
    "service_request": "2022-851267",
    "request_type": "Trash/Recycling",
    "request_reason": "Missed Trash Pick-Up",
    "date_created": "2022-01-01T20:01:59.000",
    "date_modified": "2022-01-01T20:01:59.000",
    "request_status": "Pending",
    "responsible_agency": "Department of Sanitation",
    "final_address": "4432 Frenchmen St",
    "address_councildis": "D",
    "status": "Assigned to Contractor",
    "contractor": "Metro Disposal",
    "rowid": "851267",
    "final_x": "3683492.45065",
    "final_y": "549048.967955",
    "longitude": "-90.06116436367711",
    "latitude": "30.003633558471197",
    "geocoded_column": {
      "latitude": "30.003633558471197",
      "longitude": "-90.06116436367711"
    }
  },
  {
    "service_request": "2022-851266",
    "request_type": "Traffic Signals/Signs/Striping/Streetlights",
    "request_reason": "Street Light Outage/Malfunction",
    "date_created": "2022-01-01T19:32:47.000",
    "date_modified": "2022-01-01T19:32:47.000",
    "request_status": "Pending",
    "responsible_agency": "Department of Public Works",
    "final_address": "5928 General Haig St",
    "address_councildis": "A",
    "status": "Pending",
    "contractor": "Royal Engineering",
    "rowid": "851266",
    "final_x": "3670435.13147",
    "final_y": "546685.038481",
    "longitude": "-90.10249490325195",
    "latitude": "29.997525725609407",
    "geocoded_column": {
      "latitude": "29.997525725609407",
      "longitude": "-90.10249490325195"
    }
  },
  {
    "service_request": "2022-851265",
    "request_type": "Trash/Recycling",
    "request_reason": "Missed Trash Pick-Up",
    "date_created": "2022-01-01T19:12:35.000",
    "date_modified": "2022-01-01T19:15:49.000",
    "request_status": "Pending",
    "responsible_agency": "Department of Sanitation",
    "final_address": "2108 Palmer Ave",
    "address_councildis": "A",
    "status": "Assigned to Contractor",
    "contractor": "Richards Disposal",
    "rowid": "851265",
    "final_x": "3665896.35508",
    "final_y": "524718.659516",
    "longitude": "-90.11756907877117",
    "latitude": "29.93725873264813",
    "geocoded_column": {
      "latitude": "29.93725873264813",
      "longitude": "-90.11756907877117"
    }
  },
  {
    "service_request": "2022-851264",
    "request_type": "Traffic Signals/Signs/Striping/Streetlights",
    "request_reason": "Street Light Outage/Malfunction",
    "date_created": "2022-01-01T18:47:15.000",
    "date_modified": "2022-01-01T18:47:16.000",
    "request_status": "Pending",
    "responsible_agency": "Department of Public Works",
    "final_address": "754 Louisiana Ave",
    "address_councildis": "B",
    "status": "Pending",
    "contractor": "Royal Engineering",
    "rowid": "851264",
    "final_x": "3675426.43291",
    "final_y": "518554.241399",
    "longitude": "-90.08769355276756",
    "latitude": "29.920027102836496",
    "geocoded_column": {
      "latitude": "29.920027102836496",
      "longitude": "-90.08769355276756"
    }
  },
  {
    "service_request": "2022-851263",
    "request_type": "Traffic Signals/Signs/Striping/Streetlights",
    "request_reason": "Street Light Outage/Malfunction",
    "date_created": "2022-01-01T18:26:45.000",
    "date_modified": "2022-01-01T18:26:45.000",
    "request_status": "Pending",
    "responsible_agency": "Department of Public Works",
    "final_address": "5620 Norland Ave",
    "address_councildis": "C",
    "status": "Pending",
    "contractor": "Royal Engineering",
    "rowid": "851263",
    "final_x": "3704400.72862",
    "final_y": "520750.158905",
    "longitude": "-89.99615548666877",
    "latitude": "29.925167231739103",
    "geocoded_column": {
      "latitude": "29.925167231739103",
      "longitude": "-89.99615548666877"
    }
  },
  {
    "service_request": "2022-851262",
    "request_type": "COVID-19",
    "request_reason": "COVID-19 Business Non-Compliance",
    "date_created": "2022-01-01T18:03:56.000",
    "date_modified": "2022-01-01T18:03:57.000",
    "request_status": "Pending",
    "responsible_agency": "Safety and Permits",
    "final_address": "3605 S Carrollton Ave",
    "address_councildis": "B",
    "status": "Pending",
    "rowid": "851262",
    "final_x": "3667919.16775",
    "final_y": "534629.593478",
    "longitude": "-90.11084908660588",
    "latitude": "29.964451398599262",
    "geocoded_column": {
      "latitude": "29.964451398599262",
      "longitude": "-90.11084908660588"
    }
  },
  {
    "service_request": "2022-851261",
    "request_type": "COVID-19",
    "request_reason": "COVID-19 Business Non-Compliance",
    "date_created": "2022-01-01T18:01:53.000",
    "date_modified": "2022-01-01T18:01:54.000",
    "request_status": "Pending",
    "responsible_agency": "Safety and Permits",
    "final_address": "3605 S Carrollton Ave",
    "address_councildis": "B",
    "status": "Pending",
    "rowid": "851261",
    "final_x": "3667919.16775",
    "final_y": "534629.593478",
    "longitude": "-90.11084908660588",
    "latitude": "29.964451398599262",
    "geocoded_column": {
      "latitude": "29.964451398599262",
      "longitude": "-90.11084908660588"
    }
  },
  {
    "service_request": "2022-851260",
    "request_type": "COVID-19",
    "request_reason": "COVID-19 Business Non-Compliance",
    "date_created": "2022-01-01T17:41:41.000",
    "date_modified": "2022-01-01T17:41:42.000",
    "request_status": "Pending",
    "responsible_agency": "Safety and Permits",
    "final_address": "517 Frenchmen St",
    "address_councildis": "C",
    "status": "Pending",
    "rowid": "851260",
    "final_x": "3684782.8733",
    "final_y": "534262.421509",
    "longitude": "-90.05760779583922",
    "latitude": "29.962936316412737",
    "geocoded_column": {
      "latitude": "29.962936316412737",
      "longitude": "-90.05760779583922"
    }
  },
  {
    "service_request": "2022-851259",
    "request_type": "Traffic Signals/Signs/Striping/Streetlights",
    "request_reason": "Street Light Outage/Malfunction",
    "date_created": "2022-01-01T17:39:55.000",
    "date_modified": "2022-01-02T08:07:16.000",
    "request_status": "Pending",
    "responsible_agency": "Department of Public Works",
    "final_address": "New Orleans,LA",
    "address_councildis": "D",
    "status": "Pending",
    "contractor": "Royal Engineering",
    "rowid": "851259",
    "final_x": "3680324.22248",
    "final_y": "554371.248152",
    "longitude": "-90.0709880764515",
    "latitude": "30.018364248173476",
    "geocoded_column": {
      "latitude": "30.018364248173476",
      "longitude": "-90.0709880764515"
    }
  },
  {
    "service_request": "2022-851258",
    "request_type": "Trash/Recycling",
    "request_reason": "Missed Trash Pick-Up",
    "date_created": "2022-01-01T17:28:10.000",
    "date_modified": "2022-01-01T17:28:11.000",
    "request_status": "Pending",
    "responsible_agency": "Department of Sanitation",
    "final_address": "5973 Laurel St",
    "address_councildis": "A",
    "status": "Assigned to Contractor",
    "contractor": "Richards Disposal",
    "rowid": "851258",
    "final_x": "3664479.1849",
    "final_y": "518248.924918",
    "longitude": "-90.12225907617788",
    "latitude": "29.91951027046028",
    "geocoded_column": {
      "latitude": "29.91951027046028",
      "longitude": "-90.12225907617788"
    }
  },
  {
    "service_request": "2022-851257",
    "request_type": "Trash/Recycling",
    "request_reason": "Missed Trash Pick-Up",
    "date_created": "2022-01-01T17:15:50.000",
    "date_modified": "2022-01-01T17:15:51.000",
    "request_status": "Pending",
    "responsible_agency": "Department of Sanitation",
    "final_address": "1628 Pauline St",
    "address_councildis": "D",
    "status": "Assigned to Contractor",
    "contractor": "Metro Disposal",
    "rowid": "851257",
    "final_x": "3691688.0662",
    "final_y": "537574.184072",
    "longitude": "-90.03568370431286",
    "latitude": "29.97182929862579",
    "geocoded_column": {
      "latitude": "29.97182929862579",
      "longitude": "-90.03568370431286"
    }
  },
  {
    "service_request": "2022-851256",
    "request_type": "Health Related Questions",
    "request_reason": "Noise Ordinance Complaint",
    "date_created": "2022-01-01T17:11:17.000",
    "date_modified": "2022-01-01T17:11:17.000",
    "request_status": "Pending",
    "responsible_agency": "Health Department",
    "final_address": "2306 Valmont St",
    "address_councildis": "B",
    "status": "Pending",
    "rowid": "851256",
    "final_x": "3668139.58727",
    "final_y": "524034.442044",
    "longitude": "-90.11051008256361",
    "latitude": "29.935311717925888",
    "geocoded_column": {
      "latitude": "29.935311717925888",
      "longitude": "-90.11051008256361"
    }
  },
  {
    "service_request": "2022-851255",
    "request_type": "Health Related Questions",
    "request_reason": "Noise Ordinance Complaint",
    "date_created": "2022-01-01T16:58:16.000",
    "date_modified": "2022-01-01T16:58:16.000",
    "request_status": "Pending",
    "responsible_agency": "Health Department",
    "final_address": "8826 Willow St",
    "address_councildis": "A",
    "status": "Pending",
    "rowid": "851255",
    "final_x": "3660396.42278",
    "final_y": "530694.336066",
    "longitude": "-90.13473546514413",
    "latitude": "29.953849254962012",
    "geocoded_column": {
      "latitude": "29.953849254962012",
      "longitude": "-90.13473546514413"
    }
  },
  {
    "service_request": "2022-851254",
    "request_type": "Trash/Recycling",
    "request_reason": "Missed Trash Pick-Up",
    "date_created": "2022-01-01T16:56:11.000",
    "date_modified": "2022-01-01T16:56:12.000",
    "request_status": "Pending",
    "responsible_agency": "Department of Sanitation",
    "final_address": "5824 S Front St",
    "address_councildis": "A",
    "status": "Assigned to Contractor",
    "contractor": "Richards Disposal",
    "rowid": "851254",
    "final_x": "3664825.67776",
    "final_y": "516938.598261",
    "longitude": "-90.12120911933913",
    "latitude": "29.915897205981594",
    "geocoded_column": {
      "latitude": "29.915897205981594",
      "longitude": "-90.12120911933913"
    }
  },
  {
    "service_request": "2022-851253",
    "request_type": "COVID-19",
    "request_reason": "COVID-19 Business Non-Compliance",
    "date_created": "2022-01-01T16:50:14.000",
    "date_modified": "2022-01-01T16:53:12.000",
    "request_status": "Pending",
    "responsible_agency": "Safety and Permits",
    "final_address": "3120 Diana St",
    "address_councildis": "C",
    "status": "Pending",
    "rowid": "851253",
    "final_x": "3696001.78749",
    "final_y": "527443.282815",
    "longitude": "-90.02242640643253",
    "latitude": "29.943837857580135",
    "geocoded_column": {
      "latitude": "29.943837857580135",
      "longitude": "-90.02242640643253"
    }
  },
  {
    "service_request": "2022-851252",
    "request_type": "Trash/Recycling",
    "request_reason": "Missed Trash Pick-Up",
    "date_created": "2022-01-01T16:45:38.000",
    "date_modified": "2022-01-01T16:45:38.000",
    "request_status": "Pending",
    "responsible_agency": "Department of Sanitation",
    "final_address": "3800 BLK Vincennes Pl",
    "address_councildis": "A",
    "status": "Assigned to Contractor",
    "contractor": "Richards Disposal",
    "rowid": "851252",
    "final_x": "3668298.34841",
    "final_y": "529656.085161",
    "longitude": "-90.1098193656648",
    "latitude": "29.950764758140256",
    "geocoded_column": {
      "latitude": "29.950764758140256",
      "longitude": "-90.1098193656648"
    }
  },
  {
    "service_request": "2022-851251",
    "request_type": "Trash/Recycling",
    "request_reason": "Request a Large Item Pick Up",
    "date_created": "2022-01-01T16:27:55.000",
    "date_modified": "2022-01-01T16:27:56.000",
    "request_status": "Pending",
    "responsible_agency": "Department of Sanitation",
    "final_address": "1122 Sixth St A",
    "address_councildis": "B",
    "status": "Assigned to Contractor",
    "contractor": "Richards Disposal",
    "rowid": "851251",
    "final_x": "3676474.36635",
    "final_y": "520684.919545",
    "longitude": "-90.08431241781689",
    "latitude": "29.925854413750155",
    "geocoded_column": {
      "latitude": "29.925854413750155",
      "longitude": "-90.08431241781689"
    }
  },
  {
    "service_request": "2022-851250",
    "request_type": "Trash/Recycling",
    "request_reason": "Missed Trash Pick-Up",
    "date_created": "2022-01-01T16:25:45.000",
    "date_modified": "2022-01-01T16:25:45.000",
    "request_status": "Pending",
    "responsible_agency": "Department of Sanitation",
    "final_address": "2231 Wirth Pl",
    "address_councildis": "A",
    "status": "Assigned to Contractor",
    "contractor": "Richards Disposal",
    "rowid": "851250",
    "final_x": "3667151.38125",
    "final_y": "524461.921532",
    "longitude": "-90.11361549587174",
    "latitude": "29.936516110759136",
    "geocoded_column": {
      "latitude": "29.936516110759136",
      "longitude": "-90.11361549587174"
    }
  },
  {
    "service_request": "2022-851249",
    "request_type": "Trash/Recycling",
    "request_reason": "Request a Large Item Pick Up",
    "date_created": "2022-01-01T16:14:09.000",
    "date_modified": "2022-01-01T16:14:10.000",
    "request_status": "Pending",
    "responsible_agency": "Department of Sanitation",
    "final_address": "1024 Tricou St, New Orleans, Louisiana, 70117",
    "address_councildis": "E",
    "status": "Assigned to Contractor",
    "contractor": "Metro Disposal",
    "rowid": "851249",
    "final_x": "3699998.8346",
    "final_y": "532811.814468",
    "longitude": "-90.00961091490728",
    "latitude": "29.958473080081696",
    "geocoded_column": {
      "latitude": "29.958473080081696",
      "longitude": "-90.00961091490728"
    }
  },
  {
    "service_request": "2022-851248",
    "request_type": "COVID-19",
    "request_reason": "COVID-19 Business Non-Compliance",
    "date_created": "2022-01-01T16:10:14.000",
    "date_modified": "2022-01-01T16:10:16.000",
    "request_status": "Pending",
    "responsible_agency": "Safety and Permits",
    "final_address": "130 Roosevelt Way",
    "address_councildis": "B",
    "status": "Pending",
    "rowid": "851248",
    "final_x": "3680098.32175",
    "final_y": "531043.278402",
    "longitude": "-90.07251287919232",
    "latitude": "29.954227343254153",
    "geocoded_column": {
      "latitude": "29.954227343254153",
      "longitude": "-90.07251287919232"
    }
  },
  {
    "service_request": "2022-851247",
    "request_type": "Trash/Recycling",
    "request_reason": "Missed Trash Pick-Up",
    "date_created": "2022-01-01T16:01:19.000",
    "date_modified": "2022-01-01T16:01:20.000",
    "request_status": "Pending",
    "responsible_agency": "Department of Sanitation",
    "final_address": "1316 Pauline St",
    "address_councildis": "D",
    "status": "Assigned to Contractor",
    "contractor": "Metro Disposal",
    "rowid": "851247",
    "final_x": "3691400.28022",
    "final_y": "536353.445703",
    "longitude": "-90.03663620264618",
    "latitude": "29.9684816576169",
    "geocoded_column": {
      "latitude": "29.9684816576169",
      "longitude": "-90.03663620264618"
    }
  },
  {
    "service_request": "2022-851246",
    "request_type": "Roads/Drainage",
    "request_reason": "Debris in Roadway",
    "date_created": "2022-01-01T15:51:15.000",
    "date_modified": "2022-01-01T15:51:15.000",
    "request_status": "Pending",
    "responsible_agency": "Department of Public Works",
    "final_address": "1620 St Andrew St",
    "address_councildis": "B",
    "status": "Pending",
    "rowid": "851246",
    "final_x": "3678047.81486",
    "final_y": "524296.968636",
    "longitude": "-90.07922071188987",
    "latitude": "29.935739113265015",
    "geocoded_column": {
      "latitude": "29.935739113265015",
      "longitude": "-90.07922071188987"
    }
  },
  {
    "service_request": "2022-851245",
    "request_type": "Traffic Signals/Signs/Striping/Streetlights",
    "request_reason": "Additional signage",
    "date_created": "2022-01-01T15:42:17.000",
    "date_modified": "2022-01-01T15:42:17.000",
    "request_status": "Pending",
    "responsible_agency": "Department of Public Works",
    "final_address": "JULIA ST & S CLAIBORNE AVE",
    "address_councildis": "B",
    "status": "Pending",
    "rowid": "851245",
    "final_x": "3676259.2",
    "final_y": "530152.08",
    "longitude": "-90.08466596576375",
    "latitude": "29.951892442445747",
    "geocoded_column": {
      "latitude": "29.951892442445747",
      "longitude": "-90.08466596576375"
    }
  },
  {
    "service_request": "2022-851244",
    "request_type": "Abandoned Vehicles",
    "request_reason": "Abandoned/Junk Vehicles",
    "date_created": "2022-01-01T15:34:17.000",
    "date_modified": "2022-01-01T15:34:17.000",
    "request_status": "Pending",
    "responsible_agency": "Department of Public Works",
    "final_address": "1736 St Andrew St",
    "address_councildis": "B",
    "status": "Pending",
    "rowid": "851244",
    "final_x": "3677615.54965",
    "final_y": "524786.923324",
    "longitude": "-90.08056846891388",
    "latitude": "29.93709932951718",
    "geocoded_column": {
      "latitude": "29.93709932951718",
      "longitude": "-90.08056846891388"
    }
  },
  {
    "service_request": "2022-851243",
    "request_type": "Trash/Recycling",
    "request_reason": "Missed Trash Pick-Up",
    "date_created": "2022-01-01T15:32:37.000",
    "date_modified": "2022-01-01T15:32:37.000",
    "request_status": "Pending",
    "responsible_agency": "Department of Sanitation",
    "final_address": "2824 Calhoun St",
    "address_councildis": "A",
    "status": "Assigned to Contractor",
    "contractor": "Richards Disposal",
    "rowid": "851243",
    "final_x": "3666618.59533",
    "final_y": "527138.943231",
    "longitude": "-90.11520768200867",
    "latitude": "29.943892644482503",
    "geocoded_column": {
      "latitude": "29.943892644482503",
      "longitude": "-90.11520768200867"
    }
  },
  {
    "service_request": "2022-851242",
    "request_type": "Trash/Recycling",
    "request_reason": "Order Recycling Cart",
    "date_created": "2022-01-01T15:21:22.000",
    "date_modified": "2022-01-01T15:21:22.000",
    "request_status": "Pending",
    "responsible_agency": "Department of Sanitation",
    "final_address": "527 First St",
    "address_councildis": "B",
    "status": "Pending",
    "rowid": "851242",
    "final_x": "3679248.93711",
    "final_y": "519811.790392",
    "longitude": "-90.07558417794448",
    "latitude": "29.92337013987657",
    "geocoded_column": {
      "latitude": "29.92337013987657",
      "longitude": "-90.07558417794448"
    }
  },
  {
    "service_request": "2022-851241",
    "request_type": "Traffic Signals/Signs/Striping/Streetlights",
    "request_reason": "Additional signage",
    "date_created": "2022-01-01T15:08:15.000",
    "date_modified": "2022-01-01T15:08:15.000",
    "request_status": "Pending",
    "responsible_agency": "Department of Public Works",
    "final_address": "7849 Read Blvd Apt 12",
    "address_councildis": "E",
    "status": "Pending",
    "rowid": "851241",
    "final_x": "3708429.38795",
    "final_y": "565267.44797",
    "longitude": "-89.98178086429685",
    "latitude": "30.047443191521047",
    "geocoded_column": {
      "latitude": "30.047443191521047",
      "longitude": "-89.98178086429685"
    }
  },
  {
    "service_request": "2022-851240",
    "request_type": "Trash/Recycling",
    "request_reason": "Request a Large Item Pick Up",
    "date_created": "2022-01-01T15:06:57.000",
    "date_modified": "2022-01-01T15:06:58.000",
    "request_status": "Pending",
    "responsible_agency": "Department of Sanitation",
    "final_address": "2819 Bienville Ave",
    "address_councildis": "B",
    "status": "Assigned to Contractor",
    "contractor": "Richards Disposal",
    "rowid": "851240",
    "final_x": "3675288.44149",
    "final_y": "536272.299399",
    "longitude": "-90.08752105648001",
    "latitude": "29.96875004291629",
    "geocoded_column": {
      "latitude": "29.96875004291629",
      "longitude": "-90.08752105648001"
    }
  },
  {
    "service_request": "2022-851239",
    "request_type": "Trash/Recycling",
    "request_reason": "Missed Trash Pick-Up",
    "date_created": "2022-01-01T15:01:39.000",
    "date_modified": "2022-01-01T15:01:39.000",
    "request_status": "Pending",
    "responsible_agency": "Department of Sanitation",
    "final_address": "1924 Pleasure St",
    "address_councildis": "D",
    "status": "Assigned to Contractor",
    "contractor": "Metro Disposal",
    "rowid": "851239",
    "final_x": "3682247.15055",
    "final_y": "544940.068687",
    "longitude": "-90.0652421230907",
    "latitude": "29.99237350903117",
    "geocoded_column": {
      "latitude": "29.99237350903117",
      "longitude": "-90.0652421230907"
    }
  },
  {
    "service_request": "2022-851238",
    "request_type": "Roads/Drainage",
    "request_reason": "Catch Basin - Clogged",
    "date_created": "2022-01-01T14:56:47.000",
    "date_modified": "2022-01-01T14:56:47.000",
    "request_status": "Pending",
    "responsible_agency": "Department of Public Works",
    "final_address": "1900 BLK Bordeaux St",
    "address_councildis": "B",
    "status": "Pending",
    "rowid": "851238",
    "final_x": "3669256.48396",
    "final_y": "521970.161228",
    "longitude": "-90.10705377205589",
    "latitude": "29.9296027854821",
    "geocoded_column": {
      "latitude": "29.9296027854821",
      "longitude": "-90.10705377205589"
    }
  },
  {
    "service_request": "2022-851237",
    "request_type": "Traffic Signals/Signs/Striping/Streetlights",
    "request_reason": "Street Name Sign Damaged or Missing",
    "date_created": "2022-01-01T14:51:30.000",
    "date_modified": "2022-01-01T14:51:30.000",
    "request_status": "Pending",
    "responsible_agency": "Department of Public Works",
    "final_address": "1935 Upperline St",
    "address_councildis": "B",
    "status": "Pending",
    "rowid": "851237",
    "final_x": "3669176.5545",
    "final_y": "522067.516026",
    "longitude": "-90.10730280739455",
    "latitude": "29.929872831933388",
    "geocoded_column": {
      "latitude": "29.929872831933388",
      "longitude": "-90.10730280739455"
    }
  },
  {
    "service_request": "2022-851236",
    "request_type": "Abandoned Vehicles",
    "request_reason": "Abandoned/Junk Vehicles",
    "date_created": "2022-01-01T14:50:52.000",
    "date_modified": "2022-01-01T14:50:52.000",
    "request_status": "Pending",
    "responsible_agency": "Department of Public Works",
    "final_address": "3116 Cleveland Ave",
    "address_councildis": "B",
    "status": "Pending",
    "rowid": "851236",
    "final_x": "3673629.4315",
    "final_y": "535784.785991",
    "longitude": "-90.09277698587567",
    "latitude": "29.967459038374624",
    "geocoded_column": {
      "latitude": "29.967459038374624",
      "longitude": "-90.09277698587567"
    }
  },