[
  {
    "service_request": "2025-1171491",
    "request_type": "Trash/Recycling",
    "request_reason": "Request a Large Item Pick Up",
    "date_created": "2025-02-25T23:43:11.000",
    "date_modified": "2025-02-25T23:43:18.000",
    "request_status": "Pending",
    "responsible_agency": "Department of Sanitation",
    "final_address": "4873 Chantilly Dr",
    "address_councildis": "E",
    "status": "Assigned to Contractor",
    "contractor": "Waste Pro",
    "rowid": "1171491",
    "final_x": "3700889.01284",
    "final_y": "554956.842072",
    "longitude": "-90.00598994141968",
    "latitude": "30.01933542543558",
    "geocoded_column": {
      "latitude": "30.01933542543558",
      "longitude": "-90.00598994141968"
    }
  },
  {
    "service_request": "2025-1171490",
    "request_type": "Roads and Streets",
    "request_reason": "Pothole",
    "date_created": "2025-02-25T22:48:54.000",
    "date_modified": "2025-02-25T22:48:55.000",
    "request_status": "Pending",
    "responsible_agency": "Department of Public Works",
    "final_address": "1681 N Broad St",
    "address_councildis": "D",
    "status": "Pending",
    "rowid": "1171490",
    "final_x": "3679469.98184",
    "final_y": "540742.771851",
    "longitude": "-90.07416036116162",
    "latitude": "29.980916627962547",
    "geocoded_column": {
      "latitude": "29.980916627962547",
      "longitude": "-90.07416036116162"
    }
  },
  {
    "service_request": "2025-1171489",
    "request_type": "Drainage",
    "request_reason": "Drainage Manhole Cover Missing or Damaged",
    "date_created": "2025-02-25T22:46:49.000",
    "date_modified": "2025-02-25T22:46:51.000",
    "request_status": "Pending",
    "responsible_agency": "Sewerage & Water Board ",
    "final_address": "N DERBIGNY ST & BIENVILLE ST",
    "address_councildis": "B",
    "status": "Pending",
    "rowid": "1171489",
    "final_x": "3678560.82",
    "final_y": "533626.9",
    "longitude": "-90.07727826788403",
    "latitude": "29.961377859385717",
    "geocoded_column": {
      "latitude": "29.961377859385717",
      "longitude": "-90.07727826788403"
    }
  },
  {
    "service_request": "2025-1171488",
    "request_type": "Streetlights",
    "request_reason": "Streetlight Outage/Malfunction",
    "date_created": "2025-02-25T22:46:33.000",
    "date_modified": "2025-02-25T22:46:34.000",
    "request_status": "Pending",
    "responsible_agency": "Department of Public Works",
    "final_address": "1739 N Dupre St",
    "address_councildis": "D",
    "status": "Pending",
    "contractor": "Legacy Professional Services",
    "rowid": "1171488",
    "final_x": "3679130.09083",
    "final_y": "541480.648076",
    "longitude": "-90.07520829887619",
    "latitude": "29.982955796964408",
    "geocoded_column": {
      "latitude": "29.982955796964408",
      "longitude": "-90.07520829887619"
    }
  },
  {
    "service_request": "2025-1171487",
    "request_type": "Street and Traffic Signs",
    "request_reason": "Traffic or Parking Sign Damaged or Missing",
    "date_created": "2025-02-25T22:32:35.000",
    "date_modified": "2025-02-25T22:32:37.000",
    "request_status": "Pending",
    "responsible_agency": "Department of Public Works",
    "final_address": "900 Poydras St",
    "address_councildis": "B",
    "status": "Pending",
    "rowid": "1171487",
    "final_x": "3679877.72443",
    "final_y": "529493.088449",
    "longitude": "-90.07326326562955",
    "latitude": "29.949971514920346",
    "geocoded_column": {
      "latitude": "29.949971514920346",
      "longitude": "-90.07326326562955"
    }
  },
  {
    "service_request": "2025-1171486",
    "request_type": "General Services",
    "request_reason": "General Service Request",
    "date_created": "2025-02-25T22:06:51.000",
    "date_modified": "2025-02-25T22:06:54.000",
    "request_status": "Pending",
    "responsible_agency": "Orleans Parish Communication District",
    "final_address": "214 N Salcedo St",
    "address_councildis": "B",
    "status": "Pending",
    "rowid": "1171486",
    "final_x": "3674464.95835",
    "final_y": "536518.667463",
    "longitude": "-90.09011322713076",
    "latitude": "29.969452064513483",
    "geocoded_column": {
      "latitude": "29.969452064513483",
      "longitude": "-90.09011322713076"
    }
  },
  {
    "service_request": "2025-1171485",
    "request_type": "Trash/Recycling",
    "request_reason": "Order Trash Cart",
    "date_created": "2025-02-25T21:25:18.000",
    "date_modified": "2025-02-25T21:25:20.000",
    "request_status": "Pending",
    "responsible_agency": "Department of Sanitation",
    "final_address": "12 Heritage Ln Unit 45",
    "address_councildis": "C",
    "status": "Assigned to Contractor",
    "contractor": "Richards Disposal",
    "rowid": "1171485",
    "final_x": "3695826.46698",
    "final_y": "520210.038264",
    "longitude": "-90.02324104708181",
    "latitude": "29.923954431617027",
    "geocoded_column": {
      "latitude": "29.923954431617027",
      "longitude": "-90.02324104708181"
    }
  },
  {
    "service_request": "2025-1171484",
    "request_type": "Trash/Recycling",
    "request_reason": "Request a Large Item Pick Up",
    "date_created": "2025-02-25T21:17:06.000",
    "date_modified": "2025-02-25T21:17:10.000",
    "request_status": "Pending",
    "responsible_agency": "Department of Sanitation",
    "final_address": "720 Lyons St",
    "address_councildis": "B",
    "status": "Assigned to Contractor",
    "contractor": "IV Waste",
    "rowid": "1171484",
    "final_x": "3669236.32513",
    "final_y": "518035.45087",
    "longitude": "-90.10725032042382",
    "latitude": "29.918784174085456",
    "geocoded_column": {
      "latitude": "29.918784174085456",
      "longitude": "-90.10725032042382"
    }
  },
  {
    "service_request": "2025-1171483",
    "request_type": "Roads and Streets",
    "request_reason": "Street Subsidence (Sinking)",
    "date_created": "2025-02-25T21:16:25.000",
    "date_modified": "2025-02-25T21:16:26.000",
    "request_status": "Pending",
    "responsible_agency": "Department of Public Works",
    "final_address": "15520 Dwyer Blvd",
    "address_councildis": "E",
    "status": "Pending",
    "rowid": "1171483",
    "final_x": "3730985.17587",
    "final_y": "563708.999265",
    "longitude": "-89.91055447174456",
    "latitude": "30.04240728018116",
    "geocoded_column": {
      "latitude": "30.04240728018116",
      "longitude": "-89.91055447174456"
    }
  },
  {
    "service_request": "2025-1171482",
    "request_type": "Trash/Recycling",
    "request_reason": "Request a Large Item Pick Up",
    "date_created": "2025-02-25T20:47:17.000",
    "date_modified": "2025-02-25T20:47:19.000",
    "request_status": "Pending",
    "responsible_agency": "Department of Sanitation",
    "final_address": "1715 Richland Rd",
    "address_councildis": "C",
    "status": "Assigned to Contractor",
    "contractor": "Richards Disposal",
    "rowid": "1171482",
    "final_x": "3697820.95299",
    "final_y": "524711.570748",
    "longitude": "-90.01678193765017",
    "latitude": "29.936269245668818",
    "geocoded_column": {
      "latitude": "29.936269245668818",
      "longitude": "-90.01678193765017"
    }
  },
  {
    "service_request": "2025-1171481",
    "request_type": "Trash/Recycling",
    "request_reason": "Request a Large Item Pick Up",
    "date_created": "2025-02-25T20:43:41.000",
    "date_modified": "2025-02-25T20:43:43.000",
    "request_status": "Pending",
    "responsible_agency": "Department of Sanitation",
    "final_address": "2808 Upperline St",
    "address_councildis": "B",
    "status": "Assigned to Contractor",
    "contractor": "IV Waste",
    "rowid": "1171481",
    "final_x": "3669161.37594",
    "final_y": "525051.456189",
    "longitude": "-90.10724992900758",
    "latitude": "29.93807815648594",
    "geocoded_column": {
      "latitude": "29.93807815648594",
      "longitude": "-90.10724992900758"
    }
  },
  {
    "service_request": "2025-1171480",
    "request_type": "Trash/Recycling",
    "request_reason": "MIssed Recycling Pick-Up",
    "date_created": "2025-02-25T20:38:23.000",
    "date_modified": "2025-02-25T20:38:25.000",
    "request_status": "Pending",
    "responsible_agency": "Department of Sanitation",
    "final_address": "4626 Bienville Ave",
    "address_councildis": "A",
    "status": "Assigned to Contractor",
    "contractor": "IV Waste",
    "rowid": "1171480",
    "final_x": "3669680.85511",
    "final_y": "540331.699083",
    "longitude": "-90.1050927798792",
    "latitude": "29.980078475640102",
    "geocoded_column": {
      "latitude": "29.980078475640102",
      "longitude": "-90.1050927798792"
    }
  },
  {
    "service_request": "2025-1171479",
    "request_type": "Trash/Recycling",
    "request_reason": "Request a Large Item Pick Up",
    "date_created": "2025-02-25T20:22:36.000",
    "date_modified": "2025-02-25T20:22:39.000",
    "request_status": "Pending",
    "responsible_agency": "Department of Sanitation",
    "final_address": "7818 Lafourche St",
    "address_councildis": "E",
    "status": "Assigned to Contractor",
    "contractor": "Waste Pro",
    "rowid": "1171479",
    "final_x": "3709740.39723",
    "final_y": "566220.262243",
    "longitude": "-89.97760176093833",
    "latitude": "30.050020462299212",
    "geocoded_column": {
      "latitude": "30.050020462299212",
      "longitude": "-89.97760176093833"
    }
  },
  {
    "service_request": "2025-1171478",
    "request_type": "Abandoned Vehicles",
    "request_reason": "Vehicle Blocking Your Driveway",
    "date_created": "2025-02-25T20:09:06.000",
    "date_modified": "2025-02-25T20:09:08.000",
    "request_status": "Pending",
    "responsible_agency": "Department of Public Works",
    "final_address": "1515 Baronne St",
    "address_councildis": "B",
    "status": "Pending",
    "rowid": "1171478",
    "final_x": "3678313.21397",
    "final_y": "525915.271229",
    "longitude": "-90.07832688523641",
    "latitude": "29.940180921793697",
    "geocoded_column": {
      "latitude": "29.940180921793697",
      "longitude": "-90.07832688523641"
    }
  },
  {
    "service_request": "2025-1171477",
    "request_type": "Abandoned Vehicles",
    "request_reason": "Vehicle Blocking Your Driveway",
    "date_created": "2025-02-25T20:06:21.000",
    "date_modified": "2025-02-25T20:06:23.000",
    "request_status": "Pending",
    "responsible_agency": "Department of Public Works",
    "final_address": "1526 Baronne St",
    "address_councildis": "B",
    "status": "Pending",
    "rowid": "1171477",
    "final_x": "3678339.69314",
    "final_y": "525801.906493",
    "longitude": "-90.07824720669645",
    "latitude": "29.939868408768064",
    "geocoded_column": {
      "latitude": "29.939868408768064",
      "longitude": "-90.07824720669645"
    }
  },
  {
    "service_request": "2025-1171476",
    "request_type": "Trash/Recycling",
    "request_reason": "Request a Large Item Pick Up",
    "date_created": "2025-02-25T20:04:18.000",
    "date_modified": "2025-02-25T20:04:21.000",
    "request_status": "Pending",
    "responsible_agency": "Department of Sanitation",
    "final_address": "4700 Cardenas Dr",
    "address_councildis": "E",
    "status": "Assigned to Contractor",
    "contractor": "Waste Pro",
    "rowid": "1171476",
    "final_x": "3713644.22271",
    "final_y": "556044.230809",
    "longitude": "-89.965647228498",
    "latitude": "30.021912872819005",
    "geocoded_column": {
      "latitude": "30.021912872819005",
      "longitude": "-89.965647228498"
    }
  },
  {
    "service_request": "2025-1171475",
    "request_type": "Abandoned Vehicles",
    "request_reason": "Vehicle Blocking Your Driveway",
    "date_created": "2025-02-25T19:48:07.000",
    "date_modified": "2025-02-25T19:48:09.000",
    "request_status": "Pending",
    "responsible_agency": "Department of Public Works",
    "final_address": "1516 Baronne St",
    "address_councildis": "B",
    "status": "Pending",
    "rowid": "1171475",
    "final_x": "3678373.73922",
    "final_y": "525856.553277",
    "longitude": "-90.07813782830748",
    "latitude": "29.940017643904504",
    "geocoded_column": {
      "latitude": "29.940017643904504",
      "longitude": "-90.07813782830748"
    }
  },
  {
    "service_request": "2025-1171474",
    "request_type": "Trash/Recycling",
    "request_reason": "Replace Recycling Cart",
    "date_created": "2025-02-25T19:45:47.000",
    "date_modified": "2025-02-25T19:45:49.000",
    "request_status": "Pending",
    "responsible_agency": "Department of Sanitation",
    "final_address": "6925 Catina St",
    "address_councildis": "A",
    "status": "Pending",
    "rowid": "1171474",
    "final_x": "3667178.61185",
    "final_y": "553833.342039",
    "longitude": "-90.11254160497666",
    "latitude": "30.017276853365093",
    "geocoded_column": {
      "latitude": "30.017276853365093",
      "longitude": "-90.11254160497666"
    }
  },
  {
    "service_request": "2025-1171473",
    "request_type": "Trash/Recycling",
    "request_reason": "Request a Large Item Pick Up",
    "date_created": "2025-02-25T19:34:14.000",
    "date_modified": "2025-02-25T19:34:16.000",
    "request_status": "Pending",
    "responsible_agency": "Department of Sanitation",
    "final_address": "5466 Royal St",
    "address_councildis": "E",
    "status": "Assigned to Contractor",
    "contractor": "Waste Pro",
    "rowid": "1171473",
    "final_x": "3697121.76061",
    "final_y": "532360.332803",
    "longitude": "-90.01871225578576",
    "latitude": "29.957322742156077",
    "geocoded_column": {
      "latitude": "29.957322742156077",
      "longitude": "-90.01871225578576"
    }
  },
  {
    "service_request": "2025-1171472",
    "request_type": "General Services",
    "request_reason": "General Service Request",
    "date_created": "2025-02-25T19:19:27.000",
    "date_modified": "2025-02-25T19:19:29.000",
    "request_status": "Pending",
    "responsible_agency": "Orleans Parish Communication District",
    "final_address": "1339 Tennessee St",
    "address_councildis": "E",
    "status": "Pending",
    "rowid": "1171472",
    "final_x": "3696054.26774",
    "final_y": "535322.558022",
    "longitude": "-90.02197600846553",
    "latitude": "29.965501446335917",
    "geocoded_column": {
      "latitude": "29.965501446335917",
      "longitude": "-90.02197600846553"
    }
  },
  {
    "service_request": "2025-1171471",
    "request_type": "General Services",
    "request_reason": "General Service Request",
    "date_created": "2025-02-25T19:13:51.000",
    "date_modified": "2025-02-25T19:13:54.000",
    "request_status": "Pending",
    "responsible_agency": "Orleans Parish Communication District",
    "final_address": "1339 Tennessee St",
    "address_councildis": "E",
    "status": "Pending",
    "rowid": "1171471",
    "final_x": "3696054.26774",
    "final_y": "535322.558022",
    "longitude": "-90.02197600846553",
    "latitude": "29.965501446335917",
    "geocoded_column": {
      "latitude": "29.965501446335917",
      "longitude": "-90.02197600846553"
    }
  },
  {
    "service_request": "2025-1171470",
    "request_type": "Trash/Recycling",
    "request_reason": "Request a Large Item Pick Up",
    "date_created": "2025-02-25T19:06:57.000",
    "date_modified": "2025-02-25T19:06:59.000",
    "request_status": "Pending",
    "responsible_agency": "Department of Sanitation",
    "final_address": "4842 Gabriel Dr",
    "address_councildis": "E",
    "status": "Assigned to Contractor",
    "contractor": "Waste Pro",
    "rowid": "1171470",
    "final_x": "3708759.61144",
    "final_y": "556382.21609",
    "longitude": "-89.98106859726059",
    "latitude": "30.023001607871134",
    "geocoded_column": {
      "latitude": "30.023001607871134",
      "longitude": "-89.98106859726059"
    }
  },
  {
    "service_request": "2025-1171469",
    "request_type": "Property Maintenance",
    "request_reason": "Property Maintenance",
    "date_created": "2025-02-25T18:13:52.000",
    "date_modified": "2025-02-25T18:13:54.000",
    "request_status": "Pending",
    "responsible_agency": "Department of Code Enforcement",
    "final_address": "2526 Touro St",
    "address_councildis": "D",
    "status": "Pending",
    "rowid": "1171469",
    "final_x": "3683763.21685",
    "final_y": "541661.987148",
    "longitude": "-90.06056818681407",
    "latitude": "29.98331372347122",
    "geocoded_column": {
      "latitude": "29.98331372347122",
      "longitude": "-90.06056818681407"
    }
  },
  {
    "service_request": "2025-1171468",
    "request_type": "Streetlights",
    "request_reason": "Streetlight Outage/Malfunction",
    "date_created": "2025-02-25T18:06:30.000",
    "date_modified": "2025-02-25T18:06:31.000",
    "request_status": "Pending",
    "responsible_agency": "Department of Public Works",
    "final_address": "1019 Kentucky St",
    "address_councildis": "C",
    "status": "Pending",
    "contractor": "Legacy Professional Services",
    "rowid": "1171468",
    "final_x": "3693288.33181",
    "final_y": "534647.404358",
    "longitude": "-90.03073491390582",
    "latitude": "29.963731761622125",
    "geocoded_column": {
      "latitude": "29.963731761622125",
      "longitude": "-90.03073491390582"
    }
  },
  {
    "service_request": "2025-1171467",
    "request_type": "Streetlights",
    "request_reason": "Streetlight Outage/Malfunction",
    "date_created": "2025-02-25T18:00:22.000",
    "date_modified": "2025-02-25T18:00:23.000",
    "request_status": "Pending",
    "responsible_agency": "Department of Public Works",
    "final_address": "4424 St Claude Ave",
    "address_councildis": "C",
    "status": "Pending",
    "contractor": "Legacy Professional Services",
    "rowid": "1171467",
    "final_x": "3693254.99741",
    "final_y": "534892.780166",
    "longitude": "-90.03083137203784",
    "latitude": "29.96440750056145",
    "geocoded_column": {
      "latitude": "29.96440750056145",
      "longitude": "-90.03083137203784"
    }
  },
  {
    "service_request": "2025-1171466",
    "request_type": "Roads and Streets",
    "request_reason": "Pothole",
    "date_created": "2025-02-25T17:56:19.000",
    "date_modified": "2025-02-25T17:56:21.000",
    "request_status": "Pending",
    "responsible_agency": "Department of Public Works",
    "final_address": "1455 Pauger St",
    "address_councildis": "C",
    "status": "Pending",
    "rowid": "1171466",
    "final_x": "3683998.43228",
    "final_y": "535041.867142",
    "longitude": "-90.06005760781903",
    "latitude": "29.965103514506684",
    "geocoded_column": {
      "latitude": "29.965103514506684",
      "longitude": "-90.06005760781903"
    }
  },
  {
    "service_request": "2025-1171465",
    "request_type": "Drainage",
    "request_reason": "Catch Basin Clogged",
    "date_created": "2025-02-25T17:39:46.000",
    "date_modified": "2025-02-25T17:39:48.000",
    "request_status": "Pending",
    "responsible_agency": "Sewerage & Water Board ",
    "final_address": "4940 St Roch Ave",
    "address_councildis": "D",
    "status": "Pending",
    "rowid": "1171465",
    "final_x": "3685191.64207",
    "final_y": "551099.410069",
    "longitude": "-90.05572412357968",
    "latitude": "30.009219548236747",
    "geocoded_column": {
      "latitude": "30.009219548236747",
      "longitude": "-90.05572412357968"
    }
  },
  {
    "service_request": "2025-1171464",
    "request_type": "Graffiti Removal",
    "request_reason": "Graffiti Removal",
    "date_created": "2025-02-25T17:26:22.000",
    "date_modified": "2025-02-25T17:26:24.000",
    "request_status": "Pending",
    "responsible_agency": "Department of Code Enforcement",
    "final_address": "300 Decatur St",
    "address_councildis": "C",
    "status": "Pending",
    "rowid": "1171464",
    "final_x": "3682315.10498",
    "final_y": "530842.22701",
    "longitude": "-90.06552019574902",
    "latitude": "29.9536072634024",
    "geocoded_column": {
      "latitude": "29.9536072634024",
      "longitude": "-90.06552019574902"
    }
  },
  {
    "service_request": "2025-1171463",
    "request_type": "Street and Traffic Signs",
    "request_reason": "One Way Sign Missing or Damaged",
    "date_created": "2025-02-25T16:58:29.000",
    "date_modified": "2025-02-25T16:58:31.000",
    "request_status": "Pending",
    "responsible_agency": "Department of Public Works",
    "final_address": "PERDIDO ST & S RAMPART ST",
    "address_councildis": "B",
    "status": "Pending",
    "rowid": "1171463",
    "final_x": "3679446.1",
    "final_y": "530137.98",
    "longitude": "-90.07460373628203",
    "latitude": "29.951757794575734",
    "geocoded_column": {
      "latitude": "29.951757794575734",
      "longitude": "-90.07460373628203"
    }
  },
  {
    "service_request": "2025-1171462",
    "request_type": "Trash/Recycling",
    "request_reason": "Request a Large Item Pick Up",
    "date_created": "2025-02-25T16:58:14.000",
    "date_modified": "2025-02-25T16:58:16.000",
    "request_status": "Pending",
    "responsible_agency": "Department of Sanitation",
    "final_address": "9800 E Rockton Cir",
    "address_councildis": "E",
    "status": "Assigned to Contractor",
    "contractor": "Waste Pro",
    "rowid": "1171462",
    "final_x": "3708247.24696",
    "final_y": "562988.954848",
    "longitude": "-89.98244142473779",
    "latitude": "30.04118415198417",
    "geocoded_column": {
      "latitude": "30.04118415198417",
      "longitude": "-89.98244142473779"
    }
  },
  {
    "service_request": "2025-1171461",
    "request_type": "Trash/Recycling",
    "request_reason": "Request a Large Item Pick Up",
    "date_created": "2025-02-25T16:55:10.000",
    "date_modified": "2025-02-25T16:55:12.000",
    "request_status": "Pending",
    "responsible_agency": "Department of Sanitation",
    "final_address": "8839 Edinburgh St",
    "address_councildis": "A",
    "status": "Assigned to Contractor",
    "contractor": "IV Waste",
    "rowid": "1171461",
    "final_x": "3665444.48845",
    "final_y": "536338.519303",
    "longitude": "-90.1186067549337",
    "latitude": "29.969222744869413",
    "geocoded_column": {
      "latitude": "29.969222744869413",
      "longitude": "-90.1186067549337"
    }
  },
  {
    "service_request": "2025-1171460",
    "request_type": "Trash/Recycling",
    "request_reason": "Order Trash Cart",
    "date_created": "2025-02-25T16:49:44.000",
    "date_modified": "2025-02-25T16:49:46.000",
    "request_status": "Pending",
    "responsible_agency": "Department of Sanitation",
    "final_address": "14 St Claude Ct",
    "address_councildis": "E",
    "status": "Assigned to Contractor",
    "contractor": "Waste Pro",
    "rowid": "1171460",
    "final_x": "3697453.98192",
    "final_y": "533705.845765",
    "longitude": "-90.01761442109182",
    "latitude": "29.9610119416506",
    "geocoded_column": {
      "latitude": "29.9610119416506",
      "longitude": "-90.01761442109182"
    }
  },
  {
    "service_request": "2025-1171459",
    "request_type": "Trash/Recycling",
    "request_reason": "Request a Large Item Pick Up",
    "date_created": "2025-02-25T16:41:04.000",
    "date_modified": "2025-02-25T16:41:07.000",
    "request_status": "Pending",
    "responsible_agency": "Department of Sanitation",
    "final_address": "4506 Citrus Dr",
    "address_councildis": "E",
    "status": "Assigned to Contractor",
    "contractor": "Waste Pro",
    "rowid": "1171459",
    "final_x": "3710670.27525",
    "final_y": "554698.510872",
    "longitude": "-89.9750944476562",
    "latitude": "30.01830993816588",
    "geocoded_column": {
      "latitude": "30.01830993816588",
      "longitude": "-89.9750944476562"
    }
  },
  {
    "service_request": "2025-1171458",
    "request_type": "Trash/Recycling",
    "request_reason": "Repair Trash Cart",
    "date_created": "2025-02-25T16:36:36.000",
    "date_modified": "2025-02-25T16:36:37.000",
    "request_status": "Pending",
    "responsible_agency": "Department of Sanitation",
    "final_address": "2301 Prancer St",
    "address_councildis": "C",
    "status": "Assigned to Contractor",
    "contractor": "Richards Disposal",
    "rowid": "1171458",
    "final_x": "3700386.85751",
    "final_y": "522697.509434",
    "longitude": "-90.00875485187451",
    "latitude": "29.930649961450886",
    "geocoded_column": {
      "latitude": "29.930649961450886",
      "longitude": "-90.00875485187451"
    }
  },
  {
    "service_request": "2025-1171457",
    "request_type": "Abandoned Vehicles",
    "request_reason": "Abandoned/Junk Vehicles",
    "date_created": "2025-02-25T16:35:21.000",
    "date_modified": "2025-02-25T16:35:23.000",
    "request_status": "Pending",
    "responsible_agency": "Department of Public Works",
    "final_address": "700 BLK Touro St",
    "address_councildis": "C",
    "status": "Pending",
    "rowid": "1171457",
    "final_x": "3684333.54042",
    "final_y": "534985.014791",
    "longitude": "-90.05900135344594",
    "latitude": "29.964936946805704",
    "geocoded_column": {
      "latitude": "29.964936946805704",
      "longitude": "-90.05900135344594"
    }
  },
  {
    "service_request": "2025-1171456",
    "request_type": "Drainage",
    "request_reason": "Ditch and Culvert Maintenance",
    "date_created": "2025-02-25T16:31:37.000",
    "date_modified": "2025-02-25T16:47:14.000",
    "request_status": "Pending",
    "responsible_agency": "Department of Public Works",
    "final_address": "2029 Palmer Ave",
    "address_councildis": "A",
    "status": "Pending",
    "rowid": "1171456",
    "final_x": "3665969.06215",
    "final_y": "524494.769212",
    "longitude": "-90.11734703814584",
    "latitude": "29.936640984411206",
    "geocoded_column": {
      "latitude": "29.936640984411206",
      "longitude": "-90.11734703814584"
    }
  },
  {
    "service_request": "2025-1171455",
    "request_type": "Trash/Recycling",
    "request_reason": "Replace Trash Cart",
    "date_created": "2025-02-25T16:23:38.000",
    "date_modified": "2025-02-25T16:23:41.000",
    "request_status": "Pending",
    "responsible_agency": "Department of Sanitation",
    "final_address": "3008 St Peter St",
    "address_councildis": "A",
    "status": "Assigned to Contractor",
    "contractor": "IV Waste",
    "rowid": "1171455",
    "final_x": "3675553.91336",
    "final_y": "537643.784072",
    "longitude": "-90.08663555496052",
    "latitude": "29.972513220300375",
    "geocoded_column": {
      "latitude": "29.972513220300375",
      "longitude": "-90.08663555496052"
    }
  },
  {
    "service_request": "2025-1171454",
    "request_type": "Trash/Recycling",
    "request_reason": "Request a Large Item Pick Up",
    "date_created": "2025-02-25T16:22:04.000",
    "date_modified": "2025-02-25T16:22:06.000",
    "request_status": "Pending",
    "responsible_agency": "Department of Sanitation",
    "final_address": "7500 Morrison Rd",
    "address_councildis": "E",
    "status": "Assigned to Contractor",
    "contractor": "Waste Pro",
    "rowid": "1171454",
    "final_x": "3700932.26692",
    "final_y": "559447.322717",
    "longitude": "-90.00568887857709",
    "latitude": "30.031681142115612",
    "geocoded_column": {
      "latitude": "30.031681142115612",
      "longitude": "-90.00568887857709"
    }
  },
  {
    "service_request": "2025-1171453",
    "request_type": "Trash/Recycling",
    "request_reason": "Request a Large Item Pick Up",
    "date_created": "2025-02-25T16:21:12.000",
    "date_modified": "2025-02-25T16:23:07.000",
    "request_status": "Pending",
    "responsible_agency": "Department of Sanitation",
    "final_address": "2543 Fats Domino Ave",
    "address_councildis": "E",
    "status": "Assigned to Contractor",
    "contractor": "Waste Pro",
    "rowid": "1171453",
    "final_x": "3699580.73015",
    "final_y": "539344.690698",
    "longitude": "-90.01069304878057",
    "latitude": "29.976449417535036",
    "geocoded_column": {
      "latitude": "29.976449417535036",
      "longitude": "-90.01069304878057"
    }
  },
  {
    "service_request": "2025-1171452",
    "request_type": "Trash/Recycling",
    "request_reason": "Repair Trash Cart",
    "date_created": "2025-02-25T16:19:20.000",
    "date_modified": "2025-02-25T16:19:22.000",
    "request_status": "Pending",
    "responsible_agency": "Department of Sanitation",
    "final_address": "8710 Gervais St",
    "address_councildis": "E",
    "status": "Assigned to Contractor",
    "contractor": "Waste Pro",
    "rowid": "1171452",
    "final_x": "3704355.76919",
    "final_y": "562900.296928",
    "longitude": "-89.99474304677103",
    "latitude": "30.041065952404583",
    "geocoded_column": {
      "latitude": "30.041065952404583",
      "longitude": "-89.99474304677103"
    }
  },
  {
    "service_request": "2025-1171451",
    "request_type": "Trash/Recycling",
    "request_reason": "Request a Large Item Pick Up",
    "date_created": "2025-02-25T16:18:43.000",
    "date_modified": "2025-02-25T16:18:45.000",
    "request_status": "Pending",
    "responsible_agency": "Department of Sanitation",
    "final_address": "5941 Winchester Park Dr",
    "address_councildis": "E",
    "status": "Assigned to Contractor",
    "contractor": "Waste Pro",
    "rowid": "1171451",
    "final_x": "3714730.15858",
    "final_y": "562856.308064",
    "longitude": "-89.96195837966957",
    "latitude": "30.040607678670828",
    "geocoded_column": {
      "latitude": "30.040607678670828",
      "longitude": "-89.96195837966957"
    }
  },
  {
    "service_request": "2025-1171450",
    "request_type": "Trash/Recycling",
    "request_reason": "Request a Large Item Pick Up",
    "date_created": "2025-02-25T16:18:22.000",
    "date_modified": "2025-02-25T16:18:25.000",
    "request_status": "Pending",
    "responsible_agency": "Department of Sanitation",
    "final_address": "7417 Burthe St",
    "address_councildis": "A",
    "status": "Assigned to Contractor",
    "contractor": "IV Waste",
    "rowid": "1171450",
    "final_x": "3662978.94887",
    "final_y": "526079.629758",
    "longitude": "-90.12673431305751",
    "latitude": "29.94108576030741",
    "geocoded_column": {
      "latitude": "29.94108576030741",
      "longitude": "-90.12673431305751"
    }
  },
  {
    "service_request": "2025-1171449",
    "request_type": "Trash/Recycling",
    "request_reason": "Request a Large Item Pick Up",
    "date_created": "2025-02-25T16:13:43.000",
    "date_modified": "2025-02-25T16:13:45.000",
    "request_status": "Pending",
    "responsible_agency": "Department of Sanitation",
    "final_address": "422 St Maurice Ave",
    "address_councildis": "E",
    "status": "Assigned to Contractor",
    "contractor": "Waste Pro",
    "rowid": "1171449",
    "final_x": "3698923.22116",
    "final_y": "530992.95341",
    "longitude": "-90.01307357277312",
    "latitude": "29.953505979571517",
    "geocoded_column": {
      "latitude": "29.953505979571517",
      "longitude": "-90.01307357277312"
    }
  },
  {
    "service_request": "2025-1171448",
    "request_type": "Trash/Recycling",
    "request_reason": "Illegal Dumping",
    "date_created": "2025-02-25T16:05:20.000",
    "date_modified": "2025-02-25T16:05:22.000",
    "request_status": "Pending",
    "responsible_agency": "Department of Sanitation",
    "final_address": "2025 Jourdan Ave",
    "address_councildis": "E",
    "status": "Pending",
    "rowid": "1171448",
    "final_x": "3696093.17898",
    "final_y": "538065.020809",
    "longitude": "-90.02175399649263",
    "latitude": "29.973041015739213",
    "geocoded_column": {
      "latitude": "29.973041015739213",
      "longitude": "-90.02175399649263"
    }
  },
  {
    "service_request": "2025-1171447",
    "request_type": "Trash/Recycling",
    "request_reason": "Order Recycling Cart",
    "date_created": "2025-02-25T16:01:44.000",
    "date_modified": "2025-02-25T16:01:46.000",
    "request_status": "Pending",
    "responsible_agency": "Department of Sanitation",
    "final_address": "7664 Kingsport Blvd",
    "address_councildis": "E",
    "status": "Pending",
    "rowid": "1171447",
    "final_x": "3719673.90021",
    "final_y": "573029.409641",
    "longitude": "-89.94594542393445",
    "latitude": "30.06841587308906",
    "geocoded_column": {
      "latitude": "30.06841587308906",
      "longitude": "-89.94594542393445"
    }
  },
  {
    "service_request": "2025-1171446",
    "request_type": "Trash/Recycling",
    "request_reason": "Missed Trash Pick-Up",
    "date_created": "2025-02-25T15:57:51.000",
    "date_modified": "2025-02-25T15:57:53.000",
    "request_status": "Pending",
    "responsible_agency": "Department of Sanitation",
    "final_address": "11001 Chef Menteur Hwy",
    "address_councildis": "E",
    "status": "Assigned to Contractor",
    "contractor": "Waste Pro",
    "rowid": "1171446",
    "final_x": "3716193.24895",
    "final_y": "556009.300185",
    "longitude": "-89.95759438072872",
    "latitude": "30.021732922624327",
    "geocoded_column": {
      "latitude": "30.021732922624327",
      "longitude": "-89.95759438072872"
    }
  },
  {
    "service_request": "2025-1171445",
    "request_type": "Roads and Streets",
    "request_reason": "Pothole",
    "date_created": "2025-02-25T15:55:30.000",
    "date_modified": "2025-02-25T15:55:32.000",
    "request_status": "Pending",
    "responsible_agency": "Department of Public Works",
    "final_address": "2522 Palmer Ave",
    "address_councildis": "A",
    "status": "Pending",
    "rowid": "1171445",
    "final_x": "3666481.41831",
    "final_y": "526121.012798",
    "longitude": "-90.11567494217795",
    "latitude": "29.941097672559387",
    "geocoded_column": {
      "latitude": "29.941097672559387",
      "longitude": "-90.11567494217795"
    }
  },
  {
    "service_request": "2025-1171444",
    "request_type": "Trash/Recycling",
    "request_reason": "Repair Trash Cart",
    "date_created": "2025-02-25T15:55:21.000",
    "date_modified": "2025-02-25T15:55:24.000",
    "request_status": "Pending",
    "responsible_agency": "Department of Sanitation",
    "final_address": "8332 Willow St",
    "address_councildis": "A",
    "status": "Assigned to Contractor",
    "contractor": "IV Waste",
    "rowid": "1171444",
    "final_x": "3661662.63046",
    "final_y": "529541.233025",
    "longitude": "-90.13077549500203",
    "latitude": "29.950642112195084",
    "geocoded_column": {
      "latitude": "29.950642112195084",
      "longitude": "-90.13077549500203"
    }
  },
  {
    "service_request": "2025-1171443",
    "request_type": "Trash/Recycling",
    "request_reason": "Request a Large Item Pick Up",
    "date_created": "2025-02-25T15:51:57.000",
    "date_modified": "2025-02-25T15:51:59.000",
    "request_status": "Pending",
    "responsible_agency": "Department of Sanitation",
    "final_address": "5000 N Prieur St",
    "address_councildis": "E",
    "status": "Assigned to Contractor",
    "contractor": "Waste Pro",
    "rowid": "1171443",
    "final_x": "3696820.63101",
    "final_y": "537159.73076",
    "longitude": "-90.01948935629362",
    "latitude": "29.97052887698136",
    "geocoded_column": {
      "latitude": "29.97052887698136",
      "longitude": "-90.01948935629362"
    }
  },
  {
    "service_request": "2025-1171442",
    "request_type": "Drainage",
    "request_reason": "Street Flooding",
    "date_created": "2025-02-25T15:51:56.000",
    "date_modified": "2025-02-25T15:51:57.000",
    "request_status": "Pending",
    "responsible_agency": "Sewerage & Water Board ",
    "final_address": "2240 Lakeshore Dr",
    "address_councildis": "D",
    "status": "Pending",
    "rowid": "1171442",
    "final_x": "3684002.70639",
    "final_y": "558700.258524",
    "longitude": "-90.0592133504409",
    "latitude": "30.030155485144437",
    "geocoded_column": {
      "latitude": "30.030155485144437",
      "longitude": "-90.0592133504409"
    }
  },
  {
    "service_request": "2025-1171441",
    "request_type": "Drainage",
    "request_reason": "Catch Basin Clogged",
    "date_created": "2025-02-25T15:47:05.000",
    "date_modified": "2025-02-25T15:47:06.000",
    "request_status": "Pending",
    "responsible_agency": "Sewerage & Water Board ",
    "final_address": "2724 S Carrollton Ave",
    "address_councildis": "A",
    "status": "Pending",
    "rowid": "1171441",
    "final_x": "3665726.52941",
    "final_y": "532521.66586",
    "longitude": "-90.11784391115",
    "latitude": "29.95871943083798",
    "geocoded_column": {
      "latitude": "29.95871943083798",
      "longitude": "-90.11784391115"
    }
  },
  {
    "service_request": "2025-1171440",
    "request_type": "Trash/Recycling",
    "request_reason": "Repair Recycling Cart",
    "date_created": "2025-02-25T15:46:14.000",
    "date_modified": "2025-02-25T15:46:16.000",
    "request_status": "Pending",
    "responsible_agency": "Department of Sanitation",
    "final_address": "618 N Alexander St",
    "address_councildis": "A",
    "status": "Pending",
    "rowid": "1171440",
    "final_x": "3671221.5307",
    "final_y": "540720.179659",
    "longitude": "-90.10021346639385",
    "latitude": "29.981101165293257",
    "geocoded_column": {
      "latitude": "29.981101165293257",
      "longitude": "-90.10021346639385"
    }
  },
  {
    "service_request": "2025-1171439",
    "request_type": "Trash/Recycling",
    "request_reason": "Request a Large Item Pick Up",
    "date_created": "2025-02-25T15:44:55.000",
    "date_modified": "2025-02-25T15:44:56.000",
    "request_status": "Pending",
    "responsible_agency": "Department of Sanitation",
    "final_address": "2823 General Pershing St",
    "address_councildis": "B",
    "status": "Assigned to Contractor",
    "contractor": "IV Waste",
    "rowid": "1171439",
    "final_x": "3670861.99156",
    "final_y": "525318.063997",
    "longitude": "-90.10187187492342",
    "latitude": "29.938761096022596",
    "geocoded_column": {
      "latitude": "29.938761096022596",
      "longitude": "-90.10187187492342"
    }
  },
  {
    "service_request": "2025-1171438",
    "request_type": "Trash/Recycling",
    "request_reason": "Illegal Dumping",
    "date_created": "2025-02-25T15:33:18.000",
    "date_modified": "2025-02-25T15:33:20.000",
    "request_status": "Pending",
    "responsible_agency": "Department of Sanitation",
    "final_address": "2727 St Andrew St",
    "address_councildis": "B",
    "status": "Pending",
    "rowid": "1171438",
    "final_x": "3675588.90593",
    "final_y": "527373.753343",
    "longitude": "-90.08687786854716",
    "latitude": "29.94427303255693",
    "geocoded_column": {
      "latitude": "29.94427303255693",
      "longitude": "-90.08687786854716"
    }
  },
  {
    "service_request": "2025-1171437",
    "request_type": "Traffic Signals",
    "request_reason": "Traffic Signal Malfunctioning or Damaged",
    "date_created": "2025-02-25T15:29:40.000",
    "date_modified": "2025-02-25T15:29:42.000",
    "request_status": "Pending",
    "responsible_agency": "Department of Public Works",
    "final_address": "700 Camp St",
    "address_councildis": "B",
    "status": "Pending",
    "rowid": "1171437",
    "final_x": "3680946.21167",
    "final_y": "528384.861504",
    "longitude": "-90.06992813829034",
    "latitude": "29.946891911143922",
    "geocoded_column": {
      "latitude": "29.946891911143922",
      "longitude": "-90.06992813829034"
    }
  },
  {
    "service_request": "2025-1171436",
    "request_type": "Roads and Streets",
    "request_reason": "Curb Damage",
    "date_created": "2025-02-25T15:29:29.000",
    "date_modified": "2025-02-25T15:29:31.000",
    "request_status": "Pending",
    "responsible_agency": "Department of Public Works",
    "final_address": "119 N Galvez St",
    "address_councildis": "B",
    "status": "Pending",
    "rowid": "1171436",
    "final_x": "3677028.5979",
    "final_y": "534147.064517",
    "longitude": "-90.08209882514515",
    "latitude": "29.962854230424426",
    "geocoded_column": {
      "latitude": "29.962854230424426",
      "longitude": "-90.08209882514515"
    }
  },
  {
    "service_request": "2025-1171435",
    "request_type": "Trash/Recycling",
    "request_reason": "Order Recycling Cart",
    "date_created": "2025-02-25T15:27:15.000",
    "date_modified": "2025-02-25T15:27:17.000",
    "request_status": "Pending",
    "responsible_agency": "Department of Sanitation",
    "final_address": "3931 General Meyer Ave",
    "address_councildis": "C",
    "status": "Pending",
    "rowid": "1171435",
    "final_x": "3698830.46666",
    "final_y": "524726.416572",
    "longitude": "-90.01359435058635",
    "latitude": "29.9362781341848",
    "geocoded_column": {
      "latitude": "29.9362781341848",
      "longitude": "-90.01359435058635"
    }
  },
  {
    "service_request": "2025-1171434",
    "request_type": "Streetlights",
    "request_reason": "Streetlight Outage/Malfunction",
    "date_created": "2025-02-25T15:23:45.000",
    "date_modified": "2025-02-25T15:23:47.000",
    "request_status": "Pending",
    "responsible_agency": "Department of Public Works",
    "final_address": "932 Bourbon St",
    "address_councildis": "C",
    "status": "Pending",
    "contractor": "Legacy Professional Services",
    "rowid": "1171434",
    "final_x": "3682896.80719",
    "final_y": "533468.87162",
    "longitude": "-90.06359151985345",
    "latitude": "29.960811930342988",
    "geocoded_column": {
      "latitude": "29.960811930342988",
      "longitude": "-90.06359151985345"
    }
  },
  {
    "service_request": "2025-1171433",
    "request_type": "Trash/Recycling",
    "request_reason": "Repair Recycling Cart",
    "date_created": "2025-02-25T15:23:21.000",
    "date_modified": "2025-02-25T15:23:23.000",
    "request_status": "Pending",
    "responsible_agency": "Department of Sanitation",
    "final_address": "7928 Mackenzie St",
    "address_councildis": "E",
    "status": "Pending",
    "rowid": "1171433",
    "final_x": "3710322.12849",
    "final_y": "567068.034276",
    "longitude": "-89.97573139276935",
    "latitude": "30.052332554180254",
    "geocoded_column": {
      "latitude": "30.052332554180254",
      "longitude": "-89.97573139276935"
    }
  },
  {
    "service_request": "2025-1171432",
    "request_type": "Streetlights",
    "request_reason": "Streetlight Outage/Malfunction",
    "date_created": "2025-02-25T15:17:03.000",
    "date_modified": "2025-02-25T15:17:04.000",
    "request_status": "Pending",
    "responsible_agency": "Department of Public Works",
    "final_address": "8909 Stroelitz St",
    "address_councildis": "A",
    "status": "Pending",
    "contractor": "Legacy Professional Services",
    "rowid": "1171432",
    "final_x": "3665836.32864",
    "final_y": "536935.84052",
    "longitude": "-90.11734927093781",
    "latitude": "29.970853752144933",
    "geocoded_column": {
      "latitude": "29.970853752144933",
      "longitude": "-90.11734927093781"
    }
  },
  {
    "service_request": "2025-1171431",
    "request_type": "Trash/Recycling",
    "request_reason": "Order Trash Cart",
    "date_created": "2025-02-25T15:14:08.000",
    "date_modified": "2025-02-25T15:14:10.000",
    "request_status": "Pending",
    "responsible_agency": "Department of Sanitation",
    "final_address": "228 Jewel St",
    "address_councildis": "D",
    "status": "Assigned to Contractor",
    "contractor": "IV Waste",
    "rowid": "1171431",
    "final_x": "3667315.96845",
    "final_y": "555737.788313",
    "longitude": "-90.11204347703837",
    "latitude": "30.02250938218727",
    "geocoded_column": {
      "latitude": "30.02250938218727",
      "longitude": "-90.11204347703837"
    }
  },
  {
    "service_request": "2025-1171430",
    "request_type": "Trash/Recycling",
    "request_reason": "Request a Large Item Pick Up",
    "date_created": "2025-02-25T15:11:38.000",
    "date_modified": "2025-02-25T15:11:40.000",
    "request_status": "Pending",
    "responsible_agency": "Department of Sanitation",
    "final_address": "7537 Tricia Ct",
    "address_councildis": "E",
    "status": "Assigned to Contractor",
    "contractor": "Waste Pro",
    "rowid": "1171430",
    "final_x": "3718067.56402",
    "final_y": "570771.748903",
    "longitude": "-89.9511094308557",
    "latitude": "30.0622616312686",
    "geocoded_column": {
      "latitude": "30.0622616312686",
      "longitude": "-89.9511094308557"
    }
  },
  {
    "service_request": "2025-1171429",
    "request_type": "Streetlights",
    "request_reason": "Streetlight Outage/Malfunction",
    "date_created": "2025-02-25T15:10:08.000",
    "date_modified": "2025-02-25T15:10:09.000",
    "request_status": "Pending",
    "responsible_agency": "Department of Public Works",
    "final_address": "800 BLK Metairie Rd",
    "address_councildis": "A",
    "status": "Pending",
    "contractor": "Legacy Professional Services",
    "rowid": "1171429",
    "final_x": "3663522.41012",
    "final_y": "539956.412329",
    "longitude": "-90.1245563177318",
    "latitude": "29.979226638556337",
    "geocoded_column": {
      "latitude": "29.979226638556337",
      "longitude": "-90.1245563177318"
    }
  },
  {
    "service_request": "2025-1171428",
    "request_type": "Trash/Recycling",
    "request_reason": "Request a Large Item Pick Up",
    "date_created": "2025-02-25T15:09:51.000",
    "date_modified": "2025-02-25T15:09:52.000",
    "request_status": "Pending",
    "responsible_agency": "Department of Sanitation",
    "final_address": "4643 Rosalia Dr",
    "address_councildis": "E",
    "status": "Assigned to Contractor",
    "contractor": "Waste Pro",
    "rowid": "1171428",
    "final_x": "3711306.6835",
    "final_y": "555396.944921",
    "longitude": "-89.97305745656885",
    "latitude": "30.02020960073858",
    "geocoded_column": {
      "latitude": "30.02020960073858",
      "longitude": "-89.97305745656885"
    }
  },
  {
    "service_request": "2025-1171427",
    "request_type": "Trash/Recycling",
    "request_reason": "Missed Trash Pick-Up",
    "date_created": "2025-02-25T15:09:33.000",
    "date_modified": "2025-02-25T15:49:54.000",
    "case_close_date": "2025-02-25T09:49:53.000",
    "request_status": "Closed",
    "responsible_agency": "Department of Sanitation",
    "final_address": "3476 Esplanade Ave",
    "address_councildis": "A",
    "status": "Invalid Request",
    "contractor": "IV Waste",
    "contractor_action": "Invalid",
    "rowid": "1171427",
    "final_x": "3674897.86811",
    "final_y": "541420.210636",
    "longitude": "-90.08857790355228",
    "latitude": "29.982916711050983",
    "geocoded_column": {
      "latitude": "29.982916711050983",
      "longitude": "-90.08857790355228"
    }
  },
  {
    "service_request": "2025-1171426",
    "request_type": "Trash/Recycling",
    "request_reason": "Request a Large Item Pick Up",
    "date_created": "2025-02-25T15:06:23.000",
    "date_modified": "2025-02-25T15:06:26.000",
    "request_status": "Pending",
    "responsible_agency": "Department of Sanitation",
    "final_address": "2132 Lizardi St",
    "address_councildis": "E",
    "status": "Assigned to Contractor",
    "contractor": "Waste Pro",
    "rowid": "1171426",
    "final_x": "3697623.52394",
    "final_y": "538114.795657",
    "longitude": "-90.01691909002827",
    "latitude": "29.973129624283953",
    "geocoded_column": {
      "latitude": "29.973129624283953",
      "longitude": "-90.01691909002827"
    }
  },
  {
    "service_request": "2025-1171425",
    "request_type": "Trash/Recycling",
    "request_reason": "Repair Trash Cart",
    "date_created": "2025-02-25T15:00:54.000",
    "date_modified": "2025-02-25T15:00:57.000",
    "request_status": "Pending",
    "responsible_agency": "Department of Sanitation",
    "final_address": "7928 Mackenzie St",
    "address_councildis": "E",
    "status": "Assigned to Contractor",
    "contractor": "Waste Pro",
    "rowid": "1171425",
    "final_x": "3710322.12849",
    "final_y": "567068.034276",
    "longitude": "-89.97573139276935",
    "latitude": "30.052332554180254",
    "geocoded_column": {
      "latitude": "30.052332554180254",
      "longitude": "-89.97573139276935"
    }
  },
  {
    "service_request": "2025-1171424",
    "request_type": "Abandoned Vehicles",
    "request_reason": "Vehicle Blocking Your Driveway",
    "date_created": "2025-02-25T15:00:44.000",
    "date_modified": "2025-02-25T15:00:46.000",
    "request_status": "Pending",
    "responsible_agency": "Department of Public Works",
    "final_address": "3615 Tulane Ave",
    "address_councildis": "B",
    "status": "Pending",
    "rowid": "1171424",
    "final_x": "3671033.957",
    "final_y": "535489.962118",
    "longitude": "-90.10098357592663",
    "latitude": "29.966725382164732",
    "geocoded_column": {
      "latitude": "29.966725382164732",
      "longitude": "-90.10098357592663"
    }
  },
  {
    "service_request": "2025-1171423",
    "request_type": "Trash/Recycling",
    "request_reason": "Illegal Dumping",
    "date_created": "2025-02-25T14:59:56.000",
    "date_modified": "2025-02-25T14:59:59.000",
    "request_status": "Pending",
    "responsible_agency": "Department of Sanitation",
    "final_address": "9630 Lincoln Beach Blvd",
    "address_councildis": "E",
    "status": "Pending",
    "rowid": "1171423",
    "final_x": "3706682.38423",
    "final_y": "564793.307042",
    "longitude": "-89.98731991601589",
    "latitude": "30.046196037343538",
    "geocoded_column": {
      "latitude": "30.046196037343538",
      "longitude": "-89.98731991601589"
    }
  },
  {
    "service_request": "2025-1171422",
    "request_type": "Drainage",
    "request_reason": "Catch Basin Clogged",
    "date_created": "2025-02-25T14:48:40.000",
    "date_modified": "2025-02-25T14:53:11.000",
    "request_status": "Pending",
    "responsible_agency": "Sewerage & Water Board ",
    "final_address": "6307 General Meyer Ave",
    "address_councildis": "C",
    "status": "Pending",
    "rowid": "1171422",
    "final_x": "3707709.64593",
    "final_y": "520331.2014",
    "longitude": "-89.98572593878684",
    "latitude": "29.923908653527455",
    "geocoded_column": {
      "latitude": "29.923908653527455",
      "longitude": "-89.98572593878684"
    }
  },
  {
    "service_request": "2025-1171421",
    "request_type": "Streetlights",
    "request_reason": "Streetlight Outage/Malfunction",
    "date_created": "2025-02-25T14:48:39.000",
    "date_modified": "2025-02-25T14:48:41.000",
    "request_status": "Pending",
    "responsible_agency": "Department of Public Works",
    "final_address": "1228 Burdette St",
    "address_councildis": "A",
    "status": "Pending",
    "contractor": "Legacy Professional Services",
    "rowid": "1171421",
    "final_x": "3662935.40679",
    "final_y": "527831.977919",
    "longitude": "-90.12681352933679",
    "latitude": "29.94590541877539",
    "geocoded_column": {
      "latitude": "29.94590541877539",
      "longitude": "-90.12681352933679"
    }
  },
  {
    "service_request": "2025-1171420",
    "request_type": "Trash/Recycling",
    "request_reason": "Repair Recycling Cart",
    "date_created": "2025-02-25T14:43:46.000",
    "date_modified": "2025-02-25T14:43:47.000",
    "request_status": "Pending",
    "responsible_agency": "Department of Sanitation",
    "final_address": "10 Tern St",
    "address_councildis": "D",
    "status": "Pending",
    "rowid": "1171420",
    "final_x": "3674120.61576",
    "final_y": "557402.747611",
    "longitude": "-90.09048531732353",
    "latitude": "30.026886239804618",
    "geocoded_column": {
      "latitude": "30.026886239804618",
      "longitude": "-90.09048531732353"
    }
  },
  {
    "service_request": "2025-1171419",
    "request_type": "Trash/Recycling",
    "request_reason": "Request a Large Item Pick Up",
    "date_created": "2025-02-25T14:40:54.000",
    "date_modified": "2025-02-25T14:40:56.000",
    "request_status": "Pending",
    "responsible_agency": "Department of Sanitation",
    "final_address": "7749 Alabama St",
    "address_councildis": "D",
    "status": "Assigned to Contractor",
    "contractor": "Waste Pro",
    "rowid": "1171419",
    "final_x": "3694768.42205",
    "final_y": "559108.492828",
    "longitude": "-90.02517908140302",
    "latitude": "30.030944422350863",
    "geocoded_column": {
      "latitude": "30.030944422350863",
      "longitude": "-90.02517908140302"
    }
  },
  {
    "service_request": "2025-1171418",
    "request_type": "Streetlights",
    "request_reason": "Streetlight Knocked Down/Leaning",
    "date_created": "2025-02-25T14:40:15.000",
    "date_modified": "2025-02-25T14:40:16.000",
    "request_status": "Pending",
    "responsible_agency": "Department of Public Works",
    "final_address": "1210 St Roch Ave",
    "address_councildis": "C",
    "status": "Pending",
    "contractor": "Legacy Professional Services",
    "rowid": "1171418",
    "final_x": "3686373.7309",
    "final_y": "536895.220936",
    "longitude": "-90.0524911408945",
    "latitude": "29.97012680257087",
    "geocoded_column": {
      "latitude": "29.97012680257087",
      "longitude": "-90.0524911408945"
    }
  },
  {
    "service_request": "2025-1171417",
    "request_type": "Drainage",
    "request_reason": "Catch Basin Clogged",
    "date_created": "2025-02-25T14:38:28.000",
    "date_modified": "2025-02-25T14:38:31.000",
    "request_status": "Pending",
    "responsible_agency": "Sewerage & Water Board ",
    "final_address": "5530 Atlanta St",
    "address_councildis": "A",
    "status": "Pending",
    "rowid": "1171417",
    "final_x": "3666659.05831",
    "final_y": "520907.853817",
    "longitude": "-90.11528905848313",
    "latitude": "29.92675795563615",
    "geocoded_column": {
      "latitude": "29.92675795563615",
      "longitude": "-90.11528905848313"
    }
  },
  {
    "service_request": "2025-1171416",
    "request_type": "Parks & Parkways",
    "request_reason": "Request Tree Service (Right of Way/Public Property)",
    "date_created": "2025-02-25T14:32:59.000",
    "date_modified": "2025-02-25T14:34:10.000",
    "request_status": "Pending",
    "responsible_agency": "Department of Parks & Parkway",
    "final_address": "3206 Toledano St",
    "address_councildis": "B",
    "status": "Pending",
    "rowid": "1171416",
    "final_x": "3672099.70939",
    "final_y": "527399.245439",
    "longitude": "-90.09789341158984",
    "latitude": "29.944447032121882",
    "geocoded_column": {
      "latitude": "29.944447032121882",
      "longitude": "-90.09789341158984"
    }
  },
  {
    "service_request": "2025-1171415",
    "request_type": "Trash/Recycling",
    "request_reason": "Request a Large Item Pick Up",
    "date_created": "2025-02-25T14:31:54.000",
    "date_modified": "2025-02-25T14:31:56.000",
    "request_status": "Pending",
    "responsible_agency": "Department of Sanitation",
    "final_address": "4774 Gawain Dr",
    "address_councildis": "E",
    "status": "Assigned to Contractor",
    "contractor": "Waste Pro",
    "rowid": "1171415",
    "final_x": "3706875.02449",
    "final_y": "555688.184537",
    "longitude": "-89.98704918672621",
    "latitude": "30.021154310394834",
    "geocoded_column": {
      "latitude": "30.021154310394834",
      "longitude": "-89.98704918672621"
    }
  },
  {
    "service_request": "2025-1171414",
    "request_type": "Trash/Recycling",
    "request_reason": "Missed Trash Pick-Up",
    "date_created": "2025-02-25T14:31:20.000",
    "date_modified": "2025-02-25T14:31:22.000",
    "request_status": "Pending",
    "responsible_agency": "Department of Sanitation",
    "final_address": "11318 Lincoln Beach Blvd",
    "address_councildis": "E",
    "status": "Assigned to Contractor",
    "contractor": "Waste Pro",
    "rowid": "1171414",
    "final_x": "3710557.97733",
    "final_y": "567657.591972",
    "longitude": "-89.97496386070794",
    "latitude": "30.05394591311336",
    "geocoded_column": {
      "latitude": "30.05394591311336",
      "longitude": "-89.97496386070794"
    }
  },
  {
    "service_request": "2025-1171413",
    "request_type": "Trash/Recycling",
    "request_reason": "Request a Large Item Pick Up",
    "date_created": "2025-02-25T14:20:45.000",
    "date_modified": "2025-02-25T14:20:47.000",
    "request_status": "Pending",
    "responsible_agency": "Department of Sanitation",
    "final_address": "4558 Lafon Dr",
    "address_councildis": "E",
    "status": "Assigned to Contractor",
    "contractor": "Waste Pro",
    "rowid": "1171413",
    "final_x": "3701158.31921",
    "final_y": "553310.061783",
    "longitude": "-90.00519934085298",
    "latitude": "30.014798826672592",
    "geocoded_column": {
      "latitude": "30.014798826672592",
      "longitude": "-90.00519934085298"
    }
  },
  {
    "service_request": "2025-1171412",
    "request_type": "Abandoned Vehicles",
    "request_reason": "Abandoned/Junk Vehicles",
    "date_created": "2025-02-25T14:19:58.000",
    "date_modified": "2025-02-25T14:20:00.000",
    "request_status": "Pending",
    "responsible_agency": "Department of Public Works",
    "final_address": "2751 Edna St",
    "address_councildis": "D",
    "status": "Pending",
    "rowid": "1171412",
    "final_x": "3689792.90844",
    "final_y": "545366.954768",
    "longitude": "-90.04139140224497",
    "latitude": "29.99331551561549",
    "geocoded_column": {
      "latitude": "29.99331551561549",
      "longitude": "-90.04139140224497"
    }
  },
  {
    "service_request": "2025-1171411",
    "request_type": "Trash/Recycling",
    "request_reason": "Request a Large Item Pick Up",
    "date_created": "2025-02-25T14:16:50.000",
    "date_modified": "2025-02-25T14:16:52.000",
    "request_status": "Pending",
    "responsible_agency": "Department of Sanitation",
    "final_address": "3001 Marigny St",
    "address_councildis": "D",
    "status": "Assigned to Contractor",
    "contractor": "IV Waste",
    "rowid": "1171411",
    "final_x": "3684868.08303",
    "final_y": "543747.733326",
    "longitude": "-90.05700506964357",
    "latitude": "29.98901499558169",
    "geocoded_column": {
      "latitude": "29.98901499558169",
      "longitude": "-90.05700506964357"
    }
  },
  {
    "service_request": "2025-1171410",
    "request_type": "Trash/Recycling",
    "request_reason": "Request a Large Item Pick Up",
    "date_created": "2025-02-25T14:11:51.000",
    "date_modified": "2025-02-25T14:11:53.000",
    "request_status": "Pending",
    "responsible_agency": "Department of Sanitation",
    "final_address": "219 S Alexander St",
    "address_councildis": "A",
    "status": "Assigned to Contractor",
    "contractor": "IV Waste",
    "rowid": "1171410",
    "final_x": "3669593.17358",
    "final_y": "538724.885513",
    "longitude": "-90.10542410040286",
    "latitude": "29.97566286552893",
    "geocoded_column": {
      "latitude": "29.97566286552893",
      "longitude": "-90.10542410040286"
    }
  },
  {
    "service_request": "2025-1171409",
    "request_type": "Drainage",
    "request_reason": "Catch Basin Clogged",
    "date_created": "2025-02-25T14:09:57.000",
    "date_modified": "2025-02-25T14:11:24.000",
    "request_status": "Pending",
    "responsible_agency": "Sewerage & Water Board ",
    "final_address": "3637 Magazine St",
    "address_councildis": "B",
    "status": "Pending",
    "rowid": "1171409",
    "final_x": "3673802.2539",
    "final_y": "519243.578103",
    "longitude": "-90.09279675412732",
    "latitude": "29.92197100768267",
    "geocoded_column": {
      "latitude": "29.92197100768267",
      "longitude": "-90.09279675412732"
    }
  },
  {
    "service_request": "2025-1171408",
    "request_type": "Trash/Recycling",
    "request_reason": "Request a Large Item Pick Up",
    "date_created": "2025-02-25T14:03:42.000",
    "date_modified": "2025-02-25T14:03:44.000",
    "request_status": "Pending",
    "responsible_agency": "Department of Sanitation",
    "final_address": "18 Grand Canyon Dr",
    "address_councildis": "C",
    "status": "Assigned to Contractor",
    "contractor": "Richards Disposal",
    "rowid": "1171408",
    "final_x": "3699732.41162",
    "final_y": "517365.084085",
    "longitude": "-90.01101509189218",
    "latitude": "29.91600840554473",
    "geocoded_column": {
      "latitude": "29.91600840554473",
      "longitude": "-90.01101509189218"
    }
  },
  {
    "service_request": "2025-1171407",
    "request_type": "Trash/Recycling",
    "request_reason": "Missed Trash Pick-Up",
    "date_created": "2025-02-25T13:55:33.000",
    "date_modified": "2025-02-25T14:21:04.000",
    "case_close_date": "2025-02-25T08:21:03.000",
    "request_status": "Closed",
    "responsible_agency": "Department of Sanitation",
    "final_address": "10706 Lincoln Beach Blvd",
    "address_councildis": "E",
    "status": "Invalid Request",
    "contractor": "Waste Pro",
    "contractor_action": "Invalid Request",
    "rowid": "1171407",
    "final_x": "3708985.97412",
    "final_y": "566598.534243",
    "longitude": "-89.9799720726161",
    "latitude": "30.0510850797045",
    "geocoded_column": {
      "latitude": "30.0510850797045",
      "longitude": "-89.9799720726161"
    }
  },
  {
    "service_request": "2025-1171406",
    "request_type": "Traffic Signals",
    "request_reason": "Traffic Signal Malfunctioning or Damaged",
    "date_created": "2025-02-25T13:54:50.000",
    "date_modified": "2025-02-25T13:54:51.000",
    "request_status": "Pending",
    "responsible_agency": "Department of Public Works",
    "final_address": "4825 Downman Rd",
    "address_councildis": "D",
    "status": "Pending",
    "rowid": "1171406",
    "final_x": "3696020.66256",
    "final_y": "554493.477272",
    "longitude": "-90.02138896187384",
    "latitude": "30.01821551420111",
    "geocoded_column": {
      "latitude": "30.01821551420111",
      "longitude": "-90.02138896187384"
    }
  },
  {
    "service_request": "2025-1171405",
    "request_type": "Abandoned Vehicles",
    "request_reason": "Abandoned/Junk Vehicles",
    "date_created": "2025-02-25T13:54:02.000",
    "date_modified": "2025-02-25T13:54:04.000",
    "request_status": "Pending",
    "responsible_agency": "Department of Public Works",
    "final_address": "2831 St Roch Ave",
    "address_councildis": "D",
    "status": "Pending",
    "rowid": "1171405",
    "final_x": "3686007.49359",
    "final_y": "543318.154702",
    "longitude": "-90.05342117678815",
    "latitude": "29.987798860467354",
    "geocoded_column": {
      "latitude": "29.987798860467354",
      "longitude": "-90.05342117678815"
    }
  },
  {
    "service_request": "2025-1171404",
    "request_type": "Trash/Recycling",
    "request_reason": "Repair Trash Cart",
    "date_created": "2025-02-25T13:52:10.000",
    "date_modified": "2025-02-25T13:52:12.000",
    "request_status": "Pending",
    "responsible_agency": "Department of Sanitation",
    "final_address": "605 Exposition Blvd",
    "address_councildis": "A",
    "status": "Assigned to Contractor",
    "contractor": "IV Waste",
    "rowid": "1171404",
    "final_x": "3662911.30803",
    "final_y": "519298.317879",
    "longitude": "-90.12717323815613",
    "latitude": "29.92244124743683",
    "geocoded_column": {
      "latitude": "29.92244124743683",
      "longitude": "-90.12717323815613"
    }
  },
  {
    "service_request": "2025-1171403",
    "request_type": "Trash/Recycling",
    "request_reason": "Request a Large Item Pick Up",
    "date_created": "2025-02-25T13:51:01.000",
    "date_modified": "2025-02-25T13:51:02.000",
    "request_status": "Pending",
    "responsible_agency": "Department of Sanitation",
    "final_address": "5703 General Diaz St",
    "address_councildis": "A",
    "status": "Assigned to Contractor",
    "contractor": "IV Waste",
    "rowid": "1171403",
    "final_x": "3669386.92756",
    "final_y": "545383.65992",
    "longitude": "-90.10585019741657",
    "latitude": "29.993978302089676",
    "geocoded_column": {
      "latitude": "29.993978302089676",
      "longitude": "-90.10585019741657"
    }
  },
  {
    "service_request": "2025-1171402",
    "request_type": "Trash/Recycling",
    "request_reason": "Request a Large Item Pick Up",
    "date_created": "2025-02-25T13:50:35.000",
    "date_modified": "2025-02-25T15:41:48.000",
    "request_status": "Pending",
    "responsible_agency": "Department of Sanitation",
    "final_address": "601 Exposition Blvd",
    "address_councildis": "A",
    "status": "Assigned to Contractor",
    "contractor": "IV Waste",
    "rowid": "1171402",
    "final_x": "3662905.93146",
    "final_y": "519277.023479",
    "longitude": "-90.12719091744219",
    "latitude": "29.92238285009363",
    "geocoded_column": {
      "latitude": "29.92238285009363",
      "longitude": "-90.12719091744219"
    }
  },
  {
    "service_request": "2025-1171401",
    "request_type": "Trash/Recycling",
    "request_reason": "Illegal Dumping",
    "date_created": "2025-02-25T13:50:00.000",
    "date_modified": "2025-02-25T13:50:02.000",
    "request_status": "Pending",
    "responsible_agency": "Department of Sanitation",
    "final_address": "1500 France St",
    "address_councildis": "D",
    "status": "Pending",
    "rowid": "1171401",
    "final_x": "3692732.70953",
    "final_y": "536688.923463",
    "longitude": "-90.03241631226548",
    "latitude": "29.969362574782313",
    "geocoded_column": {
      "latitude": "29.969362574782313",
      "longitude": "-90.03241631226548"
    }
  },
  {
    "service_request": "2025-1171400",
    "request_type": "Trash/Recycling",
    "request_reason": "Order Recycling Cart",
    "date_created": "2025-02-25T13:48:32.000",
    "date_modified": "2025-02-25T13:48:34.000",
    "request_status": "Pending",
    "responsible_agency": "Department of Sanitation",
    "final_address": "5422 N Robertson St",
    "address_councildis": "E",
    "status": "Pending",
    "contractor": "Waste Pro",
    "rowid": "1171400",
    "final_x": "3697779.07971",
    "final_y": "535357.795462",
    "longitude": "-90.01652787976394",
    "latitude": "29.965543946891792",
    "geocoded_column": {
      "latitude": "29.965543946891792",
      "longitude": "-90.01652787976394"
    }
  },
  {
    "service_request": "2025-1171399",
    "request_type": "Street and Traffic Signs",
    "request_reason": "Street Name Sign Damaged or Missing",
    "date_created": "2025-02-25T13:48:00.000",
    "date_modified": "2025-02-25T13:48:02.000",
    "request_status": "Pending",
    "responsible_agency": "Department of Public Works",
    "final_address": "3200 Dauphine St",
    "address_councildis": "C",
    "status": "Pending",
    "rowid": "1171399",
    "final_x": "3689302.20879",
    "final_y": "534679.002182",
    "longitude": "-90.0433215315663",
    "latitude": "29.963942641844138",
    "geocoded_column": {
      "latitude": "29.963942641844138",
      "longitude": "-90.0433215315663"
    }
  },
  {
    "service_request": "2025-1171398",
    "request_type": "Utility Poles",
    "request_reason": "Utility Pole Leaning",
    "date_created": "2025-02-25T13:47:43.000",
    "date_modified": "2025-02-25T13:47:46.000",
    "request_status": "Pending",
    "responsible_agency": "Utility Company Collective",
    "final_address": "2200 BLK N Viller St",
    "address_councildis": "C",
    "status": "Pending",
    "rowid": "1171398",
    "final_x": "3685153.63622",
    "final_y": "537426.205775",
    "longitude": "-90.05632562983251",
    "latitude": "29.97162427064125",
    "geocoded_column": {
      "latitude": "29.97162427064125",
      "longitude": "-90.05632562983251"
    }
  },
  {
    "service_request": "2025-1171397",
    "request_type": "Trash/Recycling",
    "request_reason": "Order Trash Cart",
    "date_created": "2025-02-25T13:47:42.000",
    "date_modified": "2025-02-25T13:47:44.000",
    "request_status": "Pending",
    "responsible_agency": "Department of Sanitation",
    "final_address": "5422 N Robertson St",
    "address_councildis": "E",
    "status": "Assigned to Contractor",
    "contractor": "Waste Pro",
    "rowid": "1171397",
    "final_x": "3697779.07971",
    "final_y": "535357.795462",
    "longitude": "-90.01652787976394",
    "latitude": "29.965543946891792",
    "geocoded_column": {
      "latitude": "29.965543946891792",
      "longitude": "-90.01652787976394"
    }
  },
  {
    "service_request": "2025-1171396",
    "request_type": "Trash/Recycling",
    "request_reason": "Request a Large Item Pick Up",
    "date_created": "2025-02-25T13:43:50.000",
    "date_modified": "2025-02-25T13:43:53.000",
    "request_status": "Pending",
    "responsible_agency": "Department of Sanitation",
    "final_address": "2328 Forstall St",
    "address_councildis": "E",
    "status": "Assigned to Contractor",
    "contractor": "Waste Pro",
    "rowid": "1171396",
    "final_x": "3697522.6465",
    "final_y": "538937.558986",
    "longitude": "-90.01720783311293",
    "latitude": "29.975395113464828",
    "geocoded_column": {
      "latitude": "29.975395113464828",
      "longitude": "-90.01720783311293"
    }
  },
  {
    "service_request": "2025-1171395",
    "request_type": "Trash/Recycling",
    "request_reason": "Request a Large Item Pick Up",
    "date_created": "2025-02-25T13:42:25.000",
    "date_modified": "2025-02-25T13:42:26.000",
    "request_status": "Pending",
    "responsible_agency": "Department of Sanitation",
    "final_address": "3541 Silver Maple Ct",
    "address_councildis": "C",
    "status": "Assigned to Contractor",
    "contractor": "Richards Disposal",
    "rowid": "1171395",
    "final_x": "3703190.08266",
    "final_y": "512438.588849",
    "longitude": "-90.00028231644679",
    "latitude": "29.902352052463144",
    "geocoded_column": {
      "latitude": "29.902352052463144",
      "longitude": "-90.00028231644679"
    }
  },
  {
    "service_request": "2025-1171394",
    "request_type": "Streetlights",
    "request_reason": "Streetlight Outage/Malfunction",
    "date_created": "2025-02-25T13:41:05.000",
    "date_modified": "2025-02-25T13:41:06.000",
    "request_status": "Pending",
    "responsible_agency": "Department of Public Works",
    "final_address": "1300 BLK Mandeville St",
    "address_councildis": "C",
    "status": "Pending",
    "contractor": "Legacy Professional Services",
    "rowid": "1171394",
    "final_x": "3685702.9947",
    "final_y": "537286.189979",
    "longitude": "-90.05459561138663",
    "latitude": "29.971222429985296",
    "geocoded_column": {
      "latitude": "29.971222429985296",
      "longitude": "-90.05459561138663"
    }
  },
  {
    "service_request": "2025-1171393",
    "request_type": "Trash/Recycling",
    "request_reason": "Request a Large Item Pick Up",
    "date_created": "2025-02-25T13:35:57.000",
    "date_modified": "2025-02-25T13:35:59.000",
    "request_status": "Pending",
    "responsible_agency": "Department of Sanitation",
    "final_address": "1213 Felicity St",
    "address_councildis": "B",
    "status": "Assigned to Contractor",
    "contractor": "IV Waste",
    "rowid": "1171393",
    "final_x": "3679499.04373",
    "final_y": "523594.022139",
    "longitude": "-90.074663538463",
    "latitude": "29.93376248773924",
    "geocoded_column": {
      "latitude": "29.93376248773924",
      "longitude": "-90.074663538463"
    }
  },
  {
    "service_request": "2025-1171392",
    "request_type": "Abandoned Vehicles",
    "request_reason": "Abandoned/Junk Vehicles",
    "date_created": "2025-02-25T13:31:59.000",
    "date_modified": "2025-02-25T13:32:00.000",
    "request_status": "Pending",
    "responsible_agency": "Department of Public Works",
    "final_address": "2200 BLK N Viller St",
    "address_councildis": "C",
    "status": "Pending",
    "rowid": "1171392",
    "final_x": "3685153.63622",
    "final_y": "537426.205775",
    "longitude": "-90.05632562983251",
    "latitude": "29.97162427064125",
    "geocoded_column": {
      "latitude": "29.97162427064125",
      "longitude": "-90.05632562983251"
    }
  },
  {
    "service_request": "2025-1171391",
    "request_type": "Trash/Recycling",
    "request_reason": "Order Recycling Cart",
    "date_created": "2025-02-25T13:31:45.000",
    "date_modified": "2025-02-25T13:31:47.000",
    "request_status": "Pending",
    "responsible_agency": "Department of Sanitation",
    "final_address": "2108 Gallier St",
    "address_councildis": "D",
    "status": "Pending",
    "rowid": "1171391",
    "final_x": "3691366.95811",
    "final_y": "539500.754698",
    "longitude": "-90.03662895530539",
    "latitude": "29.97713667938535",
    "geocoded_column": {
      "latitude": "29.97713667938535",
      "longitude": "-90.03662895530539"
    }
  },
  {
    "service_request": "2025-1171390",
    "request_type": "Trash/Recycling",
    "request_reason": "Order Recycling Cart",
    "date_created": "2025-02-25T13:24:27.000",
    "date_modified": "2025-02-25T13:24:28.000",
    "request_status": "Pending",
    "responsible_agency": "Department of Sanitation",
    "final_address": "2209 St Bernard Ave",
    "address_councildis": "D",
    "status": "Pending",
    "rowid": "1171390",
    "final_x": "3681069.60975",
    "final_y": "540147.002763",
    "longitude": "-90.0691287889174",
    "latitude": "29.979230038968602",
    "geocoded_column": {
      "latitude": "29.979230038968602",
      "longitude": "-90.0691287889174"
    }
  },
  {
    "service_request": "2025-1171389",
    "request_type": "Trash/Recycling",
    "request_reason": "Request a Large Item Pick Up",
    "date_created": "2025-02-25T13:24:18.000",
    "date_modified": "2025-02-25T13:24:20.000",
    "request_status": "Pending",
    "responsible_agency": "Department of Sanitation",
    "final_address": "9776 W Rockton Cir",
    "address_councildis": "E",
    "status": "Assigned to Contractor",
    "contractor": "Waste Pro",
    "rowid": "1171389",
    "final_x": "3708091.52875",
    "final_y": "562896.275808",
    "longitude": "-89.98293699672585",
    "latitude": "30.04093436846144",
    "geocoded_column": {
      "latitude": "30.04093436846144",
      "longitude": "-89.98293699672585"
    }
  },
  {
    "service_request": "2025-1171388",
    "request_type": "Trash/Recycling",
    "request_reason": "Order Trash Cart",
    "date_created": "2025-02-25T13:23:55.000",
    "date_modified": "2025-02-25T13:23:56.000",
    "request_status": "Pending",
    "responsible_agency": "Department of Sanitation",
    "final_address": "2209 St Bernard Ave",
    "address_councildis": "D",
    "status": "Assigned to Contractor",
    "contractor": "IV Waste",
    "rowid": "1171388",
    "final_x": "3681069.60975",
    "final_y": "540147.002763",
    "longitude": "-90.0691287889174",
    "latitude": "29.979230038968602",
    "geocoded_column": {
      "latitude": "29.979230038968602",
      "longitude": "-90.0691287889174"
    }
  },
  {
    "service_request": "2025-1171387",
    "request_type": "Trash/Recycling",
    "request_reason": "Request a Large Item Pick Up",
    "date_created": "2025-02-25T13:23:16.000",
    "date_modified": "2025-02-25T13:23:19.000",
    "request_status": "Pending",
    "responsible_agency": "Department of Sanitation",
    "final_address": "5635 Tullis Dr",
    "address_councildis": "C",
    "status": "Assigned to Contractor",
    "contractor": "Richards Disposal",
    "rowid": "1171387",
    "final_x": "3704928.02686",
    "final_y": "512355.548721",
    "longitude": "-89.99480054076147",
    "latitude": "29.902068010453714",
    "geocoded_column": {
      "latitude": "29.902068010453714",
      "longitude": "-89.99480054076147"
    }
  },
  {
    "service_request": "2025-1171386",
    "request_type": "Drainage",
    "request_reason": "Ditch and Culvert Maintenance",
    "date_created": "2025-02-25T13:21:58.000",
    "date_modified": "2025-02-25T13:22:00.000",
    "request_status": "Pending",
    "responsible_agency": "Department of Public Works",
    "final_address": "1307 Royal St",
    "address_councildis": "C",
    "status": "Pending",
    "rowid": "1171386",
    "final_x": "3683909.48124",
    "final_y": "534278.658693",
    "longitude": "-90.06036528550803",
    "latitude": "29.9630076716989",
    "geocoded_column": {
      "latitude": "29.9630076716989",
      "longitude": "-90.06036528550803"
    }
  },
  {
    "service_request": "2025-1171385",
    "request_type": "Abandoned Vehicles",
    "request_reason": "Abandoned/Junk Vehicles",
    "date_created": "2025-02-25T13:21:46.000",
    "date_modified": "2025-02-25T13:21:48.000",
    "request_status": "Pending",
    "responsible_agency": "Department of Public Works",
    "final_address": "1803 St Philip St",
    "address_councildis": "D",
    "status": "Pending",
    "rowid": "1171385",
    "final_x": "3680134.23887",
    "final_y": "535773.375239",
    "longitude": "-90.07223508625412",
    "latitude": "29.96723241474567",
    "geocoded_column": {
      "latitude": "29.96723241474567",
      "longitude": "-90.07223508625412"
    }
  },
  {
    "service_request": "2025-1171384",
    "request_type": "Trash/Recycling",
    "request_reason": "Request a Large Item Pick Up",
    "date_created": "2025-02-25T13:19:30.000",
    "date_modified": "2025-02-25T13:19:32.000",
    "request_status": "Pending",
    "responsible_agency": "Department of Sanitation",
    "final_address": "5111 E Parkwood Ct",
    "address_councildis": "E",
    "status": "Assigned to Contractor",
    "contractor": "Waste Pro",
    "rowid": "1171384",
    "final_x": "3717168.69567",
    "final_y": "559389.539485",
    "longitude": "-89.95438372784182",
    "latitude": "30.030994991538027",
    "geocoded_column": {
      "latitude": "30.030994991538027",
      "longitude": "-89.95438372784182"
    }
  },
  {
    "service_request": "2025-1171383",
    "request_type": "Trash/Recycling",
    "request_reason": "Request a Large Item Pick Up",
    "date_created": "2025-02-25T13:13:19.000",
    "date_modified": "2025-02-25T13:13:20.000",
    "request_status": "Pending",
    "responsible_agency": "Department of Sanitation",
    "final_address": "53 Allard Blvd",
    "address_councildis": "A",
    "status": "Assigned to Contractor",
    "contractor": "IV Waste",
    "rowid": "1171383",
    "final_x": "3672776.45787",
    "final_y": "540705.231755",
    "longitude": "-90.09530280683708",
    "latitude": "29.98101396022736",
    "geocoded_column": {
      "latitude": "29.98101396022736",
      "longitude": "-90.09530280683708"
    }
  },
  {
    "service_request": "2025-1171382",
    "request_type": "Trash/Recycling",
    "request_reason": "Request a Large Item Pick Up",
    "date_created": "2025-02-25T13:13:09.000",
    "date_modified": "2025-02-25T13:13:11.000",
    "request_status": "Pending",
    "responsible_agency": "Department of Sanitation",
    "final_address": "3490 Vespasian St",
    "address_councildis": "C",
    "status": "Assigned to Contractor",
    "contractor": "Richards Disposal",
    "rowid": "1171382",
    "final_x": "3696167.36093",
    "final_y": "522689.657594",
    "longitude": "-90.02207540022494",
    "latitude": "29.930761817414755",
    "geocoded_column": {
      "latitude": "29.930761817414755",
      "longitude": "-90.02207540022494"
    }
  },
  {
    "service_request": "2025-1171381",
    "request_type": "Trash/Recycling",
    "request_reason": "Order Recycling Cart",
    "date_created": "2025-02-25T13:12:29.000",
    "date_modified": "2025-02-25T13:12:32.000",
    "request_status": "Pending",
    "responsible_agency": "Department of Sanitation",
    "final_address": "9438 Forshey St",
    "address_councildis": "A",
    "status": "Pending",
    "rowid": "1171381",
    "final_x": "3663376.7888",
    "final_y": "537176.30676",
    "longitude": "-90.12510883623956",
    "latitude": "29.97158649459944",
    "geocoded_column": {
      "latitude": "29.97158649459944",
      "longitude": "-90.12510883623956"
    }
  },
  {
    "service_request": "2025-1171380",
    "request_type": "Safety & Permits",
    "request_reason": "Licenses & Permits",
    "date_created": "2025-02-25T13:07:44.000",
    "date_modified": "2025-02-25T15:41:21.000",
    "case_close_date": "2025-02-25T09:41:19.000",
    "request_status": "Closed",
    "responsible_agency": "Safety and Permits",
    "final_address": "2303 St Charles Ave",
    "address_councildis": "B",
    "status": "Resolved",
    "rowid": "1171380",
    "final_x": "3677060.18824",
    "final_y": "523395.865147",
    "longitude": "-90.08236972376496",
    "latitude": "29.933291059403455",
    "geocoded_column": {
      "latitude": "29.933291059403455",
      "longitude": "-90.08236972376496"
    }
  },
  {
    "service_request": "2025-1171379",
    "request_type": "Trash/Recycling",
    "request_reason": "Order Trash Cart",
    "date_created": "2025-02-25T13:03:53.000",
    "date_modified": "2025-02-25T13:03:55.000",
    "request_status": "Pending",
    "responsible_agency": "Department of Sanitation",
    "final_address": "1239 Harmony St",
    "address_councildis": "B",
    "status": "Assigned to Contractor",
    "contractor": "IV Waste",
    "rowid": "1171379",
    "final_x": "3675517.82952",
    "final_y": "520630.247352",
    "longitude": "-90.08733379987542",
    "latitude": "29.925732718286675",
    "geocoded_column": {
      "latitude": "29.925732718286675",
      "longitude": "-90.08733379987542"
    }
  },
  {
    "service_request": "2025-1171378",
    "request_type": "Roads and Streets",
    "request_reason": "Push-up/Pavement Expansion",
    "date_created": "2025-02-25T13:02:26.000",
    "date_modified": "2025-02-25T13:02:29.000",
    "request_status": "Pending",
    "responsible_agency": "Department of Public Works",
    "final_address": "4712 Lynhuber Dr",
    "address_councildis": "D",
    "status": "Pending",
    "rowid": "1171378",
    "final_x": "3697980.18128",
    "final_y": "554142.208664",
    "longitude": "-90.0152104197345",
    "latitude": "30.01718782289144",
    "geocoded_column": {
      "latitude": "30.01718782289144",
      "longitude": "-90.0152104197345"
    }
  },
  {
    "service_request": "2025-1171377",
    "request_type": "Safety & Permits",
    "request_reason": "Zoning Enforcement",
    "date_created": "2025-02-25T13:01:12.000",
    "date_modified": "2025-02-25T14:41:34.000",
    "request_status": "Pending",
    "responsible_agency": "Safety and Permits",
    "final_address": "2806 Second St",
    "address_councildis": "B",
    "status": "Pending",
    "rowid": "1171377",
    "final_x": "3674282.16686",
    "final_y": "526621.220414",
    "longitude": "-90.09102938196736",
    "latitude": "29.942242835555128",
    "geocoded_column": {
      "latitude": "29.942242835555128",
      "longitude": "-90.09102938196736"
    }
  },
  {
    "service_request": "2025-1171376",
    "request_type": "Roads and Streets",
    "request_reason": "Sidewalk Damaged or Missing",
    "date_created": "2025-02-25T12:53:16.000",
    "date_modified": "2025-02-25T12:53:18.000",
    "request_status": "Pending",
    "responsible_agency": "Department of Public Works",
    "final_address": "2649 Almonaster Ave",
    "address_councildis": "D",
    "status": "Pending",
    "rowid": "1171376",
    "final_x": "3688711.11766",
    "final_y": "542498.160333",
    "longitude": "-90.04491048987909",
    "latitude": "29.985460853595107",
    "geocoded_column": {
      "latitude": "29.985460853595107",
      "longitude": "-90.04491048987909"
    }
  },
  {
    "service_request": "2025-1171375",
    "request_type": "Trash/Recycling",
    "request_reason": "Return Trash Cart",
    "date_created": "2025-02-25T12:49:54.000",
    "date_modified": "2025-02-25T12:49:56.000",
    "request_status": "Pending",
    "responsible_agency": "Department of Sanitation",
    "final_address": "1017 Opelousas Ave",
    "address_councildis": "C",
    "status": "Assigned to Contractor",
    "contractor": "Richards Disposal",
    "rowid": "1171375",
    "final_x": "3688622.61347",
    "final_y": "528942.106496",
    "longitude": "-90.04567121307053",
    "latitude": "29.948189180013525",
    "geocoded_column": {
      "latitude": "29.948189180013525",
      "longitude": "-90.04567121307053"
    }
  },
  {
    "service_request": "2025-1171374",
    "request_type": "Safety & Permits",
    "request_reason": "Licenses & Permits",
    "date_created": "2025-02-25T12:47:34.000",
    "date_modified": "2025-02-25T12:47:36.000",
    "request_status": "Pending",
    "responsible_agency": "Safety and Permits",
    "final_address": "4146 State Street Dr",
    "address_councildis": "B",
    "status": "Pending",
    "rowid": "1171374",
    "final_x": "3668401.5065",
    "final_y": "531010.961154",
    "longitude": "-90.10944795001504",
    "latitude": "29.954487194613066",
    "geocoded_column": {
      "latitude": "29.954487194613066",
      "longitude": "-90.10944795001504"
    }
  },
  {
    "service_request": "2025-1171373",
    "request_type": "Trash/Recycling",
    "request_reason": "Illegal Dumping",
    "date_created": "2025-02-25T12:47:10.000",
    "date_modified": "2025-02-25T12:47:12.000",
    "request_status": "Pending",
    "responsible_agency": "Department of Sanitation",
    "final_address": "2114 Thalia St",
    "address_councildis": "B",
    "status": "Pending",
    "rowid": "1171373",
    "final_x": "3677588.29704",
    "final_y": "526886.951102",
    "longitude": "-90.08058202198723",
    "latitude": "29.94287453218626",
    "geocoded_column": {
      "latitude": "29.94287453218626",
      "longitude": "-90.08058202198723"
    }
  },
  {
    "service_request": "2025-1171372",
    "request_type": "Trash/Recycling",
    "request_reason": "Request a Large Item Pick Up",
    "date_created": "2025-02-25T12:46:49.000",
    "date_modified": "2025-02-25T12:46:51.000",
    "request_status": "Pending",
    "responsible_agency": "Department of Sanitation",
    "final_address": "4220 Murano Rd",
    "address_councildis": "E",
    "status": "Assigned to Contractor",
    "contractor": "Waste Pro",
    "rowid": "1171372",
    "final_x": "3760969.85065",
    "final_y": "572800.105257",
    "longitude": "-89.81541311065237",
    "latitude": "30.066345877242284",
    "geocoded_column": {
      "latitude": "30.066345877242284",
      "longitude": "-89.81541311065237"
    }
  },
  {
    "service_request": "2025-1171371",
    "request_type": "Parks & Parkways",
    "request_reason": "Request Tree Service (Right of Way/Public Property)",
    "date_created": "2025-02-25T12:40:16.000",
    "date_modified": "2025-02-25T12:41:26.000",
    "request_status": "Pending",
    "responsible_agency": "Department of Parks & Parkway",
    "final_address": "3348 Gentilly Blvd",
    "address_councildis": "D",
    "status": "Pending",
    "rowid": "1171371",
    "final_x": "3685029.48047",
    "final_y": "548283.711954",
    "longitude": "-90.0563355862755",
    "latitude": "30.001482368904444",
    "geocoded_column": {
      "latitude": "30.001482368904444",
      "longitude": "-90.0563355862755"
    }
  },
  {
    "service_request": "2025-1171370",
    "request_type": "Trash/Recycling",
    "request_reason": "Request a Large Item Pick Up",
    "date_created": "2025-02-25T12:38:22.000",
    "date_modified": "2025-02-25T15:40:50.000",
    "request_status": "Pending",
    "responsible_agency": "Department of Sanitation",
    "final_address": "2312 Killdeer St",
    "address_councildis": "D",
    "status": "Assigned to Contractor",
    "contractor": "IV Waste",
    "rowid": "1171370",
    "final_x": "3684206.05244",
    "final_y": "557467.290203",
    "longitude": "-90.05861412116039",
    "latitude": "30.026759061592497",
    "geocoded_column": {
      "latitude": "30.026759061592497",
      "longitude": "-90.05861412116039"
    }
  },
  {
    "service_request": "2025-1171369",
    "request_type": "Trash/Recycling",
    "request_reason": "Request a Large Item Pick Up",
    "date_created": "2025-02-25T12:37:31.000",
    "date_modified": "2025-02-25T12:37:33.000",
    "request_status": "Pending",
    "responsible_agency": "Department of Sanitation",
    "final_address": "11141 Whiteside Rd",
    "address_councildis": "E",
    "status": "Assigned to Contractor",
    "contractor": "Waste Pro",
    "rowid": "1171369",
    "final_x": "3711863.09266",
    "final_y": "565086.99069",
    "longitude": "-89.97093535542096",
    "latitude": "30.046835196134964",
    "geocoded_column": {
      "latitude": "30.046835196134964",
      "longitude": "-89.97093535542096"
    }
  },
  {
    "service_request": "2025-1171368",
    "request_type": "Trash/Recycling",
    "request_reason": "Request a Large Item Pick Up",
    "date_created": "2025-02-25T12:35:14.000",
    "date_modified": "2025-02-25T12:35:16.000",
    "request_status": "Pending",
    "responsible_agency": "Department of Sanitation",
    "final_address": "2405 Napoleon Ave",
    "address_councildis": "B",
    "status": "Assigned to Contractor",
    "contractor": "IV Waste",
    "rowid": "1171368",
    "final_x": "3670654.80366",
    "final_y": "523765.569147",
    "longitude": "-90.10257863796892",
    "latitude": "29.93449835778245",
    "geocoded_column": {
      "latitude": "29.93449835778245",
      "longitude": "-90.10257863796892"
    }
  },
  {
    "service_request": "2025-1171367",
    "request_type": "Street and Traffic Signs",
    "request_reason": "Disabled Parking Sign Missing or Damaged",
    "date_created": "2025-02-25T12:32:57.000",
    "date_modified": "2025-02-25T12:32:59.000",
    "request_status": "Pending",
    "responsible_agency": "Department of Public Works",
    "final_address": "4320 Prytania St",
    "address_councildis": "B",
    "status": "Pending",
    "rowid": "1171367",
    "final_x": "3671125.541",
    "final_y": "520295.7486",
    "longitude": "-90.10121031805423",
    "latitude": "29.924943553464438",
    "geocoded_column": {
      "latitude": "29.924943553464438",
      "longitude": "-90.10121031805423"
    }
  },
  {
    "service_request": "2025-1171366",
    "request_type": "Trash/Recycling",
    "request_reason": "Request a Large Item Pick Up",
    "date_created": "2025-02-25T12:32:04.000",
    "date_modified": "2025-02-25T15:40:37.000",
    "request_status": "Pending",
    "responsible_agency": "Department of Sanitation",
    "final_address": "6130 Providence Pl",
    "address_councildis": "D",
    "status": "Assigned to Contractor",
    "contractor": "IV Waste",
    "rowid": "1171366",
    "final_x": "3688391.46319",
    "final_y": "556013.942937",
    "longitude": "-90.04544031159665",
    "latitude": "30.02263420774528",
    "geocoded_column": {
      "latitude": "30.02263420774528",
      "longitude": "-90.04544031159665"
    }
  },
  {
    "service_request": "2025-1171365",
    "request_type": "Streetlights",
    "request_reason": "Streetlight Outage/Malfunction",
    "date_created": "2025-02-25T12:31:43.000",
    "date_modified": "2025-02-25T12:31:44.000",
    "request_status": "Pending",
    "responsible_agency": "Department of Public Works",
    "final_address": "2710 Valentine Ct",
    "address_councildis": "C",
    "status": "Pending",
    "contractor": "Legacy Professional Services",
    "rowid": "1171365",
    "final_x": "3699127.92624",
    "final_y": "521028.095929",
    "longitude": "-90.0127898254934",
    "latitude": "29.92609960484979",
    "geocoded_column": {
      "latitude": "29.92609960484979",
      "longitude": "-90.0127898254934"
    }
  },
  {
    "service_request": "2025-1171364",
    "request_type": "Health Related Request",
    "request_reason": "Homeless Encampment Complaint",
    "date_created": "2025-02-25T12:31:31.000",
    "date_modified": "2025-02-25T12:31:33.000",
    "request_status": "Pending",
    "responsible_agency": "Health Department",
    "final_address": "4909 Willow St",
    "address_councildis": "B",
    "status": "Pending",
    "rowid": "1171364",
    "final_x": "3669124.29684",
    "final_y": "525339.645373",
    "longitude": "-90.10735725667041",
    "latitude": "29.93887167470508",
    "geocoded_column": {
      "latitude": "29.93887167470508",
      "longitude": "-90.10735725667041"
    }
  },
  {
    "service_request": "2025-1171363",
    "request_type": "Safety & Permits",
    "request_reason": "Licenses & Permits",
    "date_created": "2025-02-25T12:31:06.000",
    "date_modified": "2025-02-25T14:27:52.000",
    "request_status": "Pending",
    "responsible_agency": "Safety and Permits",
    "final_address": "5334 Magazine St",
    "address_councildis": "B",
    "status": "Pending",
    "rowid": "1171363",
    "final_x": "3667206.32141",
    "final_y": "518644.953975",
    "longitude": "-90.11363752798941",
    "latitude": "29.920519687606777",
    "geocoded_column": {
      "latitude": "29.920519687606777",
      "longitude": "-90.11363752798941"
    }
  },
  {
    "service_request": "2025-1171362",
    "request_type": "Streetlights",
    "request_reason": "Streetlight Outage/Malfunction",
    "date_created": "2025-02-25T12:29:12.000",
    "date_modified": "2025-02-25T12:44:41.000",
    "case_close_date": "2025-02-25T06:44:40.000",
    "request_status": "Closed",
    "responsible_agency": "Department of Public Works",
    "final_address": "3225 State Street Dr",
    "address_councildis": "A",
    "status": "Duplicate Request",
    "contractor": "Legacy Professional Services",
    "rowid": "1171362",
    "final_x": "3667652.51809",
    "final_y": "528157.727104",
    "longitude": "-90.11190900695783",
    "latitude": "29.946663706796812",
    "geocoded_column": {
      "latitude": "29.946663706796812",
      "longitude": "-90.11190900695783"
    }
  },
  {
    "service_request": "2025-1171361",
    "request_type": "Parks & Parkways",
    "request_reason": "Request Tree Service (Right of Way/Public Property)",
    "date_created": "2025-02-25T12:24:41.000",
    "date_modified": "2025-02-25T12:24:42.000",
    "request_status": "Pending",
    "responsible_agency": "Department of Parks & Parkway",
    "final_address": "4016 Canal St",
    "address_councildis": "A",
    "status": "Pending",
    "rowid": "1171361",
    "final_x": "3671273.67585",
    "final_y": "538042.047689",
    "longitude": "-90.10013980419677",
    "latitude": "29.973735667763336",
    "geocoded_column": {
      "latitude": "29.973735667763336",
      "longitude": "-90.10013980419677"
    }
  },
  {
    "service_request": "2025-1171360",
    "request_type": "Trash/Recycling",
    "request_reason": "Order Recycling Cart",
    "date_created": "2025-02-25T12:23:58.000",
    "date_modified": "2025-02-25T12:24:00.000",
    "request_status": "Pending",
    "responsible_agency": "Department of Sanitation",
    "final_address": "1621 Erie St",
    "address_councildis": "C",
    "status": "Pending",
    "rowid": "1171360",
    "final_x": "3690109.71465",
    "final_y": "522227.563258",
    "longitude": "-90.04121491234082",
    "latitude": "29.929680434875795",
    "geocoded_column": {
      "latitude": "29.929680434875795",
      "longitude": "-90.04121491234082"
    }
  },
  {
    "service_request": "2025-1171359",
    "request_type": "Trash/Recycling",
    "request_reason": "Repair Trash Cart",
    "date_created": "2025-02-25T12:23:15.000",
    "date_modified": "2025-02-25T12:23:16.000",
    "request_status": "Pending",
    "responsible_agency": "Department of Sanitation",
    "final_address": "1621 Erie St",
    "address_councildis": "C",
    "status": "Assigned to Contractor",
    "contractor": "Richards Disposal",
    "rowid": "1171359",
    "final_x": "3690109.71465",
    "final_y": "522227.563258",
    "longitude": "-90.04121491234082",
    "latitude": "29.929680434875795",
    "geocoded_column": {
      "latitude": "29.929680434875795",
      "longitude": "-90.04121491234082"
    }
  },
  {
    "service_request": "2025-1171358",
    "request_type": "Trash/Recycling",
    "request_reason": "Request a Large Item Pick Up",
    "date_created": "2025-02-25T12:22:06.000",
    "date_modified": "2025-02-25T12:22:08.000",
    "request_status": "Pending",
    "responsible_agency": "Department of Sanitation",
    "final_address": "5640 Clements Dr",
    "address_councildis": "E",
    "status": "Assigned to Contractor",
    "contractor": "Waste Pro",
    "rowid": "1171358",
    "final_x": "3702422.5441",
    "final_y": "556430.273114",
    "longitude": "-90.0010904085334",
    "latitude": "30.023337860005196",
    "geocoded_column": {
      "latitude": "30.023337860005196",
      "longitude": "-90.0010904085334"
    }
  },
  {
    "service_request": "2025-1171357",
    "request_type": "Trash/Recycling",
    "request_reason": "Request a Large Item Pick Up",
    "date_created": "2025-02-25T12:21:32.000",
    "date_modified": "2025-02-25T12:21:35.000",
    "request_status": "Pending",
    "responsible_agency": "Department of Sanitation",
    "final_address": "4404 Lonely Oak Dr",
    "address_councildis": "E",
    "status": "Assigned to Contractor",
    "contractor": "Waste Pro",
    "rowid": "1171357",
    "final_x": "3702414.94276",
    "final_y": "552768.44751",
    "longitude": "-90.00124893933258",
    "latitude": "30.013269484334348",
    "geocoded_column": {
      "latitude": "30.013269484334348",
      "longitude": "-90.00124893933258"
    }
  },
  {
    "service_request": "2025-1171356",
    "request_type": "Trash/Recycling",
    "request_reason": "Request a Large Item Pick Up",
    "date_created": "2025-02-25T12:19:53.000",
    "date_modified": "2025-02-25T12:19:54.000",
    "request_status": "Pending",
    "responsible_agency": "Department of Sanitation",
    "final_address": "1621 Patterson St",
    "address_councildis": "C",
    "status": "Assigned to Contractor",
    "contractor": "Richards Disposal",
    "rowid": "1171356",
    "final_x": "3690538.94121",
    "final_y": "530912.216194",
    "longitude": "-90.03955036849995",
    "latitude": "29.953546948612274",
    "geocoded_column": {
      "latitude": "29.953546948612274",
      "longitude": "-90.03955036849995"
    }
  },
  {
    "service_request": "2025-1171355",
    "request_type": "Trash/Recycling",
    "request_reason": "Request a Large Item Pick Up",
    "date_created": "2025-02-25T12:18:58.000",
    "date_modified": "2025-02-25T12:19:00.000",
    "request_status": "Pending",
    "responsible_agency": "Department of Sanitation",
    "final_address": "4927 Gawain Dr",
    "address_councildis": "E",
    "status": "Assigned to Contractor",
    "contractor": "Waste Pro",
    "rowid": "1171355",
    "final_x": "3706932.28158",
    "final_y": "556606.456538",
    "longitude": "-89.98683417622908",
    "latitude": "30.02367735167262",
    "geocoded_column": {
      "latitude": "30.02367735167262",
      "longitude": "-89.98683417622908"
    }
  },
  {
    "service_request": "2025-1171354",
    "request_type": "Property Maintenance",
    "request_reason": "Property Maintenance",
    "date_created": "2025-02-25T12:18:24.000",
    "date_modified": "2025-02-25T12:47:20.000",
    "case_close_date": "2025-02-25T06:47:20.000",
    "request_status": "Closed",
    "responsible_agency": "Department of Code Enforcement",
    "final_address": "LONELY OAK DR & LOMBARD ST",
    "address_councildis": "E",
    "status": "Referred to Code Enforcement",
    "rowid": "1171354",
    "final_x": "3702480.9",
    "final_y": "552712.88",
    "longitude": "-90.0010425922995",
    "latitude": "30.013114586307676",
    "geocoded_column": {
      "latitude": "30.013114586307676",
      "longitude": "-90.0010425922995"
    }
  },