[
  {
    "service_request": "2023-1051654",
    "request_type": "Roads/Drainage",
    "request_reason": "Pothole",
    "date_created": "2023-11-23T01:31:53.000",
    "date_modified": "2023-11-23T01:31:53.000",
    "request_status": "Pending",
    "responsible_agency": "Department of Public Works",
    "final_address": "1507 Napoleon Ave",
    "address_councildis": "B",
    "status": "Pending",
    "rowid": "1051654",
    "final_x": "3670965.18817",
    "final_y": "520661.853625",
    "longitude": "-90.10170407882987",
    "latitude": "29.925954965627486",
    "geocoded_column": {
      "latitude": "29.925954965627486",
      "longitude": "-90.10170407882987"
    }
  },
  {
    "service_request": "2023-1051653",
    "request_type": "Traffic Signals/Signs/Striping/Streetlights",
    "request_reason": "Street Light Outage/Malfunction",
    "date_created": "2023-11-23T01:07:38.000",
    "date_modified": "2023-11-23T01:07:39.000",
    "request_status": "Pending",
    "responsible_agency": "Department of Public Works",
    "final_address": "1527 Calhoun St",
    "address_councildis": "A",
    "status": "Assigned to Contractor",
    "contractor": "Legacy Professional Services",
    "rowid": "1051653",
    "final_x": "3664673.40532",
    "final_y": "522398.163706",
    "longitude": "-90.1215075032716",
    "latitude": "29.930913727993463",
    "geocoded_column": {
      "latitude": "29.930913727993463",
      "longitude": "-90.1215075032716"
    }
  },
  {
    "service_request": "2023-1051652",
    "request_type": "Roads/Drainage",
    "request_reason": "Pothole",
    "date_created": "2023-11-23T00:22:56.000",
    "date_modified": "2023-11-23T00:22:56.000",
    "request_status": "Pending",
    "responsible_agency": "Department of Public Works",
    "final_address": "1302 Constantinople St",
    "address_councildis": "B",
    "status": "Pending",
    "rowid": "1051652",
    "final_x": "3672316.43828",
    "final_y": "520252.107512",
    "longitude": "-90.09745252227002",
    "latitude": "29.924788289127164",
    "geocoded_column": {
      "latitude": "29.924788289127164",
      "longitude": "-90.09745252227002"
    }
  },
  {
    "service_request": "2023-1051651",
    "request_type": "Roads/Drainage",
    "request_reason": "Pothole",
    "date_created": "2023-11-23T00:01:25.000",
    "date_modified": "2023-11-23T00:01:25.000",
    "request_status": "Pending",
    "responsible_agency": "Department of Public Works",
    "final_address": "1317 Milan St",
    "address_councildis": "B",
    "status": "Pending",
    "rowid": "1051651",
    "final_x": "3671700.96097",
    "final_y": "520272.658936",
    "longitude": "-90.09939468590763",
    "latitude": "29.9248630381211",
    "geocoded_column": {
      "latitude": "29.9248630381211",
      "longitude": "-90.09939468590763"
    }
  },
  {
    "service_request": "2023-1051650",
    "request_type": "Roads/Drainage",
    "request_reason": "Pothole",
    "date_created": "2023-11-22T23:49:28.000",
    "date_modified": "2023-11-22T23:49:28.000",
    "request_status": "Pending",
    "responsible_agency": "Department of Public Works",
    "final_address": "1423 General Pershing St",
    "address_councildis": "B",
    "status": "Pending",
    "rowid": "1051650",
    "final_x": "3671330.69185",
    "final_y": "520571.244024",
    "longitude": "-90.1005533659415",
    "latitude": "29.925695010510914",
    "geocoded_column": {
      "latitude": "29.925695010510914",
      "longitude": "-90.1005533659415"
    }
  },
  {
    "service_request": "2023-1051649",
    "request_type": "Roads/Drainage",
    "request_reason": "Pothole",
    "date_created": "2023-11-22T23:40:53.000",
    "date_modified": "2023-11-22T23:40:53.000",
    "request_status": "Pending",
    "responsible_agency": "Department of Public Works",
    "final_address": "4216 St Charles Ave",
    "address_councildis": "B",
    "status": "Pending",
    "rowid": "1051649",
    "final_x": "3671399.09435",
    "final_y": "520793.954745",
    "longitude": "-90.10032987435537",
    "latitude": "29.926305370038534",
    "geocoded_column": {
      "latitude": "29.926305370038534",
      "longitude": "-90.10032987435537"
    }
  },
  {
    "service_request": "2023-1051648",
    "request_type": "Property Maintenance",
    "request_reason": "Property Maintenance",
    "date_created": "2023-11-22T23:19:12.000",
    "date_modified": "2023-11-22T23:19:12.000",
    "request_status": "Pending",
    "responsible_agency": "Department of Code Enforcement",
    "final_address": "2425 Deslonde St",
    "address_councildis": "E",
    "status": "Pending",
    "rowid": "1051648",
    "final_x": "3696835.90096",
    "final_y": "539471.210122",
    "longitude": "-90.0193574216786",
    "latitude": "29.976884133307493",
    "geocoded_column": {
      "latitude": "29.976884133307493",
      "longitude": "-90.0193574216786"
    }
  },
  {
    "service_request": "2023-1051647",
    "request_type": "Graffiti Removal",
    "request_reason": "Graffiti Removal",
    "date_created": "2023-11-22T23:16:19.000",
    "date_modified": "2023-11-22T23:16:19.000",
    "request_status": "Pending",
    "responsible_agency": "Department of Code Enforcement",
    "final_address": "2927 Conti St",
    "address_councildis": "B",
    "status": "Pending",
    "rowid": "1051647",
    "final_x": "3675200.44955",
    "final_y": "536842.95028",
    "longitude": "-90.0877793508118",
    "latitude": "29.970321769487384",
    "geocoded_column": {
      "latitude": "29.970321769487384",
      "longitude": "-90.0877793508118"
    }
  },
  {
    "service_request": "2023-1051646",
    "request_type": "Mosquito, Termite & Rodent Control",
    "request_reason": "Mosquito Complaint",
    "date_created": "2023-11-22T22:49:34.000",
    "date_modified": "2023-11-22T22:49:34.000",
    "request_status": "Pending",
    "responsible_agency": "Mosquito, Termite & Rodent Control Board",
    "final_address": "38TH ST & FLEUR DE LIS DR",
    "address_councildis": "A",
    "status": "Pending",
    "rowid": "1051646",
    "final_x": "3665395.9",
    "final_y": "552681.78",
    "longitude": "-90.11821286194981",
    "latitude": "30.014162565412736",
    "geocoded_column": {
      "latitude": "30.014162565412736",
      "longitude": "-90.11821286194981"
    }
  },
  {
    "service_request": "2023-1051645",
    "request_type": "Trash/Recycling",
    "request_reason": "Illegal Dumping",
    "date_created": "2023-11-22T21:17:51.000",
    "date_modified": "2023-11-22T21:17:51.000",
    "request_status": "Pending",
    "responsible_agency": "Department of Sanitation",
    "final_address": "12320 S Interstate 10 Service Rd",
    "address_councildis": "E",
    "status": "Pending",
    "rowid": "1051645",
    "final_x": "3716949.46584",
    "final_y": "565988.636771",
    "longitude": "-89.95482561647604",
    "latitude": "30.04914708533619",
    "geocoded_column": {
      "latitude": "30.04914708533619",
      "longitude": "-89.95482561647604"
    }
  },
  {
    "service_request": "2023-1051644",
    "request_type": "Trash/Recycling",
    "request_reason": "Illegal Dumping",
    "date_created": "2023-11-22T21:14:54.000",
    "date_modified": "2023-11-22T21:14:54.000",
    "request_status": "Pending",
    "responsible_agency": "Department of Sanitation",
    "final_address": "12320 S Interstate 10 Service Rd",
    "address_councildis": "E",
    "status": "Pending",
    "rowid": "1051644",
    "final_x": "3716949.46584",
    "final_y": "565988.636771",
    "longitude": "-89.95482561647604",
    "latitude": "30.04914708533619",
    "geocoded_column": {
      "latitude": "30.04914708533619",
      "longitude": "-89.95482561647604"
    }
  },
  {
    "service_request": "2023-1051643",
    "request_type": "Trash/Recycling",
    "request_reason": "Dead Animal Pick Up",
    "date_created": "2023-11-22T21:08:37.000",
    "date_modified": "2023-11-22T21:08:38.000",
    "request_status": "Pending",
    "responsible_agency": "Department of Sanitation",
    "final_address": "6000 BLK Bullard Ave",
    "address_councildis": "E",
    "status": "Assigned to Contractor",
    "contractor": "Waste Pro",
    "rowid": "1051643",
    "final_x": "3715421.53008",
    "final_y": "564208.144009",
    "longitude": "-89.95972222426856",
    "latitude": "30.044301909801483",
    "geocoded_column": {
      "latitude": "30.044301909801483",
      "longitude": "-89.95972222426856"
    }
  },
  {
    "service_request": "2023-1051642",
    "request_type": "Trash/Recycling",
    "request_reason": "Missed Trash Pick-Up",
    "date_created": "2023-11-22T20:58:36.000",
    "date_modified": "2023-11-22T20:58:37.000",
    "request_status": "Pending",
    "responsible_agency": "Department of Sanitation",
    "final_address": "7616 Freret St",
    "address_councildis": "A",
    "status": "Assigned to Contractor",
    "contractor": "Richards Disposal",
    "rowid": "1051642",
    "final_x": "3662683.08448",
    "final_y": "526726.630718",
    "longitude": "-90.1276469220267",
    "latitude": "29.942873370170773",
    "geocoded_column": {
      "latitude": "29.942873370170773",
      "longitude": "-90.1276469220267"
    }
  },
  {
    "service_request": "2023-1051641",
    "request_type": "Trash/Recycling",
    "request_reason": "Replace Trash Cart",
    "date_created": "2023-11-22T19:45:11.000",
    "date_modified": "2023-11-22T19:45:12.000",
    "request_status": "Pending",
    "responsible_agency": "Department of Sanitation",
    "final_address": "2005 Painters St",
    "address_councildis": "D",
    "status": "Assigned to Contractor",
    "contractor": "IV Waste",
    "rowid": "1051641",
    "final_x": "3687323.48252",
    "final_y": "539894.85249",
    "longitude": "-90.04938558573679",
    "latitude": "29.97834550961758",
    "geocoded_column": {
      "latitude": "29.97834550961758",
      "longitude": "-90.04938558573679"
    }
  },
  {
    "service_request": "2023-1051640",
    "request_type": "Trash/Recycling",
    "request_reason": "Replace Trash Cart",
    "date_created": "2023-11-22T18:43:39.000",
    "date_modified": "2023-11-22T18:43:40.000",
    "request_status": "Pending",
    "responsible_agency": "Department of Sanitation",
    "final_address": "1300 BLK Saint Andrew St",
    "address_councildis": "B",
    "status": "Assigned to Contractor",
    "contractor": "Richards Disposal",
    "rowid": "1051640",
    "final_x": "3678940.69458",
    "final_y": "523263.2446",
    "longitude": "-90.0764376748678",
    "latitude": "29.932869810940254",
    "geocoded_column": {
      "latitude": "29.932869810940254",
      "longitude": "-90.0764376748678"
    }
  },
  {
    "service_request": "2023-1051639",
    "request_type": "Roads/Drainage",
    "request_reason": "Pothole",
    "date_created": "2023-11-22T18:33:44.000",
    "date_modified": "2023-11-22T18:33:44.000",
    "request_status": "Pending",
    "responsible_agency": "Department of Public Works",
    "final_address": "6030 Chestnut St",
    "address_councildis": "A",
    "status": "Pending",
    "rowid": "1051639",
    "final_x": "3664661.37773",
    "final_y": "519852.51884",
    "longitude": "-90.1216304547064",
    "latitude": "29.923914355909606",
    "geocoded_column": {
      "latitude": "29.923914355909606",
      "longitude": "-90.1216304547064"
    }
  },
  {
    "service_request": "2023-1051638",
    "request_type": "Roads/Drainage",
    "request_reason": "Pothole",
    "date_created": "2023-11-22T18:28:14.000",
    "date_modified": "2023-11-22T18:28:14.000",
    "request_status": "Pending",
    "responsible_agency": "Department of Public Works",
    "final_address": "1316 Henry Clay Ave",
    "address_councildis": "A",
    "status": "Pending",
    "rowid": "1051638",
    "final_x": "3664415.91655",
    "final_y": "521334.312953",
    "longitude": "-90.1223558569357",
    "latitude": "29.92799595928297",
    "geocoded_column": {
      "latitude": "29.92799595928297",
      "longitude": "-90.1223558569357"
    }
  },
  {
    "service_request": "2023-1051637",
    "request_type": "Property Maintenance",
    "request_reason": "Property Maintenance",
    "date_created": "2023-11-22T17:44:32.000",
    "date_modified": "2023-11-22T17:44:32.000",
    "request_status": "Pending",
    "responsible_agency": "Department of Code Enforcement",
    "final_address": "2131 St Anthony St",
    "address_councildis": "D",
    "status": "Pending",
    "rowid": "1051637",
    "final_x": "3683242.85116",
    "final_y": "540144.324107",
    "longitude": "-90.06226494494688",
    "latitude": "29.979156565238473",
    "geocoded_column": {
      "latitude": "29.979156565238473",
      "longitude": "-90.06226494494688"
    }
  },
  {
    "service_request": "2023-1051636",
    "request_type": "Traffic Signals/Signs/Striping/Streetlights",
    "request_reason": "Street Light Outage/Malfunction",
    "date_created": "2023-11-22T17:30:34.000",
    "date_modified": "2023-11-22T17:30:35.000",
    "request_status": "Pending",
    "responsible_agency": "Department of Public Works",
    "final_address": "1423 Adams St",
    "address_councildis": "A",
    "status": "Assigned to Contractor",
    "contractor": "Legacy Professional Services",
    "rowid": "1051636",
    "final_x": "3663686.52122",
    "final_y": "528004.385919",
    "longitude": "-90.12443625435756",
    "latitude": "29.94635771718048",
    "geocoded_column": {
      "latitude": "29.94635771718048",
      "longitude": "-90.12443625435756"
    }
  },
  {
    "service_request": "2023-1051634",
    "request_type": "Abandoned Vehicles",
    "request_reason": "Abandoned/Junk Vehicles",
    "date_created": "2023-11-22T17:05:17.000",
    "date_modified": "2023-11-22T17:05:17.000",
    "request_status": "Pending",
    "responsible_agency": "Department of Public Works",
    "final_address": "915 Joliet St",
    "address_councildis": "A",
    "status": "Pending",
    "rowid": "1051634",
    "final_x": "3660324.37446",
    "final_y": "528639.709632",
    "longitude": "-90.13503081243329",
    "latitude": "29.948201762121005",
    "geocoded_column": {
      "latitude": "29.948201762121005",
      "longitude": "-90.13503081243329"
    }
  },
  {
    "service_request": "2023-1051633",
    "request_type": "Roads/Drainage",
    "request_reason": "Pothole",
    "date_created": "2023-11-22T17:03:11.000",
    "date_modified": "2023-11-22T17:03:11.000",
    "request_status": "Pending",
    "responsible_agency": "Department of Public Works",
    "final_address": "6070 Chestnut St",
    "address_councildis": "A",
    "status": "Pending",
    "rowid": "1051633",
    "final_x": "3664412.78983",
    "final_y": "519991.592952",
    "longitude": "-90.12241052146828",
    "latitude": "29.92430399204139",
    "geocoded_column": {
      "latitude": "29.92430399204139",
      "longitude": "-90.12241052146828"
    }
  },
  {
    "service_request": "2023-1051632",
    "request_type": "Safety & Permits",
    "request_reason": "Licenses & Permits",
    "date_created": "2023-11-22T16:47:49.000",
    "date_modified": "2023-11-22T16:47:50.000",
    "request_status": "Pending",
    "responsible_agency": "Safety and Permits",
    "final_address": "317 N Miro St",
    "address_councildis": "B",
    "status": "Pending",
    "rowid": "1051632",
    "final_x": "3677267.84776",
    "final_y": "534893.968198",
    "longitude": "-90.08131753227886",
    "latitude": "29.96490077667558",
    "geocoded_column": {
      "latitude": "29.96490077667558",
      "longitude": "-90.08131753227886"
    }
  },
  {
    "service_request": "2023-1051631",
    "request_type": "Roads/Drainage",
    "request_reason": "Pothole",
    "date_created": "2023-11-22T16:40:09.000",
    "date_modified": "2023-11-22T16:42:24.000",
    "case_close_date": "2023-11-22T10:42:24.000",
    "request_status": "Closed",
    "responsible_agency": "Department of Public Works",
    "final_address": "2053 N Johnson St",
    "address_councildis": "D",
    "status": "Duplicate Request",
    "rowid": "1051631",
    "final_x": "3684070.07906",
    "final_y": "539600.140874",
    "longitude": "-90.05967134624578",
    "latitude": "29.977634994235544",
    "geocoded_column": {
      "latitude": "29.977634994235544",
      "longitude": "-90.05967134624578"
    }
  },
  {
    "service_request": "2023-1051630",
    "request_type": "Trash/Recycling",
    "request_reason": "MIssed Recycling Pick-Up",
    "date_created": "2023-11-22T16:18:06.000",
    "date_modified": "2023-11-22T16:18:07.000",
    "request_status": "Pending",
    "responsible_agency": "Department of Sanitation",
    "final_address": "11200 Chef Menteur Hwy",
    "address_councildis": "E",
    "status": "Assigned to Contractor",
    "contractor": "Waste Pro",
    "rowid": "1051630",
    "final_x": "3716501.04197",
    "final_y": "555743.655193",
    "longitude": "-89.95663193198165",
    "latitude": "30.020992339521815",
    "geocoded_column": {
      "latitude": "30.020992339521815",
      "longitude": "-89.95663193198165"
    }
  },
  {
    "service_request": "2023-1051629",
    "request_type": "Trash/Recycling",
    "request_reason": "Missed Trash Pick-Up",
    "date_created": "2023-11-22T16:17:24.000",
    "date_modified": "2023-11-22T16:17:25.000",
    "request_status": "Pending",
    "responsible_agency": "Department of Sanitation",
    "final_address": "11200 Chef Menteur Hwy",
    "address_councildis": "E",
    "status": "Assigned to Contractor",
    "contractor": "Waste Pro",
    "rowid": "1051629",
    "final_x": "3716501.04197",
    "final_y": "555743.655193",
    "longitude": "-89.95663193198165",
    "latitude": "30.020992339521815",
    "geocoded_column": {
      "latitude": "30.020992339521815",
      "longitude": "-89.95663193198165"
    }
  },
  {
    "service_request": "2023-1051628",
    "request_type": "Roads/Drainage",
    "request_reason": "Street Subsidence (Sinking)",
    "date_created": "2023-11-22T16:16:10.000",
    "date_modified": "2023-11-22T16:16:11.000",
    "request_status": "Pending",
    "responsible_agency": "Department of Public Works",
    "final_address": "REDWOOD DR & HAMMOND ST",
    "address_councildis": "E",
    "status": "Pending",
    "rowid": "1051628",
    "final_x": "3712466.5",
    "final_y": "556358.38",
    "longitude": "-89.96935667435065",
    "latitude": "30.022815259497172",
    "geocoded_column": {
      "latitude": "30.022815259497172",
      "longitude": "-89.96935667435065"
    }
  },
  {
    "service_request": "2023-1051627",
    "request_type": "Trash/Recycling",
    "request_reason": "Request a Large Item Pick Up",
    "date_created": "2023-11-22T15:53:31.000",
    "date_modified": "2023-11-22T15:57:14.000",
    "case_close_date": "2023-11-22T09:57:14.000",
    "request_status": "Closed",
    "responsible_agency": "Department of Sanitation",
    "final_address": "4873 Chantilly Dr",
    "address_councildis": "E",
    "status": "Assigned to Contractor",
    "contractor": "Waste Pro",
    "contractor_action": "Completed",
    "rowid": "1051627",
    "final_x": "3700889.01284",
    "final_y": "554956.842072",
    "longitude": "-90.00598994141968",
    "latitude": "30.01933542543558",
    "geocoded_column": {
      "latitude": "30.01933542543558",
      "longitude": "-90.00598994141968"
    }
  },
  {
    "service_request": "2023-1051626",
    "request_type": "Trash/Recycling",
    "request_reason": "Request a Large Item Pick Up",
    "date_created": "2023-11-22T15:38:53.000",
    "date_modified": "2023-11-22T15:47:18.000",
    "case_close_date": "2023-11-22T09:47:18.000",
    "request_status": "Closed",
    "responsible_agency": "Department of Sanitation",
    "final_address": "7130 Thornley Dr",
    "address_councildis": "E",
    "status": "Assigned to Contractor",
    "contractor": "Waste Pro",
    "contractor_action": "Completed",
    "rowid": "1051626",
    "final_x": "3703399.54705",
    "final_y": "560010.264093",
    "longitude": "-89.99787147004113",
    "latitude": "30.033150175726018",
    "geocoded_column": {
      "latitude": "30.033150175726018",
      "longitude": "-89.99787147004113"
    }
  },
  {
    "service_request": "2023-1051625",
    "request_type": "Roads/Drainage",
    "request_reason": "Pothole",
    "date_created": "2023-11-22T15:32:27.000",
    "date_modified": "2023-11-22T15:32:28.000",
    "request_status": "Pending",
    "responsible_agency": "Department of Public Works",
    "final_address": "1600 BLK Dumaine St",
    "address_councildis": "C",
    "status": "Pending",
    "rowid": "1051625",
    "final_x": "3680391.81503",
    "final_y": "535042.741382",
    "longitude": "-90.07144706840043",
    "latitude": "29.965215624356755",
    "geocoded_column": {
      "latitude": "29.965215624356755",
      "longitude": "-90.07144706840043"
    }
  },
  {
    "service_request": "2023-1051624",
    "request_type": "Roads/Drainage",
    "request_reason": "Catch Basin - Clogged",
    "date_created": "2023-11-22T15:31:03.000",
    "date_modified": "2023-11-22T15:35:39.000",
    "request_status": "Pending",
    "responsible_agency": "Department of Public Works",
    "final_address": "913 N Robertson St",
    "address_councildis": "C",
    "status": "Pending",
    "rowid": "1051624",
    "final_x": "3680539.01909",
    "final_y": "535079.237062",
    "longitude": "-90.07098093619314",
    "latitude": "29.965311516638224",
    "geocoded_column": {
      "latitude": "29.965311516638224",
      "longitude": "-90.07098093619314"
    }
  },
  {
    "service_request": "2023-1051622",
    "request_type": "Roads/Drainage",
    "request_reason": "Pothole",
    "date_created": "2023-11-22T15:26:21.000",
    "date_modified": "2023-11-22T15:26:21.000",
    "request_status": "Pending",
    "responsible_agency": "Department of Public Works",
    "final_address": "1301 Constantinople St",
    "address_councildis": "B",
    "status": "Pending",
    "rowid": "1051622",
    "final_x": "3672430.66305",
    "final_y": "520250.7726",
    "longitude": "-90.09709199725775",
    "latitude": "29.924781230435865",
    "geocoded_column": {
      "latitude": "29.924781230435865",
      "longitude": "-90.09709199725775"
    }
  },
  {
    "service_request": "2023-1051621",
    "request_type": "Trash/Recycling",
    "request_reason": "Repair Trash Cart",
    "date_created": "2023-11-22T15:24:57.000",
    "date_modified": "2023-11-22T15:46:28.000",
    "case_close_date": "2023-11-22T09:46:28.000",
    "request_status": "Closed",
    "responsible_agency": "Department of Sanitation",
    "final_address": "7321 Chadbourne Dr",
    "address_councildis": "E",
    "status": "Assigned to Contractor",
    "contractor": "Waste Pro",
    "contractor_action": "Completed",
    "rowid": "1051621",
    "final_x": "3701253.53143",
    "final_y": "557600.469915",
    "longitude": "-90.0047413423868",
    "latitude": "30.02659277174911",
    "geocoded_column": {
      "latitude": "30.02659277174911",
      "longitude": "-90.0047413423868"
    }
  },
  {
    "service_request": "2023-1051620",
    "request_type": "Roads/Drainage",
    "request_reason": "Pothole",
    "date_created": "2023-11-22T15:19:38.000",
    "date_modified": "2023-11-22T15:19:38.000",
    "request_status": "Pending",
    "responsible_agency": "Department of Public Works",
    "final_address": "1312 Milan St",
    "address_councildis": "B",
    "status": "Pending",
    "rowid": "1051620",
    "final_x": "3671625.82823",
    "final_y": "520286.919608",
    "longitude": "-90.09963137110304",
    "latitude": "29.92490447494246",
    "geocoded_column": {
      "latitude": "29.92490447494246",
      "longitude": "-90.09963137110304"
    }
  },
  {
    "service_request": "2023-1051619",
    "request_type": "Roads/Drainage",
    "request_reason": "Pothole",
    "date_created": "2023-11-22T15:13:42.000",
    "date_modified": "2023-11-22T15:13:42.000",
    "request_status": "Pending",
    "responsible_agency": "Department of Public Works",
    "final_address": "4216 Chestnut St",
    "address_councildis": "B",
    "status": "Pending",
    "rowid": "1051619",
    "final_x": "3671574.31393",
    "final_y": "519539.203703",
    "longitude": "-90.09981939416457",
    "latitude": "29.922850019854593",
    "geocoded_column": {
      "latitude": "29.922850019854593",
      "longitude": "-90.09981939416457"
    }
  },
  {
    "service_request": "2023-1051618",
    "request_type": "Trash/Recycling",
    "request_reason": "Repair Trash Cart",
    "date_created": "2023-11-22T15:13:15.000",
    "date_modified": "2023-11-22T15:13:15.000",
    "request_status": "Pending",
    "responsible_agency": "Department of Sanitation",
    "final_address": "611 S Scott St",
    "address_councildis": "B",
    "status": "Assigned to Contractor",
    "contractor": "Richards Disposal",
    "rowid": "1051618",
    "final_x": "3670470.0555",
    "final_y": "536178.419911",
    "longitude": "-90.10274102925652",
    "latitude": "29.968635074623652",
    "geocoded_column": {
      "latitude": "29.968635074623652",
      "longitude": "-90.10274102925652"
    }
  },
  {
    "service_request": "2023-1051617",
    "request_type": "Trash/Recycling",
    "request_reason": "Request a Large Item Pick Up",
    "date_created": "2023-11-22T15:09:39.000",
    "date_modified": "2023-11-22T15:09:39.000",
    "request_status": "Pending",
    "responsible_agency": "Department of Sanitation",
    "final_address": "1918 Elysian Fields Ave",
    "address_councildis": "D",
    "status": "Assigned to Contractor",
    "contractor": "IV Waste",
    "rowid": "1051617",
    "final_x": "3684647.98805",
    "final_y": "539407.44481",
    "longitude": "-90.05785289042507",
    "latitude": "29.977087471789233",
    "geocoded_column": {
      "latitude": "29.977087471789233",
      "longitude": "-90.05785289042507"
    }
  },
  {
    "service_request": "2023-1051616",
    "request_type": "Abandoned Vehicles",
    "request_reason": "Abandoned/Junk Vehicles",
    "date_created": "2023-11-22T15:01:44.000",
    "date_modified": "2023-11-22T15:01:46.000",
    "request_status": "Pending",
    "responsible_agency": "Department of Public Works",
    "final_address": "3269 Belfort St",
    "address_councildis": "A",
    "status": "Pending",
    "rowid": "1051616",
    "final_x": "3677741.64302",
    "final_y": "542593.288845",
    "longitude": "-90.0795552724145",
    "latitude": "29.986057018076604",
    "geocoded_column": {
      "latitude": "29.986057018076604",
      "longitude": "-90.0795552724145"
    }
  },
  {
    "service_request": "2023-1051615",
    "request_type": "Parks & Parkways",
    "request_reason": "Request Tree Service (Right of Way/Public Property)",
    "date_created": "2023-11-22T14:51:12.000",
    "date_modified": "2023-11-22T15:22:32.000",
    "case_close_date": "2023-11-22T09:22:32.000",
    "request_status": "Closed",
    "responsible_agency": "Department of Parks & Parkway",
    "final_address": "2208 Milan St",
    "address_councildis": "B",
    "status": "Referred to Property Owner",
    "rowid": "1051615",
    "final_x": "3671332.63214",
    "final_y": "523168.296315",
    "longitude": "-90.10045903289226",
    "latitude": "29.932836013453354",
    "geocoded_column": {
      "latitude": "29.932836013453354",
      "longitude": "-90.10045903289226"
    }
  },
  {
    "service_request": "2023-1051614",
    "request_type": "Roads/Drainage",
    "request_reason": "Street Flooding / Drainage",
    "date_created": "2023-11-22T14:49:16.000",
    "date_modified": "2023-11-22T14:49:16.000",
    "request_status": "Pending",
    "responsible_agency": "Department of Public Works",
    "final_address": "11121 S Idlewood Ct",
    "address_councildis": "E",
    "status": "Pending",
    "rowid": "1051614",
    "final_x": "3716156.87026",
    "final_y": "559366.633117",
    "longitude": "-89.95758195872506",
    "latitude": "30.03096545071214",
    "geocoded_column": {
      "latitude": "30.03096545071214",
      "longitude": "-89.95758195872506"
    }
  },
  {
    "service_request": "2023-1051613",
    "request_type": "Roads/Drainage",
    "request_reason": "Pothole",
    "date_created": "2023-11-22T14:48:48.000",
    "date_modified": "2023-11-22T14:48:49.000",
    "request_status": "Pending",
    "responsible_agency": "Department of Public Works",
    "final_address": "8931 Dwyer Rd",
    "address_councildis": "E",
    "status": "Pending",
    "rowid": "1051613",
    "final_x": "3708037.12024",
    "final_y": "557096.71433",
    "longitude": "-89.98332488869127",
    "latitude": "30.024989624039723",
    "geocoded_column": {
      "latitude": "30.024989624039723",
      "longitude": "-89.98332488869127"
    }
  },
  {
    "service_request": "2023-1051612",
    "request_type": "Trash/Recycling",
    "request_reason": "Order Trash Cart",
    "date_created": "2023-11-22T14:41:23.000",
    "date_modified": "2023-11-22T14:41:23.000",
    "request_status": "Pending",
    "responsible_agency": "Department of Sanitation",
    "final_address": "2335 S Roman St",
    "address_councildis": "B",
    "status": "Assigned to Contractor",
    "contractor": "Richards Disposal",
    "rowid": "1051612",
    "final_x": "3673878.92987",
    "final_y": "528094.657791",
    "longitude": "-90.09225210579055",
    "latitude": "29.946306319234914",
    "geocoded_column": {
      "latitude": "29.946306319234914",
      "longitude": "-90.09225210579055"
    }
  },
  {
    "service_request": "2023-1051611",
    "request_type": "Trash/Recycling",
    "request_reason": "Order Recycling Cart",
    "date_created": "2023-11-22T14:41:07.000",
    "date_modified": "2023-11-22T14:41:07.000",
    "request_status": "Pending",
    "responsible_agency": "Department of Sanitation",
    "final_address": "2335 S Roman St",
    "address_councildis": "B",
    "status": "Pending",
    "rowid": "1051611",
    "final_x": "3673878.92987",
    "final_y": "528094.657791",
    "longitude": "-90.09225210579055",
    "latitude": "29.946306319234914",
    "geocoded_column": {
      "latitude": "29.946306319234914",
      "longitude": "-90.09225210579055"
    }
  },
  {
    "service_request": "2023-1051610",
    "request_type": "Trash/Recycling",
    "request_reason": "Order Recycling Cart",
    "date_created": "2023-11-22T14:40:54.000",
    "date_modified": "2023-11-22T14:40:54.000",
    "request_status": "Pending",
    "responsible_agency": "Department of Sanitation",
    "final_address": "2333 S Roman St",
    "address_councildis": "B",
    "status": "Pending",
    "rowid": "1051610",
    "final_x": "3673892.49486",
    "final_y": "528100.475135",
    "longitude": "-90.09220907736471",
    "latitude": "29.946321911013545",
    "geocoded_column": {
      "latitude": "29.946321911013545",
      "longitude": "-90.09220907736471"
    }
  },
  {
    "service_request": "2023-1051609",
    "request_type": "Trash/Recycling",
    "request_reason": "Order Trash Cart",
    "date_created": "2023-11-22T14:40:42.000",
    "date_modified": "2023-11-22T14:40:42.000",
    "request_status": "Pending",
    "responsible_agency": "Department of Sanitation",
    "final_address": "2333 S Roman St",
    "address_councildis": "B",
    "status": "Assigned to Contractor",
    "contractor": "Richards Disposal",
    "rowid": "1051609",
    "final_x": "3673892.49486",
    "final_y": "528100.475135",
    "longitude": "-90.09220907736471",
    "latitude": "29.946321911013545",
    "geocoded_column": {
      "latitude": "29.946321911013545",
      "longitude": "-90.09220907736471"
    }
  },
  {
    "service_request": "2023-1051607",
    "request_type": "Trash/Recycling",
    "request_reason": "Order Trash Cart",
    "date_created": "2023-11-22T14:40:21.000",
    "date_modified": "2023-11-22T14:40:21.000",
    "request_status": "Pending",
    "responsible_agency": "Department of Sanitation",
    "final_address": "2313 S Roman St",
    "address_councildis": "B",
    "status": "Assigned to Contractor",
    "contractor": "Richards Disposal",
    "rowid": "1051607",
    "final_x": "3674008.55163",
    "final_y": "528186.88064",
    "longitude": "-90.09183968912379",
    "latitude": "29.946556040635304",
    "geocoded_column": {
      "latitude": "29.946556040635304",
      "longitude": "-90.09183968912379"
    }
  },
  {
    "service_request": "2023-1051606",
    "request_type": "Trash/Recycling",
    "request_reason": "Order Recycling Cart",
    "date_created": "2023-11-22T14:39:50.000",
    "date_modified": "2023-11-22T14:40:01.000",
    "request_status": "Pending",
    "responsible_agency": "Department of Sanitation",
    "final_address": "2313 S Roman St",
    "address_councildis": "B",
    "status": "Pending",
    "rowid": "1051606",
    "final_x": "3674008.55163",
    "final_y": "528186.88064",
    "longitude": "-90.09183968912379",
    "latitude": "29.946556040635304",
    "geocoded_column": {
      "latitude": "29.946556040635304",
      "longitude": "-90.09183968912379"
    }
  },
  {
    "service_request": "2023-1051605",
    "request_type": "Trash/Recycling",
    "request_reason": "Order Recycling Cart",
    "date_created": "2023-11-22T14:39:31.000",
    "date_modified": "2023-11-22T14:39:31.000",
    "request_status": "Pending",
    "responsible_agency": "Department of Sanitation",
    "final_address": "2311 S Roman St",
    "address_councildis": "B",
    "status": "Pending",
    "rowid": "1051605",
    "final_x": "3674018.11246",
    "final_y": "528192.617024",
    "longitude": "-90.09180930588005",
    "latitude": "29.94657152896091",
    "geocoded_column": {
      "latitude": "29.94657152896091",
      "longitude": "-90.09180930588005"
    }
  },
  {
    "service_request": "2023-1051604",
    "request_type": "Trash/Recycling",
    "request_reason": "Order Trash Cart",
    "date_created": "2023-11-22T14:39:02.000",
    "date_modified": "2023-11-22T14:39:03.000",
    "request_status": "Pending",
    "responsible_agency": "Department of Sanitation",
    "final_address": "2311 S Roman St",
    "address_councildis": "B",
    "status": "Assigned to Contractor",
    "contractor": "Richards Disposal",
    "rowid": "1051604",
    "final_x": "3674018.11246",
    "final_y": "528192.617024",
    "longitude": "-90.09180930588005",
    "latitude": "29.94657152896091",
    "geocoded_column": {
      "latitude": "29.94657152896091",
      "longitude": "-90.09180930588005"
    }
  },
  {
    "service_request": "2023-1051602",
    "request_type": "Parks & Parkways",
    "request_reason": "Request Tree Service (Right of Way/Public Property)",
    "date_created": "2023-11-22T14:30:10.000",
    "date_modified": "2023-11-22T14:30:11.000",
    "request_status": "Pending",
    "responsible_agency": "Department of Parks & Parkway",
    "final_address": "4450 Arts St",
    "address_councildis": "D",
    "status": "Pending",
    "rowid": "1051602",
    "final_x": "3685973.76572",
    "final_y": "549252.133203",
    "longitude": "-90.05331832930669",
    "latitude": "30.0041162065937",
    "geocoded_column": {
      "latitude": "30.0041162065937",
      "longitude": "-90.05331832930669"
    }
  },
  {
    "service_request": "2023-1051601",
    "request_type": "Property Maintenance",
    "request_reason": "Property Maintenance",
    "date_created": "2023-11-22T14:27:40.000",
    "date_modified": "2023-11-22T14:27:41.000",
    "request_status": "Pending",
    "responsible_agency": "Department of Code Enforcement",
    "final_address": "5601 Paris Ave",
    "address_councildis": "D",
    "status": "Pending",
    "rowid": "1051601",
    "final_x": "3679204.602",
    "final_y": "553001.421079",
    "longitude": "-90.07457321012278",
    "latitude": "30.014631587891266",
    "geocoded_column": {
      "latitude": "30.014631587891266",
      "longitude": "-90.07457321012278"
    }
  },
  {
    "service_request": "2023-1051600",
    "request_type": "Trash/Recycling",
    "request_reason": "Order Recycling Cart",
    "date_created": "2023-11-22T14:23:29.000",
    "date_modified": "2023-11-22T14:23:30.000",
    "request_status": "Pending",
    "responsible_agency": "Department of Sanitation",
    "final_address": "5015 Camp St",
    "address_councildis": "B",
    "status": "Pending",
    "rowid": "1051600",
    "final_x": "3668510.06913",
    "final_y": "519003.266871",
    "longitude": "-90.10951011133835",
    "latitude": "29.921466711067925",
    "geocoded_column": {
      "latitude": "29.921466711067925",
      "longitude": "-90.10951011133835"
    }
  },
  {
    "service_request": "2023-1051599",
    "request_type": "Trash/Recycling",
    "request_reason": "Missed Trash Pick-Up",
    "date_created": "2023-11-22T14:19:10.000",
    "date_modified": "2023-11-22T14:48:36.000",
    "case_close_date": "2023-11-21T18:00:00.000",
    "request_status": "Closed",
    "responsible_agency": "Department of Sanitation",
    "final_address": "7000 BLK Ransom St",
    "address_councildis": "E",
    "status": "Assigned to Contractor",
    "contractor": "Waste Pro",
    "contractor_action": "Completed",
    "rowid": "1051599",
    "final_x": "3701428.12204",
    "final_y": "553371.836942",
    "longitude": "-90.0043446362425",
    "latitude": "30.01496008327861",
    "geocoded_column": {
      "latitude": "30.01496008327861",
      "longitude": "-90.0043446362425"
    }
  },
  {
    "service_request": "2023-1051598",
    "request_type": "Parks & Parkways",
    "request_reason": "Request Tree Service (Right of Way/Public Property)",
    "date_created": "2023-11-22T14:16:50.000",
    "date_modified": "2023-11-22T14:16:51.000",
    "request_status": "Pending",
    "responsible_agency": "Department of Parks & Parkway",
    "final_address": "1343 Mirabeau Ave",
    "address_councildis": "D",
    "status": "Pending",
    "rowid": "1051598",
    "final_x": "3677593.27528",
    "final_y": "550334.525204",
    "longitude": "-90.07975640245319",
    "latitude": "30.007347153504863",
    "geocoded_column": {
      "latitude": "30.007347153504863",
      "longitude": "-90.07975640245319"
    }
  },
  {
    "service_request": "2023-1051597",
    "request_type": "Trash/Recycling",
    "request_reason": "Replace Trash Cart",
    "date_created": "2023-11-22T14:13:49.000",
    "date_modified": "2023-11-22T14:13:50.000",
    "request_status": "Pending",
    "responsible_agency": "Department of Sanitation",
    "final_address": "7739 Cohn St",
    "address_councildis": "A",
    "status": "Assigned to Contractor",
    "contractor": "Richards Disposal",
    "rowid": "1051597",
    "final_x": "3664514.04007",
    "final_y": "529434.569473",
    "longitude": "-90.12177572987618",
    "latitude": "29.950266228653692",
    "geocoded_column": {
      "latitude": "29.950266228653692",
      "longitude": "-90.12177572987618"
    }
  },
  {
    "service_request": "2023-1051596",
    "request_type": "Traffic Signals/Signs/Striping/Streetlights",
    "request_reason": "Street Light Outage/Malfunction",
    "date_created": "2023-11-22T14:11:28.000",
    "date_modified": "2023-11-22T14:11:29.000",
    "request_status": "Pending",
    "responsible_agency": "Department of Public Works",
    "final_address": "3141 Ponce De Leon St",
    "address_councildis": "A",
    "status": "Assigned to Contractor",
    "contractor": "Legacy Professional Services",
    "rowid": "1051596",
    "final_x": "3676280.52334",
    "final_y": "540562.560011",
    "longitude": "-90.08424030237236",
    "latitude": "29.9805170951782",
    "geocoded_column": {
      "latitude": "29.9805170951782",
      "longitude": "-90.08424030237236"
    }
  },
  {
    "service_request": "2023-1051595",
    "request_type": "Parks & Parkways",
    "request_reason": "Request Grass Cutting Service (City Owned Property)",
    "date_created": "2023-11-22T14:08:52.000",
    "date_modified": "2023-11-22T14:08:52.000",
    "request_status": "Pending",
    "responsible_agency": "Department of Parks & Parkway",
    "final_address": "3641 Indiana St",
    "address_councildis": "C",
    "status": "Pending",
    "rowid": "1051595",
    "final_x": "3693246.14915",
    "final_y": "519965.387256",
    "longitude": "-90.0313949269178",
    "latitude": "29.923362592360316",
    "geocoded_column": {
      "latitude": "29.923362592360316",
      "longitude": "-90.0313949269178"
    }
  },
  {
    "service_request": "2023-1051594",
    "request_type": "Parks & Parkways",
    "request_reason": "Request Tree Service (Right of Way/Public Property)",
    "date_created": "2023-11-22T14:08:45.000",
    "date_modified": "2023-11-22T14:08:45.000",
    "request_status": "Pending",
    "responsible_agency": "Department of Parks & Parkway",
    "final_address": "6020 St Charles Ave",
    "address_councildis": "A",
    "status": "Pending",
    "rowid": "1051594",
    "final_x": "3665483.34176",
    "final_y": "522487.533242",
    "longitude": "-90.11894764498817",
    "latitude": "29.931135887933674",
    "geocoded_column": {
      "latitude": "29.931135887933674",
      "longitude": "-90.11894764498817"
    }
  },
  {
    "service_request": "2023-1051593",
    "request_type": "Trash/Recycling",
    "request_reason": "Request a Large Item Pick Up",
    "date_created": "2023-11-22T14:08:27.000",
    "date_modified": "2023-11-22T14:08:28.000",
    "request_status": "Pending",
    "responsible_agency": "Department of Sanitation",
    "final_address": "3140 Dauphine St",
    "address_councildis": "C",
    "status": "Assigned to Contractor",
    "contractor": "IV Waste",
    "rowid": "1051593",
    "final_x": "3689024.91631",
    "final_y": "534745.370502",
    "longitude": "-90.04419483489643",
    "latitude": "29.964133712593963",
    "geocoded_column": {
      "latitude": "29.964133712593963",
      "longitude": "-90.04419483489643"
    }
  },
  {
    "service_request": "2023-1051592",
    "request_type": "Trash/Recycling",
    "request_reason": "Missed Trash Pick-Up",
    "date_created": "2023-11-22T14:05:23.000",
    "date_modified": "2023-11-22T14:46:17.000",
    "case_close_date": "2023-11-22T08:46:17.000",
    "request_status": "Closed",
    "responsible_agency": "Department of Sanitation",
    "final_address": "5501 Rickert Dr",
    "address_councildis": "E",
    "status": "Assigned to Contractor",
    "contractor": "Waste Pro",
    "contractor_action": "Resolve Issues ",
    "rowid": "1051592",
    "final_x": "3703306.76516",
    "final_y": "556163.663066",
    "longitude": "-89.99830629368148",
    "latitude": "30.022576487603942",
    "geocoded_column": {
      "latitude": "30.022576487603942",
      "longitude": "-89.99830629368148"
    }
  },
  {
    "service_request": "2023-1051591",
    "request_type": "Safety & Permits",
    "request_reason": "Licenses & Permits",
    "date_created": "2023-11-22T13:58:37.000",
    "date_modified": "2023-11-22T13:58:37.000",
    "request_status": "Pending",
    "responsible_agency": "Safety and Permits",
    "final_address": "633 S Roman St",
    "address_councildis": "B",
    "status": "Pending",
    "rowid": "1051591",
    "final_x": "3676752.35995",
    "final_y": "531058.779202",
    "longitude": "-90.08307756117792",
    "latitude": "29.954370775861733",
    "geocoded_column": {
      "latitude": "29.954370775861733",
      "longitude": "-90.08307756117792"
    }
  },
  {
    "service_request": "2023-1051589",
    "request_type": "Trash/Recycling",
    "request_reason": "Order Recycling Cart",
    "date_created": "2023-11-22T13:52:12.000",
    "date_modified": "2023-11-22T13:52:13.000",
    "request_status": "Pending",
    "responsible_agency": "Department of Sanitation",
    "final_address": "4875 Lurline St",
    "address_councildis": "E",
    "status": "Pending",
    "rowid": "1051589",
    "final_x": "3711966.2885",
    "final_y": "556928.547866",
    "longitude": "-89.97091579085213",
    "latitude": "30.024399359515147",
    "geocoded_column": {
      "latitude": "30.024399359515147",
      "longitude": "-89.97091579085213"
    }
  },
  {
    "service_request": "2023-1051588",
    "request_type": "Abandoned Vehicles",
    "request_reason": "Abandoned/Junk Vehicles",
    "date_created": "2023-11-22T13:44:41.000",
    "date_modified": "2023-11-22T13:44:41.000",
    "request_status": "Pending",
    "responsible_agency": "Department of Public Works",
    "final_address": "ALIX ST & PACIFIC AVE",
    "address_councildis": "C",
    "status": "Inspected",
    "rowid": "1051588",
    "final_x": "3688524.4",
    "final_y": "530318.08",
    "longitude": "-90.04593249986048",
    "latitude": "29.951975669682994",
    "geocoded_column": {
      "latitude": "29.951975669682994",
      "longitude": "-90.04593249986048"
    }
  },
  {
    "service_request": "2023-1051586",
    "request_type": "Property Maintenance",
    "request_reason": "Property Maintenance",
    "date_created": "2023-11-22T13:42:00.000",
    "date_modified": "2023-11-22T13:51:49.000",
    "request_status": "Pending",
    "responsible_agency": "Department of Code Enforcement",
    "final_address": "2709 Elmwood Park Dr",
    "address_councildis": "C",
    "rowid": "1051586",
    "final_x": "3692806.75376",
    "final_y": "520193.863032",
    "longitude": "-90.03277374099271",
    "latitude": "29.924004544305205",
    "geocoded_column": {
      "latitude": "29.924004544305205",
      "longitude": "-90.03277374099271"
    }
  },
  {
    "service_request": "2023-1051585",
    "request_type": "Trash/Recycling",
    "request_reason": "MIssed Recycling Pick-Up",
    "date_created": "2023-11-22T13:41:52.000",
    "date_modified": "2023-11-22T14:51:01.000",
    "case_close_date": "2023-11-22T08:51:01.000",
    "request_status": "Closed",
    "responsible_agency": "Department of Sanitation",
    "final_address": "7828 Lady Gray St",
    "address_councildis": "E",
    "status": "Scheduled",
    "contractor": "Waste Pro",
    "contractor_action": "Resolve Issues ",
    "rowid": "1051585",
    "final_x": "3709398.87749",
    "final_y": "566133.504611",
    "longitude": "-89.97868441123539",
    "latitude": "30.049793019961196",
    "geocoded_column": {
      "latitude": "30.049793019961196",
      "longitude": "-89.97868441123539"
    }
  },
  {
    "service_request": "2023-1051584",
    "request_type": "Trash/Recycling",
    "request_reason": "Missed Trash Pick-Up",
    "date_created": "2023-11-22T13:41:49.000",
    "date_modified": "2023-11-22T14:45:12.000",
    "case_close_date": "2023-11-22T08:45:12.000",
    "request_status": "Closed",
    "responsible_agency": "Department of Sanitation",
    "final_address": "4712 Bright Dr",
    "address_councildis": "E",
    "status": "Assigned to Contractor",
    "contractor": "Waste Pro",
    "contractor_action": "Resolve Issues ",
    "rowid": "1051584",
    "final_x": "3715827.82924",
    "final_y": "556773.905434",
    "longitude": "-89.95872001457307",
    "latitude": "30.023847342231054",
    "geocoded_column": {
      "latitude": "30.023847342231054",
      "longitude": "-89.95872001457307"
    }
  },
  {
    "service_request": "2023-1051583",
    "request_type": "Property Maintenance",
    "request_reason": "Property Maintenance",
    "date_created": "2023-11-22T13:41:19.000",
    "date_modified": "2023-11-22T13:42:27.000",
    "request_status": "Pending",
    "responsible_agency": "Department of Code Enforcement",
    "final_address": "2709 Elmwood Park Dr",
    "address_councildis": "C",
    "status": "Pending",
    "rowid": "1051583",
    "final_x": "3692806.75376",
    "final_y": "520193.863032",
    "longitude": "-90.03277374099271",
    "latitude": "29.924004544305205",
    "geocoded_column": {
      "latitude": "29.924004544305205",
      "longitude": "-90.03277374099271"
    }
  },
  {
    "service_request": "2023-1051582",
    "request_type": "Trash/Recycling",
    "request_reason": "Missed Trash Pick-Up",
    "date_created": "2023-11-22T13:39:26.000",
    "date_modified": "2023-11-22T14:44:18.000",
    "case_close_date": "2023-11-22T08:44:18.000",
    "request_status": "Closed",
    "responsible_agency": "Department of Sanitation",
    "final_address": "6391 Eastover Dr",
    "address_councildis": "E",
    "status": "Assigned to Contractor",
    "contractor": "Waste Pro",
    "contractor_action": "Resolve Issues ",
    "rowid": "1051582",
    "final_x": "3718334.99129",
    "final_y": "563527.49296",
    "longitude": "-89.95054044349781",
    "latitude": "30.042334042378123",
    "geocoded_column": {
      "latitude": "30.042334042378123",
      "longitude": "-89.95054044349781"
    }
  },
  {
    "service_request": "2023-1051580",
    "request_type": "Trash/Recycling",
    "request_reason": "Missed Trash Pick-Up",
    "date_created": "2023-11-22T13:37:14.000",
    "date_modified": "2023-11-22T14:42:21.000",
    "case_close_date": "2023-11-22T08:42:21.000",
    "request_status": "Closed",
    "responsible_agency": "Department of Sanitation",
    "final_address": "4759 Eunice Dr",
    "address_councildis": "E",
    "status": "Assigned to Contractor",
    "contractor": "Waste Pro",
    "contractor_action": "Resolve Issues ",
    "rowid": "1051580",
    "final_x": "3710604.84273",
    "final_y": "555900.757081",
    "longitude": "-89.9752561657085",
    "latitude": "30.021617777879275",
    "geocoded_column": {
      "latitude": "30.021617777879275",
      "longitude": "-89.9752561657085"
    }
  },
  {
    "service_request": "2023-1051581",
    "request_type": "Trash/Recycling",
    "request_reason": "Missed Trash Pick-Up",
    "date_created": "2023-11-22T13:37:14.000",
    "date_modified": "2023-11-22T14:43:25.000",
    "case_close_date": "2023-11-22T08:43:25.000",
    "request_status": "Closed",
    "responsible_agency": "Department of Sanitation",
    "final_address": "4759 Eunice Dr",
    "address_councildis": "E",
    "status": "Assigned to Contractor",
    "contractor": "Waste Pro",
    "contractor_action": "Resolve Issues ",
    "rowid": "1051581",
    "final_x": "3710604.84273",
    "final_y": "555900.757081",
    "longitude": "-89.9752561657085",
    "latitude": "30.021617777879275",
    "geocoded_column": {
      "latitude": "30.021617777879275",
      "longitude": "-89.9752561657085"
    }
  },
  {
    "service_request": "2023-1051579",
    "request_type": "Trash/Recycling",
    "request_reason": "Replace Trash Cart",
    "date_created": "2023-11-22T13:29:34.000",
    "date_modified": "2023-11-22T15:04:57.000",
    "case_close_date": "2023-11-22T09:04:57.000",
    "request_status": "Closed",
    "responsible_agency": "Department of Sanitation",
    "final_address": "5619 Dauphine St",
    "address_councildis": "E",
    "status": "Resolved",
    "contractor": "Waste Pro",
    "contractor_action": "Reviewed",
    "rowid": "1051579",
    "final_x": "3697925.1896",
    "final_y": "532613.362692",
    "longitude": "-90.01616610005334",
    "latitude": "29.9579931147466",
    "geocoded_column": {
      "latitude": "29.9579931147466",
      "longitude": "-90.01616610005334"
    }
  },
  {
    "service_request": "2023-1051578",
    "request_type": "Traffic Signals/Signs/Striping/Streetlights",
    "request_reason": "Striping/Road Surface Markings",
    "date_created": "2023-11-22T13:28:55.000",
    "date_modified": "2023-11-22T13:28:55.000",
    "request_status": "Pending",
    "responsible_agency": "Department of Public Works",
    "final_address": "LOUISA ST & CHARTRES ST",
    "address_councildis": "C",
    "status": "Pending",
    "rowid": "1051578",
    "final_x": "3689096.0",
    "final_y": "534018.38",
    "longitude": "-90.04399619221152",
    "latitude": "29.962132542848703",
    "geocoded_column": {
      "latitude": "29.962132542848703",
      "longitude": "-90.04399619221152"
    }
  },
  {
    "service_request": "2023-1051577",
    "request_type": "Trash/Recycling",
    "request_reason": "Missed Trash Pick-Up",
    "date_created": "2023-11-22T13:13:48.000",
    "date_modified": "2023-11-22T14:41:31.000",
    "case_close_date": "2023-11-22T08:41:31.000",
    "request_status": "Closed",
    "responsible_agency": "Department of Sanitation",
    "final_address": "11312 Midpoint Dr",
    "address_councildis": "E",
    "status": "Assigned to Contractor",
    "contractor": "Waste Pro",
    "contractor_action": "Resolve Issues ",
    "rowid": "1051577",
    "final_x": "3718726.69369",
    "final_y": "559635.258333",
    "longitude": "-89.94945109046446",
    "latitude": "30.031618973087294",
    "geocoded_column": {
      "latitude": "30.031618973087294",
      "longitude": "-89.94945109046446"
    }
  },
  {
    "service_request": "2023-1051576",
    "request_type": "Trash/Recycling",
    "request_reason": "Repair Recycling Cart",
    "date_created": "2023-11-22T13:10:30.000",
    "date_modified": "2023-11-22T13:10:31.000",
    "request_status": "Pending",
    "responsible_agency": "Department of Sanitation",
    "final_address": "1424 Seventh St",
    "address_councildis": "B",
    "status": "Pending",
    "rowid": "1051576",
    "final_x": "3675638.51912",
    "final_y": "521386.468345",
    "longitude": "-90.08692685204902",
    "latitude": "29.927808472136796",
    "geocoded_column": {
      "latitude": "29.927808472136796",
      "longitude": "-90.08692685204902"
    }
  },
  {
    "service_request": "2023-1051575",
    "request_type": "Abandoned Vehicles",
    "request_reason": "Abandoned/Junk Vehicles",
    "date_created": "2023-11-22T13:06:59.000",
    "date_modified": "2023-11-22T13:06:59.000",
    "request_status": "Pending",
    "responsible_agency": "Department of Public Works",
    "final_address": "1915 Joliet St",
    "address_councildis": "A",
    "status": "Pending",
    "rowid": "1051575",
    "final_x": "3662648.2096",
    "final_y": "531196.812482",
    "longitude": "-90.12760852030019",
    "latitude": "29.955165943089053",
    "geocoded_column": {
      "latitude": "29.955165943089053",
      "longitude": "-90.12760852030019"
    }
  },
  {
    "service_request": "2023-1051574",
    "request_type": "Trash/Recycling",
    "request_reason": "Replace Trash Cart",
    "date_created": "2023-11-22T13:03:30.000",
    "date_modified": "2023-11-22T13:03:31.000",
    "request_status": "Pending",
    "responsible_agency": "Department of Sanitation",
    "final_address": "7818 Freret St",
    "address_councildis": "A",
    "status": "Assigned to Contractor",
    "contractor": "Richards Disposal",
    "rowid": "1051574",
    "final_x": "3662186.11207",
    "final_y": "527167.800703",
    "longitude": "-90.12920135397232",
    "latitude": "29.944100816464605",
    "geocoded_column": {
      "latitude": "29.944100816464605",
      "longitude": "-90.12920135397232"
    }
  },
  {
    "service_request": "2023-1051573",
    "request_type": "Trash/Recycling",
    "request_reason": "Missed Trash Pick-Up",
    "date_created": "2023-11-22T13:02:02.000",
    "date_modified": "2023-11-22T13:02:03.000",
    "request_status": "Pending",
    "responsible_agency": "Department of Sanitation",
    "final_address": "7818 Freret St",
    "address_councildis": "A",
    "status": "Assigned to Contractor",
    "contractor": "Richards Disposal",
    "rowid": "1051573",
    "final_x": "3662186.11207",
    "final_y": "527167.800703",
    "longitude": "-90.12920135397232",
    "latitude": "29.944100816464605",
    "geocoded_column": {
      "latitude": "29.944100816464605",
      "longitude": "-90.12920135397232"
    }
  },
  {
    "service_request": "2023-1051572",
    "request_type": "Trash/Recycling",
    "request_reason": "Missed Trash Pick-Up",
    "date_created": "2023-11-22T12:59:09.000",
    "date_modified": "2023-11-22T13:53:02.000",
    "case_close_date": "2023-11-22T07:53:02.000",
    "request_status": "Closed",
    "responsible_agency": "Department of Sanitation",
    "final_address": "2150 Timoleon St",
    "address_councildis": "D",
    "status": "Invalid Request",
    "contractor": "IV Waste",
    "contractor_action": "Invalid Pick-Up",
    "rowid": "1051572",
    "final_x": "3683496.12309",
    "final_y": "551051.480533",
    "longitude": "-90.06108252002572",
    "latitude": "30.00913963233658",
    "geocoded_column": {
      "latitude": "30.00913963233658",
      "longitude": "-90.06108252002572"
    }
  },
  {
    "service_request": "2023-1051571",
    "request_type": "Trash/Recycling",
    "request_reason": "Order Trash Cart",
    "date_created": "2023-11-22T12:54:17.000",
    "date_modified": "2023-11-22T12:54:17.000",
    "request_status": "Pending",
    "responsible_agency": "Department of Sanitation",
    "final_address": "2519 Amelia St",
    "address_councildis": "B",
    "status": "Assigned to Contractor",
    "contractor": "Richards Disposal",
    "rowid": "1051571",
    "final_x": "3672351.9874",
    "final_y": "524455.010812",
    "longitude": "-90.0971971784964",
    "latitude": "29.936343864558054",
    "geocoded_column": {
      "latitude": "29.936343864558054",
      "longitude": "-90.0971971784964"
    }
  },
  {
    "service_request": "2023-1051570",
    "request_type": "Trash/Recycling",
    "request_reason": "Repair Trash Cart",
    "date_created": "2023-11-22T12:50:38.000",
    "date_modified": "2023-11-22T12:50:39.000",
    "request_status": "Pending",
    "responsible_agency": "Department of Sanitation",
    "final_address": "4609 Anson St",
    "address_councildis": "C",
    "status": "Assigned to Contractor",
    "contractor": "Richards Disposal",
    "rowid": "1051570",
    "final_x": "3701979.28215",
    "final_y": "521574.359225",
    "longitude": "-90.0037689766046",
    "latitude": "29.92751097531784",
    "geocoded_column": {
      "latitude": "29.92751097531784",
      "longitude": "-90.0037689766046"
    }
  },
  {
    "service_request": "2023-1051569",
    "request_type": "Abandoned Vehicles",
    "request_reason": "Abandoned/Junk Vehicles",
    "date_created": "2023-11-22T12:43:09.000",
    "date_modified": "2023-11-22T12:43:09.000",
    "request_status": "Pending",
    "responsible_agency": "Department of Public Works",
    "final_address": "539 Esplanade Ave",
    "address_councildis": "C",
    "status": "Pending",
    "rowid": "1051569",
    "final_x": "3684455.7373",
    "final_y": "534183.876677",
    "longitude": "-90.05864360815784",
    "latitude": "29.96273035587244",
    "geocoded_column": {
      "latitude": "29.96273035587244",
      "longitude": "-90.05864360815784"
    }
  },
  {
    "service_request": "2023-1051567",
    "request_type": "Trash/Recycling",
    "request_reason": "Request a Large Item Pick Up",
    "date_created": "2023-11-22T12:36:21.000",
    "date_modified": "2023-11-22T14:21:31.000",
    "case_close_date": "2023-11-22T08:21:31.000",
    "request_status": "Closed",
    "responsible_agency": "Department of Sanitation",
    "final_address": "7250 Cranbrook Dr",
    "address_councildis": "E",
    "status": "Assigned to Contractor",
    "contractor": "Waste Pro",
    "contractor_action": "Completed",
    "rowid": "1051567",
    "final_x": "3713591.16549",
    "final_y": "566055.967267",
    "longitude": "-89.96543722465933",
    "latitude": "30.049442879432807",
    "geocoded_column": {
      "latitude": "30.049442879432807",
      "longitude": "-89.96543722465933"
    }
  },
  {
    "service_request": "2023-1051566",
    "request_type": "Trash/Recycling",
    "request_reason": "Missed Trash Pick-Up",
    "date_created": "2023-11-22T12:32:51.000",
    "date_modified": "2023-11-22T14:20:49.000",
    "case_close_date": "2023-11-22T08:20:49.000",
    "request_status": "Closed",
    "responsible_agency": "Department of Sanitation",
    "final_address": "6455 General Haig St",
    "address_councildis": "A",
    "status": "Invalid Request",
    "contractor": "IV Waste",
    "contractor_action": "Invalid Pick-Up",
    "rowid": "1051566",
    "final_x": "3670881.71739",
    "final_y": "550309.9821",
    "longitude": "-90.1009609894096",
    "latitude": "30.00747985655191",
    "geocoded_column": {
      "latitude": "30.00747985655191",
      "longitude": "-90.1009609894096"
    }
  },
  {
    "service_request": "2023-1051565",
    "request_type": "Abandoned Vehicles",
    "request_reason": "Abandoned/Junk Vehicles",
    "date_created": "2023-11-22T12:29:23.000",
    "date_modified": "2023-11-22T12:31:02.000",
    "request_status": "Pending",
    "responsible_agency": "Department of Public Works",
    "final_address": "2700 Mandeville St",
    "address_councildis": "D",
    "status": "Pending",
    "rowid": "1051565",
    "final_x": "3685182.3222",
    "final_y": "542655.261901",
    "longitude": "-90.0560509502771",
    "latitude": "29.986001458669477",
    "geocoded_column": {
      "latitude": "29.986001458669477",
      "longitude": "-90.0560509502771"
    }
  },
  {
    "service_request": "2023-1051564",
    "request_type": "Trash/Recycling",
    "request_reason": "Request a Large Item Pick Up",
    "date_created": "2023-11-22T12:27:44.000",
    "date_modified": "2023-11-22T14:23:14.000",
    "case_close_date": "2023-11-22T08:23:14.000",
    "request_status": "Closed",
    "responsible_agency": "Department of Sanitation",
    "final_address": "10831 Roger Dr Apt A",
    "address_councildis": "E",
    "status": "Assigned to Contractor",
    "contractor": "Waste Pro",
    "contractor_action": "Completed",
    "rowid": "1051564",
    "final_x": "3711756.19576",
    "final_y": "563226.394528",
    "longitude": "-89.97134310045828",
    "latitude": "30.041722800360127",
    "geocoded_column": {
      "latitude": "30.041722800360127",
      "longitude": "-89.97134310045828"
    }
  },
  {
    "service_request": "2023-1051563",
    "request_type": "Roads/Drainage",
    "request_reason": "Debris in Roadway",
    "date_created": "2023-11-22T12:25:57.000",
    "date_modified": "2023-11-22T12:25:58.000",
    "request_status": "Pending",
    "responsible_agency": "Department of Public Works",
    "final_address": "ANDOVER DR & READ BLVD & PLAINFIELD DR",
    "address_councildis": "E",
    "status": "Pending",
    "rowid": "1051563",
    "final_x": "3709627.7",
    "final_y": "562434.18",
    "longitude": "-89.97809948363015",
    "latitude": "30.039613920533373",
    "geocoded_column": {
      "latitude": "30.039613920533373",
      "longitude": "-89.97809948363015"
    }
  },
  {
    "service_request": "2023-1051562",
    "request_type": "Trash/Recycling",
    "request_reason": "Repair Trash Cart",
    "date_created": "2023-11-22T12:17:11.000",
    "date_modified": "2023-11-22T12:17:11.000",
    "request_status": "Pending",
    "responsible_agency": "Department of Sanitation",
    "final_address": "3055 Orleans Ave",
    "address_councildis": "A",
    "status": "Assigned to Contractor",
    "contractor": "Richards Disposal",
    "rowid": "1051562",
    "final_x": "3675416.18382",
    "final_y": "538109.440265",
    "longitude": "-90.0870545345888",
    "latitude": "29.973797735788725",
    "geocoded_column": {
      "latitude": "29.973797735788725",
      "longitude": "-90.0870545345888"
    }
  },
  {
    "service_request": "2023-1051561",
    "request_type": "Trash/Recycling",
    "request_reason": "MIssed Recycling Pick-Up",
    "date_created": "2023-11-22T12:06:28.000",
    "date_modified": "2023-11-22T14:39:36.000",
    "case_close_date": "2023-11-21T18:00:00.000",
    "request_status": "Closed",
    "responsible_agency": "Department of Sanitation",
    "final_address": "4804 Crowder Blvd",
    "address_councildis": "E",
    "status": "Assigned to Contractor",
    "contractor": "Waste Pro",
    "contractor_action": "Invalid Pick-Up",
    "rowid": "1051561",
    "final_x": "3706295.12011",
    "final_y": "555980.839641",
    "longitude": "-89.98887065598569",
    "latitude": "30.02197772026598",
    "geocoded_column": {
      "latitude": "30.02197772026598",
      "longitude": "-89.98887065598569"
    }
  },
  {
    "service_request": "2023-1051560",
    "request_type": "Trash/Recycling",
    "request_reason": "Repair Trash Cart",
    "date_created": "2023-11-22T12:00:31.000",
    "date_modified": "2023-11-22T12:00:32.000",
    "request_status": "Pending",
    "responsible_agency": "Department of Sanitation",
    "final_address": "4800 Lennox Blvd",
    "address_councildis": "C",
    "status": "Assigned to Contractor",
    "contractor": "Richards Disposal",
    "rowid": "1051560",
    "final_x": "3700811.23575",
    "final_y": "512471.298353",
    "longitude": "-90.00778861587683",
    "latitude": "29.902517875834917",
    "geocoded_column": {
      "latitude": "29.902517875834917",
      "longitude": "-90.00778861587683"
    }
  },
  {
    "service_request": "2023-1051559",
    "request_type": "Trash/Recycling",
    "request_reason": "Repair Trash Cart",
    "date_created": "2023-11-22T11:58:56.000",
    "date_modified": "2023-11-22T11:58:56.000",
    "request_status": "Pending",
    "responsible_agency": "Department of Sanitation",
    "final_address": "2480 Hyman Pl",
    "address_councildis": "C",
    "status": "Assigned to Contractor",
    "contractor": "Richards Disposal",
    "rowid": "1051559",
    "final_x": "3701116.35409",
    "final_y": "521752.94233",
    "longitude": "-90.00648648230148",
    "latitude": "29.92802952106922",
    "geocoded_column": {
      "latitude": "29.92802952106922",
      "longitude": "-90.00648648230148"
    }
  },
  {
    "service_request": "2023-1051558",
    "request_type": "Trash/Recycling",
    "request_reason": "Repair Trash Cart",
    "date_created": "2023-11-22T11:50:32.000",
    "date_modified": "2023-11-22T11:50:33.000",
    "request_status": "Pending",
    "responsible_agency": "Department of Sanitation",
    "final_address": "2931 Broadway St",
    "address_councildis": "B",
    "status": "Assigned to Contractor",
    "contractor": "Richards Disposal",
    "rowid": "1051558",
    "final_x": "3667671.04237",
    "final_y": "531754.864643",
    "longitude": "-90.11172943459397",
    "latitude": "29.956554118565435",
    "geocoded_column": {
      "latitude": "29.956554118565435",
      "longitude": "-90.11172943459397"
    }
  },
  {
    "service_request": "2023-1051557",
    "request_type": "Trash/Recycling",
    "request_reason": "Return Recycling Cart",
    "date_created": "2023-11-22T11:39:45.000",
    "date_modified": "2023-11-22T11:39:45.000",
    "request_status": "Pending",
    "responsible_agency": "Department of Sanitation",
    "final_address": "4776 Charlene Dr",
    "address_councildis": "E",
    "status": "Pending",
    "rowid": "1051557",
    "final_x": "3707817.80312",
    "final_y": "555795.969305",
    "longitude": "-89.984066287812",
    "latitude": "30.021420185255586",
    "geocoded_column": {
      "latitude": "30.021420185255586",
      "longitude": "-89.984066287812"
    }
  },
  {
    "service_request": "2023-1051556",
    "request_type": "Abandoned Vehicles",
    "request_reason": "Abandoned/Junk Vehicles",
    "date_created": "2023-11-22T11:38:14.000",
    "date_modified": "2023-11-22T11:42:28.000",
    "request_status": "Pending",
    "responsible_agency": "Department of Public Works",
    "final_address": "200 BLK Bienville St",
    "address_councildis": "C",
    "status": "Inspected",
    "rowid": "1051556",
    "final_x": "3682591.50683",
    "final_y": "530596.526849",
    "longitude": "-90.06465602552304",
    "latitude": "29.952923259254963",
    "geocoded_column": {
      "latitude": "29.952923259254963",
      "longitude": "-90.06465602552304"
    }
  },
  {
    "service_request": "2023-1051555",
    "request_type": "Trash/Recycling",
    "request_reason": "MIssed Recycling Pick-Up",
    "date_created": "2023-11-22T11:31:46.000",
    "date_modified": "2023-11-22T14:50:09.000",
    "case_close_date": "2023-11-22T08:50:09.000",
    "request_status": "Closed",
    "responsible_agency": "Department of Sanitation",
    "final_address": "4776 Charlene Dr",
    "address_councildis": "E",
    "status": "Assigned to Contractor",
    "contractor": "Waste Pro",
    "contractor_action": "Resolve Issues ",
    "rowid": "1051555",
    "final_x": "3707817.80312",
    "final_y": "555795.969305",
    "longitude": "-89.984066287812",
    "latitude": "30.021420185255586",
    "geocoded_column": {
      "latitude": "30.021420185255586",
      "longitude": "-89.984066287812"
    }
  },
  {
    "service_request": "2023-1051554",
    "request_type": "Roads/Drainage",
    "request_reason": "Pothole",
    "date_created": "2023-11-22T11:29:26.000",
    "date_modified": "2023-11-22T11:29:59.000",
    "case_close_date": "2023-11-22T05:29:59.000",
    "request_status": "Closed",
    "responsible_agency": "Department of Public Works",
    "final_address": "1818 Carondelet St",
    "address_councildis": "B",
    "status": "Resolved",
    "rowid": "1051554",
    "final_x": "3678156.47176",
    "final_y": "524665.320444",
    "longitude": "-90.07886494896162",
    "latitude": "29.936748689055403",
    "geocoded_column": {
      "latitude": "29.936748689055403",
      "longitude": "-90.07886494896162"
    }
  },
  {
    "service_request": "2023-1051553",
    "request_type": "Trash/Recycling",
    "request_reason": "Request a Large Item Pick Up",
    "date_created": "2023-11-22T11:28:10.000",
    "date_modified": "2023-11-22T14:24:40.000",
    "case_close_date": "2023-11-22T08:24:40.000",
    "request_status": "Closed",
    "responsible_agency": "Department of Sanitation",
    "final_address": "5813 E Louis Prima Dr",
    "address_councildis": "E",
    "status": "Assigned to Contractor",
    "contractor": "Waste Pro",
    "contractor_action": "Completed",
    "rowid": "1051553",
    "final_x": "3715868.22008",
    "final_y": "562775.9",
    "longitude": "-89.95836481488983",
    "latitude": "30.040349088361744",
    "geocoded_column": {
      "latitude": "30.040349088361744",
      "longitude": "-89.95836481488983"
    }
  },
  {
    "service_request": "2023-1051552",
    "request_type": "Trash/Recycling",
    "request_reason": "Order Trash Cart",
    "date_created": "2023-11-22T11:26:14.000",
    "date_modified": "2023-11-22T11:26:15.000",
    "request_status": "Pending",
    "responsible_agency": "Department of Sanitation",
    "final_address": "2528 Martin Luther King, Jr. Blvd",
    "address_councildis": "B",
    "status": "Assigned to Contractor",
    "contractor": "Richards Disposal",
    "rowid": "1051552",
    "final_x": "3676159.96494",
    "final_y": "527366.951039",
    "longitude": "-90.08507510489954",
    "latitude": "29.944237235092423",
    "geocoded_column": {
      "latitude": "29.944237235092423",
      "longitude": "-90.08507510489954"
    }
  },
  {
    "service_request": "2023-1051551",
    "request_type": "Roads/Drainage",
    "request_reason": "Pothole",
    "date_created": "2023-11-22T11:24:53.000",
    "date_modified": "2023-11-22T11:24:53.000",
    "request_status": "Pending",
    "responsible_agency": "Department of Public Works",
    "final_address": "4705 Duplessis St",
    "address_councildis": "D",
    "status": "Pending",
    "rowid": "1051551",
    "final_x": "3678257.02357",
    "final_y": "549834.786196",
    "longitude": "-90.07767673550649",
    "latitude": "30.005953066271076",
    "geocoded_column": {
      "latitude": "30.005953066271076",
      "longitude": "-90.07767673550649"
    }
  },
  {
    "service_request": "2023-1051550",
    "request_type": "Trash/Recycling",
    "request_reason": "Missed Trash Pick-Up",
    "date_created": "2023-11-22T11:21:32.000",
    "date_modified": "2023-11-22T11:21:33.000",
    "request_status": "Pending",
    "responsible_agency": "Department of Sanitation",
    "final_address": "2611 Burdette St",
    "address_councildis": "A",
    "status": "Assigned to Contractor",
    "contractor": "Richards Disposal",
    "rowid": "1051550",
    "final_x": "3666375.4914",
    "final_y": "531424.583491",
    "longitude": "-90.11583145851121",
    "latitude": "29.95568386852713",
    "geocoded_column": {
      "latitude": "29.95568386852713",
      "longitude": "-90.11583145851121"
    }
  },
  {
    "service_request": "2023-1051549",
    "request_type": "Roads/Drainage",
    "request_reason": "Pothole",
    "date_created": "2023-11-22T11:17:10.000",
    "date_modified": "2023-11-22T11:17:37.000",
    "case_close_date": "2023-11-22T05:17:37.000",
    "request_status": "Closed",
    "responsible_agency": "Department of Public Works",
    "final_address": "3900 BLK N Rocheblave St",
    "address_councildis": "D",
    "status": "Resolved",
    "rowid": "1051549",
    "final_x": "3692864.47578",
    "final_y": "540239.560057",
    "longitude": "-90.03187282513811",
    "latitude": "29.979121447040562",
    "geocoded_column": {
      "latitude": "29.979121447040562",
      "longitude": "-90.03187282513811"
    }
  },
  {
    "service_request": "2023-1051548",
    "request_type": "Trash/Recycling",
    "request_reason": "Request a Large Item Pick Up",
    "date_created": "2023-11-22T11:13:05.000",
    "date_modified": "2023-11-22T14:26:41.000",
    "case_close_date": "2023-11-22T08:26:41.000",
    "request_status": "Closed",
    "responsible_agency": "Department of Sanitation",
    "final_address": "5741 Waterford Blvd",
    "address_councildis": "E",
    "status": "Assigned to Contractor",
    "contractor": "Waste Pro",
    "contractor_action": "Completed",
    "rowid": "1051548",
    "final_x": "3714096.56229",
    "final_y": "560930.37667",
    "longitude": "-89.96403346983818",
    "latitude": "30.035332976841016",
    "geocoded_column": {
      "latitude": "30.035332976841016",
      "longitude": "-89.96403346983818"
    }
  },
  {
    "service_request": "2023-1051547",
    "request_type": "Roads/Drainage",
    "request_reason": "Pothole",
    "date_created": "2023-11-22T11:12:47.000",
    "date_modified": "2023-11-22T11:13:06.000",
    "case_close_date": "2023-11-22T05:13:06.000",
    "request_status": "Closed",
    "responsible_agency": "Department of Public Works",
    "final_address": "600 BLK Canal St",
    "address_councildis": "C",
    "status": "Resolved",
    "rowid": "1051547",
    "final_x": "3681278.14102",
    "final_y": "530656.606782",
    "longitude": "-90.06880095873856",
    "latitude": "29.953128377964394",
    "geocoded_column": {
      "latitude": "29.953128377964394",
      "longitude": "-90.06880095873856"
    }
  },
  {
    "service_request": "2023-1051546",
    "request_type": "Trash/Recycling",
    "request_reason": "Order Trash Cart",
    "date_created": "2023-11-22T11:08:48.000",
    "date_modified": "2023-11-22T11:08:49.000",
    "request_status": "Pending",
    "responsible_agency": "Department of Sanitation",
    "final_address": "1026 Franklin Ave",
    "address_councildis": "C",
    "status": "Assigned to Contractor",
    "contractor": "IV Waste",
    "rowid": "1051546",
    "final_x": "3687055.61858",
    "final_y": "536321.362247",
    "longitude": "-90.05035796659716",
    "latitude": "29.968527915302403",
    "geocoded_column": {
      "latitude": "29.968527915302403",
      "longitude": "-90.05035796659716"
    }
  },
  {
    "service_request": "2023-1051545",
    "request_type": "Trash/Recycling",
    "request_reason": "MIssed Recycling Pick-Up",
    "date_created": "2023-11-22T11:08:01.000",
    "date_modified": "2023-11-22T11:08:02.000",
    "request_status": "Pending",
    "responsible_agency": "Department of Sanitation",
    "final_address": "110 Constitution St",
    "address_councildis": "C",
    "status": "Assigned to Contractor",
    "contractor": "Richards Disposal",
    "rowid": "1051545",
    "final_x": "3693820.84323",
    "final_y": "528226.180224",
    "longitude": "-90.02928407660094",
    "latitude": "29.946058982242185",
    "geocoded_column": {
      "latitude": "29.946058982242185",
      "longitude": "-90.02928407660094"
    }
  },
  {
    "service_request": "2023-1051544",
    "request_type": "Trash/Recycling",
    "request_reason": "Request a Large Item Pick Up",
    "date_created": "2023-11-22T11:07:04.000",
    "date_modified": "2023-11-22T11:07:05.000",
    "request_status": "Pending",
    "responsible_agency": "Department of Sanitation",
    "final_address": "4135 Prytania St",
    "address_councildis": "B",
    "status": "Assigned to Contractor",
    "contractor": "Richards Disposal",
    "rowid": "1051544",
    "final_x": "3671717.68353",
    "final_y": "520447.069176",
    "longitude": "-90.09933596903022",
    "latitude": "29.925342115335056",
    "geocoded_column": {
      "latitude": "29.925342115335056",
      "longitude": "-90.09933596903022"
    }
  },
  {
    "service_request": "2023-1051543",
    "request_type": "Trash/Recycling",
    "request_reason": "Order Recycling Cart",
    "date_created": "2023-11-22T11:04:09.000",
    "date_modified": "2023-11-22T11:04:10.000",
    "request_status": "Pending",
    "responsible_agency": "Department of Sanitation",
    "final_address": "4135 Prytania St",
    "address_councildis": "B",
    "status": "Pending",
    "rowid": "1051543",
    "final_x": "3671717.68353",
    "final_y": "520447.069176",
    "longitude": "-90.09933596903022",
    "latitude": "29.925342115335056",
    "geocoded_column": {
      "latitude": "29.925342115335056",
      "longitude": "-90.09933596903022"
    }
  },
  {
    "service_request": "2023-1051542",
    "request_type": "Trash/Recycling",
    "request_reason": "Return Trash Cart",
    "date_created": "2023-11-22T11:01:48.000",
    "date_modified": "2023-11-22T11:01:49.000",
    "request_status": "Pending",
    "responsible_agency": "Department of Sanitation",
    "final_address": "2021 Royal St",
    "address_councildis": "C",
    "status": "Assigned to Contractor",
    "contractor": "IV Waste",
    "rowid": "1051542",
    "final_x": "3684527.59791",
    "final_y": "534848.98311",
    "longitude": "-90.05839331258237",
    "latitude": "29.964556970942553",
    "geocoded_column": {
      "latitude": "29.964556970942553",
      "longitude": "-90.05839331258237"
    }
  },
  {
    "service_request": "2023-1051541",
    "request_type": "Trash/Recycling",
    "request_reason": "Request a Large Item Pick Up",
    "date_created": "2023-11-22T10:59:59.000",
    "date_modified": "2023-11-22T11:00:00.000",
    "request_status": "Pending",
    "responsible_agency": "Department of Sanitation",
    "final_address": "1310 St Roch Ave",
    "address_councildis": "C",
    "status": "Assigned to Contractor",
    "contractor": "IV Waste",
    "rowid": "1051541",
    "final_x": "3686360.40591",
    "final_y": "537254.325384",
    "longitude": "-90.05252054573282",
    "latitude": "29.971114624003693",
    "geocoded_column": {
      "latitude": "29.971114624003693",
      "longitude": "-90.05252054573282"
    }
  },
  {
    "service_request": "2023-1051540",
    "request_type": "Trash/Recycling",
    "request_reason": "Request a Large Item Pick Up",
    "date_created": "2023-11-22T10:57:41.000",
    "date_modified": "2023-11-22T10:57:41.000",
    "request_status": "Pending",
    "responsible_agency": "Department of Sanitation",
    "final_address": "427 14Th St",
    "address_councildis": "A",
    "status": "Assigned to Contractor",
    "contractor": "IV Waste",
    "rowid": "1051540",
    "final_x": "3664555.28634",
    "final_y": "548211.382802",
    "longitude": "-90.1210182264366",
    "latitude": "30.001895006678378",
    "geocoded_column": {
      "latitude": "30.001895006678378",
      "longitude": "-90.1210182264366"
    }
  },
  {
    "service_request": "2023-1051539",
    "request_type": "Traffic Signals/Signs/Striping/Streetlights",
    "request_reason": "Traffic Sign Missing/Damaged",
    "date_created": "2023-11-22T10:56:00.000",
    "date_modified": "2023-11-22T10:56:00.000",
    "request_status": "Pending",
    "responsible_agency": "Department of Public Works",
    "final_address": "2900 BLK Palmer Ave",
    "address_councildis": "A",
    "status": "Pending",
    "rowid": "1051539",
    "final_x": "3667057.92503",
    "final_y": "527278.9846",
    "longitude": "-90.11381588747977",
    "latitude": "29.944264863524907",
    "geocoded_column": {
      "latitude": "29.944264863524907",
      "longitude": "-90.11381588747977"
    }
  },
  {
    "service_request": "2023-1051538",
    "request_type": "Trash/Recycling",
    "request_reason": "Repair Trash Cart",
    "date_created": "2023-11-22T10:53:16.000",
    "date_modified": "2023-11-22T15:00:45.000",
    "case_close_date": "2023-11-22T09:00:45.000",
    "request_status": "Closed",
    "responsible_agency": "Department of Sanitation",
    "final_address": "4682 Evangeline Dr",
    "address_councildis": "E",
    "status": "Assigned to Contractor",
    "contractor": "Waste Pro",
    "contractor_action": "Resolve Issues ",
    "rowid": "1051538",
    "final_x": "3709072.51064",
    "final_y": "555425.061657",
    "longitude": "-89.9801156322122",
    "latitude": "30.02035964943668",
    "geocoded_column": {
      "latitude": "30.02035964943668",
      "longitude": "-89.9801156322122"
    }
  },
  {
    "service_request": "2023-1051537",
    "request_type": "Trash/Recycling",
    "request_reason": "Missed Trash Pick-Up",
    "date_created": "2023-11-22T10:49:48.000",
    "date_modified": "2023-11-22T14:40:06.000",
    "case_close_date": "2023-11-22T08:40:06.000",
    "request_status": "Closed",
    "responsible_agency": "Department of Sanitation",
    "final_address": "4338 Eastview Dr",
    "address_councildis": "E",
    "status": "Assigned to Contractor",
    "contractor": "Waste Pro",
    "contractor_action": "Resolve Issues ",
    "rowid": "1051537",
    "final_x": "3705200.33086",
    "final_y": "553259.529175",
    "longitude": "-89.99243050673708",
    "latitude": "30.01453044009493",
    "geocoded_column": {
      "latitude": "30.01453044009493",
      "longitude": "-89.99243050673708"
    }
  },
  {
    "service_request": "2023-1051536",
    "request_type": "Traffic Signals/Signs/Striping/Streetlights",
    "request_reason": "Street Light Outage/Malfunction",
    "date_created": "2023-11-22T10:42:40.000",
    "date_modified": "2023-11-22T10:42:41.000",
    "request_status": "Pending",
    "responsible_agency": "Department of Public Works",
    "final_address": "547 Baronne St",
    "address_councildis": "B",
    "status": "Assigned to Contractor",
    "contractor": "Legacy Professional Services",
    "rowid": "1051536",
    "final_x": "3679801.53653",
    "final_y": "529192.781888",
    "longitude": "-90.07351425149481",
    "latitude": "29.9491480761366",
    "geocoded_column": {
      "latitude": "29.9491480761366",
      "longitude": "-90.07351425149481"
    }
  },
  {
    "service_request": "2023-1051535",
    "request_type": "Roads/Drainage",
    "request_reason": "Road Shoulder Repair",
    "date_created": "2023-11-22T10:41:18.000",
    "date_modified": "2023-11-22T10:41:57.000",
    "case_close_date": "2023-11-22T04:41:57.000",
    "request_status": "Closed",
    "responsible_agency": "Department of Public Works",
    "final_address": "RAY AVE & CHEF MENTEUR HWY",
    "address_councildis": "E",
    "status": "Resolved",
    "rowid": "1051535",
    "final_x": "3699023.3",
    "final_y": "551837.78",
    "longitude": "-90.0119985711506",
    "latitude": "30.01081847936158",
    "geocoded_column": {
      "latitude": "30.01081847936158",
      "longitude": "-90.0119985711506"
    }
  },
  {
    "service_request": "2023-1051533",
    "request_type": "Traffic Signals/Signs/Striping/Streetlights",
    "request_reason": "Street Light Outage/Malfunction",
    "date_created": "2023-11-22T10:39:50.000",
    "date_modified": "2023-11-22T10:39:51.000",
    "request_status": "Pending",
    "responsible_agency": "Department of Public Works",
    "final_address": "422 S Pierce St",
    "address_councildis": "B",
    "status": "Assigned to Contractor",
    "contractor": "Legacy Professional Services",
    "rowid": "1051533",
    "final_x": "3670646.13531",
    "final_y": "536878.863176",
    "longitude": "-90.10216119025254",
    "latitude": "29.97055585765077",
    "geocoded_column": {
      "latitude": "29.97055585765077",
      "longitude": "-90.10216119025254"
    }
  },
  {
    "service_request": "2023-1051532",
    "request_type": "Roads/Drainage",
    "request_reason": "Catch Basin - Clogged",
    "date_created": "2023-11-22T10:36:54.000",
    "date_modified": "2023-11-22T10:37:29.000",
    "case_close_date": "2023-11-22T04:37:29.000",
    "request_status": "Closed",
    "responsible_agency": "Department of Public Works",
    "final_address": "4600 Bienville Ave",
    "address_councildis": "A",
    "status": "Resolved",
    "rowid": "1051532",
    "final_x": "3669828.11092",
    "final_y": "540228.950091",
    "longitude": "-90.1046311631113",
    "latitude": "29.97979160972628",
    "geocoded_column": {
      "latitude": "29.97979160972628",
      "longitude": "-90.1046311631113"
    }
  },
  {
    "service_request": "2023-1051531",
    "request_type": "Roads/Drainage",
    "request_reason": "Road Shoulder Repair",
    "date_created": "2023-11-22T10:34:59.000",
    "date_modified": "2023-11-22T10:35:36.000",
    "case_close_date": "2023-11-22T04:35:36.000",
    "request_status": "Closed",
    "responsible_agency": "Department of Public Works",
    "final_address": "3700 BLK Coliseum St",
    "address_councildis": "B",
    "status": "Resolved",
    "rowid": "1051531",
    "final_x": "3673270.46904",
    "final_y": "520108.292576",
    "longitude": "-90.09444586638485",
    "latitude": "29.92436451559009",
    "geocoded_column": {
      "latitude": "29.92436451559009",
      "longitude": "-90.09444586638485"
    }
  },
  {
    "service_request": "2023-1051530",
    "request_type": "Roads/Drainage",
    "request_reason": "Catch Basin - Clogged",
    "date_created": "2023-11-22T10:33:04.000",
    "date_modified": "2023-11-22T10:33:54.000",
    "case_close_date": "2023-11-22T04:33:54.000",
    "request_status": "Closed",
    "responsible_agency": "Department of Public Works",
    "final_address": "2734 State St",
    "address_councildis": "A",
    "status": "Resolved",
    "rowid": "1051530",
    "final_x": "3667048.83117",
    "final_y": "526676.22515",
    "longitude": "-90.11386485320307",
    "latitude": "29.94260773564366",
    "geocoded_column": {
      "latitude": "29.94260773564366",
      "longitude": "-90.11386485320307"
    }
  },
  {
    "service_request": "2023-1051529",
    "request_type": "Roads/Drainage",
    "request_reason": "Pothole",
    "date_created": "2023-11-22T10:31:06.000",
    "date_modified": "2023-11-22T10:31:37.000",
    "case_close_date": "2023-11-22T04:31:37.000",
    "request_status": "Closed",
    "responsible_agency": "Department of Public Works",
    "final_address": "2014 State St",
    "address_councildis": "A",
    "status": "Resolved",
    "rowid": "1051529",
    "final_x": "3666247.61236",
    "final_y": "524216.445308",
    "longitude": "-90.11647697104326",
    "latitude": "29.935867551516097",
    "geocoded_column": {
      "latitude": "29.935867551516097",
      "longitude": "-90.11647697104326"
    }
  },
  {
    "service_request": "2023-1051528",
    "request_type": "Roads/Drainage",
    "request_reason": "Pothole",
    "date_created": "2023-11-22T10:29:55.000",
    "date_modified": "2023-11-22T10:30:25.000",
    "case_close_date": "2023-11-22T04:30:25.000",
    "request_status": "Closed",
    "responsible_agency": "Department of Public Works",
    "final_address": "2035 State St",
    "address_councildis": "A",
    "status": "Resolved",
    "rowid": "1051528",
    "final_x": "3666433.70125",
    "final_y": "524330.334268",
    "longitude": "-90.11588566246017",
    "latitude": "29.936175274502922",
    "geocoded_column": {
      "latitude": "29.936175274502922",
      "longitude": "-90.11588566246017"
    }
  },
  {
    "service_request": "2023-1051527",
    "request_type": "Trash/Recycling",
    "request_reason": "Request a Large Item Pick Up",
    "date_created": "2023-11-22T10:28:37.000",
    "date_modified": "2023-11-22T10:28:38.000",
    "request_status": "Pending",
    "responsible_agency": "Department of Sanitation",
    "final_address": "1117 N Villere St",
    "address_councildis": "C",
    "status": "Assigned to Contractor",
    "contractor": "Richards Disposal",
    "rowid": "1051527",
    "final_x": "3681270.47164",
    "final_y": "535506.907078",
    "longitude": "-90.06865614039604",
    "latitude": "29.96646528472436",
    "geocoded_column": {
      "latitude": "29.96646528472436",
      "longitude": "-90.06865614039604"
    }
  },
  {
    "service_request": "2023-1051526",
    "request_type": "Roads/Drainage",
    "request_reason": "Pothole",
    "date_created": "2023-11-22T10:16:10.000",
    "date_modified": "2023-11-22T10:16:40.000",
    "case_close_date": "2023-11-22T04:16:40.000",
    "request_status": "Closed",
    "responsible_agency": "Department of Public Works",
    "final_address": "3540 Wall Blvd",
    "address_councildis": "C",
    "status": "Resolved",
    "rowid": "1051526",
    "final_x": "3697157.78583",
    "final_y": "523866.786556",
    "longitude": "-90.01890615976214",
    "latitude": "29.933967315329255",
    "geocoded_column": {
      "latitude": "29.933967315329255",
      "longitude": "-90.01890615976214"
    }
  },
  {
    "service_request": "2023-1051525",
    "request_type": "Trash/Recycling",
    "request_reason": "Request a Large Item Pick Up",
    "date_created": "2023-11-22T10:14:19.000",
    "date_modified": "2023-11-22T14:36:26.000",
    "case_close_date": "2023-11-22T08:36:26.000",
    "request_status": "Closed",
    "responsible_agency": "Department of Sanitation",
    "final_address": "5526 Chatham Dr",
    "address_councildis": "D",
    "status": "Assigned to Contractor",
    "contractor": "IV Waste",
    "contractor_action": "Completed",
    "rowid": "1051525",
    "final_x": "3679651.79477",
    "final_y": "552795.272406",
    "longitude": "-90.07316746247655",
    "latitude": "30.014051238047564",
    "geocoded_column": {
      "latitude": "30.014051238047564",
      "longitude": "-90.07316746247655"
    }
  },
  {
    "service_request": "2023-1051524",
    "request_type": "Roads/Drainage",
    "request_reason": "Pothole",
    "date_created": "2023-11-22T10:11:09.000",
    "date_modified": "2023-11-22T10:11:51.000",
    "case_close_date": "2023-11-22T04:11:51.000",
    "request_status": "Closed",
    "responsible_agency": "Department of Public Works",
    "final_address": "327 Newton St",
    "address_councildis": "C",
    "status": "Resolved",
    "rowid": "1051524",
    "final_x": "3686424.0278",
    "final_y": "527858.427967",
    "longitude": "-90.0526512740584",
    "latitude": "29.945277185401412",
    "geocoded_column": {
      "latitude": "29.945277185401412",
      "longitude": "-90.0526512740584"
    }
  },
  {
    "service_request": "2023-1051523",
    "request_type": "Trash/Recycling",
    "request_reason": "Replace Trash Cart",
    "date_created": "2023-11-22T10:10:44.000",
    "date_modified": "2023-11-22T10:10:45.000",
    "request_status": "Pending",
    "responsible_agency": "Department of Sanitation",
    "final_address": "3512 Baronne St",
    "address_councildis": "B",
    "status": "Assigned to Contractor",
    "contractor": "Richards Disposal",
    "rowid": "1051523",
    "final_x": "3673426.57512",
    "final_y": "522000.527674",
    "longitude": "-90.09388848160509",
    "latitude": "29.92956291128205",
    "geocoded_column": {
      "latitude": "29.92956291128205",
      "longitude": "-90.09388848160509"
    }
  },
  {
    "service_request": "2023-1051522",
    "request_type": "Traffic Signals/Signs/Striping/Streetlights",
    "request_reason": "Request for Stop Sign",
    "date_created": "2023-11-22T10:08:12.000",
    "date_modified": "2023-11-22T10:08:12.000",
    "request_status": "Pending",
    "responsible_agency": "Department of Public Works",
    "final_address": "1301 Poland Ave",
    "address_councildis": "D",
    "status": "Pending",
    "rowid": "1051522",
    "final_x": "3693302.52841",
    "final_y": "535740.128391",
    "longitude": "-90.03065085225076",
    "latitude": "29.96673592334712",
    "geocoded_column": {
      "latitude": "29.96673592334712",
      "longitude": "-90.03065085225076"
    }
  },
  {
    "service_request": "2023-1051521",
    "request_type": "Trash/Recycling",
    "request_reason": "Repair Trash Cart",
    "date_created": "2023-11-22T10:04:42.000",
    "date_modified": "2023-11-22T10:04:43.000",
    "request_status": "Pending",
    "responsible_agency": "Department of Sanitation",
    "final_address": "1424 Seventh St",
    "address_councildis": "B",
    "status": "Assigned to Contractor",
    "contractor": "Richards Disposal",
    "rowid": "1051521",
    "final_x": "3675638.51912",
    "final_y": "521386.468345",
    "longitude": "-90.08692685204902",
    "latitude": "29.927808472136796",
    "geocoded_column": {
      "latitude": "29.927808472136796",
      "longitude": "-90.08692685204902"
    }
  },
  {
    "service_request": "2023-1051520",
    "request_type": "Roads/Drainage",
    "request_reason": "Pothole",
    "date_created": "2023-11-22T10:00:36.000",
    "date_modified": "2023-11-22T10:06:21.000",
    "case_close_date": "2023-11-22T04:06:21.000",
    "request_status": "Closed",
    "responsible_agency": "Department of Public Works",
    "final_address": "1900 BLK Newton St",
    "address_councildis": "C",
    "status": "Resolved",
    "rowid": "1051520",
    "final_x": "3691280.50487",
    "final_y": "527806.176459",
    "longitude": "-90.03731976110699",
    "latitude": "29.944983366912343",
    "geocoded_column": {
      "latitude": "29.944983366912343",
      "longitude": "-90.03731976110699"
    }
  },
  {
    "service_request": "2023-1051519",
    "request_type": "Trash/Recycling",
    "request_reason": "Request a Large Item Pick Up",
    "date_created": "2023-11-22T09:58:17.000",
    "date_modified": "2023-11-22T09:58:18.000",
    "request_status": "Pending",
    "responsible_agency": "Department of Sanitation",
    "final_address": "255 Belleville St",
    "address_councildis": "C",
    "status": "Assigned to Contractor",
    "contractor": "Richards Disposal",
    "rowid": "1051519",
    "final_x": "3687856.53724",
    "final_y": "530994.247682",
    "longitude": "-90.0480173410112",
    "latitude": "29.95385551437567",
    "geocoded_column": {
      "latitude": "29.95385551437567",
      "longitude": "-90.0480173410112"
    }
  },
  {
    "service_request": "2023-1051518",
    "request_type": "Abandoned Vehicles",
    "request_reason": "Abandoned/Junk Vehicles",
    "date_created": "2023-11-22T09:55:57.000",
    "date_modified": "2023-11-22T09:55:58.000",
    "request_status": "Pending",
    "responsible_agency": "Department of Public Works",
    "final_address": "617 S Solomon St",
    "address_councildis": "A",
    "status": "Pending",
    "rowid": "1051518",
    "final_x": "3669231.99239",
    "final_y": "537002.695304",
    "longitude": "-90.10662304486874",
    "latitude": "29.970938058598552",
    "geocoded_column": {
      "latitude": "29.970938058598552",
      "longitude": "-90.10662304486874"
    }
  },
  {
    "service_request": "2023-1051517",
    "request_type": "Property Maintenance",
    "request_reason": "Property Maintenance",
    "date_created": "2023-11-22T09:52:47.000",
    "date_modified": "2023-11-22T09:52:48.000",
    "request_status": "Pending",
    "responsible_agency": "Department of Code Enforcement",
    "final_address": "4926 Arthur Dr",
    "address_councildis": "E",
    "status": "Pending",
    "rowid": "1051517",
    "final_x": "3707504.27723",
    "final_y": "556664.386202",
    "longitude": "-89.98502464725401",
    "latitude": "30.023818141293418",
    "geocoded_column": {
      "latitude": "30.023818141293418",
      "longitude": "-89.98502464725401"
    }
  },
  {
    "service_request": "2023-1051516",
    "request_type": "Trash/Recycling",
    "request_reason": "Request a Large Item Pick Up",
    "date_created": "2023-11-22T09:50:56.000",
    "date_modified": "2023-11-22T09:50:57.000",
    "request_status": "Pending",
    "responsible_agency": "Department of Sanitation",
    "final_address": "2011 Camp St",
    "address_councildis": "B",
    "status": "Assigned to Contractor",
    "contractor": "Richards Disposal",
    "rowid": "1051516",
    "final_x": "3679182.50933",
    "final_y": "522834.092603",
    "longitude": "-90.07568915396513",
    "latitude": "29.931682488155037",
    "geocoded_column": {
      "latitude": "29.931682488155037",
      "longitude": "-90.07568915396513"
    }
  },
  {
    "service_request": "2023-1051515",
    "request_type": "Trash/Recycling",
    "request_reason": "Order Trash Cart",
    "date_created": "2023-11-22T09:50:11.000",
    "date_modified": "2023-11-22T09:50:12.000",
    "request_status": "Pending",
    "responsible_agency": "Department of Sanitation",
    "final_address": "1743 N Broad St",
    "address_councildis": "D",
    "status": "Assigned to Contractor",
    "contractor": "IV Waste",
    "rowid": "1051515",
    "final_x": "3679739.10927",
    "final_y": "541099.214796",
    "longitude": "-90.07329795722731",
    "latitude": "29.981888587344525",
    "geocoded_column": {
      "latitude": "29.981888587344525",
      "longitude": "-90.07329795722731"
    }
  },
  {
    "service_request": "2023-1051514",
    "request_type": "Trash/Recycling",
    "request_reason": "Order Recycling Cart",
    "date_created": "2023-11-22T09:47:51.000",
    "date_modified": "2023-11-22T09:47:51.000",
    "request_status": "Pending",
    "responsible_agency": "Department of Sanitation",
    "final_address": "11271 Asphodel Dr",
    "address_councildis": "E",
    "status": "Pending",
    "rowid": "1051514",
    "final_x": "3717798.04639",
    "final_y": "559874.903517",
    "longitude": "-89.95237649996562",
    "latitude": "30.032308707022644",
    "geocoded_column": {
      "latitude": "30.032308707022644",
      "longitude": "-89.95237649996562"
    }
  },
  {
    "service_request": "2023-1051513",
    "request_type": "Trash/Recycling",
    "request_reason": "Repair Trash Cart",
    "date_created": "2023-11-22T09:47:24.000",
    "date_modified": "2023-11-22T15:00:05.000",
    "case_close_date": "2023-11-22T09:00:05.000",
    "request_status": "Closed",
    "responsible_agency": "Department of Sanitation",
    "final_address": "11271 Asphodel Dr",
    "address_councildis": "E",
    "status": "Assigned to Contractor",
    "contractor": "Waste Pro",
    "contractor_action": "Resolve Issues ",
    "rowid": "1051513",
    "final_x": "3717798.04639",
    "final_y": "559874.903517",
    "longitude": "-89.95237649996562",
    "latitude": "30.032308707022644",
    "geocoded_column": {
      "latitude": "30.032308707022644",
      "longitude": "-89.95237649996562"
    }
  },
  {
    "service_request": "2023-1051512",
    "request_type": "Trash/Recycling",
    "request_reason": "Request a Large Item Pick Up",
    "date_created": "2023-11-22T09:44:03.000",
    "date_modified": "2023-11-22T09:44:04.000",
    "request_status": "Pending",
    "responsible_agency": "Department of Sanitation",
    "final_address": "4628 Pauger St",
    "address_councildis": "D",
    "status": "Assigned to Contractor",
    "contractor": "IV Waste",
    "rowid": "1051512",
    "final_x": "3682740.73596",
    "final_y": "549692.79362",
    "longitude": "-90.06351661076843",
    "latitude": "30.0054267741653",
    "geocoded_column": {
      "latitude": "30.0054267741653",
      "longitude": "-90.06351661076843"
    }
  },