[
  {
    "service_request": "2024-1120279",
    "request_type": "Trash/Recycling",
    "request_reason": "Replace Trash Cart",
    "date_created": "2024-08-08T22:45:36.000",
    "date_modified": "2024-08-08T22:45:38.000",
    "request_status": "Pending",
    "responsible_agency": "Department of Sanitation",
    "final_address": "3709 Silver Maple Ct",
    "address_councildis": "C",
    "status": "Assigned to Contractor",
    "contractor": "Richards Disposal",
    "rowid": "1120279",
    "final_x": "3703180.49201",
    "final_y": "512831.002353",
    "longitude": "-90.00029817632036",
    "latitude": "29.903431363483385",
    "geocoded_column": {
      "latitude": "29.903431363483385",
      "longitude": "-90.00029817632036"
    }
  },
  {
    "service_request": "2024-1120278",
    "request_type": "Trash/Recycling",
    "request_reason": "Order Recycling Cart",
    "date_created": "2024-08-08T22:44:36.000",
    "date_modified": "2024-08-08T22:44:36.000",
    "request_status": "Pending",
    "responsible_agency": "Department of Sanitation",
    "final_address": "3709 Silver Maple Ct",
    "address_councildis": "C",
    "status": "Pending",
    "rowid": "1120278",
    "final_x": "3703180.49201",
    "final_y": "512831.002353",
    "longitude": "-90.00029817632036",
    "latitude": "29.903431363483385",
    "geocoded_column": {
      "latitude": "29.903431363483385",
      "longitude": "-90.00029817632036"
    }
  },
  {
    "service_request": "2024-1120277",
    "request_type": "Traffic Signals/Signs/Striping/Streetlights",
    "request_reason": "Street Light Outage/Malfunction",
    "date_created": "2024-08-08T22:33:51.000",
    "date_modified": "2024-08-08T22:33:52.000",
    "request_status": "Pending",
    "responsible_agency": "Department of Public Works",
    "final_address": "6415 Perlita Dr",
    "address_councildis": "D",
    "status": "Assigned to Contractor",
    "contractor": "Legacy Professional Services",
    "rowid": "1120277",
    "final_x": "3677796.31419",
    "final_y": "556742.833754",
    "longitude": "-90.07889330034071",
    "latitude": "30.024961580586684",
    "geocoded_column": {
      "latitude": "30.024961580586684",
      "longitude": "-90.07889330034071"
    }
  },
  {
    "service_request": "2024-1120276",
    "request_type": "Roads/Drainage",
    "request_reason": "Street Flooding / Drainage",
    "date_created": "2024-08-08T22:21:55.000",
    "date_modified": "2024-08-08T22:21:55.000",
    "request_status": "Pending",
    "responsible_agency": "Department of Public Works",
    "final_address": "200 BLK N Norman C Francis Pkwy",
    "address_councildis": "B",
    "status": "Pending",
    "rowid": "1120276",
    "final_x": "3673503.46136",
    "final_y": "537266.060098",
    "longitude": "-90.09312417104654",
    "latitude": "29.971535791103978",
    "geocoded_column": {
      "latitude": "29.971535791103978",
      "longitude": "-90.09312417104654"
    }
  },
  {
    "service_request": "2024-1120275",
    "request_type": "Trash/Recycling",
    "request_reason": "Request a Large Item Pick Up",
    "date_created": "2024-08-08T22:19:51.000",
    "date_modified": "2024-08-08T22:19:52.000",
    "request_status": "Pending",
    "responsible_agency": "Department of Sanitation",
    "final_address": "1700 Richland Rd",
    "address_councildis": "C",
    "status": "Assigned to Contractor",
    "contractor": "Richards Disposal",
    "rowid": "1120275",
    "final_x": "3698018.5953",
    "final_y": "524816.657532",
    "longitude": "-90.01615416454896",
    "latitude": "29.936551952333026",
    "geocoded_column": {
      "latitude": "29.936551952333026",
      "longitude": "-90.01615416454896"
    }
  },
  {
    "service_request": "2024-1120274",
    "request_type": "Parks & Parkways",
    "request_reason": "Request Tree Service (Right of Way/Public Property)",
    "date_created": "2024-08-08T21:23:17.000",
    "date_modified": "2024-08-08T21:23:17.000",
    "request_status": "Pending",
    "responsible_agency": "Department of Parks & Parkway",
    "final_address": "2420 Dublin St",
    "address_councildis": "A",
    "status": "Pending",
    "rowid": "1120274",
    "final_x": "3664718.77594",
    "final_y": "531981.730499",
    "longitude": "-90.12104418874372",
    "latitude": "29.957264140465206",
    "geocoded_column": {
      "latitude": "29.957264140465206",
      "longitude": "-90.12104418874372"
    }
  },
  {
    "service_request": "2024-1120273",
    "request_type": "Trash/Recycling",
    "request_reason": "Request a Large Item Pick Up",
    "date_created": "2024-08-08T21:10:57.000",
    "date_modified": "2024-08-08T21:10:58.000",
    "request_status": "Pending",
    "responsible_agency": "Department of Sanitation",
    "final_address": "4321 Trieste St",
    "address_councildis": "E",
    "status": "Assigned to Contractor",
    "contractor": "Waste Pro",
    "rowid": "1120273",
    "final_x": "3760220.06697",
    "final_y": "573504.147946",
    "longitude": "-89.81775378901686",
    "latitude": "30.06830896010249",
    "geocoded_column": {
      "latitude": "30.06830896010249",
      "longitude": "-89.81775378901686"
    }
  },
  {
    "service_request": "2024-1120272",
    "request_type": "Abandoned Vehicles",
    "request_reason": "Abandoned/Junk Vehicles",
    "date_created": "2024-08-08T21:06:26.000",
    "date_modified": "2024-08-08T21:06:26.000",
    "request_status": "Pending",
    "responsible_agency": "Department of Public Works",
    "final_address": "2923 Annunciation St",
    "address_councildis": "B",
    "status": "Pending",
    "rowid": "1120272",
    "final_x": "3677041.22504",
    "final_y": "519538.703031",
    "longitude": "-90.08256250858915",
    "latitude": "29.922685687003884",
    "geocoded_column": {
      "latitude": "29.922685687003884",
      "longitude": "-90.08256250858915"
    }
  },
  {
    "service_request": "2024-1120271",
    "request_type": "Parks & Parkways",
    "request_reason": "Request Grass Cutting Service (City Owned Property)",
    "date_created": "2024-08-08T20:47:02.000",
    "date_modified": "2024-08-08T20:47:02.000",
    "request_status": "Pending",
    "responsible_agency": "Department of Parks & Parkway",
    "final_address": "7500 Benson St",
    "address_councildis": "E",
    "status": "Pending",
    "rowid": "1120271",
    "final_x": "3704429.9034",
    "final_y": "562245.347231",
    "longitude": "-89.9945329428918",
    "latitude": "30.03926271748268",
    "geocoded_column": {
      "latitude": "30.03926271748268",
      "longitude": "-89.9945329428918"
    }
  },
  {
    "service_request": "2024-1120270",
    "request_type": "Mosquito, Termite & Rodent Control",
    "request_reason": "Mosquito Complaint",
    "date_created": "2024-08-08T20:39:52.000",
    "date_modified": "2024-08-08T20:39:52.000",
    "request_status": "Pending",
    "responsible_agency": "Mosquito, Termite & Rodent Control Board",
    "final_address": "7514 Dominique Pl",
    "address_councildis": "E",
    "status": "Pending",
    "rowid": "1120270",
    "final_x": "3725483.30867",
    "final_y": "569860.015142",
    "longitude": "-89.92770380272081",
    "latitude": "30.059506695009446",
    "geocoded_column": {
      "latitude": "30.059506695009446",
      "longitude": "-89.92770380272081"
    }
  },
  {
    "service_request": "2024-1120269",
    "request_type": "Trash/Recycling",
    "request_reason": "Order Trash Cart",
    "date_created": "2024-08-08T20:33:20.000",
    "date_modified": "2024-08-08T20:33:21.000",
    "request_status": "Pending",
    "responsible_agency": "Department of Sanitation",
    "final_address": "2103 Baronne St",
    "address_councildis": "B",
    "status": "Assigned to Contractor",
    "contractor": "IV Waste",
    "rowid": "1120269",
    "final_x": "3677259.61998",
    "final_y": "524722.60198",
    "longitude": "-90.08169437831921",
    "latitude": "29.93693316231773",
    "geocoded_column": {
      "latitude": "29.93693316231773",
      "longitude": "-90.08169437831921"
    }
  },
  {
    "service_request": "2024-1120268",
    "request_type": "Trash/Recycling",
    "request_reason": "Order Recycling Cart",
    "date_created": "2024-08-08T20:32:04.000",
    "date_modified": "2024-08-08T20:32:04.000",
    "request_status": "Pending",
    "responsible_agency": "Department of Sanitation",
    "final_address": "2103 Baronne St",
    "address_councildis": "B",
    "status": "Pending",
    "rowid": "1120268",
    "final_x": "3677259.61998",
    "final_y": "524722.60198",
    "longitude": "-90.08169437831921",
    "latitude": "29.93693316231773",
    "geocoded_column": {
      "latitude": "29.93693316231773",
      "longitude": "-90.08169437831921"
    }
  },
  {
    "service_request": "2024-1120267",
    "request_type": "Trash/Recycling",
    "request_reason": "Request a Large Item Pick Up",
    "date_created": "2024-08-08T20:18:44.000",
    "date_modified": "2024-08-08T20:18:45.000",
    "request_status": "Pending",
    "responsible_agency": "Department of Sanitation",
    "final_address": "3423 Urquhart St, New Orleans, Louisiana, 70117",
    "address_councildis": "C",
    "status": "Assigned to Contractor",
    "contractor": "IV Waste",
    "rowid": "1120267",
    "final_x": "3690539.3743",
    "final_y": "536430.537927",
    "longitude": "-90.03935222848682",
    "latitude": "29.96872039451446",
    "geocoded_column": {
      "latitude": "29.96872039451446",
      "longitude": "-90.03935222848682"
    }
  },
  {
    "service_request": "2024-1120266",
    "request_type": "Trash/Recycling",
    "request_reason": "Repair Recycling Cart",
    "date_created": "2024-08-08T20:11:07.000",
    "date_modified": "2024-08-08T20:11:07.000",
    "request_status": "Pending",
    "responsible_agency": "Department of Sanitation",
    "final_address": "2623 Urquhart St",
    "address_councildis": "C",
    "status": "Pending",
    "rowid": "1120266",
    "final_x": "3687503.48335",
    "final_y": "537185.222472",
    "longitude": "-90.04891300925831",
    "latitude": "29.970889432677833",
    "geocoded_column": {
      "latitude": "29.970889432677833",
      "longitude": "-90.04891300925831"
    }
  },
  {
    "service_request": "2024-1120265",
    "request_type": "Trash/Recycling",
    "request_reason": "Replace Trash Cart",
    "date_created": "2024-08-08T20:07:38.000",
    "date_modified": "2024-08-08T20:07:39.000",
    "request_status": "Pending",
    "responsible_agency": "Department of Sanitation",
    "final_address": "307 S Pierce St",
    "address_councildis": "A",
    "status": "Assigned to Contractor",
    "contractor": "IV Waste",
    "rowid": "1120265",
    "final_x": "3670901.54734",
    "final_y": "537369.43956",
    "longitude": "-90.10133790940915",
    "latitude": "29.971897229209855",
    "geocoded_column": {
      "latitude": "29.971897229209855",
      "longitude": "-90.10133790940915"
    }
  },
  {
    "service_request": "2024-1120264",
    "request_type": "Traffic Signals/Signs/Striping/Streetlights",
    "request_reason": "Street Light Outage/Malfunction",
    "date_created": "2024-08-08T19:57:54.000",
    "date_modified": "2024-08-08T19:57:55.000",
    "request_status": "Pending",
    "responsible_agency": "Department of Public Works",
    "final_address": "FAIRWAY DR & NATALIE ST",
    "address_councildis": "A",
    "status": "Assigned to Contractor",
    "contractor": "Legacy Professional Services",
    "rowid": "1120264",
    "final_x": "3664163.02",
    "final_y": "540730.78",
    "longitude": "-90.12250716755241",
    "latitude": "29.98133729289003",
    "geocoded_column": {
      "latitude": "29.98133729289003",
      "longitude": "-90.12250716755241"
    }
  },
  {
    "service_request": "2024-1120263",
    "request_type": "Abandoned Vehicles",
    "request_reason": "Abandoned/Junk Vehicles",
    "date_created": "2024-08-08T19:52:12.000",
    "date_modified": "2024-08-08T19:52:12.000",
    "request_status": "Pending",
    "responsible_agency": "Department of Public Works",
    "final_address": "PEACH ST & MONROE ST",
    "address_councildis": "A",
    "status": "Pending",
    "rowid": "1120263",
    "final_x": "3667087.9",
    "final_y": "537162.68",
    "longitude": "-90.11338900951887",
    "latitude": "29.971440905105013",
    "geocoded_column": {
      "latitude": "29.971440905105013",
      "longitude": "-90.11338900951887"
    }
  },
  {
    "service_request": "2024-1120262",
    "request_type": "Trash/Recycling",
    "request_reason": "Request a Large Item Pick Up",
    "date_created": "2024-08-08T19:41:55.000",
    "date_modified": "2024-08-08T19:41:56.000",
    "request_status": "Pending",
    "responsible_agency": "Department of Sanitation",
    "final_address": "4663 Tulip St",
    "address_councildis": "E",
    "status": "Assigned to Contractor",
    "contractor": "Waste Pro",
    "rowid": "1120262",
    "final_x": "3702196.07549",
    "final_y": "553926.475415",
    "longitude": "-90.00189792511182",
    "latitude": "30.016460614140556",
    "geocoded_column": {
      "latitude": "30.016460614140556",
      "longitude": "-90.00189792511182"
    }
  },
  {
    "service_request": "2024-1120261",
    "request_type": "Roads/Drainage",
    "request_reason": "Catch Basin - Clogged",
    "date_created": "2024-08-08T19:41:33.000",
    "date_modified": "2024-08-08T19:41:33.000",
    "request_status": "Pending",
    "responsible_agency": "Department of Public Works",
    "final_address": "8817 Oleander St",
    "address_councildis": "A",
    "status": "Pending",
    "rowid": "1120261",
    "final_x": "3664834.84525",
    "final_y": "535474.668934",
    "longitude": "-90.12056093632819",
    "latitude": "29.966865198498713",
    "geocoded_column": {
      "latitude": "29.966865198498713",
      "longitude": "-90.12056093632819"
    }
  },
  {
    "service_request": "2024-1120260",
    "request_type": "Roads/Drainage",
    "request_reason": "Catch Basin - Clogged",
    "date_created": "2024-08-08T19:38:46.000",
    "date_modified": "2024-08-08T19:38:46.000",
    "request_status": "Pending",
    "responsible_agency": "Department of Public Works",
    "final_address": "8635 Colapissa St",
    "address_councildis": "A",
    "status": "Pending",
    "rowid": "1120260",
    "final_x": "3665040.99847",
    "final_y": "534813.13479",
    "longitude": "-90.11993202484481",
    "latitude": "29.96504019642911",
    "geocoded_column": {
      "latitude": "29.96504019642911",
      "longitude": "-90.11993202484481"
    }
  },
  {
    "service_request": "2024-1120259",
    "request_type": "Traffic Signals/Signs/Striping/Streetlights",
    "request_reason": "Street Light Outage/Malfunction",
    "date_created": "2024-08-08T19:34:02.000",
    "date_modified": "2024-08-08T19:34:02.000",
    "request_status": "Pending",
    "responsible_agency": "Department of Public Works",
    "final_address": "631 St Charles Ave",
    "address_councildis": "B",
    "status": "Assigned to Contractor",
    "contractor": "Legacy Professional Services",
    "rowid": "1120259",
    "final_x": "3680497.04245",
    "final_y": "528650.484288",
    "longitude": "-90.07133709325811",
    "latitude": "29.947635894986135",
    "geocoded_column": {
      "latitude": "29.947635894986135",
      "longitude": "-90.07133709325811"
    }
  },
  {
    "service_request": "2024-1120258",
    "request_type": "Trash/Recycling",
    "request_reason": "Order Trash Cart",
    "date_created": "2024-08-08T18:54:15.000",
    "date_modified": "2024-08-08T18:54:16.000",
    "request_status": "Pending",
    "responsible_agency": "Department of Sanitation",
    "final_address": "7624 Woodbine Dr",
    "address_councildis": "E",
    "status": "Assigned to Contractor",
    "contractor": "Waste Pro",
    "rowid": "1120258",
    "final_x": "3701920.17341",
    "final_y": "561385.35875",
    "longitude": "-90.00249593395945",
    "latitude": "30.036978475790548",
    "geocoded_column": {
      "latitude": "30.036978475790548",
      "longitude": "-90.00249593395945"
    }
  },
  {
    "service_request": "2024-1120257",
    "request_type": "Trash/Recycling",
    "request_reason": "Replace Trash Cart",
    "date_created": "2024-08-08T18:27:52.000",
    "date_modified": "2024-08-08T18:27:53.000",
    "request_status": "Pending",
    "responsible_agency": "Department of Sanitation",
    "final_address": "1415 Cadiz St",
    "address_councildis": "B",
    "status": "Assigned to Contractor",
    "contractor": "IV Waste",
    "rowid": "1120257",
    "final_x": "3670194.42606",
    "final_y": "520336.638584",
    "longitude": "-90.10414816717436",
    "latitude": "29.92508348560516",
    "geocoded_column": {
      "latitude": "29.92508348560516",
      "longitude": "-90.10414816717436"
    }
  },
  {
    "service_request": "2024-1120256",
    "request_type": "Trash/Recycling",
    "request_reason": "Request a Large Item Pick Up",
    "date_created": "2024-08-08T18:27:31.000",
    "date_modified": "2024-08-08T18:27:32.000",
    "request_status": "Pending",
    "responsible_agency": "Department of Sanitation",
    "final_address": "5403 Shirley Taylor St",
    "address_councildis": "E",
    "status": "Assigned to Contractor",
    "contractor": "Waste Pro",
    "rowid": "1120256",
    "final_x": "3698559.97712",
    "final_y": "538873.268105",
    "longitude": "-90.0139340209676",
    "latitude": "29.975185534204194",
    "geocoded_column": {
      "latitude": "29.975185534204194",
      "longitude": "-90.0139340209676"
    }
  },
  {
    "service_request": "2024-1120255",
    "request_type": "Abandoned Vehicles",
    "request_reason": "Abandoned/Junk Vehicles",
    "date_created": "2024-08-08T18:25:21.000",
    "date_modified": "2024-08-08T18:25:21.000",
    "request_status": "Pending",
    "responsible_agency": "Department of Public Works",
    "final_address": "4156 Vendome Pl",
    "address_councildis": "B",
    "status": "Pending",
    "rowid": "1120255",
    "final_x": "3668848.32762",
    "final_y": "530935.98829",
    "longitude": "-90.10803959121654",
    "latitude": "29.954267913368636",
    "geocoded_column": {
      "latitude": "29.954267913368636",
      "longitude": "-90.10803959121654"
    }
  },
  {
    "service_request": "2024-1120254",
    "request_type": "Trash/Recycling",
    "request_reason": "Damaged Caused By Contractor",
    "date_created": "2024-08-08T18:15:18.000",
    "date_modified": "2024-08-08T18:15:19.000",
    "request_status": "Pending",
    "responsible_agency": "Department of Sanitation",
    "final_address": "4156 Vendome Pl",
    "address_councildis": "B",
    "status": "Assigned to Contractor",
    "contractor": "IV Waste",
    "rowid": "1120254",
    "final_x": "3668848.32762",
    "final_y": "530935.98829",
    "longitude": "-90.10803959121654",
    "latitude": "29.954267913368636",
    "geocoded_column": {
      "latitude": "29.954267913368636",
      "longitude": "-90.10803959121654"
    }
  },
  {
    "service_request": "2024-1120253",
    "request_type": "Abandoned Vehicles",
    "request_reason": "Vehicle Blocking Your Driveway",
    "date_created": "2024-08-08T18:12:36.000",
    "date_modified": "2024-08-08T18:12:36.000",
    "request_status": "Pending",
    "responsible_agency": "Department of Public Works",
    "final_address": "4156 Vendome Pl",
    "address_councildis": "B",
    "status": "Pending",
    "rowid": "1120253",
    "final_x": "3668848.32762",
    "final_y": "530935.98829",
    "longitude": "-90.10803959121654",
    "latitude": "29.954267913368636",
    "geocoded_column": {
      "latitude": "29.954267913368636",
      "longitude": "-90.10803959121654"
    }
  },
  {
    "service_request": "2024-1120250",
    "request_type": "Trash/Recycling",
    "request_reason": "Request a Large Item Pick Up",
    "date_created": "2024-08-08T17:57:06.000",
    "date_modified": "2024-08-08T17:57:07.000",
    "request_status": "Pending",
    "responsible_agency": "Department of Sanitation",
    "final_address": "722 Third St",
    "address_councildis": "B",
    "status": "Assigned to Contractor",
    "contractor": "IV Waste",
    "rowid": "1120250",
    "final_x": "3678245.16949",
    "final_y": "520052.88876",
    "longitude": "-90.07874436269567",
    "latitude": "29.92406333989886",
    "geocoded_column": {
      "latitude": "29.92406333989886",
      "longitude": "-90.07874436269567"
    }
  },
  {
    "service_request": "2024-1120249",
    "request_type": "Trash/Recycling",
    "request_reason": "MIssed Recycling Pick-Up",
    "date_created": "2024-08-08T17:52:57.000",
    "date_modified": "2024-08-08T17:52:57.000",
    "request_status": "Pending",
    "responsible_agency": "Department of Sanitation",
    "final_address": "620 Webster St",
    "address_councildis": "A",
    "status": "Assigned to Contractor",
    "contractor": "IV Waste",
    "rowid": "1120249",
    "final_x": "3663904.01523",
    "final_y": "518957.941303",
    "longitude": "-90.12405098917937",
    "latitude": "29.921476547629297",
    "geocoded_column": {
      "latitude": "29.921476547629297",
      "longitude": "-90.12405098917937"
    }
  },
  {
    "service_request": "2024-1120248",
    "request_type": "Mosquito, Termite & Rodent Control",
    "request_reason": "Rodent Complaint (Rats)",
    "date_created": "2024-08-08T17:37:00.000",
    "date_modified": "2024-08-08T17:37:00.000",
    "request_status": "Pending",
    "responsible_agency": "Mosquito, Termite & Rodent Control Board",
    "final_address": "14819 Emory Rd",
    "address_councildis": "E",
    "status": "Pending",
    "rowid": "1120248",
    "final_x": "3720614.43922",
    "final_y": "573928.956778",
    "longitude": "-89.9429377097308",
    "latitude": "30.070857901221864",
    "geocoded_column": {
      "latitude": "30.070857901221864",
      "longitude": "-89.9429377097308"
    }
  },
  {
    "service_request": "2024-1120247",
    "request_type": "Trash/Recycling",
    "request_reason": "Replace Trash Cart",
    "date_created": "2024-08-08T17:34:21.000",
    "date_modified": "2024-08-08T17:34:22.000",
    "request_status": "Pending",
    "responsible_agency": "Department of Sanitation",
    "final_address": "43 Kings Canyon Dr",
    "address_councildis": "C",
    "status": "Assigned to Contractor",
    "contractor": "Richards Disposal",
    "rowid": "1120247",
    "final_x": "3700408.75786",
    "final_y": "515716.1557",
    "longitude": "-90.00894044950074",
    "latitude": "29.911452934198373",
    "geocoded_column": {
      "latitude": "29.911452934198373",
      "longitude": "-90.00894044950074"
    }
  },
  {
    "service_request": "2024-1120246",
    "request_type": "Abandoned Vehicles",
    "request_reason": "Abandoned/Junk Vehicles",
    "date_created": "2024-08-08T17:33:11.000",
    "date_modified": "2024-08-08T17:33:11.000",
    "request_status": "Pending",
    "responsible_agency": "Department of Public Works",
    "final_address": "2310 Prentiss Ave",
    "address_councildis": "D",
    "status": "Pending",
    "rowid": "1120246",
    "final_x": "3684477.65346",
    "final_y": "553804.777495",
    "longitude": "-90.05788471361342",
    "latitude": "30.016680191632204",
    "geocoded_column": {
      "latitude": "30.016680191632204",
      "longitude": "-90.05788471361342"
    }
  },
  {
    "service_request": "2024-1120245",
    "request_type": "Mosquito, Termite & Rodent Control",
    "request_reason": "Mosquito Complaint",
    "date_created": "2024-08-08T17:31:08.000",
    "date_modified": "2024-08-08T17:31:08.000",
    "request_status": "Pending",
    "responsible_agency": "Mosquito, Termite & Rodent Control Board",
    "final_address": "14819 Emory Rd",
    "address_councildis": "E",
    "status": "Pending",
    "rowid": "1120245",
    "final_x": "3720614.43922",
    "final_y": "573928.956778",
    "longitude": "-89.9429377097308",
    "latitude": "30.070857901221864",
    "geocoded_column": {
      "latitude": "30.070857901221864",
      "longitude": "-89.9429377097308"
    }
  },
  {
    "service_request": "2024-1120244",
    "request_type": "Trash/Recycling",
    "request_reason": "Request a Large Item Pick Up",
    "date_created": "2024-08-08T17:29:02.000",
    "date_modified": "2024-08-08T17:29:03.000",
    "request_status": "Pending",
    "responsible_agency": "Department of Sanitation",
    "final_address": "5312 Wildair Dr",
    "address_councildis": "D",
    "status": "Assigned to Contractor",
    "contractor": "IV Waste",
    "rowid": "1120244",
    "final_x": "3681632.32732",
    "final_y": "552447.361174",
    "longitude": "-90.06692213573317",
    "latitude": "30.01303456875389",
    "geocoded_column": {
      "latitude": "30.01303456875389",
      "longitude": "-90.06692213573317"
    }
  },
  {
    "service_request": "2024-1120243",
    "request_type": "Abandoned Vehicles",
    "request_reason": "Abandoned/Junk Vehicles",
    "date_created": "2024-08-08T17:28:23.000",
    "date_modified": "2024-08-08T17:28:23.000",
    "request_status": "Pending",
    "responsible_agency": "Department of Public Works",
    "final_address": "4812 Francis Dr",
    "address_councildis": "D",
    "status": "Pending",
    "rowid": "1120243",
    "final_x": "3698165.49066",
    "final_y": "554681.16124",
    "longitude": "-90.01460532292654",
    "latitude": "30.018663875532187",
    "geocoded_column": {
      "latitude": "30.018663875532187",
      "longitude": "-90.01460532292654"
    }
  },
  {
    "service_request": "2024-1120242",
    "request_type": "Roads/Drainage",
    "request_reason": "Man hole cover issue",
    "date_created": "2024-08-08T17:25:56.000",
    "date_modified": "2024-08-08T17:25:56.000",
    "request_status": "Pending",
    "responsible_agency": "Department of Public Works",
    "final_address": "1001 Howard Ave",
    "address_councildis": "B",
    "status": "Pending",
    "rowid": "1120242",
    "final_x": "3678909.42094",
    "final_y": "528062.176767",
    "longitude": "-90.07637021252258",
    "latitude": "29.94606622969476",
    "geocoded_column": {
      "latitude": "29.94606622969476",
      "longitude": "-90.07637021252258"
    }
  },
  {
    "service_request": "2024-1120241",
    "request_type": "Roads/Drainage",
    "request_reason": "Damaged Sidewalk",
    "date_created": "2024-08-08T17:23:54.000",
    "date_modified": "2024-08-08T17:23:54.000",
    "request_status": "Pending",
    "responsible_agency": "Department of Public Works",
    "final_address": "4319 Sybil St",
    "address_councildis": "D",
    "status": "Pending",
    "rowid": "1120241",
    "final_x": "3679186.11451",
    "final_y": "548282.096146",
    "longitude": "-90.07479539449145",
    "latitude": "30.001655694616016",
    "geocoded_column": {
      "latitude": "30.001655694616016",
      "longitude": "-90.07479539449145"
    }
  },
  {
    "service_request": "2024-1120239",
    "request_type": "Trash/Recycling",
    "request_reason": "Illegal Dumping",
    "date_created": "2024-08-08T17:23:39.000",
    "date_modified": "2024-08-08T17:23:39.000",
    "request_status": "Pending",
    "responsible_agency": "Department of Sanitation",
    "final_address": "2722 Iberville St",
    "address_councildis": "B",
    "status": "Pending",
    "rowid": "1120239",
    "final_x": "3675403.88904",
    "final_y": "535562.239622",
    "longitude": "-90.08718085307382",
    "latitude": "29.966794167208885",
    "geocoded_column": {
      "latitude": "29.966794167208885",
      "longitude": "-90.08718085307382"
    }
  },
  {
    "service_request": "2024-1120238",
    "request_type": "Property Maintenance",
    "request_reason": "Property Maintenance",
    "date_created": "2024-08-08T17:16:48.000",
    "date_modified": "2024-08-08T17:16:48.000",
    "request_status": "Pending",
    "responsible_agency": "Department of Code Enforcement",
    "final_address": "8417 Hickory St",
    "address_councildis": "A",
    "status": "Pending",
    "rowid": "1120238",
    "final_x": "3662492.94746",
    "final_y": "530791.925634",
    "longitude": "-90.1281122304302",
    "latitude": "29.95405712652059",
    "geocoded_column": {
      "latitude": "29.95405712652059",
      "longitude": "-90.1281122304302"
    }
  },
  {
    "service_request": "2024-1120237",
    "request_type": "Trash/Recycling",
    "request_reason": "Request a Large Item Pick Up",
    "date_created": "2024-08-08T17:13:05.000",
    "date_modified": "2024-08-08T17:13:06.000",
    "request_status": "Pending",
    "responsible_agency": "Department of Sanitation",
    "final_address": "2505 Annunciation St",
    "address_councildis": "B",
    "status": "Assigned to Contractor",
    "contractor": "IV Waste",
    "rowid": "1120237",
    "final_x": "3678351.71944",
    "final_y": "520414.554296",
    "longitude": "-90.07839551868811",
    "latitude": "29.925054594315984",
    "geocoded_column": {
      "latitude": "29.925054594315984",
      "longitude": "-90.07839551868811"
    }
  },
  {
    "service_request": "2024-1120236",
    "request_type": "Property Maintenance",
    "request_reason": "Property Maintenance",
    "date_created": "2024-08-08T17:11:49.000",
    "date_modified": "2024-08-08T17:11:49.000",
    "request_status": "Pending",
    "responsible_agency": "Department of Code Enforcement",
    "final_address": "8423 Hickory St",
    "address_councildis": "A",
    "status": "Pending",
    "rowid": "1120236",
    "final_x": "3662466.77792",
    "final_y": "530815.12973",
    "longitude": "-90.1281940930222",
    "latitude": "29.954121687129657",
    "geocoded_column": {
      "latitude": "29.954121687129657",
      "longitude": "-90.1281940930222"
    }
  },
  {
    "service_request": "2024-1120235",
    "request_type": "Trash/Recycling",
    "request_reason": "Illegal Dumping",
    "date_created": "2024-08-08T17:09:09.000",
    "date_modified": "2024-08-08T17:09:09.000",
    "request_status": "Pending",
    "responsible_agency": "Department of Sanitation",
    "final_address": "2902 Belmont St",
    "address_councildis": "B",
    "status": "Pending",
    "rowid": "1120235",
    "final_x": "3672577.71611",
    "final_y": "525912.662141",
    "longitude": "-90.09643486826687",
    "latitude": "29.940345233766838",
    "geocoded_column": {
      "latitude": "29.940345233766838",
      "longitude": "-90.09643486826687"
    }
  },
  {
    "service_request": "2024-1120234",
    "request_type": "Abandoned Vehicles",
    "request_reason": "Abandoned/Junk Vehicles",
    "date_created": "2024-08-08T17:05:57.000",
    "date_modified": "2024-08-08T17:05:57.000",
    "request_status": "Pending",
    "responsible_agency": "Department of Public Works",
    "final_address": "2941 Pauger St",
    "address_councildis": "D",
    "status": "Pending",
    "rowid": "1120234",
    "final_x": "3683546.58114",
    "final_y": "540601.462731",
    "longitude": "-90.06128962043034",
    "latitude": "29.980404268549943",
    "geocoded_column": {
      "latitude": "29.980404268549943",
      "longitude": "-90.06128962043034"
    }
  },
  {
    "service_request": "2024-1120233",
    "request_type": "Trash/Recycling",
    "request_reason": "Replace Trash Cart",
    "date_created": "2024-08-08T16:59:17.000",
    "date_modified": "2024-08-08T16:59:18.000",
    "request_status": "Pending",
    "responsible_agency": "Department of Sanitation",
    "final_address": "3936 Toledano St",
    "address_councildis": "B",
    "status": "Assigned to Contractor",
    "contractor": "IV Waste",
    "rowid": "1120233",
    "final_x": "3671267.69659",
    "final_y": "529300.959553",
    "longitude": "-90.10045572032408",
    "latitude": "29.949700763539546",
    "geocoded_column": {
      "latitude": "29.949700763539546",
      "longitude": "-90.10045572032408"
    }
  },
  {
    "service_request": "2024-1120232",
    "request_type": "Roads/Drainage",
    "request_reason": "Street Subsidence (Sinking)",
    "date_created": "2024-08-08T16:56:46.000",
    "date_modified": "2024-08-08T16:57:24.000",
    "request_status": "Pending",
    "responsible_agency": "Department of Public Works",
    "final_address": "FRANKLIN AVE & N GALVEZ ST",
    "address_councildis": "D",
    "status": "Pending",
    "rowid": "1120232",
    "final_x": "3687667.3",
    "final_y": "540216.38",
    "longitude": "-90.04828829942392",
    "latitude": "29.97921899891152",
    "geocoded_column": {
      "latitude": "29.97921899891152",
      "longitude": "-90.04828829942392"
    }
  },
  {
    "service_request": "2024-1120231",
    "request_type": "Abandoned Vehicles",
    "request_reason": "Abandoned/Junk Vehicles",
    "date_created": "2024-08-08T16:47:01.000",
    "date_modified": "2024-08-08T16:48:51.000",
    "request_status": "Pending",
    "responsible_agency": "Department of Public Works",
    "final_address": "715 Louisa St",
    "address_councildis": "C",
    "status": "Pending",
    "rowid": "1120231",
    "final_x": "3689249.7798",
    "final_y": "534494.807493",
    "longitude": "-90.04349364462391",
    "latitude": "29.96343779359582",
    "geocoded_column": {
      "latitude": "29.96343779359582",
      "longitude": "-90.04349364462391"
    }
  },
  {
    "service_request": "2024-1120230",
    "request_type": "Trash/Recycling",
    "request_reason": "Illegal Dumping",
    "date_created": "2024-08-08T16:43:32.000",
    "date_modified": "2024-08-08T16:43:33.000",
    "request_status": "Pending",
    "responsible_agency": "Department of Sanitation",
    "final_address": "7951 Arcadia Ln",
    "address_councildis": "E",
    "status": "Pending",
    "rowid": "1120230",
    "final_x": "3711772.76184",
    "final_y": "568031.757285",
    "longitude": "-89.9711102004799",
    "latitude": "30.054935062111536",
    "geocoded_column": {
      "latitude": "30.054935062111536",
      "longitude": "-89.9711102004799"
    }
  },
  {
    "service_request": "2024-1120229",
    "request_type": "Property Maintenance",
    "request_reason": "Property Maintenance",
    "date_created": "2024-08-08T16:39:34.000",
    "date_modified": "2024-08-08T16:39:35.000",
    "request_status": "Pending",
    "responsible_agency": "Department of Code Enforcement",
    "final_address": "4500 Reynes St",
    "address_councildis": "E",
    "status": "Pending",
    "rowid": "1120229",
    "final_x": "3699233.83319",
    "final_y": "553672.689047",
    "longitude": "-90.01126653084162",
    "latitude": "30.015857108748452",
    "geocoded_column": {
      "latitude": "30.015857108748452",
      "longitude": "-90.01126653084162"
    }
  },
  {
    "service_request": "2024-1120228",
    "request_type": "Trash/Recycling",
    "request_reason": "Illegal Dumping",
    "date_created": "2024-08-08T16:36:31.000",
    "date_modified": "2024-08-08T16:36:31.000",
    "request_status": "Pending",
    "responsible_agency": "Department of Sanitation",
    "final_address": "8814 Gervais St",
    "address_councildis": "E",
    "status": "Pending",
    "rowid": "1120228",
    "final_x": "3704664.61662",
    "final_y": "562986.616864",
    "longitude": "-89.99376379940338",
    "latitude": "30.041293373865756",
    "geocoded_column": {
      "latitude": "30.041293373865756",
      "longitude": "-89.99376379940338"
    }
  },
  {
    "service_request": "2024-1120227",
    "request_type": "Traffic Signals/Signs/Striping/Streetlights",
    "request_reason": "Street Light Outage/Malfunction",
    "date_created": "2024-08-08T16:24:16.000",
    "date_modified": "2024-08-08T16:24:17.000",
    "request_status": "Pending",
    "responsible_agency": "Department of Public Works",
    "final_address": "1432 Flood St",
    "address_councildis": "E",
    "status": "Assigned to Contractor",
    "contractor": "Legacy Professional Services",
    "rowid": "1120227",
    "final_x": "3698032.96093",
    "final_y": "535272.66183",
    "longitude": "-90.01572922972984",
    "latitude": "29.965301834926635",
    "geocoded_column": {
      "latitude": "29.965301834926635",
      "longitude": "-90.01572922972984"
    }
  },
  {
    "service_request": "2024-1120226",
    "request_type": "Abandoned Vehicles",
    "request_reason": "Abandoned/Junk Vehicles",
    "date_created": "2024-08-08T16:21:25.000",
    "date_modified": "2024-08-08T16:26:14.000",
    "request_status": "Pending",
    "responsible_agency": "Department of Public Works",
    "final_address": "4501 Lynhuber Dr",
    "address_councildis": "D",
    "status": "Pending",
    "rowid": "1120226",
    "final_x": "3698219.532",
    "final_y": "553013.476119",
    "longitude": "-90.01449522099081",
    "latitude": "30.014076662034864",
    "geocoded_column": {
      "latitude": "30.014076662034864",
      "longitude": "-90.01449522099081"
    }
  },
  {
    "service_request": "2024-1120225",
    "request_type": "Property Maintenance",
    "request_reason": "Property Maintenance",
    "date_created": "2024-08-08T16:18:38.000",
    "date_modified": "2024-08-08T16:18:39.000",
    "request_status": "Pending",
    "responsible_agency": "Department of Code Enforcement",
    "final_address": "3831 Piedmont Dr",
    "address_councildis": "D",
    "status": "Pending",
    "rowid": "1120225",
    "final_x": "3685564.24975",
    "final_y": "546952.667601",
    "longitude": "-90.05469312453681",
    "latitude": "29.997806078239805",
    "geocoded_column": {
      "latitude": "29.997806078239805",
      "longitude": "-90.05469312453681"
    }
  },
  {
    "service_request": "2024-1120224",
    "request_type": "Trash/Recycling",
    "request_reason": "Repair Trash Cart",
    "date_created": "2024-08-08T16:15:22.000",
    "date_modified": "2024-08-08T16:15:23.000",
    "request_status": "Pending",
    "responsible_agency": "Department of Sanitation",
    "final_address": "4232 Cadiz St",
    "address_councildis": "B",
    "status": "Assigned to Contractor",
    "contractor": "IV Waste",
    "rowid": "1120224",
    "final_x": "3669169.56878",
    "final_y": "528664.13536",
    "longitude": "-90.10710200579089",
    "latitude": "29.948011611842137",
    "geocoded_column": {
      "latitude": "29.948011611842137",
      "longitude": "-90.10710200579089"
    }
  },
  {
    "service_request": "2024-1120223",
    "request_type": "Property Maintenance",
    "request_reason": "Property Maintenance",
    "date_created": "2024-08-08T16:13:49.000",
    "date_modified": "2024-08-08T16:24:53.000",
    "request_status": "Pending",
    "responsible_agency": "Department of Code Enforcement",
    "final_address": "3831 Piedmont Dr",
    "address_councildis": "D",
    "rowid": "1120223",
    "final_x": "3685564.24975",
    "final_y": "546952.667601",
    "longitude": "-90.05469312453681",
    "latitude": "29.997806078239805",
    "geocoded_column": {
      "latitude": "29.997806078239805",
      "longitude": "-90.05469312453681"
    }
  },
  {
    "service_request": "2024-1120222",
    "request_type": "Trash/Recycling",
    "request_reason": "Request a Large Item Pick Up",
    "date_created": "2024-08-08T16:13:00.000",
    "date_modified": "2024-08-08T16:13:01.000",
    "request_status": "Pending",
    "responsible_agency": "Department of Sanitation",
    "final_address": "325 Dearmas St",
    "address_councildis": "C",
    "status": "Assigned to Contractor",
    "contractor": "Richards Disposal",
    "rowid": "1120222",
    "final_x": "3686479.64982",
    "final_y": "527108.045247",
    "longitude": "-90.05250214119299",
    "latitude": "29.943212177794912",
    "geocoded_column": {
      "latitude": "29.943212177794912",
      "longitude": "-90.05250214119299"
    }
  },
  {
    "service_request": "2024-1120221",
    "request_type": "Trash/Recycling",
    "request_reason": "Repair Recycling Cart",
    "date_created": "2024-08-08T16:11:57.000",
    "date_modified": "2024-08-08T16:11:58.000",
    "request_status": "Pending",
    "responsible_agency": "Department of Sanitation",
    "final_address": "1015 S Carrollton Ave",
    "address_councildis": "A",
    "status": "Pending",
    "rowid": "1120221",
    "final_x": "3661707.3607",
    "final_y": "527822.644671",
    "longitude": "-90.13069121342572",
    "latitude": "29.94591525360242",
    "geocoded_column": {
      "latitude": "29.94591525360242",
      "longitude": "-90.13069121342572"
    }
  },
  {
    "service_request": "2024-1120220",
    "request_type": "Trash/Recycling",
    "request_reason": "Repair Trash Cart",
    "date_created": "2024-08-08T16:01:44.000",
    "date_modified": "2024-08-08T16:01:45.000",
    "request_status": "Pending",
    "responsible_agency": "Department of Sanitation",
    "final_address": "2175 Holiday Dr",
    "address_councildis": "C",
    "status": "Assigned to Contractor",
    "contractor": "Richards Disposal",
    "rowid": "1120220",
    "final_x": "3698803.63396",
    "final_y": "523007.503099",
    "longitude": "-90.01374155709163",
    "latitude": "29.931552566278462",
    "geocoded_column": {
      "latitude": "29.931552566278462",
      "longitude": "-90.01374155709163"
    }
  },
  {
    "service_request": "2024-1120219",
    "request_type": "Abandoned Vehicles",
    "request_reason": "Abandoned/Junk Vehicles",
    "date_created": "2024-08-08T16:00:55.000",
    "date_modified": "2024-08-08T16:00:55.000",
    "request_status": "Pending",
    "responsible_agency": "Department of Public Works",
    "final_address": "2552 Dumaine St",
    "address_councildis": "D",
    "status": "Pending",
    "rowid": "1120219",
    "final_x": "3677602.1677",
    "final_y": "537131.789768",
    "longitude": "-90.08018448309603",
    "latitude": "29.9710439749077",
    "geocoded_column": {
      "latitude": "29.9710439749077",
      "longitude": "-90.08018448309603"
    }
  },
  {
    "service_request": "2024-1120218",
    "request_type": "Property Maintenance",
    "request_reason": "Property Maintenance",
    "date_created": "2024-08-08T15:57:51.000",
    "date_modified": "2024-08-08T15:57:52.000",
    "request_status": "Pending",
    "responsible_agency": "Department of Code Enforcement",
    "final_address": "8325 Leeds St",
    "address_councildis": "E",
    "status": "Pending",
    "rowid": "1120218",
    "final_x": "3705949.2467",
    "final_y": "555128.927897",
    "longitude": "-89.98999507636849",
    "latitude": "30.019646446896814",
    "geocoded_column": {
      "latitude": "30.019646446896814",
      "longitude": "-89.98999507636849"
    }
  },
  {
    "service_request": "2024-1120217",
    "request_type": "Trash/Recycling",
    "request_reason": "Replace Trash Cart",
    "date_created": "2024-08-08T15:51:01.000",
    "date_modified": "2024-08-08T15:51:02.000",
    "request_status": "Pending",
    "responsible_agency": "Department of Sanitation",
    "final_address": "2401 First St",
    "address_councildis": "B",
    "status": "Assigned to Contractor",
    "contractor": "IV Waste",
    "rowid": "1120217",
    "final_x": "3675359.20289",
    "final_y": "525687.369725",
    "longitude": "-90.08766099017603",
    "latitude": "29.939642900895667",
    "geocoded_column": {
      "latitude": "29.939642900895667",
      "longitude": "-90.08766099017603"
    }
  },
  {
    "service_request": "2024-1120216",
    "request_type": "Traffic Signals/Signs/Striping/Streetlights",
    "request_reason": "Street Name Sign Damaged or Missing",
    "date_created": "2024-08-08T15:50:05.000",
    "date_modified": "2024-08-08T15:50:06.000",
    "request_status": "Pending",
    "responsible_agency": "Department of Public Works",
    "final_address": "ORLEANS AVE & N TONTI ST",
    "address_councildis": "D",
    "status": "Pending",
    "rowid": "1120216",
    "final_x": "3677851.3",
    "final_y": "536173.58",
    "longitude": "-90.07943080553832",
    "latitude": "29.968401731180865",
    "geocoded_column": {
      "latitude": "29.968401731180865",
      "longitude": "-90.07943080553832"
    }
  },
  {
    "service_request": "2024-1120215",
    "request_type": "Traffic Signals/Signs/Striping/Streetlights",
    "request_reason": "Street Light Knocked Down/Leaning",
    "date_created": "2024-08-08T15:47:41.000",
    "date_modified": "2024-08-08T15:47:42.000",
    "request_status": "Pending",
    "responsible_agency": "Department of Public Works",
    "final_address": "2401 Orleans Ave",
    "address_councildis": "D",
    "status": "Pending",
    "contractor": "Legacy Professional Services",
    "rowid": "1120215",
    "final_x": "3677875.43291",
    "final_y": "536272.206023",
    "longitude": "-90.07935118400007",
    "latitude": "29.9686721929249",
    "geocoded_column": {
      "latitude": "29.9686721929249",
      "longitude": "-90.07935118400007"
    }
  },
  {
    "service_request": "2024-1120214",
    "request_type": "Trash/Recycling",
    "request_reason": "Request a Large Item Pick Up",
    "date_created": "2024-08-08T15:44:26.000",
    "date_modified": "2024-08-08T15:44:26.000",
    "request_status": "Pending",
    "responsible_agency": "Department of Sanitation",
    "final_address": "3624 General Pershing St",
    "address_councildis": "B",
    "status": "Assigned to Contractor",
    "contractor": "IV Waste",
    "rowid": "1120214",
    "final_x": "3670489.73057",
    "final_y": "528044.123967",
    "longitude": "-90.10295473254325",
    "latitude": "29.946267870274813",
    "geocoded_column": {
      "latitude": "29.946267870274813",
      "longitude": "-90.10295473254325"
    }
  },
  {
    "service_request": "2024-1120213",
    "request_type": "Trash/Recycling",
    "request_reason": "Dead Animal Pick Up",
    "date_created": "2024-08-08T15:41:47.000",
    "date_modified": "2024-08-08T15:41:47.000",
    "request_status": "Pending",
    "responsible_agency": "Department of Sanitation",
    "final_address": "6225 St Bernard Ave",
    "address_councildis": "D",
    "status": "Assigned to Contractor",
    "contractor": "IV Waste",
    "rowid": "1120213",
    "final_x": "3677060.48725",
    "final_y": "555723.215193",
    "longitude": "-90.08125360234246",
    "latitude": "30.022180129711707",
    "geocoded_column": {
      "latitude": "30.022180129711707",
      "longitude": "-90.08125360234246"
    }
  },
  {
    "service_request": "2024-1120212",
    "request_type": "Trash/Recycling",
    "request_reason": "Request a Large Item Pick Up",
    "date_created": "2024-08-08T15:41:38.000",
    "date_modified": "2024-08-08T15:41:39.000",
    "request_status": "Pending",
    "responsible_agency": "Department of Sanitation",
    "final_address": "6042 Wales St",
    "address_councildis": "E",
    "status": "Assigned to Contractor",
    "contractor": "Waste Pro",
    "rowid": "1120212",
    "final_x": "3695324.84086",
    "final_y": "559466.157277",
    "longitude": "-90.0234078698152",
    "latitude": "30.031910384397612",
    "geocoded_column": {
      "latitude": "30.031910384397612",
      "longitude": "-90.0234078698152"
    }
  },
  {
    "service_request": "2024-1120211",
    "request_type": "Trash/Recycling",
    "request_reason": "Return Recycling Cart",
    "date_created": "2024-08-08T15:38:05.000",
    "date_modified": "2024-08-08T15:38:05.000",
    "request_status": "Pending",
    "responsible_agency": "Department of Sanitation",
    "final_address": "4920 Camp St",
    "address_councildis": "B",
    "status": "Pending",
    "rowid": "1120211",
    "final_x": "3668829.47758",
    "final_y": "518888.438583",
    "longitude": "-90.10850574963433",
    "latitude": "29.921141585271084",
    "geocoded_column": {
      "latitude": "29.921141585271084",
      "longitude": "-90.10850574963433"
    }
  },
  {
    "service_request": "2024-1120210",
    "request_type": "Parks & Parkways",
    "request_reason": "Request Grass Cutting Service (City Owned Property)",
    "date_created": "2024-08-08T15:32:22.000",
    "date_modified": "2024-08-08T15:32:22.000",
    "request_status": "Pending",
    "responsible_agency": "Department of Parks & Parkway",
    "final_address": "1600 BLK Fats Domino Ave",
    "address_councildis": "E",
    "status": "Pending",
    "rowid": "1120210",
    "final_x": "3698555.72818",
    "final_y": "535809.018065",
    "longitude": "-90.01405886515612",
    "latitude": "29.966760083319876",
    "geocoded_column": {
      "latitude": "29.966760083319876",
      "longitude": "-90.01405886515612"
    }
  },
  {
    "service_request": "2024-1120209",
    "request_type": "Trash/Recycling",
    "request_reason": "MIssed Recycling Pick-Up",
    "date_created": "2024-08-08T15:27:00.000",
    "date_modified": "2024-08-08T17:13:54.000",
    "case_close_date": "2024-08-08T12:13:54.000",
    "request_status": "Closed",
    "responsible_agency": "Department of Sanitation",
    "final_address": "6031 S Robertson St",
    "address_councildis": "A",
    "status": "Assigned to Contractor",
    "contractor": "IV Waste",
    "contractor_action": "Completed",
    "rowid": "1120209",
    "final_x": "3666263.41549",
    "final_y": "524905.691004",
    "longitude": "-90.11640397043875",
    "latitude": "29.937762295445147",
    "geocoded_column": {
      "latitude": "29.937762295445147",
      "longitude": "-90.11640397043875"
    }
  },
  {
    "service_request": "2024-1120208",
    "request_type": "Property Maintenance",
    "request_reason": "Property Maintenance",
    "date_created": "2024-08-08T15:26:42.000",
    "date_modified": "2024-08-08T15:26:42.000",
    "request_status": "Pending",
    "responsible_agency": "Department of Code Enforcement",
    "final_address": "5661 Bullard Ave",
    "address_councildis": "E",
    "status": "Pending",
    "rowid": "1120208",
    "final_x": "3717217.88274",
    "final_y": "562232.219551",
    "longitude": "-89.95412017240513",
    "latitude": "30.038809587180545",
    "geocoded_column": {
      "latitude": "30.038809587180545",
      "longitude": "-89.95412017240513"
    }
  },
  {
    "service_request": "2024-1120207",
    "request_type": "Trash/Recycling",
    "request_reason": "Request a Large Item Pick Up",
    "date_created": "2024-08-08T15:15:42.000",
    "date_modified": "2024-08-08T15:15:43.000",
    "request_status": "Pending",
    "responsible_agency": "Department of Sanitation",
    "final_address": "1920 Joliet St",
    "address_councildis": "A",
    "status": "Assigned to Contractor",
    "contractor": "IV Waste",
    "rowid": "1120207",
    "final_x": "3662637.21024",
    "final_y": "531292.942914",
    "longitude": "-90.12764005836996",
    "latitude": "29.95543058891765",
    "geocoded_column": {
      "latitude": "29.95543058891765",
      "longitude": "-90.12764005836996"
    }
  },
  {
    "service_request": "2024-1120206",
    "request_type": "Roads/Drainage",
    "request_reason": "Pothole",
    "date_created": "2024-08-08T15:05:36.000",
    "date_modified": "2024-08-08T15:05:36.000",
    "request_status": "Pending",
    "responsible_agency": "Department of Public Works",
    "final_address": "618 Magazine St",
    "address_councildis": "B",
    "status": "Pending",
    "rowid": "1120206",
    "final_x": "3681407.51074",
    "final_y": "528585.216",
    "longitude": "-90.06846466542987",
    "latitude": "29.947428825065046",
    "geocoded_column": {
      "latitude": "29.947428825065046",
      "longitude": "-90.06846466542987"
    }
  },
  {
    "service_request": "2024-1120205",
    "request_type": "Trash/Recycling",
    "request_reason": "Repair Trash Cart",
    "date_created": "2024-08-08T15:05:30.000",
    "date_modified": "2024-08-08T15:05:31.000",
    "request_status": "Pending",
    "responsible_agency": "Department of Sanitation",
    "final_address": "5222 Annunciation St",
    "address_councildis": "B",
    "status": "Assigned to Contractor",
    "contractor": "IV Waste",
    "rowid": "1120205",
    "final_x": "3667812.88884",
    "final_y": "517527.868022",
    "longitude": "-90.11176046276528",
    "latitude": "29.91743028482488",
    "geocoded_column": {
      "latitude": "29.91743028482488",
      "longitude": "-90.11176046276528"
    }
  },
  {
    "service_request": "2024-1120204",
    "request_type": "Trash/Recycling",
    "request_reason": "Order Trash Cart",
    "date_created": "2024-08-08T15:05:08.000",
    "date_modified": "2024-08-08T15:05:08.000",
    "request_status": "Pending",
    "responsible_agency": "Department of Sanitation",
    "final_address": "2333 St Thomas St",
    "address_councildis": "B",
    "status": "Assigned to Contractor",
    "contractor": "IV Waste",
    "rowid": "1120204",
    "final_x": "3679409.51183",
    "final_y": "520254.897464",
    "longitude": "-90.07506194434146",
    "latitude": "29.924583692537336",
    "geocoded_column": {
      "latitude": "29.924583692537336",
      "longitude": "-90.07506194434146"
    }
  },
  {
    "service_request": "2024-1120203",
    "request_type": "Trash/Recycling",
    "request_reason": "Order Recycling Cart",
    "date_created": "2024-08-08T14:54:14.000",
    "date_modified": "2024-08-08T14:54:14.000",
    "request_status": "Pending",
    "responsible_agency": "Department of Sanitation",
    "final_address": "1420 Valence St",
    "address_councildis": "B",
    "status": "Pending",
    "rowid": "1120203",
    "final_x": "3669700.59668",
    "final_y": "520355.41356",
    "longitude": "-90.10570639693285",
    "latitude": "29.925149667961925",
    "geocoded_column": {
      "latitude": "29.925149667961925",
      "longitude": "-90.10570639693285"
    }
  },
  {
    "service_request": "2024-1120202",
    "request_type": "Traffic Signals/Signs/Striping/Streetlights",
    "request_reason": "Traffic Sign Missing/Damaged",
    "date_created": "2024-08-08T14:51:21.000",
    "date_modified": "2024-08-08T14:52:27.000",
    "request_status": "Pending",
    "responsible_agency": "Department of Public Works",
    "final_address": "PONTCHARTRAIN BLVD & LAST ST",
    "address_councildis": "A",
    "rowid": "1120202",
    "final_x": "3667306.9",
    "final_y": "539330.08",
    "longitude": "-90.11262445126152",
    "latitude": "29.977394116419223",
    "geocoded_column": {
      "latitude": "29.977394116419223",
      "longitude": "-90.11262445126152"
    }
  },
  {
    "service_request": "2024-1120201",
    "request_type": "Roads/Drainage",
    "request_reason": "Man hole cover issue",
    "date_created": "2024-08-08T14:50:57.000",
    "date_modified": "2024-08-08T14:50:58.000",
    "request_status": "Pending",
    "responsible_agency": "Department of Public Works",
    "final_address": "HOWARD AVE & LOYOLA AVE",
    "address_councildis": "B",
    "status": "Pending",
    "rowid": "1120201",
    "final_x": "3678726.75",
    "final_y": "528082.41",
    "longitude": "-90.07694626669412",
    "latitude": "29.94612737303218",
    "geocoded_column": {
      "latitude": "29.94612737303218",
      "longitude": "-90.07694626669412"
    }
  },
  {
    "service_request": "2024-1120200",
    "request_type": "Trash/Recycling",
    "request_reason": "Request a Large Item Pick Up",
    "date_created": "2024-08-08T14:48:25.000",
    "date_modified": "2024-08-08T14:48:26.000",
    "request_status": "Pending",
    "responsible_agency": "Department of Sanitation",
    "final_address": "1900 Beck St",
    "address_councildis": "C",
    "status": "Assigned to Contractor",
    "contractor": "Richards Disposal",
    "rowid": "1120200",
    "final_x": "3700080.32842",
    "final_y": "523950.795068",
    "longitude": "-90.00967680911316",
    "latitude": "29.93410580259068",
    "geocoded_column": {
      "latitude": "29.93410580259068",
      "longitude": "-90.00967680911316"
    }
  },
  {
    "service_request": "2024-1120199",
    "request_type": "Trash/Recycling",
    "request_reason": "Replace Trash Cart",
    "date_created": "2024-08-08T14:45:35.000",
    "date_modified": "2024-08-08T14:45:36.000",
    "request_status": "Pending",
    "responsible_agency": "Department of Sanitation",
    "final_address": "2404 S Galvez St",
    "address_councildis": "B",
    "status": "Assigned to Contractor",
    "contractor": "IV Waste",
    "rowid": "1120199",
    "final_x": "3673229.52859",
    "final_y": "528721.233088",
    "longitude": "-90.09428110355285",
    "latitude": "29.94804851971",
    "geocoded_column": {
      "latitude": "29.94804851971",
      "longitude": "-90.09428110355285"
    }
  },
  {
    "service_request": "2024-1120198",
    "request_type": "Trash/Recycling",
    "request_reason": "Replace Trash Cart",
    "date_created": "2024-08-08T14:44:43.000",
    "date_modified": "2024-08-08T14:44:44.000",
    "request_status": "Pending",
    "responsible_agency": "Department of Sanitation",
    "final_address": "3729 Ulloa St",
    "address_councildis": "B",
    "status": "Assigned to Contractor",
    "contractor": "IV Waste",
    "rowid": "1120198",
    "final_x": "3670759.48193",
    "final_y": "535714.225927",
    "longitude": "-90.10184275745331",
    "latitude": "29.967350146656187",
    "geocoded_column": {
      "latitude": "29.967350146656187",
      "longitude": "-90.10184275745331"
    }
  },
  {
    "service_request": "2024-1120197",
    "request_type": "Healthy Homes",
    "request_reason": "Healthy Homes",
    "date_created": "2024-08-08T14:43:21.000",
    "date_modified": "2024-08-08T15:19:00.000",
    "case_close_date": "2024-08-08T10:19:00.000",
    "request_status": "Closed",
    "responsible_agency": "Department of Code Enforcement",
    "final_address": "1201 Canal St Unit 226",
    "address_councildis": "C",
    "status": "Referred to Code Enforcement",
    "rowid": "1120197",
    "final_x": "3679849.8148",
    "final_y": "531940.169795",
    "longitude": "-90.07326642110094",
    "latitude": "29.95670100814675",
    "geocoded_column": {
      "latitude": "29.95670100814675",
      "longitude": "-90.07326642110094"
    }
  },
  {
    "service_request": "2024-1120196",
    "request_type": "Trash/Recycling",
    "request_reason": "Illegal Dumping",
    "date_created": "2024-08-08T14:41:47.000",
    "date_modified": "2024-08-08T14:41:47.000",
    "request_status": "Pending",
    "responsible_agency": "Department of Code Enforcement",
    "final_address": "4700 BLK Downman Rd",
    "address_councildis": "D",
    "status": "Pending",
    "rowid": "1120196",
    "final_x": "3695923.21573",
    "final_y": "554416.650469",
    "longitude": "-90.02169963445292",
    "latitude": "30.01800733694548",
    "geocoded_column": {
      "latitude": "30.01800733694548",
      "longitude": "-90.02169963445292"
    }
  },
  {
    "service_request": "2024-1120195",
    "request_type": "Property Maintenance",
    "request_reason": "Property Maintenance",
    "date_created": "2024-08-08T14:41:16.000",
    "date_modified": "2024-08-08T14:41:16.000",
    "request_status": "Pending",
    "responsible_agency": "Department of Code Enforcement",
    "final_address": "4425 Fort Macomb Rd",
    "address_councildis": "E",
    "status": "Pending",
    "rowid": "1120195",
    "final_x": "3763407.0737",
    "final_y": "573338.465258",
    "longitude": "-89.80768623831698",
    "latitude": "30.067737118373955",
    "geocoded_column": {
      "latitude": "30.067737118373955",
      "longitude": "-89.80768623831698"
    }
  },
  {
    "service_request": "2024-1120193",
    "request_type": "Trash/Recycling",
    "request_reason": "Illegal Dumping",
    "date_created": "2024-08-08T14:35:26.000",
    "date_modified": "2024-08-08T14:35:27.000",
    "request_status": "Pending",
    "responsible_agency": "Department of Sanitation",
    "final_address": "12000 BLK Michoud Blvd",
    "address_councildis": "E",
    "status": "Pending",
    "rowid": "1120193",
    "final_x": "3724930.0255",
    "final_y": "570305.883782",
    "longitude": "-89.92943540128672",
    "latitude": "30.060751296192443",
    "geocoded_column": {
      "latitude": "30.060751296192443",
      "longitude": "-89.92943540128672"
    }
  },
  {
    "service_request": "2024-1120192",
    "request_type": "Roads/Drainage",
    "request_reason": "Pothole",
    "date_created": "2024-08-08T14:34:55.000",
    "date_modified": "2024-08-08T14:34:55.000",
    "request_status": "Pending",
    "responsible_agency": "Department of Public Works",
    "final_address": "6124 Mandeville St",
    "address_councildis": "D",
    "status": "Pending",
    "rowid": "1120192",
    "final_x": "3684150.06172",
    "final_y": "555617.536665",
    "longitude": "-90.05885605790688",
    "latitude": "30.021674635676327",
    "geocoded_column": {
      "latitude": "30.021674635676327",
      "longitude": "-90.05885605790688"
    }
  },
  {
    "service_request": "2024-1120191",
    "request_type": "Trash/Recycling",
    "request_reason": "Order Trash Cart",
    "date_created": "2024-08-08T14:32:51.000",
    "date_modified": "2024-08-08T14:32:52.000",
    "request_status": "Pending",
    "responsible_agency": "Department of Sanitation",
    "final_address": "8940 Dinkins St",
    "address_councildis": "E",
    "status": "Assigned to Contractor",
    "contractor": "Waste Pro",
    "rowid": "1120191",
    "final_x": "3704974.34142",
    "final_y": "563510.856352",
    "longitude": "-89.99276558298887",
    "latitude": "30.04272486530057",
    "geocoded_column": {
      "latitude": "30.04272486530057",
      "longitude": "-89.99276558298887"
    }
  },
  {
    "service_request": "2024-1120190",
    "request_type": "Trash/Recycling",
    "request_reason": "Request a Large Item Pick Up",
    "date_created": "2024-08-08T14:31:52.000",
    "date_modified": "2024-08-08T14:31:53.000",
    "request_status": "Pending",
    "responsible_agency": "Department of Sanitation",
    "final_address": "2316 Memorial Park Dr",
    "address_councildis": "C",
    "status": "Assigned to Contractor",
    "contractor": "Richards Disposal",
    "rowid": "1120190",
    "final_x": "3691943.77193",
    "final_y": "522005.749434",
    "longitude": "-90.03543307175921",
    "latitude": "29.929013526002677",
    "geocoded_column": {
      "latitude": "29.929013526002677",
      "longitude": "-90.03543307175921"
    }
  },
  {
    "service_request": "2024-1120189",
    "request_type": "Trash/Recycling",
    "request_reason": "Repair Trash Cart",
    "date_created": "2024-08-08T14:30:58.000",
    "date_modified": "2024-08-08T14:30:59.000",
    "request_status": "Pending",
    "responsible_agency": "Department of Sanitation",
    "final_address": "19 Pebble Beach Ln",
    "address_councildis": "C",
    "status": "Assigned to Contractor",
    "contractor": "Richards Disposal",
    "rowid": "1120189",
    "final_x": "3718714.53285",
    "final_y": "513052.640241",
    "longitude": "-89.95126502216706",
    "latitude": "29.90353473614679",
    "geocoded_column": {
      "latitude": "29.90353473614679",
      "longitude": "-89.95126502216706"
    }
  },
  {
    "service_request": "2024-1120188",
    "request_type": "Abandoned Vehicles",
    "request_reason": "Abandoned/Junk Vehicles",
    "date_created": "2024-08-08T14:28:58.000",
    "date_modified": "2024-08-08T14:28:58.000",
    "request_status": "Pending",
    "responsible_agency": "Department of Public Works",
    "final_address": "1923 Rosary Dr",
    "address_councildis": "D",
    "status": "Pending",
    "rowid": "1120188",
    "final_x": "3681664.89589",
    "final_y": "555131.492569",
    "longitude": "-90.0667254945461",
    "latitude": "30.020413962568256",
    "geocoded_column": {
      "latitude": "30.020413962568256",
      "longitude": "-90.0667254945461"
    }
  },
  {
    "service_request": "2024-1120187",
    "request_type": "Trash/Recycling",
    "request_reason": "Missed Trash Pick-Up",
    "date_created": "2024-08-08T14:27:13.000",
    "date_modified": "2024-08-08T17:09:00.000",
    "case_close_date": "2024-08-08T12:09:00.000",
    "request_status": "Closed",
    "responsible_agency": "Department of Sanitation",
    "final_address": "7017 S Claiborne Ave",
    "address_councildis": "A",
    "status": "Assigned to Contractor",
    "contractor": "IV Waste",
    "contractor_action": "Completed",
    "rowid": "1120187",
    "final_x": "3666623.66426",
    "final_y": "529407.706369",
    "longitude": "-90.11511552222288",
    "latitude": "29.950130860662092",
    "geocoded_column": {
      "latitude": "29.950130860662092",
      "longitude": "-90.11511552222288"
    }
  },
  {
    "service_request": "2024-1120186",
    "request_type": "Trash/Recycling",
    "request_reason": "Request a Large Item Pick Up",
    "date_created": "2024-08-08T14:27:09.000",
    "date_modified": "2024-08-08T14:27:10.000",
    "request_status": "Pending",
    "responsible_agency": "Department of Sanitation",
    "final_address": "2316 Memorial Park Dr",
    "address_councildis": "C",
    "status": "Assigned to Contractor",
    "contractor": "Richards Disposal",
    "rowid": "1120186",
    "final_x": "3691943.77193",
    "final_y": "522005.749434",
    "longitude": "-90.03543307175921",
    "latitude": "29.929013526002677",
    "geocoded_column": {
      "latitude": "29.929013526002677",
      "longitude": "-90.03543307175921"
    }
  },
  {
    "service_request": "2024-1120185",
    "request_type": "Parks & Parkways",
    "request_reason": "Request Tree Service (Right of Way/Public Property)",
    "date_created": "2024-08-08T14:24:57.000",
    "date_modified": "2024-08-08T14:24:58.000",
    "request_status": "Pending",
    "responsible_agency": "Department of Parks & Parkway",
    "final_address": "2526 Almonaster Ave",
    "address_councildis": "D",
    "status": "Pending",
    "rowid": "1120185",
    "final_x": "3688392.68131",
    "final_y": "541982.757132",
    "longitude": "-90.0459345870165",
    "latitude": "29.984053520095422",
    "geocoded_column": {
      "latitude": "29.984053520095422",
      "longitude": "-90.0459345870165"
    }
  },
  {
    "service_request": "2024-1120184",
    "request_type": "Trash/Recycling",
    "request_reason": "Repair Recycling Cart",
    "date_created": "2024-08-08T14:20:48.000",
    "date_modified": "2024-08-08T14:20:48.000",
    "request_status": "Pending",
    "responsible_agency": "Department of Sanitation",
    "final_address": "1115 N White St",
    "address_councildis": "A",
    "status": "Pending",
    "rowid": "1120184",
    "final_x": "3677192.98574",
    "final_y": "538917.637322",
    "longitude": "-90.08141511380337",
    "latitude": "29.975966742389016",
    "geocoded_column": {
      "latitude": "29.975966742389016",
      "longitude": "-90.08141511380337"
    }
  },
  {
    "service_request": "2024-1120183",
    "request_type": "Property Maintenance",
    "request_reason": "Property Maintenance",
    "date_created": "2024-08-08T14:20:36.000",
    "date_modified": "2024-08-08T14:21:19.000",
    "request_status": "Pending",
    "responsible_agency": "Department of Code Enforcement",
    "final_address": "2801 Memorial Park Dr",
    "address_councildis": "C",
    "status": "Pending",
    "rowid": "1120183",
    "final_x": "3693396.85206",
    "final_y": "520503.756728",
    "longitude": "-90.03089989990372",
    "latitude": "29.924838217467773",
    "geocoded_column": {
      "latitude": "29.924838217467773",
      "longitude": "-90.03089989990372"
    }
  },
  {
    "service_request": "2024-1120182",
    "request_type": "Roads/Drainage",
    "request_reason": "Street Subsidence (Sinking)",
    "date_created": "2024-08-08T14:19:33.000",
    "date_modified": "2024-08-08T14:19:33.000",
    "request_status": "Pending",
    "responsible_agency": "Department of Public Works",
    "final_address": "3741 Plymouth Pl",
    "address_councildis": "C",
    "status": "Pending",
    "rowid": "1120182",
    "final_x": "3702670.59799",
    "final_y": "516632.355893",
    "longitude": "-90.00176797103187",
    "latitude": "29.913900093469046",
    "geocoded_column": {
      "latitude": "29.913900093469046",
      "longitude": "-90.00176797103187"
    }
  },
  {
    "service_request": "2024-1120181",
    "request_type": "Property Maintenance",
    "request_reason": "Property Maintenance",
    "date_created": "2024-08-08T14:16:45.000",
    "date_modified": "2024-08-08T14:17:56.000",
    "request_status": "Pending",
    "responsible_agency": "Department of Code Enforcement",
    "final_address": "7718 Mercier St",
    "address_councildis": "E",
    "status": "Pending",
    "rowid": "1120181",
    "final_x": "3711190.62635",
    "final_y": "566805.663267",
    "longitude": "-89.97299619837285",
    "latitude": "30.051582818138836",
    "geocoded_column": {
      "latitude": "30.051582818138836",
      "longitude": "-89.97299619837285"
    }
  },
  {
    "service_request": "2024-1120180",
    "request_type": "Property Maintenance",
    "request_reason": "Property Maintenance",
    "date_created": "2024-08-08T14:09:38.000",
    "date_modified": "2024-08-08T14:09:38.000",
    "request_status": "Pending",
    "responsible_agency": "Department of Code Enforcement",
    "final_address": "6850 Bundy Rd",
    "address_councildis": "E",
    "status": "Pending",
    "rowid": "1120180",
    "final_x": "3707438.60664",
    "final_y": "559720.552477",
    "longitude": "-89.98511852739304",
    "latitude": "30.032223526557775",
    "geocoded_column": {
      "latitude": "30.032223526557775",
      "longitude": "-89.98511852739304"
    }
  },
  {
    "service_request": "2024-1120179",
    "request_type": "Trash/Recycling",
    "request_reason": "Request a Large Item Pick Up",
    "date_created": "2024-08-08T14:09:00.000",
    "date_modified": "2024-08-08T14:11:29.000",
    "request_status": "Pending",
    "responsible_agency": "Department of Sanitation",
    "final_address": "2939 Leonidas St",
    "address_councildis": "A",
    "status": "Assigned to Contractor",
    "contractor": "IV Waste",
    "rowid": "1120179",
    "final_x": "3664968.65895",
    "final_y": "534259.843205",
    "longitude": "-90.1201789689207",
    "latitude": "29.963520932740412",
    "geocoded_column": {
      "latitude": "29.963520932740412",
      "longitude": "-90.1201789689207"
    }
  },
  {
    "service_request": "2024-1120178",
    "request_type": "Abandoned Vehicles",
    "request_reason": "Abandoned/Junk Vehicles",
    "date_created": "2024-08-08T14:04:52.000",
    "date_modified": "2024-08-08T14:04:52.000",
    "request_status": "Pending",
    "responsible_agency": "Department of Public Works",
    "final_address": "4510 Pauger St",
    "address_councildis": "D",
    "status": "Pending",
    "rowid": "1120178",
    "final_x": "3682752.24584",
    "final_y": "549240.363987",
    "longitude": "-90.06349608854258",
    "latitude": "30.004182404845174",
    "geocoded_column": {
      "latitude": "30.004182404845174",
      "longitude": "-90.06349608854258"
    }
  },
  {
    "service_request": "2024-1120177",
    "request_type": "Trash/Recycling",
    "request_reason": "Order Trash Cart",
    "date_created": "2024-08-08T14:04:51.000",
    "date_modified": "2024-08-08T14:04:52.000",
    "request_status": "Pending",
    "responsible_agency": "Department of Sanitation",
    "final_address": "623 Seguin St Apt 2B",
    "address_councildis": "C",
    "status": "Assigned to Contractor",
    "contractor": "Richards Disposal",
    "rowid": "1120177",
    "final_x": "3686706.44002",
    "final_y": "529460.617089",
    "longitude": "-90.05170303036893",
    "latitude": "29.949673977837783",
    "geocoded_column": {
      "latitude": "29.949673977837783",
      "longitude": "-90.05170303036893"
    }
  },
  {
    "service_request": "2024-1120176",
    "request_type": "Traffic Signals/Signs/Striping/Streetlights",
    "request_reason": "Additional signage",
    "date_created": "2024-08-08T14:04:39.000",
    "date_modified": "2024-08-08T14:04:39.000",
    "request_status": "Pending",
    "responsible_agency": "Department of Public Works",
    "final_address": "MACARTHUR BLVD & KABEL DR",
    "address_councildis": "C",
    "status": "Pending",
    "rowid": "1120176",
    "final_x": "3700703.2",
    "final_y": "520198.98",
    "longitude": "-90.00784745226213",
    "latitude": "29.923769808558156",
    "geocoded_column": {
      "latitude": "29.923769808558156",
      "longitude": "-90.00784745226213"
    }
  },
  {
    "service_request": "2024-1120175",
    "request_type": "Trash/Recycling",
    "request_reason": "Order Trash Cart",
    "date_created": "2024-08-08T14:04:31.000",
    "date_modified": "2024-08-08T14:04:32.000",
    "request_status": "Pending",
    "responsible_agency": "Department of Sanitation",
    "final_address": "623 Seguin St Apt 2A",
    "address_councildis": "C",
    "status": "Assigned to Contractor",
    "contractor": "Richards Disposal",
    "rowid": "1120175",
    "final_x": "3686712.9119",
    "final_y": "529449.711361",
    "longitude": "-90.05168298089764",
    "latitude": "29.94964379176205",
    "geocoded_column": {
      "latitude": "29.94964379176205",
      "longitude": "-90.05168298089764"
    }
  },
  {
    "service_request": "2024-1120174",
    "request_type": "Trash/Recycling",
    "request_reason": "Repair Recycling Cart",
    "date_created": "2024-08-08T13:59:49.000",
    "date_modified": "2024-08-08T13:59:49.000",
    "request_status": "Pending",
    "responsible_agency": "Department of Sanitation",
    "final_address": "2355 Oriole St",
    "address_councildis": "D",
    "status": "Pending",
    "rowid": "1120174",
    "final_x": "3684480.91612",
    "final_y": "558219.963804",
    "longitude": "-90.05771910446376",
    "latitude": "30.028820223719332",
    "geocoded_column": {
      "latitude": "30.028820223719332",
      "longitude": "-90.05771910446376"
    }
  },
  {
    "service_request": "2024-1120173",
    "request_type": "Trash/Recycling",
    "request_reason": "Missed Trash Pick-Up",
    "date_created": "2024-08-08T13:57:35.000",
    "date_modified": "2024-08-08T15:55:03.000",
    "case_close_date": "2024-08-08T10:55:03.000",
    "request_status": "Closed",
    "responsible_agency": "Department of Sanitation",
    "final_address": "8002 Willow St",
    "address_councildis": "A",
    "status": "Invalid Request",
    "contractor": "IV Waste",
    "contractor_action": "Invalid Pick-Up",
    "rowid": "1120173",
    "final_x": "3662711.72122",
    "final_y": "528587.724864",
    "longitude": "-90.12749467245442",
    "latitude": "29.947989955101622",
    "geocoded_column": {
      "latitude": "29.947989955101622",
      "longitude": "-90.12749467245442"
    }
  },
  {
    "service_request": "2024-1120172",
    "request_type": "Property Maintenance",
    "request_reason": "Property Maintenance",
    "date_created": "2024-08-08T13:57:22.000",
    "date_modified": "2024-08-08T13:57:22.000",
    "request_status": "Pending",
    "responsible_agency": "Department of Code Enforcement",
    "final_address": "4937 N Galvez St",
    "address_councildis": "E",
    "status": "Pending",
    "rowid": "1120172",
    "final_x": "3696901.00567",
    "final_y": "538078.167241",
    "longitude": "-90.0192022599555",
    "latitude": "29.97305171367157",
    "geocoded_column": {
      "latitude": "29.97305171367157",
      "longitude": "-90.0192022599555"
    }
  },
  {
    "service_request": "2024-1120171",
    "request_type": "Property Maintenance",
    "request_reason": "Property Maintenance",
    "date_created": "2024-08-08T13:56:45.000",
    "date_modified": "2024-08-08T13:56:46.000",
    "request_status": "Pending",
    "responsible_agency": "Department of Code Enforcement",
    "final_address": "2114 Tennessee St",
    "address_councildis": "E",
    "status": "Pending",
    "rowid": "1120171",
    "final_x": "3696718.1537",
    "final_y": "538214.107273",
    "longitude": "-90.01977481744257",
    "latitude": "29.97343126491781",
    "geocoded_column": {
      "latitude": "29.97343126491781",
      "longitude": "-90.01977481744257"
    }
  },
  {
    "service_request": "2024-1120170",
    "request_type": "Trash/Recycling",
    "request_reason": "Request a Large Item Pick Up",
    "date_created": "2024-08-08T13:55:45.000",
    "date_modified": "2024-08-08T13:57:49.000",
    "request_status": "Pending",
    "responsible_agency": "Department of Sanitation",
    "final_address": "1838 Independence St",
    "address_councildis": "D",
    "status": "Assigned to Contractor",
    "contractor": "IV Waste",
    "rowid": "1120170",
    "final_x": "3691640.39772",
    "final_y": "538441.720457",
    "longitude": "-90.03580322310431",
    "latitude": "29.974216200407245",
    "geocoded_column": {
      "latitude": "29.974216200407245",
      "longitude": "-90.03580322310431"
    }
  },
  {
    "service_request": "2024-1120169",
    "request_type": "Roads/Drainage",
    "request_reason": "Alley Way",
    "date_created": "2024-08-08T13:53:02.000",
    "date_modified": "2024-08-08T13:53:29.000",
    "case_close_date": "2024-08-08T08:53:29.000",
    "request_status": "Closed",
    "responsible_agency": "Department of Public Works",
    "final_address": "6000 BLK General Haig St",
    "address_councildis": "A",
    "status": "Resolved",
    "rowid": "1120169",
    "final_x": "3670557.25432",
    "final_y": "547417.343601",
    "longitude": "-90.1020842621594",
    "latitude": "29.999535702744332",
    "geocoded_column": {
      "latitude": "29.999535702744332",
      "longitude": "-90.1020842621594"
    }
  },
  {
    "service_request": "2024-1120168",
    "request_type": "Abandoned Vehicles",
    "request_reason": "Abandoned/Junk Vehicles",
    "date_created": "2024-08-08T13:51:20.000",
    "date_modified": "2024-08-08T13:51:21.000",
    "request_status": "Pending",
    "responsible_agency": "Department of Public Works",
    "final_address": "322 N Dorgenois St",
    "address_councildis": "B",
    "status": "Pending",
    "rowid": "1120168",
    "final_x": "3676434.58229",
    "final_y": "535555.93511",
    "longitude": "-90.08392614080147",
    "latitude": "29.96674597007406",
    "geocoded_column": {
      "latitude": "29.96674597007406",
      "longitude": "-90.08392614080147"
    }
  },
  {
    "service_request": "2024-1120167",
    "request_type": "Roads/Drainage",
    "request_reason": "Alley Way",
    "date_created": "2024-08-08T13:50:25.000",
    "date_modified": "2024-08-08T13:51:00.000",
    "case_close_date": "2024-08-08T08:51:00.000",
    "request_status": "Closed",
    "responsible_agency": "Department of Public Works",
    "final_address": "5900 BLK Argonne Blvd",
    "address_councildis": "A",
    "status": "Resolved",
    "rowid": "1120167",
    "final_x": "3670120.92678",
    "final_y": "546794.493797",
    "longitude": "-90.10348375808005",
    "latitude": "29.997835966449625",
    "geocoded_column": {
      "latitude": "29.997835966449625",
      "longitude": "-90.10348375808005"
    }
  },
  {
    "service_request": "2024-1120166",
    "request_type": "Trash/Recycling",
    "request_reason": "Order Trash Cart",
    "date_created": "2024-08-08T13:47:05.000",
    "date_modified": "2024-08-08T13:47:06.000",
    "request_status": "Pending",
    "responsible_agency": "Department of Sanitation",
    "final_address": "2311 Baronne St Apt 1A",
    "address_councildis": "B",
    "status": "Assigned to Contractor",
    "contractor": "IV Waste",
    "rowid": "1120166",
    "final_x": "3676624.65723",
    "final_y": "523924.124924",
    "longitude": "-90.0837264819257",
    "latitude": "29.934756668226736",
    "geocoded_column": {
      "latitude": "29.934756668226736",
      "longitude": "-90.0837264819257"
    }
  },
  {
    "service_request": "2024-1120165",
    "request_type": "Roads/Drainage",
    "request_reason": "Man hole cover issue",
    "date_created": "2024-08-08T13:45:51.000",
    "date_modified": "2024-08-08T18:02:01.000",
    "case_close_date": "2024-08-08T13:02:01.000",
    "request_status": "Closed",
    "responsible_agency": "Department of Public Works",
    "final_address": "HOWARD AVE & LOYOLA AVE",
    "address_councildis": "B",
    "status": "Invalid Case",
    "rowid": "1120165",
    "final_x": "3678726.75",
    "final_y": "528082.41",
    "longitude": "-90.07694626669412",
    "latitude": "29.94612737303218",
    "geocoded_column": {
      "latitude": "29.94612737303218",
      "longitude": "-90.07694626669412"
    }
  },
  {
    "service_request": "2024-1120164",
    "request_type": "Trash/Recycling",
    "request_reason": "Order Trash Cart",
    "date_created": "2024-08-08T13:44:57.000",
    "date_modified": "2024-08-08T13:44:58.000",
    "request_status": "Pending",
    "responsible_agency": "Department of Sanitation",
    "final_address": "2311 Baronne St Apt 1A",
    "address_councildis": "B",
    "status": "Assigned to Contractor",
    "contractor": "IV Waste",
    "rowid": "1120164",
    "final_x": "3676624.65723",
    "final_y": "523924.124924",
    "longitude": "-90.0837264819257",
    "latitude": "29.934756668226736",
    "geocoded_column": {
      "latitude": "29.934756668226736",
      "longitude": "-90.0837264819257"
    }
  },
  {
    "service_request": "2024-1120163",
    "request_type": "Property Maintenance",
    "request_reason": "Property Maintenance",
    "date_created": "2024-08-08T13:44:09.000",
    "date_modified": "2024-08-08T13:44:09.000",
    "request_status": "Pending",
    "responsible_agency": "Department of Code Enforcement",
    "final_address": "2107 Third St",
    "address_councildis": "B",
    "status": "Pending",
    "rowid": "1120163",
    "final_x": "3675437.51886",
    "final_y": "524448.111228",
    "longitude": "-90.0874562764437",
    "latitude": "29.93623300454174",
    "geocoded_column": {
      "latitude": "29.93623300454174",
      "longitude": "-90.0874562764437"
    }
  },
  {
    "service_request": "2024-1120162",
    "request_type": "Property Maintenance",
    "request_reason": "Property Maintenance",
    "date_created": "2024-08-08T13:43:19.000",
    "date_modified": "2024-08-08T13:43:19.000",
    "request_status": "Pending",
    "responsible_agency": "Department of Code Enforcement",
    "final_address": "812 Thayer St",
    "address_councildis": "C",
    "status": "Pending",
    "rowid": "1120162",
    "final_x": "3689505.64483",
    "final_y": "528523.854784",
    "longitude": "-90.04289800330895",
    "latitude": "29.947011816070788",
    "geocoded_column": {
      "latitude": "29.947011816070788",
      "longitude": "-90.04289800330895"
    }
  },
  {
    "service_request": "2024-1120161",
    "request_type": "Property Maintenance",
    "request_reason": "Property Maintenance",
    "date_created": "2024-08-08T13:41:58.000",
    "date_modified": "2024-08-08T13:41:58.000",
    "request_status": "Pending",
    "responsible_agency": "Department of Code Enforcement",
    "final_address": "2105 Third St",
    "address_councildis": "B",
    "status": "Pending",
    "rowid": "1120161",
    "final_x": "3675446.33934",
    "final_y": "524433.998332",
    "longitude": "-90.08742891434503",
    "latitude": "29.936193934978796",
    "geocoded_column": {
      "latitude": "29.936193934978796",
      "longitude": "-90.08742891434503"
    }
  },
  {
    "service_request": "2024-1120160",
    "request_type": "Abandoned Vehicles",
    "request_reason": "Abandoned/Junk Vehicles",
    "date_created": "2024-08-08T13:40:56.000",
    "date_modified": "2024-08-08T13:40:56.000",
    "request_status": "Pending",
    "responsible_agency": "Department of Public Works",
    "final_address": "1809 Hendee St",
    "address_councildis": "C",
    "status": "Pending",
    "rowid": "1120160",
    "final_x": "3690568.12796",
    "final_y": "524277.347132",
    "longitude": "-90.0396947331375",
    "latitude": "29.935302425437094",
    "geocoded_column": {
      "latitude": "29.935302425437094",
      "longitude": "-90.0396947331375"
    }
  },
  {
    "service_request": "2024-1120159",
    "request_type": "Trash/Recycling",
    "request_reason": "Request a Large Item Pick Up",
    "date_created": "2024-08-08T13:37:15.000",
    "date_modified": "2024-08-08T13:37:16.000",
    "request_status": "Pending",
    "responsible_agency": "Department of Sanitation",
    "final_address": "1819 Dublin St",
    "address_councildis": "A",
    "status": "Assigned to Contractor",
    "contractor": "IV Waste",
    "rowid": "1120159",
    "final_x": "3663262.53255",
    "final_y": "530263.430593",
    "longitude": "-90.12569976907658",
    "latitude": "29.952581655941692",
    "geocoded_column": {
      "latitude": "29.952581655941692",
      "longitude": "-90.12569976907658"
    }
  },
  {
    "service_request": "2024-1120158",
    "request_type": "Traffic Signals/Signs/Striping/Streetlights",
    "request_reason": "Street Light Outage/Malfunction",
    "date_created": "2024-08-08T13:36:05.000",
    "date_modified": "2024-08-08T13:36:07.000",
    "request_status": "Pending",
    "responsible_agency": "Department of Public Works",
    "final_address": "4818 Piety Dr",
    "address_councildis": "D",
    "status": "Assigned to Contractor",
    "contractor": "Legacy Professional Services",
    "rowid": "1120158",
    "final_x": "3691569.64867",
    "final_y": "551373.056149",
    "longitude": "-90.03556411254245",
    "latitude": "30.009774892354972",
    "geocoded_column": {
      "latitude": "30.009774892354972",
      "longitude": "-90.03556411254245"
    }
  },
  {
    "service_request": "2024-1120157",
    "request_type": "Trash/Recycling",
    "request_reason": "Request a Large Item Pick Up",
    "date_created": "2024-08-08T13:34:14.000",
    "date_modified": "2024-08-08T13:34:15.000",
    "request_status": "Pending",
    "responsible_agency": "Department of Sanitation",
    "final_address": "1016 N Robertson St",
    "address_councildis": "C",
    "status": "Assigned to Contractor",
    "contractor": "IV Waste",
    "rowid": "1120157",
    "final_x": "3680867.77192",
    "final_y": "535346.294022",
    "longitude": "-90.06993345277151",
    "latitude": "29.966035868969666",
    "geocoded_column": {
      "latitude": "29.966035868969666",
      "longitude": "-90.06993345277151"
    }
  },
  {
    "service_request": "2024-1120156",
    "request_type": "Trash/Recycling",
    "request_reason": "Request a Large Item Pick Up",
    "date_created": "2024-08-08T13:33:26.000",
    "date_modified": "2024-08-08T13:33:27.000",
    "request_status": "Pending",
    "responsible_agency": "Department of Sanitation",
    "final_address": "3821 Indiana St",
    "address_councildis": "C",
    "status": "Assigned to Contractor",
    "contractor": "Richards Disposal",
    "rowid": "1120156",
    "final_x": "3692899.4463",
    "final_y": "519548.605751",
    "longitude": "-90.03250426841258",
    "latitude": "29.92222741087994",
    "geocoded_column": {
      "latitude": "29.92222741087994",
      "longitude": "-90.03250426841258"
    }
  },
  {
    "service_request": "2024-1120155",
    "request_type": "Trash/Recycling",
    "request_reason": "Missed Trash Pick-Up",
    "date_created": "2024-08-08T13:31:32.000",
    "date_modified": "2024-08-08T13:31:33.000",
    "request_status": "Pending",
    "responsible_agency": "Department of Sanitation",
    "final_address": "3821 Indiana St",
    "address_councildis": "C",
    "status": "Assigned to Contractor",
    "contractor": "Richards Disposal",
    "rowid": "1120155",
    "final_x": "3692899.4463",
    "final_y": "519548.605751",
    "longitude": "-90.03250426841258",
    "latitude": "29.92222741087994",
    "geocoded_column": {
      "latitude": "29.92222741087994",
      "longitude": "-90.03250426841258"
    }
  },
  {
    "service_request": "2024-1120154",
    "request_type": "Property Maintenance",
    "request_reason": "Property Maintenance",
    "date_created": "2024-08-08T13:30:36.000",
    "date_modified": "2024-08-08T13:30:36.000",
    "request_status": "Pending",
    "responsible_agency": "Department of Code Enforcement",
    "final_address": "2300 Jefferson Ave",
    "address_councildis": "A",
    "status": "Pending",
    "rowid": "1120154",
    "final_x": "3667868.54445",
    "final_y": "524062.473084",
    "longitude": "-90.11136482427918",
    "latitude": "29.9353967450289",
    "geocoded_column": {
      "latitude": "29.9353967450289",
      "longitude": "-90.11136482427918"
    }
  },
  {
    "service_request": "2024-1120153",
    "request_type": "Trash/Recycling",
    "request_reason": "Order Trash Cart",
    "date_created": "2024-08-08T13:28:16.000",
    "date_modified": "2024-08-08T13:28:17.000",
    "request_status": "Pending",
    "responsible_agency": "Department of Sanitation",
    "final_address": "2103 Baronne St Apt 1C",
    "address_councildis": "B",
    "status": "Assigned to Contractor",
    "contractor": "IV Waste",
    "rowid": "1120153",
    "final_x": "3677232.02888",
    "final_y": "524758.151932",
    "longitude": "-90.08178025905246",
    "latitude": "29.93703174168965",
    "geocoded_column": {
      "latitude": "29.93703174168965",
      "longitude": "-90.08178025905246"
    }
  },
  {
    "service_request": "2024-1120152",
    "request_type": "Roads/Drainage",
    "request_reason": "Catch Basin - Broken/Damage",
    "date_created": "2024-08-08T13:27:42.000",
    "date_modified": "2024-08-08T13:30:13.000",
    "request_status": "Pending",
    "responsible_agency": "Department of Public Works",
    "final_address": "7011 Read Blvd",
    "address_councildis": "E",
    "status": "Pending",
    "rowid": "1120152",
    "final_x": "3709982.40702",
    "final_y": "562188.511007",
    "longitude": "-89.97698770274143",
    "latitude": "30.038926888626793",
    "geocoded_column": {
      "latitude": "30.038926888626793",
      "longitude": "-89.97698770274143"
    }
  },
  {
    "service_request": "2024-1120151",
    "request_type": "Trash/Recycling",
    "request_reason": "Request a Large Item Pick Up",
    "date_created": "2024-08-08T13:27:31.000",
    "date_modified": "2024-08-08T13:27:32.000",
    "request_status": "Pending",
    "responsible_agency": "Department of Sanitation",
    "final_address": "2646 Allen Toussaint Blvd",
    "address_councildis": "D",
    "status": "Assigned to Contractor",
    "contractor": "IV Waste",
    "rowid": "1120151",
    "final_x": "3686839.07932",
    "final_y": "555926.612249",
    "longitude": "-90.05034855913685",
    "latitude": "30.022441966007037",
    "geocoded_column": {
      "latitude": "30.022441966007037",
      "longitude": "-90.05034855913685"
    }
  },
  {
    "service_request": "2024-1120150",
    "request_type": "Trash/Recycling",
    "request_reason": "Order Trash Cart",
    "date_created": "2024-08-08T13:27:20.000",
    "date_modified": "2024-08-08T13:27:21.000",
    "request_status": "Pending",
    "responsible_agency": "Department of Sanitation",
    "final_address": "2103 Baronne St Apt 1A",
    "address_councildis": "B",
    "status": "Assigned to Contractor",
    "contractor": "IV Waste",
    "rowid": "1120150",
    "final_x": "3677250.0219",
    "final_y": "524734.910908",
    "longitude": "-90.0817242555115",
    "latitude": "29.9369672961053",
    "geocoded_column": {
      "latitude": "29.9369672961053",
      "longitude": "-90.0817242555115"
    }
  },
  {
    "service_request": "2024-1120149",
    "request_type": "Abandoned Vehicles",
    "request_reason": "Abandoned/Junk Vehicles",
    "date_created": "2024-08-08T13:27:12.000",
    "date_modified": "2024-08-08T13:27:12.000",
    "request_status": "Pending",
    "responsible_agency": "Department of Public Works",
    "final_address": "1218 St Mary St",
    "address_councildis": "B",
    "status": "Pending",
    "rowid": "1120149",
    "final_x": "3679346.67362",
    "final_y": "523214.533499",
    "longitude": "-90.07515771841543",
    "latitude": "29.932723620166904",
    "geocoded_column": {
      "latitude": "29.932723620166904",
      "longitude": "-90.07515771841543"
    }
  },
  {
    "service_request": "2024-1120148",
    "request_type": "Abandoned Vehicles",
    "request_reason": "Abandoned/Junk Vehicles",
    "date_created": "2024-08-08T13:24:53.000",
    "date_modified": "2024-08-08T13:24:53.000",
    "request_status": "Pending",
    "responsible_agency": "Department of Public Works",
    "final_address": "2211 Brainard St",
    "address_councildis": "B",
    "status": "Pending",
    "rowid": "1120148",
    "final_x": "3677098.16718",
    "final_y": "524235.721148",
    "longitude": "-90.08222087691544",
    "latitude": "29.935599248162916",
    "geocoded_column": {
      "latitude": "29.935599248162916",
      "longitude": "-90.08222087691544"
    }
  },
  {
    "service_request": "2024-1120147",
    "request_type": "Abandoned Vehicles",
    "request_reason": "Abandoned/Junk Vehicles",
    "date_created": "2024-08-08T13:24:36.000",
    "date_modified": "2024-08-08T13:24:36.000",
    "request_status": "Pending",
    "responsible_agency": "Department of Public Works",
    "final_address": "1218 St Mary St",
    "address_councildis": "B",
    "status": "Pending",
    "rowid": "1120147",
    "final_x": "3679346.67362",
    "final_y": "523214.533499",
    "longitude": "-90.07515771841543",
    "latitude": "29.932723620166904",
    "geocoded_column": {
      "latitude": "29.932723620166904",
      "longitude": "-90.07515771841543"
    }
  },
  {
    "service_request": "2024-1120146",
    "request_type": "Trash/Recycling",
    "request_reason": "Request a Large Item Pick Up",
    "date_created": "2024-08-08T13:23:55.000",
    "date_modified": "2024-08-08T13:23:56.000",
    "request_status": "Pending",
    "responsible_agency": "Department of Sanitation",
    "final_address": "6570 Coveview Ct",
    "address_councildis": "E",
    "status": "Assigned to Contractor",
    "contractor": "Waste Pro",
    "rowid": "1120146",
    "final_x": "3698936.13898",
    "final_y": "555663.135769",
    "longitude": "-90.01213459157232",
    "latitude": "30.02133952216168",
    "geocoded_column": {
      "latitude": "30.02133952216168",
      "longitude": "-90.01213459157232"
    }
  },
  {
    "service_request": "2024-1120145",
    "request_type": "Abandoned Vehicles",
    "request_reason": "Abandoned/Junk Vehicles",
    "date_created": "2024-08-08T13:23:47.000",
    "date_modified": "2024-08-08T13:23:47.000",
    "request_status": "Pending",
    "responsible_agency": "Department of Public Works",
    "final_address": "1218 St Mary St",
    "address_councildis": "B",
    "status": "Pending",
    "rowid": "1120145",
    "final_x": "3679346.67362",
    "final_y": "523214.533499",
    "longitude": "-90.07515771841543",
    "latitude": "29.932723620166904",
    "geocoded_column": {
      "latitude": "29.932723620166904",
      "longitude": "-90.07515771841543"
    }
  },
  {
    "service_request": "2024-1120144",
    "request_type": "Trash/Recycling",
    "request_reason": "Request a Large Item Pick Up",
    "date_created": "2024-08-08T13:23:15.000",
    "date_modified": "2024-08-08T13:23:16.000",
    "request_status": "Pending",
    "responsible_agency": "Department of Sanitation",
    "final_address": "6575 Coveview Ct",
    "address_councildis": "E",
    "status": "Assigned to Contractor",
    "contractor": "Waste Pro",
    "rowid": "1120144",
    "final_x": "3698909.92023",
    "final_y": "555799.383833",
    "longitude": "-90.01221247149256",
    "latitude": "30.021714983631203",
    "geocoded_column": {
      "latitude": "30.021714983631203",
      "longitude": "-90.01221247149256"
    }
  },
  {
    "service_request": "2024-1120143",
    "request_type": "Abandoned Vehicles",
    "request_reason": "Abandoned/Junk Vehicles",
    "date_created": "2024-08-08T13:17:20.000",
    "date_modified": "2024-08-08T13:17:20.000",
    "request_status": "Pending",
    "responsible_agency": "Department of Public Works",
    "final_address": "1218 St Mary St",
    "address_councildis": "B",
    "status": "Pending",
    "rowid": "1120143",
    "final_x": "3679346.67362",
    "final_y": "523214.533499",
    "longitude": "-90.07515771841543",
    "latitude": "29.932723620166904",
    "geocoded_column": {
      "latitude": "29.932723620166904",
      "longitude": "-90.07515771841543"
    }
  },
  {
    "service_request": "2024-1120142",
    "request_type": "Trash/Recycling",
    "request_reason": "Request a Large Item Pick Up",
    "date_created": "2024-08-08T13:14:09.000",
    "date_modified": "2024-08-08T13:14:54.000",
    "request_status": "Pending",
    "responsible_agency": "Department of Sanitation",
    "final_address": "3729 Ulloa St",
    "address_councildis": "B",
    "status": "Assigned to Contractor",
    "contractor": "IV Waste",
    "rowid": "1120142",
    "final_x": "3670759.48193",
    "final_y": "535714.225927",
    "longitude": "-90.10184275745331",
    "latitude": "29.967350146656187",
    "geocoded_column": {
      "latitude": "29.967350146656187",
      "longitude": "-90.10184275745331"
    }
  },
  {
    "service_request": "2024-1120141",
    "request_type": "Healthy Homes",
    "request_reason": "Healthy Homes",
    "date_created": "2024-08-08T13:13:37.000",
    "date_modified": "2024-08-08T13:15:23.000",
    "request_status": "Pending",
    "responsible_agency": "Department of Code Enforcement",
    "final_address": "521 St Mary St",
    "address_councildis": "B",
    "status": "Pending",
    "rowid": "1120141",
    "final_x": "3681162.65935",
    "final_y": "521317.974521",
    "longitude": "-90.06949083966333",
    "latitude": "29.927453753653054",
    "geocoded_column": {
      "latitude": "29.927453753653054",
      "longitude": "-90.06949083966333"
    }
  },
  {
    "service_request": "2024-1120140",
    "request_type": "Property Maintenance",
    "request_reason": "Property Maintenance",
    "date_created": "2024-08-08T13:12:39.000",
    "date_modified": "2024-08-08T13:12:39.000",
    "request_status": "Pending",
    "responsible_agency": "Department of Code Enforcement",
    "final_address": "3721 Delachaise St",
    "address_councildis": "B",
    "status": "Pending",
    "rowid": "1120140",
    "final_x": "3671191.43687",
    "final_y": "528507.949312",
    "longitude": "-90.1007234427196",
    "latitude": "29.94752250139052",
    "geocoded_column": {
      "latitude": "29.94752250139052",
      "longitude": "-90.1007234427196"
    }
  },
  {
    "service_request": "2024-1120139",
    "request_type": "Trash/Recycling",
    "request_reason": "Request a Large Item Pick Up",
    "date_created": "2024-08-08T13:12:33.000",
    "date_modified": "2024-08-08T13:12:34.000",
    "request_status": "Pending",
    "responsible_agency": "Department of Sanitation",
    "final_address": "5611 Charlotte Dr",
    "address_councildis": "D",
    "status": "Assigned to Contractor",
    "contractor": "IV Waste",
    "rowid": "1120139",
    "final_x": "3680102.30159",
    "final_y": "553132.978391",
    "longitude": "-90.07173234164472",
    "latitude": "30.01496617632019",
    "geocoded_column": {
      "latitude": "30.01496617632019",
      "longitude": "-90.07173234164472"
    }
  },
  {
    "service_request": "2024-1120138",
    "request_type": "Roads/Drainage",
    "request_reason": "Catch Basin - Clogged",
    "date_created": "2024-08-08T13:11:46.000",
    "date_modified": "2024-08-08T13:11:47.000",
    "request_status": "Pending",
    "responsible_agency": "Department of Public Works",
    "final_address": "1812 General Pershing St",
    "address_councildis": "B",
    "status": "Pending",
    "rowid": "1120138",
    "final_x": "3671087.68379",
    "final_y": "521744.605754",
    "longitude": "-90.10128064434653",
    "latitude": "29.928928566450473",
    "geocoded_column": {
      "latitude": "29.928928566450473",
      "longitude": "-90.10128064434653"
    }
  },