[
  {
    "service_request": "2024-1087831",
    "request_type": "Graffiti Removal",
    "request_reason": "Graffiti Removal",
    "date_created": "2024-04-24T23:17:25.000",
    "date_modified": "2024-04-24T23:17:25.000",
    "request_status": "Pending",
    "responsible_agency": "Department of Code Enforcement",
    "final_address": "3316 N Galvez St",
    "address_councildis": "D",
    "status": "Pending",
    "rowid": "1087831",
    "final_x": "3690861.78179",
    "final_y": "539482.158602",
    "longitude": "-90.03822512432592",
    "latitude": "29.977101256512732",
    "geocoded_column": {
      "latitude": "29.977101256512732",
      "longitude": "-90.03822512432592"
    }
  },
  {
    "service_request": "2024-1087830",
    "request_type": "Graffiti Removal",
    "request_reason": "Graffiti Removal",
    "date_created": "2024-04-24T23:16:15.000",
    "date_modified": "2024-04-24T23:16:15.000",
    "request_status": "Pending",
    "responsible_agency": "Department of Code Enforcement",
    "final_address": "3316 N Galvez St",
    "address_councildis": "D",
    "status": "Pending",
    "rowid": "1087830",
    "final_x": "3690861.78179",
    "final_y": "539482.158602",
    "longitude": "-90.03822512432592",
    "latitude": "29.977101256512732",
    "geocoded_column": {
      "latitude": "29.977101256512732",
      "longitude": "-90.03822512432592"
    }
  },
  {
    "service_request": "2024-1087829",
    "request_type": "Trash/Recycling",
    "request_reason": "Replace Trash Cart",
    "date_created": "2024-04-24T22:44:19.000",
    "date_modified": "2024-04-24T22:44:20.000",
    "request_status": "Pending",
    "responsible_agency": "Department of Sanitation",
    "final_address": "1925 Orleans Ave",
    "address_councildis": "D",
    "status": "Assigned to Contractor",
    "contractor": "IV Waste",
    "rowid": "1087829",
    "final_x": "3679141.87631",
    "final_y": "535326.062726",
    "longitude": "-90.07538448678316",
    "latitude": "29.96603245203055",
    "geocoded_column": {
      "latitude": "29.96603245203055",
      "longitude": "-90.07538448678316"
    }
  },
  {
    "service_request": "2024-1087828",
    "request_type": "Trash/Recycling",
    "request_reason": "MIssed Recycling Pick-Up",
    "date_created": "2024-04-24T21:20:31.000",
    "date_modified": "2024-04-24T21:20:32.000",
    "request_status": "Pending",
    "responsible_agency": "Department of Sanitation",
    "final_address": "11308 Will Stutley Dr",
    "address_councildis": "E",
    "status": "Assigned to Contractor",
    "contractor": "Waste Pro",
    "rowid": "1087828",
    "final_x": "3716953.59775",
    "final_y": "558190.720283",
    "longitude": "-89.95510900151461",
    "latitude": "30.027705834949188",
    "geocoded_column": {
      "latitude": "30.027705834949188",
      "longitude": "-89.95510900151461"
    }
  },
  {
    "service_request": "2024-1087827",
    "request_type": "Property Maintenance",
    "request_reason": "Property Maintenance",
    "date_created": "2024-04-24T21:19:02.000",
    "date_modified": "2024-04-24T21:19:02.000",
    "request_status": "Pending",
    "responsible_agency": "Department of Code Enforcement",
    "final_address": "8300 Apricot St",
    "address_councildis": "A",
    "status": "Pending",
    "rowid": "1087827",
    "final_x": "3665227.6816",
    "final_y": "533118.568772",
    "longitude": "-90.11939918153084",
    "latitude": "29.96037525944949",
    "geocoded_column": {
      "latitude": "29.96037525944949",
      "longitude": "-90.11939918153084"
    }
  },
  {
    "service_request": "2024-1087826",
    "request_type": "Property Maintenance",
    "request_reason": "Property Maintenance",
    "date_created": "2024-04-24T20:51:03.000",
    "date_modified": "2024-04-24T20:51:03.000",
    "request_status": "Pending",
    "responsible_agency": "Department of Code Enforcement",
    "final_address": "6100 BLK Dwyer Rd",
    "address_councildis": "D",
    "status": "Pending",
    "rowid": "1087826",
    "final_x": "3696979.26644",
    "final_y": "554844.119758",
    "longitude": "-90.01834743469728",
    "latitude": "30.019149434575404",
    "geocoded_column": {
      "latitude": "30.019149434575404",
      "longitude": "-90.01834743469728"
    }
  },
  {
    "service_request": "2024-1087825",
    "request_type": "Property Maintenance",
    "request_reason": "Property Maintenance",
    "date_created": "2024-04-24T20:37:19.000",
    "date_modified": "2024-04-24T20:37:19.000",
    "request_status": "Pending",
    "responsible_agency": "Department of Code Enforcement",
    "final_address": "6045 Pines Blvd",
    "address_councildis": "D",
    "status": "Pending",
    "rowid": "1087825",
    "final_x": "3696148.54659",
    "final_y": "556164.707098",
    "longitude": "-90.0209244177289",
    "latitude": "30.02280673734054",
    "geocoded_column": {
      "latitude": "30.02280673734054",
      "longitude": "-90.0209244177289"
    }
  },
  {
    "service_request": "2024-1087823",
    "request_type": "Safety & Permits",
    "request_reason": "Safety & Permits Request (Cyber Incident Back Up)",
    "date_created": "2024-04-24T20:30:12.000",
    "date_modified": "2024-04-24T20:30:12.000",
    "request_status": "Pending",
    "responsible_agency": "Safety and Permits",
    "final_address": "1139 Royal St Unit A",
    "address_councildis": "C",
    "status": "Pending",
    "rowid": "1087823",
    "final_x": "3683594.71401",
    "final_y": "533884.949317",
    "longitude": "-90.06137308187658",
    "latitude": "29.96193471768725",
    "geocoded_column": {
      "latitude": "29.96193471768725",
      "longitude": "-90.06137308187658"
    }
  },
  {
    "service_request": "2024-1087822",
    "request_type": "Safety & Permits",
    "request_reason": "Safety & Permits Request (Cyber Incident Back Up)",
    "date_created": "2024-04-24T20:27:44.000",
    "date_modified": "2024-04-24T20:27:44.000",
    "request_status": "Pending",
    "responsible_agency": "Safety and Permits",
    "final_address": "1139 Royal St Unit A",
    "address_councildis": "C",
    "status": "Pending",
    "rowid": "1087822",
    "final_x": "3683594.71401",
    "final_y": "533884.949317",
    "longitude": "-90.06137308187658",
    "latitude": "29.96193471768725",
    "geocoded_column": {
      "latitude": "29.96193471768725",
      "longitude": "-90.06137308187658"
    }
  },
  {
    "service_request": "2024-1087821",
    "request_type": "Trash/Recycling",
    "request_reason": "Replace Trash Cart",
    "date_created": "2024-04-24T20:21:09.000",
    "date_modified": "2024-04-24T20:21:10.000",
    "request_status": "Pending",
    "responsible_agency": "Department of Sanitation",
    "final_address": "1131 Orange St, New Orleans, Louisiana, 70130",
    "address_councildis": "B",
    "status": "Assigned to Contractor",
    "contractor": "IV Waste",
    "rowid": "1087821",
    "final_x": "3679856.47944",
    "final_y": "523577.759035",
    "longitude": "-90.07353569564594",
    "latitude": "29.933706968638734",
    "geocoded_column": {
      "latitude": "29.933706968638734",
      "longitude": "-90.07353569564594"
    }
  },
  {
    "service_request": "2024-1087820",
    "request_type": "Trash/Recycling",
    "request_reason": "Order Trash Cart",
    "date_created": "2024-04-24T20:16:04.000",
    "date_modified": "2024-04-24T20:16:05.000",
    "request_status": "Pending",
    "responsible_agency": "Department of Sanitation",
    "final_address": "150 Millaudon St",
    "address_councildis": "A",
    "status": "Assigned to Contractor",
    "contractor": "IV Waste",
    "rowid": "1087820",
    "final_x": "3660905.72749",
    "final_y": "523584.392827",
    "longitude": "-90.1333623908907",
    "latitude": "29.934284513073916",
    "geocoded_column": {
      "latitude": "29.934284513073916",
      "longitude": "-90.1333623908907"
    }
  },
  {
    "service_request": "2024-1087819",
    "request_type": "Roads/Drainage",
    "request_reason": "Pothole",
    "date_created": "2024-04-24T20:11:36.000",
    "date_modified": "2024-04-24T20:11:36.000",
    "request_status": "Pending",
    "responsible_agency": "Department of Public Works",
    "final_address": "1312 Milan St",
    "address_councildis": "B",
    "status": "Pending",
    "rowid": "1087819",
    "final_x": "3671625.82823",
    "final_y": "520286.919608",
    "longitude": "-90.09963137110304",
    "latitude": "29.92490447494246",
    "geocoded_column": {
      "latitude": "29.92490447494246",
      "longitude": "-90.09963137110304"
    }
  },
  {
    "service_request": "2024-1087818",
    "request_type": "Roads/Drainage",
    "request_reason": "Pothole",
    "date_created": "2024-04-24T20:10:14.000",
    "date_modified": "2024-04-24T20:10:14.000",
    "request_status": "Pending",
    "responsible_agency": "Department of Public Works",
    "final_address": "1312 Milan St",
    "address_councildis": "B",
    "status": "Pending",
    "rowid": "1087818",
    "final_x": "3671625.82823",
    "final_y": "520286.919608",
    "longitude": "-90.09963137110304",
    "latitude": "29.92490447494246",
    "geocoded_column": {
      "latitude": "29.92490447494246",
      "longitude": "-90.09963137110304"
    }
  },
  {
    "service_request": "2024-1087817",
    "request_type": "Trash/Recycling",
    "request_reason": "Replace Trash Cart",
    "date_created": "2024-04-24T20:04:25.000",
    "date_modified": "2024-04-24T20:04:25.000",
    "request_status": "Pending",
    "responsible_agency": "Department of Sanitation",
    "final_address": "1009 Bellecastle St",
    "address_councildis": "B",
    "status": "Assigned to Contractor",
    "contractor": "IV Waste",
    "rowid": "1087817",
    "final_x": "3667747.85037",
    "final_y": "519086.985079",
    "longitude": "-90.11191329458428",
    "latitude": "29.921719272688048",
    "geocoded_column": {
      "latitude": "29.921719272688048",
      "longitude": "-90.11191329458428"
    }
  },
  {
    "service_request": "2024-1087816",
    "request_type": "Trash/Recycling",
    "request_reason": "Request a Large Item Pick Up",
    "date_created": "2024-04-24T19:18:01.000",
    "date_modified": "2024-04-24T19:51:13.000",
    "case_close_date": "2024-04-24T14:51:13.000",
    "request_status": "Closed",
    "responsible_agency": "Department of Sanitation",
    "final_address": "4626 Longfellow Dr",
    "address_councildis": "E",
    "status": "Assigned to Contractor",
    "contractor": "Waste Pro",
    "contractor_action": "Completed",
    "rowid": "1087816",
    "final_x": "3709630.71902",
    "final_y": "555053.571289",
    "longitude": "-89.97836576184137",
    "latitude": "30.019320057455435",
    "geocoded_column": {
      "latitude": "30.019320057455435",
      "longitude": "-89.97836576184137"
    }
  },
  {
    "service_request": "2024-1087815",
    "request_type": "Trash/Recycling",
    "request_reason": "Missed Trash Pick-Up",
    "date_created": "2024-04-24T19:15:37.000",
    "date_modified": "2024-04-24T19:15:38.000",
    "request_status": "Pending",
    "responsible_agency": "Department of Sanitation",
    "final_address": "4626 Longfellow Dr",
    "address_councildis": "E",
    "status": "Assigned to Contractor",
    "contractor": "Waste Pro",
    "rowid": "1087815",
    "final_x": "3709630.71902",
    "final_y": "555053.571289",
    "longitude": "-89.97836576184137",
    "latitude": "30.019320057455435",
    "geocoded_column": {
      "latitude": "30.019320057455435",
      "longitude": "-89.97836576184137"
    }
  },
  {
    "service_request": "2024-1087814",
    "request_type": "Trash/Recycling",
    "request_reason": "Repair Trash Cart",
    "date_created": "2024-04-24T19:13:35.000",
    "date_modified": "2024-04-24T19:13:36.000",
    "request_status": "Pending",
    "responsible_agency": "Department of Sanitation",
    "final_address": "6531 Marshal Foch St",
    "address_councildis": "A",
    "status": "Assigned to Contractor",
    "contractor": "IV Waste",
    "rowid": "1087814",
    "final_x": "3670248.5307",
    "final_y": "550827.677525",
    "longitude": "-90.10294385003773",
    "latitude": "30.008922047161853",
    "geocoded_column": {
      "latitude": "30.008922047161853",
      "longitude": "-90.10294385003773"
    }
  },
  {
    "service_request": "2024-1087812",
    "request_type": "Abandoned Vehicles",
    "request_reason": "Abandoned/Junk Vehicles",
    "date_created": "2024-04-24T19:03:30.000",
    "date_modified": "2024-04-24T19:03:30.000",
    "request_status": "Pending",
    "responsible_agency": "Department of Public Works",
    "final_address": "1800 BLK N Gayoso St",
    "address_councildis": "D",
    "status": "Pending",
    "rowid": "1087812",
    "final_x": "3679464.07739",
    "final_y": "542440.160642",
    "longitude": "-90.0741200945203",
    "latitude": "29.985584034273096",
    "geocoded_column": {
      "latitude": "29.985584034273096",
      "longitude": "-90.0741200945203"
    }
  },
  {
    "service_request": "2024-1087811",
    "request_type": "Health Related Request",
    "request_reason": "Noise Ordinance Complaint",
    "date_created": "2024-04-24T19:02:26.000",
    "date_modified": "2024-04-24T19:02:26.000",
    "request_status": "Pending",
    "responsible_agency": "Health Department",
    "final_address": "316 Chartres St, New Orleans, Louisiana, 70130",
    "address_councildis": "C",
    "status": "Pending",
    "rowid": "1087811",
    "final_x": "3682048.77532",
    "final_y": "531162.123394",
    "longitude": "-90.06634998337161",
    "latitude": "29.954494970034958",
    "geocoded_column": {
      "latitude": "29.954494970034958",
      "longitude": "-90.06634998337161"
    }
  },
  {
    "service_request": "2024-1087810",
    "request_type": "Trash/Recycling",
    "request_reason": "Request a Large Item Pick Up",
    "date_created": "2024-04-24T19:02:16.000",
    "date_modified": "2024-04-24T19:02:17.000",
    "request_status": "Pending",
    "responsible_agency": "Department of Sanitation",
    "final_address": "3510 Rue Denise",
    "address_councildis": "C",
    "status": "Assigned to Contractor",
    "contractor": "Richards Disposal",
    "rowid": "1087810",
    "final_x": "3704333.06474",
    "final_y": "517749.33567",
    "longitude": "-89.99647959539396",
    "latitude": "29.916918177215685",
    "geocoded_column": {
      "latitude": "29.916918177215685",
      "longitude": "-89.99647959539396"
    }
  },
  {
    "service_request": "2024-1087809",
    "request_type": "Trash/Recycling",
    "request_reason": "Missed Trash Pick-Up",
    "date_created": "2024-04-24T18:54:16.000",
    "date_modified": "2024-04-24T18:54:16.000",
    "request_status": "Pending",
    "responsible_agency": "Department of Sanitation",
    "final_address": "4600 Charlene Dr, New Orleans, Louisiana, 70127",
    "address_councildis": "E",
    "status": "Assigned to Contractor",
    "contractor": "Waste Pro",
    "rowid": "1087809",
    "final_x": "3707946.48107",
    "final_y": "554518.318872",
    "longitude": "-89.98370725416333",
    "latitude": "30.017902975729307",
    "geocoded_column": {
      "latitude": "30.017902975729307",
      "longitude": "-89.98370725416333"
    }
  },
  {
    "service_request": "2024-1087808",
    "request_type": "Trash/Recycling",
    "request_reason": "Missed Trash Pick-Up",
    "date_created": "2024-04-24T18:44:17.000",
    "date_modified": "2024-04-24T18:44:18.000",
    "request_status": "Pending",
    "responsible_agency": "Department of Sanitation",
    "final_address": "161 W Greenbrier Dr",
    "address_councildis": "E",
    "status": "Assigned to Contractor",
    "contractor": "Waste Pro",
    "rowid": "1087808",
    "final_x": "3716997.28684",
    "final_y": "565025.833954",
    "longitude": "-89.95471108726204",
    "latitude": "30.046498189526996",
    "geocoded_column": {
      "latitude": "30.046498189526996",
      "longitude": "-89.95471108726204"
    }
  },
  {
    "service_request": "2024-1087807",
    "request_type": "Trash/Recycling",
    "request_reason": "Repair Trash Cart",
    "date_created": "2024-04-24T18:16:45.000",
    "date_modified": "2024-04-24T18:16:46.000",
    "request_status": "Pending",
    "responsible_agency": "Department of Sanitation",
    "final_address": "PEARL ST & FERN ST",
    "address_councildis": "A",
    "status": "Assigned to Contractor",
    "contractor": "IV Waste",
    "rowid": "1087807",
    "final_x": "3660880.7",
    "final_y": "526028.18",
    "longitude": "-90.13336060784788",
    "latitude": "29.941004877269645",
    "geocoded_column": {
      "latitude": "29.941004877269645",
      "longitude": "-90.13336060784788"
    }
  },
  {
    "service_request": "2024-1087806",
    "request_type": "Trash/Recycling",
    "request_reason": "Replace Recycling Cart",
    "date_created": "2024-04-24T18:16:17.000",
    "date_modified": "2024-04-24T18:16:17.000",
    "request_status": "Pending",
    "responsible_agency": "Department of Sanitation",
    "final_address": "8 Rosa Park",
    "address_councildis": "A",
    "status": "Pending",
    "rowid": "1087806",
    "final_x": "3666047.54458",
    "final_y": "522668.591738",
    "longitude": "-90.11716045682009",
    "latitude": "29.93161728747805",
    "geocoded_column": {
      "latitude": "29.93161728747805",
      "longitude": "-90.11716045682009"
    }
  },
  {
    "service_request": "2024-1087805",
    "request_type": "Trash/Recycling",
    "request_reason": "Order Trash Cart",
    "date_created": "2024-04-24T18:01:13.000",
    "date_modified": "2024-04-24T18:01:13.000",
    "request_status": "Pending",
    "responsible_agency": "Department of Sanitation",
    "final_address": "1432 Cabrini Ct, New Orleans, Louisiana, 70122",
    "address_councildis": "D",
    "status": "Assigned to Contractor",
    "contractor": "IV Waste",
    "rowid": "1087805",
    "final_x": "3677967.02472",
    "final_y": "553007.329815",
    "longitude": "-90.07848314758607",
    "latitude": "30.014685159094594",
    "geocoded_column": {
      "latitude": "30.014685159094594",
      "longitude": "-90.07848314758607"
    }
  },
  {
    "service_request": "2024-1087804",
    "request_type": "Roads/Drainage",
    "request_reason": "Street Subsidence (Sinking)",
    "date_created": "2024-04-24T17:49:08.000",
    "date_modified": "2024-04-24T17:49:08.000",
    "request_status": "Pending",
    "responsible_agency": "Department of Public Works",
    "final_address": "6000 Chamberlain Dr",
    "address_councildis": "D",
    "status": "Pending",
    "rowid": "1087804",
    "final_x": "3679215.36027",
    "final_y": "554458.066392",
    "longitude": "-90.07448865751657",
    "latitude": "30.018636509968957",
    "geocoded_column": {
      "latitude": "30.018636509968957",
      "longitude": "-90.07448865751657"
    }
  },
  {
    "service_request": "2024-1087803",
    "request_type": "Trash/Recycling",
    "request_reason": "Request a Large Item Pick Up",
    "date_created": "2024-04-24T17:43:17.000",
    "date_modified": "2024-04-24T17:43:17.000",
    "request_status": "Pending",
    "responsible_agency": "Department of Sanitation",
    "final_address": "7321 Dalewood Rd",
    "address_councildis": "E",
    "status": "Assigned to Contractor",
    "contractor": "Waste Pro",
    "rowid": "1087803",
    "final_x": "3700334.4314",
    "final_y": "559575.555357",
    "longitude": "-90.00757336921183",
    "latitude": "30.03205276510085",
    "geocoded_column": {
      "latitude": "30.03205276510085",
      "longitude": "-90.00757336921183"
    }
  },
  {
    "service_request": "2024-1087802",
    "request_type": "Parks & Parkways",
    "request_reason": "Request Tree Service (Right of Way/Public Property)",
    "date_created": "2024-04-24T17:26:16.000",
    "date_modified": "2024-04-24T17:26:16.000",
    "request_status": "Pending",
    "responsible_agency": "Department of Parks & Parkway",
    "final_address": "939 Seventh St",
    "address_councildis": "B",
    "status": "Pending",
    "rowid": "1087802",
    "final_x": "3676639.38568",
    "final_y": "520053.925048",
    "longitude": "-90.08381322144345",
    "latitude": "29.924114436043542",
    "geocoded_column": {
      "latitude": "29.924114436043542",
      "longitude": "-90.08381322144345"
    }
  },
  {
    "service_request": "2024-1087801",
    "request_type": "Parks & Parkways",
    "request_reason": "Tree Stump (removal, grind)",
    "date_created": "2024-04-24T17:17:49.000",
    "date_modified": "2024-04-24T17:17:49.000",
    "request_status": "Pending",
    "responsible_agency": "Department of Parks & Parkway",
    "final_address": "4001 Octavia St",
    "address_councildis": "B",
    "status": "Pending",
    "rowid": "1087801",
    "final_x": "3668950.36033",
    "final_y": "530028.996545",
    "longitude": "-90.10774804399345",
    "latitude": "29.951770982887787",
    "geocoded_column": {
      "latitude": "29.951770982887787",
      "longitude": "-90.10774804399345"
    }
  },
  {
    "service_request": "2024-1087800",
    "request_type": "Trash/Recycling",
    "request_reason": "Request a Large Item Pick Up",
    "date_created": "2024-04-24T17:09:35.000",
    "date_modified": "2024-04-24T17:09:35.000",
    "request_status": "Pending",
    "responsible_agency": "Department of Sanitation",
    "final_address": "1475 N Villere St",
    "address_councildis": "C",
    "status": "Assigned to Contractor",
    "contractor": "IV Waste",
    "rowid": "1087800",
    "final_x": "3682191.0061",
    "final_y": "536697.970631",
    "longitude": "-90.06570749578277",
    "latitude": "29.96971233036372",
    "geocoded_column": {
      "latitude": "29.96971233036372",
      "longitude": "-90.06570749578277"
    }
  },
  {
    "service_request": "2024-1087799",
    "request_type": "Traffic Signals/Signs/Striping/Streetlights",
    "request_reason": "Additional signage",
    "date_created": "2024-04-24T17:00:40.000",
    "date_modified": "2024-04-24T17:00:40.000",
    "request_status": "Pending",
    "responsible_agency": "Department of Public Works",
    "final_address": "1001 Julia St",
    "address_councildis": "B",
    "status": "Pending",
    "rowid": "1087799",
    "final_x": "3679145.80085",
    "final_y": "528420.142016",
    "longitude": "-90.07561147464756",
    "latitude": "29.947043382560864",
    "geocoded_column": {
      "latitude": "29.947043382560864",
      "longitude": "-90.07561147464756"
    }
  },
  {
    "service_request": "2024-1087798",
    "request_type": "Trash/Recycling",
    "request_reason": "Request a Large Item Pick Up",
    "date_created": "2024-04-24T17:00:00.000",
    "date_modified": "2024-04-24T17:00:01.000",
    "request_status": "Pending",
    "responsible_agency": "Department of Sanitation",
    "final_address": "4308 S Johnson St",
    "address_councildis": "B",
    "status": "Assigned to Contractor",
    "contractor": "IV Waste",
    "rowid": "1087798",
    "final_x": "3670534.63169",
    "final_y": "527195.210815",
    "longitude": "-90.10284174701499",
    "latitude": "29.943932310135388",
    "geocoded_column": {
      "latitude": "29.943932310135388",
      "longitude": "-90.10284174701499"
    }
  },
  {
    "service_request": "2024-1087797",
    "request_type": "Traffic Signals/Signs/Striping/Streetlights",
    "request_reason": "Traffic Signal Malfunctioning/Damaged",
    "date_created": "2024-04-24T16:56:30.000",
    "date_modified": "2024-04-24T16:56:30.000",
    "request_status": "Pending",
    "responsible_agency": "Department of Public Works",
    "final_address": "JULIA ST & HOWARD AVE & LEROUGE ST",
    "address_councildis": "B",
    "status": "Pending",
    "rowid": "1087797",
    "final_x": "3677366.34",
    "final_y": "528975.48",
    "longitude": "-90.08121073801966",
    "latitude": "29.948623964026755",
    "geocoded_column": {
      "latitude": "29.948623964026755",
      "longitude": "-90.08121073801966"
    }
  },
  {
    "service_request": "2024-1087796",
    "request_type": "Traffic Signals/Signs/Striping/Streetlights",
    "request_reason": "Traffic Signal Malfunctioning/Damaged",
    "date_created": "2024-04-24T16:51:50.000",
    "date_modified": "2024-04-24T16:51:51.000",
    "request_status": "Pending",
    "responsible_agency": "Department of Public Works",
    "final_address": "MAGNOLIA ST & W PONTCHARTRAIN EXPRESSWAY & EARHART BLVD & HOV",
    "address_councildis": "B",
    "status": "Pending",
    "rowid": "1087796",
    "final_x": "3676646.2",
    "final_y": "528849.88",
    "longitude": "-90.08348885168432",
    "latitude": "29.948300224248815",
    "geocoded_column": {
      "latitude": "29.948300224248815",
      "longitude": "-90.08348885168432"
    }
  },
  {
    "service_request": "2024-1087795",
    "request_type": "Graffiti Removal",
    "request_reason": "Graffiti Removal",
    "date_created": "2024-04-24T16:51:29.000",
    "date_modified": "2024-04-24T16:51:29.000",
    "request_status": "Pending",
    "responsible_agency": "Department of Code Enforcement",
    "final_address": "2436 Ursulines Ave",
    "address_councildis": "D",
    "status": "Pending",
    "rowid": "1087795",
    "final_x": "3678432.26242",
    "final_y": "537453.104584",
    "longitude": "-90.07755181265105",
    "latitude": "29.97190249210539",
    "geocoded_column": {
      "latitude": "29.97190249210539",
      "longitude": "-90.07755181265105"
    }
  },
  {
    "service_request": "2024-1087794",
    "request_type": "Graffiti Removal",
    "request_reason": "Graffiti Removal",
    "date_created": "2024-04-24T16:47:47.000",
    "date_modified": "2024-04-24T16:47:47.000",
    "request_status": "Pending",
    "responsible_agency": "Department of Code Enforcement",
    "final_address": "2436 Ursulines Ave",
    "address_councildis": "D",
    "status": "Pending",
    "rowid": "1087794",
    "final_x": "3678432.26242",
    "final_y": "537453.104584",
    "longitude": "-90.07755181265105",
    "latitude": "29.97190249210539",
    "geocoded_column": {
      "latitude": "29.97190249210539",
      "longitude": "-90.07755181265105"
    }
  },
  {
    "service_request": "2024-1087793",
    "request_type": "Abandoned Vehicles",
    "request_reason": "Abandoned/Junk Vehicles",
    "date_created": "2024-04-24T16:47:37.000",
    "date_modified": "2024-04-24T16:47:37.000",
    "request_status": "Pending",
    "responsible_agency": "Department of Public Works",
    "final_address": "South Solomon Street & Ulloa Street",
    "address_councildis": "A",
    "status": "Pending",
    "rowid": "1087793",
    "final_x": "3669163.76455",
    "final_y": "536849.832648",
    "longitude": "-90.10684368519937",
    "latitude": "29.970519745742173",
    "geocoded_column": {
      "latitude": "29.970519745742173",
      "longitude": "-90.10684368519937"
    }
  },
  {
    "service_request": "2024-1087792",
    "request_type": "Trash/Recycling",
    "request_reason": "MIssed Recycling Pick-Up",
    "date_created": "2024-04-24T16:46:30.000",
    "date_modified": "2024-04-24T16:46:31.000",
    "request_status": "Pending",
    "responsible_agency": "Department of Sanitation",
    "final_address": "3 LaSalle Pl",
    "address_councildis": "A",
    "status": "Assigned to Contractor",
    "contractor": "IV Waste",
    "rowid": "1087792",
    "final_x": "3666110.66004",
    "final_y": "524253.984764",
    "longitude": "-90.11690807566515",
    "latitude": "29.93597477146194",
    "geocoded_column": {
      "latitude": "29.93597477146194",
      "longitude": "-90.11690807566515"
    }
  },
  {
    "service_request": "2024-1087791",
    "request_type": "Traffic Signals/Signs/Striping/Streetlights",
    "request_reason": "Additional signage",
    "date_created": "2024-04-24T16:44:59.000",
    "date_modified": "2024-04-24T16:44:59.000",
    "request_status": "Pending",
    "responsible_agency": "Department of Public Works",
    "final_address": "1001 Julia St",
    "address_councildis": "B",
    "status": "Pending",
    "rowid": "1087791",
    "final_x": "3679145.80085",
    "final_y": "528420.142016",
    "longitude": "-90.07561147464756",
    "latitude": "29.947043382560864",
    "geocoded_column": {
      "latitude": "29.947043382560864",
      "longitude": "-90.07561147464756"
    }
  },
  {
    "service_request": "2024-1087789",
    "request_type": "Abandoned Vehicles",
    "request_reason": "Abandoned/Junk Vehicles",
    "date_created": "2024-04-24T16:43:36.000",
    "date_modified": "2024-04-24T16:43:36.000",
    "request_status": "Pending",
    "responsible_agency": "Department of Public Works",
    "final_address": "South Solomon Street & Ulloa Street",
    "address_councildis": "A",
    "status": "Pending",
    "rowid": "1087789",
    "final_x": "3669163.76455",
    "final_y": "536849.832648",
    "longitude": "-90.10684368519937",
    "latitude": "29.970519745742173",
    "geocoded_column": {
      "latitude": "29.970519745742173",
      "longitude": "-90.10684368519937"
    }
  },
  {
    "service_request": "2024-1087790",
    "request_type": "Trash/Recycling",
    "request_reason": "Return Recycling Cart",
    "date_created": "2024-04-24T16:43:36.000",
    "date_modified": "2024-04-24T16:43:36.000",
    "request_status": "Pending",
    "responsible_agency": "Department of Sanitation",
    "final_address": "2837 General Pershing St",
    "address_councildis": "B",
    "status": "Pending",
    "rowid": "1087790",
    "final_x": "3670850.73095",
    "final_y": "525423.815101",
    "longitude": "-90.10190383793609",
    "latitude": "29.93905221005148",
    "geocoded_column": {
      "latitude": "29.93905221005148",
      "longitude": "-90.10190383793609"
    }
  },
  {
    "service_request": "2024-1087788",
    "request_type": "Trash/Recycling",
    "request_reason": "Replace Trash Cart",
    "date_created": "2024-04-24T16:43:15.000",
    "date_modified": "2024-04-24T16:43:16.000",
    "request_status": "Pending",
    "responsible_agency": "Department of Sanitation",
    "final_address": "2735 Palmer Ave",
    "address_councildis": "A",
    "status": "Assigned to Contractor",
    "contractor": "IV Waste",
    "rowid": "1087788",
    "final_x": "3666885.79047",
    "final_y": "526749.598398",
    "longitude": "-90.11437714804791",
    "latitude": "29.94281425857555",
    "geocoded_column": {
      "latitude": "29.94281425857555",
      "longitude": "-90.11437714804791"
    }
  },
  {
    "service_request": "2024-1087787",
    "request_type": "Trash/Recycling",
    "request_reason": "Repair Trash Cart",
    "date_created": "2024-04-24T16:41:12.000",
    "date_modified": "2024-04-24T16:41:13.000",
    "request_status": "Pending",
    "responsible_agency": "Department of Sanitation",
    "final_address": "2735 Palmer Ave",
    "address_councildis": "A",
    "status": "Assigned to Contractor",
    "contractor": "IV Waste",
    "rowid": "1087787",
    "final_x": "3666885.79047",
    "final_y": "526749.598398",
    "longitude": "-90.11437714804791",
    "latitude": "29.94281425857555",
    "geocoded_column": {
      "latitude": "29.94281425857555",
      "longitude": "-90.11437714804791"
    }
  },
  {
    "service_request": "2024-1087786",
    "request_type": "Trash/Recycling",
    "request_reason": "Request a Large Item Pick Up",
    "date_created": "2024-04-24T16:32:52.000",
    "date_modified": "2024-04-24T16:32:53.000",
    "request_status": "Pending",
    "responsible_agency": "Department of Sanitation",
    "final_address": "4632 Palmyra St",
    "address_councildis": "A",
    "status": "Assigned to Contractor",
    "contractor": "IV Waste",
    "rowid": "1087786",
    "final_x": "3668657.13831",
    "final_y": "539098.992778",
    "longitude": "-90.10836773818717",
    "latitude": "29.976719082561484",
    "geocoded_column": {
      "latitude": "29.976719082561484",
      "longitude": "-90.10836773818717"
    }
  },
  {
    "service_request": "2024-1087785",
    "request_type": "Roads/Drainage",
    "request_reason": "Damaged Sidewalk",
    "date_created": "2024-04-24T16:32:04.000",
    "date_modified": "2024-04-24T16:32:04.000",
    "request_status": "Pending",
    "responsible_agency": "Department of Public Works",
    "final_address": "6031 Perrier St",
    "address_councildis": "A",
    "status": "Pending",
    "rowid": "1087785",
    "final_x": "3664876.20525",
    "final_y": "520636.762041",
    "longitude": "-90.1209261245309",
    "latitude": "29.92606452997952",
    "geocoded_column": {
      "latitude": "29.92606452997952",
      "longitude": "-90.1209261245309"
    }
  },
  {
    "service_request": "2024-1087784",
    "request_type": "Trash/Recycling",
    "request_reason": "Request a Large Item Pick Up",
    "date_created": "2024-04-24T16:30:41.000",
    "date_modified": "2024-04-24T16:30:42.000",
    "request_status": "Pending",
    "responsible_agency": "Department of Sanitation",
    "final_address": "5831 Brighton Pl",
    "address_councildis": "C",
    "status": "Assigned to Contractor",
    "contractor": "Richards Disposal",
    "rowid": "1087784",
    "final_x": "3705194.07966",
    "final_y": "520029.286392",
    "longitude": "-89.99367775578419",
    "latitude": "29.923159602078485",
    "geocoded_column": {
      "latitude": "29.923159602078485",
      "longitude": "-89.99367775578419"
    }
  },
  {
    "service_request": "2024-1087783",
    "request_type": "Trash/Recycling",
    "request_reason": "Illegal Dumping",
    "date_created": "2024-04-24T16:29:38.000",
    "date_modified": "2024-04-24T16:29:38.000",
    "request_status": "Pending",
    "responsible_agency": "Department of Sanitation",
    "final_address": "2625 Tricou St",
    "address_councildis": "E",
    "status": "Pending",
    "rowid": "1087783",
    "final_x": "3702420.52497",
    "final_y": "538589.545929",
    "longitude": "-90.00175189673853",
    "latitude": "29.97428260674793",
    "geocoded_column": {
      "latitude": "29.97428260674793",
      "longitude": "-90.00175189673853"
    }
  },
  {
    "service_request": "2024-1087782",
    "request_type": "Trash/Recycling",
    "request_reason": "Request a Large Item Pick Up",
    "date_created": "2024-04-24T16:29:25.000",
    "date_modified": "2024-04-24T18:20:38.000",
    "case_close_date": "2024-04-24T13:20:38.000",
    "request_status": "Closed",
    "responsible_agency": "Department of Sanitation",
    "final_address": "6811 Norwood Ct",
    "address_councildis": "E",
    "status": "Assigned to Contractor",
    "contractor": "Waste Pro",
    "contractor_action": "Completed",
    "rowid": "1087782",
    "final_x": "3701256.5457",
    "final_y": "557009.765658",
    "longitude": "-90.00475346005435",
    "latitude": "30.02496846639835",
    "geocoded_column": {
      "latitude": "30.02496846639835",
      "longitude": "-90.00475346005435"
    }
  },
  {
    "service_request": "2024-1087781",
    "request_type": "Abandoned Vehicles",
    "request_reason": "Abandoned/Junk Vehicles",
    "date_created": "2024-04-24T16:23:14.000",
    "date_modified": "2024-04-24T16:23:14.000",
    "request_status": "Pending",
    "responsible_agency": "Department of Public Works",
    "final_address": "2004 Baronne St",
    "address_councildis": "B",
    "status": "Pending",
    "rowid": "1087781",
    "final_x": "3677558.39509",
    "final_y": "524797.083644",
    "longitude": "-90.08074855861105",
    "latitude": "29.93712898514431",
    "geocoded_column": {
      "latitude": "29.93712898514431",
      "longitude": "-90.08074855861105"
    }
  },
  {
    "service_request": "2024-1087780",
    "request_type": "Trash/Recycling",
    "request_reason": "Repair Recycling Cart",
    "date_created": "2024-04-24T16:22:53.000",
    "date_modified": "2024-04-24T16:22:53.000",
    "request_status": "Pending",
    "responsible_agency": "Department of Sanitation",
    "final_address": "6015 Pitt St",
    "address_councildis": "A",
    "status": "Pending",
    "rowid": "1087780",
    "final_x": "3665148.24852",
    "final_y": "521286.537401",
    "longitude": "-90.12004564061415",
    "latitude": "29.927843289803864",
    "geocoded_column": {
      "latitude": "29.927843289803864",
      "longitude": "-90.12004564061415"
    }
  },
  {
    "service_request": "2024-1087779",
    "request_type": "Trash/Recycling",
    "request_reason": "Request a Large Item Pick Up",
    "date_created": "2024-04-24T16:21:04.000",
    "date_modified": "2024-04-24T16:21:05.000",
    "request_status": "Pending",
    "responsible_agency": "Department of Sanitation",
    "final_address": "322 Alix St",
    "address_councildis": "C",
    "status": "Assigned to Contractor",
    "contractor": "Richards Disposal",
    "rowid": "1087779",
    "final_x": "3686540.80905",
    "final_y": "530085.101249",
    "longitude": "-90.05220395578007",
    "latitude": "29.951396189025203",
    "geocoded_column": {
      "latitude": "29.951396189025203",
      "longitude": "-90.05220395578007"
    }
  },
  {
    "service_request": "2024-1087778",
    "request_type": "Trash/Recycling",
    "request_reason": "MIssed Recycling Pick-Up",
    "date_created": "2024-04-24T16:20:58.000",
    "date_modified": "2024-04-24T16:36:09.000",
    "case_close_date": "2024-04-24T11:36:09.000",
    "request_status": "Closed",
    "responsible_agency": "Department of Sanitation",
    "final_address": "6031 Perrier St",
    "address_councildis": "A",
    "status": "Invalid Request",
    "contractor": "IV Waste",
    "contractor_action": "Invalid Request",
    "rowid": "1087778",
    "final_x": "3664876.20525",
    "final_y": "520636.762041",
    "longitude": "-90.1209261245309",
    "latitude": "29.92606452997952",
    "geocoded_column": {
      "latitude": "29.92606452997952",
      "longitude": "-90.1209261245309"
    }
  },
  {
    "service_request": "2024-1087777",
    "request_type": "Trash/Recycling",
    "request_reason": "Request a Large Item Pick Up",
    "date_created": "2024-04-24T16:16:05.000",
    "date_modified": "2024-04-24T16:17:26.000",
    "request_status": "Pending",
    "responsible_agency": "Department of Sanitation",
    "final_address": "919 Bourbon St",
    "address_councildis": "C",
    "status": "Assigned to Contractor",
    "contractor": "Empire Services",
    "rowid": "1087777",
    "final_x": "3682784.45621",
    "final_y": "533410.737348",
    "longitude": "-90.06394833600532",
    "latitude": "29.96065550382579",
    "geocoded_column": {
      "latitude": "29.96065550382579",
      "longitude": "-90.06394833600532"
    }
  },
  {
    "service_request": "2024-1087776",
    "request_type": "Abandoned Vehicles",
    "request_reason": "Abandoned/Junk Vehicles",
    "date_created": "2024-04-24T16:14:58.000",
    "date_modified": "2024-04-24T16:14:58.000",
    "request_status": "Pending",
    "responsible_agency": "Department of Public Works",
    "final_address": "3318 Constance St",
    "address_councildis": "B",
    "status": "Pending",
    "rowid": "1087776",
    "final_x": "3675403.34997",
    "final_y": "519345.751415",
    "longitude": "-90.08773925535174",
    "latitude": "29.922204191000766",
    "geocoded_column": {
      "latitude": "29.922204191000766",
      "longitude": "-90.08773925535174"
    }
  },
  {
    "service_request": "2024-1087775",
    "request_type": "Trash/Recycling",
    "request_reason": "Order Trash Cart",
    "date_created": "2024-04-24T16:12:27.000",
    "date_modified": "2024-04-24T16:12:27.000",
    "request_status": "Pending",
    "responsible_agency": "Department of Sanitation",
    "final_address": "2637 Dumaine St",
    "address_councildis": "D",
    "status": "Assigned to Contractor",
    "contractor": "IV Waste",
    "rowid": "1087775",
    "final_x": "3677377.58242",
    "final_y": "537397.881928",
    "longitude": "-90.08088456803009",
    "latitude": "29.971782389118072",
    "geocoded_column": {
      "latitude": "29.971782389118072",
      "longitude": "-90.08088456803009"
    }
  },
  {
    "service_request": "2024-1087774",
    "request_type": "Abandoned Vehicles",
    "request_reason": "Abandoned/Junk Vehicles",
    "date_created": "2024-04-24T16:11:51.000",
    "date_modified": "2024-04-24T16:11:51.000",
    "request_status": "Pending",
    "responsible_agency": "Department of Public Works",
    "final_address": "536 Philip St",
    "address_councildis": "B",
    "status": "Pending",
    "rowid": "1087774",
    "final_x": "3679682.80079",
    "final_y": "520302.427576",
    "longitude": "-90.07419761484553",
    "latitude": "29.92470613012413",
    "geocoded_column": {
      "latitude": "29.92470613012413",
      "longitude": "-90.07419761484553"
    }
  },
  {
    "service_request": "2024-1087773",
    "request_type": "Trash/Recycling",
    "request_reason": "Request a Large Item Pick Up",
    "date_created": "2024-04-24T16:11:25.000",
    "date_modified": "2024-04-24T16:11:26.000",
    "request_status": "Pending",
    "responsible_agency": "Department of Sanitation",
    "final_address": "7040 Pinebrook Dr",
    "address_councildis": "E",
    "status": "Assigned to Contractor",
    "contractor": "Waste Pro",
    "rowid": "1087773",
    "final_x": "3719515.24729",
    "final_y": "569711.089126",
    "longitude": "-89.94657390819788",
    "latitude": "30.05929716283975",
    "geocoded_column": {
      "latitude": "30.05929716283975",
      "longitude": "-89.94657390819788"
    }
  },
  {
    "service_request": "2024-1087772",
    "request_type": "Trash/Recycling",
    "request_reason": "Order Recycling Cart",
    "date_created": "2024-04-24T16:03:24.000",
    "date_modified": "2024-04-24T16:03:25.000",
    "request_status": "Pending",
    "responsible_agency": "Department of Sanitation",
    "final_address": "331 Hay Pl",
    "address_councildis": "A",
    "status": "Pending",
    "rowid": "1087772",
    "final_x": "3665238.27373",
    "final_y": "554306.389784",
    "longitude": "-90.11865647058899",
    "latitude": "30.018634267940687",
    "geocoded_column": {
      "latitude": "30.018634267940687",
      "longitude": "-90.11865647058899"
    }
  },
  {
    "service_request": "2024-1087771",
    "request_type": "Trash/Recycling",
    "request_reason": "Request a Large Item Pick Up",
    "date_created": "2024-04-24T16:00:43.000",
    "date_modified": "2024-04-24T16:00:43.000",
    "request_status": "Pending",
    "responsible_agency": "Department of Sanitation",
    "final_address": "2514 Governor Nicholls St",
    "address_councildis": "D",
    "status": "Assigned to Contractor",
    "contractor": "IV Waste",
    "rowid": "1087771",
    "final_x": "3678503.35515",
    "final_y": "537837.183561",
    "longitude": "-90.07731399427448",
    "latitude": "29.972956434922025",
    "geocoded_column": {
      "latitude": "29.972956434922025",
      "longitude": "-90.07731399427448"
    }
  },
  {
    "service_request": "2024-1087769",
    "request_type": "Property Maintenance",
    "request_reason": "Property Maintenance",
    "date_created": "2024-04-24T16:00:00.000",
    "date_modified": "2024-04-24T16:20:00.000",
    "case_close_date": "2024-04-24T11:20:00.000",
    "request_status": "Closed",
    "responsible_agency": "Department of Code Enforcement",
    "final_address": "6315 Pauline Dr",
    "address_councildis": "D",
    "status": "Referred to Code Enforcement",
    "rowid": "1087769",
    "final_x": "3691369.06384",
    "final_y": "556805.837722",
    "longitude": "-90.03600349637496",
    "latitude": "30.024719261833678",
    "geocoded_column": {
      "latitude": "30.024719261833678",
      "longitude": "-90.03600349637496"
    }
  },
  {
    "service_request": "2024-1087768",
    "request_type": "Trash/Recycling",
    "request_reason": "Repair Trash Cart",
    "date_created": "2024-04-24T15:58:35.000",
    "date_modified": "2024-04-24T15:58:35.000",
    "request_status": "Pending",
    "responsible_agency": "Department of Sanitation",
    "final_address": "1525 Tropic Dr",
    "address_councildis": "C",
    "status": "Assigned to Contractor",
    "contractor": "Richards Disposal",
    "rowid": "1087768",
    "final_x": "3699463.916",
    "final_y": "525338.776701",
    "longitude": "-90.01157224289068",
    "latitude": "29.937941835389427",
    "geocoded_column": {
      "latitude": "29.937941835389427",
      "longitude": "-90.01157224289068"
    }
  },
  {
    "service_request": "2024-1087767",
    "request_type": "Trash/Recycling",
    "request_reason": "Request a Large Item Pick Up",
    "date_created": "2024-04-24T15:53:13.000",
    "date_modified": "2024-04-24T15:53:13.000",
    "request_status": "Pending",
    "responsible_agency": "Department of Sanitation",
    "final_address": "1527 Sixth St",
    "address_councildis": "B",
    "status": "Assigned to Contractor",
    "contractor": "IV Waste",
    "rowid": "1087767",
    "final_x": "3675695.43048",
    "final_y": "522026.24857",
    "longitude": "-90.08672522365224",
    "latitude": "29.929565957938408",
    "geocoded_column": {
      "latitude": "29.929565957938408",
      "longitude": "-90.08672522365224"
    }
  },
  {
    "service_request": "2024-1087766",
    "request_type": "Trash/Recycling",
    "request_reason": "Replace Trash Cart",
    "date_created": "2024-04-24T15:49:24.000",
    "date_modified": "2024-04-24T15:49:24.000",
    "request_status": "Pending",
    "responsible_agency": "Department of Sanitation",
    "final_address": "4850 Gawain Dr",
    "address_councildis": "E",
    "status": "Assigned to Contractor",
    "contractor": "Waste Pro",
    "rowid": "1087766",
    "final_x": "3706817.88465",
    "final_y": "556283.705818",
    "longitude": "-89.98720762520381",
    "latitude": "30.022793608525138",
    "geocoded_column": {
      "latitude": "30.022793608525138",
      "longitude": "-89.98720762520381"
    }
  },
  {
    "service_request": "2024-1087765",
    "request_type": "Trash/Recycling",
    "request_reason": "Request a Large Item Pick Up",
    "date_created": "2024-04-24T15:48:39.000",
    "date_modified": "2024-04-24T15:48:40.000",
    "request_status": "Pending",
    "responsible_agency": "Department of Sanitation",
    "final_address": "5335 Royal St",
    "address_councildis": "E",
    "status": "Assigned to Contractor",
    "contractor": "Waste Pro",
    "rowid": "1087765",
    "final_x": "3696664.10883",
    "final_y": "532554.880452",
    "longitude": "-90.02015033356973",
    "latitude": "29.95787210905299",
    "geocoded_column": {
      "latitude": "29.95787210905299",
      "longitude": "-90.02015033356973"
    }
  },
  {
    "service_request": "2024-1087764",
    "request_type": "Traffic Signals/Signs/Striping/Streetlights",
    "request_reason": "Street Light Outage/Malfunction",
    "date_created": "2024-04-24T15:47:07.000",
    "date_modified": "2024-04-24T15:47:08.000",
    "request_status": "Pending",
    "responsible_agency": "Department of Public Works",
    "final_address": "7201 Camberley Dr",
    "address_councildis": "E",
    "status": "Assigned to Contractor",
    "contractor": "Legacy Professional Services",
    "rowid": "1087764",
    "final_x": "3713234.98411",
    "final_y": "564985.312226",
    "longitude": "-89.96660332739825",
    "latitude": "30.04651069925654",
    "geocoded_column": {
      "latitude": "30.04651069925654",
      "longitude": "-89.96660332739825"
    }
  },
  {
    "service_request": "2024-1087763",
    "request_type": "Parks & Parkways",
    "request_reason": "Request Tree Service (Right of Way/Public Property)",
    "date_created": "2024-04-24T15:43:43.000",
    "date_modified": "2024-04-24T15:43:44.000",
    "request_status": "Pending",
    "responsible_agency": "Department of Parks & Parkway",
    "final_address": "107 Maumus Ave",
    "address_councildis": "C",
    "status": "Pending",
    "rowid": "1087763",
    "final_x": "3705780.47204",
    "final_y": "516704.332021",
    "longitude": "-89.99194962192549",
    "latitude": "29.913998265246065",
    "geocoded_column": {
      "latitude": "29.913998265246065",
      "longitude": "-89.99194962192549"
    }
  },
  {
    "service_request": "2024-1087761",
    "request_type": "Abandoned Vehicles",
    "request_reason": "Abandoned/Junk Vehicles",
    "date_created": "2024-04-24T15:36:23.000",
    "date_modified": "2024-04-24T15:36:23.000",
    "request_status": "Pending",
    "responsible_agency": "Department of Public Works",
    "final_address": "412 N Miro St",
    "address_councildis": "B",
    "status": "Pending",
    "rowid": "1087761",
    "final_x": "3677513.69979",
    "final_y": "535099.520838",
    "longitude": "-90.08053404938317",
    "latitude": "29.96545858786309",
    "geocoded_column": {
      "latitude": "29.96545858786309",
      "longitude": "-90.08053404938317"
    }
  },
  {
    "service_request": "2024-1087759",
    "request_type": "Trash/Recycling",
    "request_reason": "Missed Trash Pick-Up",
    "date_created": "2024-04-24T15:28:35.000",
    "date_modified": "2024-04-24T15:28:35.000",
    "request_status": "Pending",
    "responsible_agency": "Department of Sanitation",
    "final_address": "4789 Charlene Dr",
    "address_councildis": "E",
    "status": "Assigned to Contractor",
    "contractor": "Waste Pro",
    "rowid": "1087759",
    "final_x": "3707937.88484",
    "final_y": "555894.048217",
    "longitude": "-89.98368321551924",
    "latitude": "30.021685975568253",
    "geocoded_column": {
      "latitude": "30.021685975568253",
      "longitude": "-89.98368321551924"
    }
  },
  {
    "service_request": "2024-1087758",
    "request_type": "Trash/Recycling",
    "request_reason": "Request a Large Item Pick Up",
    "date_created": "2024-04-24T15:27:12.000",
    "date_modified": "2024-04-24T15:27:12.000",
    "request_status": "Pending",
    "responsible_agency": "Department of Sanitation",
    "final_address": "603 Fats Domino Ave",
    "address_councildis": "E",
    "status": "Assigned to Contractor",
    "contractor": "Waste Pro",
    "rowid": "1087758",
    "final_x": "3697601.45994",
    "final_y": "531965.147139",
    "longitude": "-90.01721185211875",
    "latitude": "29.956220979519568",
    "geocoded_column": {
      "latitude": "29.956220979519568",
      "longitude": "-90.01721185211875"
    }
  },
  {
    "service_request": "2024-1087757",
    "request_type": "Roads/Drainage",
    "request_reason": "Accessibility Ramps, Curbs and Sidewalk Repair",
    "date_created": "2024-04-24T15:26:41.000",
    "date_modified": "2024-04-24T15:26:41.000",
    "request_status": "Pending",
    "responsible_agency": "Department of Public Works",
    "final_address": "1330 Sixth St",
    "address_councildis": "B",
    "status": "Pending",
    "rowid": "1087757",
    "final_x": "3676041.15445",
    "final_y": "521340.939385",
    "longitude": "-90.0856573910615",
    "latitude": "29.927671233286393",
    "geocoded_column": {
      "latitude": "29.927671233286393",
      "longitude": "-90.0856573910615"
    }
  },
  {
    "service_request": "2024-1087756",
    "request_type": "Trash/Recycling",
    "request_reason": "Return Trash Cart",
    "date_created": "2024-04-24T15:25:53.000",
    "date_modified": "2024-04-24T15:25:54.000",
    "request_status": "Pending",
    "responsible_agency": "Department of Sanitation",
    "final_address": "5400 Tullis Dr",
    "address_councildis": "C",
    "status": "Assigned to Contractor",
    "contractor": "Richards Disposal",
    "rowid": "1087756",
    "final_x": "3703969.56151",
    "final_y": "511975.875248",
    "longitude": "-89.99783935194829",
    "latitude": "29.901054788968743",
    "geocoded_column": {
      "latitude": "29.901054788968743",
      "longitude": "-89.99783935194829"
    }
  },
  {
    "service_request": "2024-1087755",
    "request_type": "Trash/Recycling",
    "request_reason": "Replace Trash Cart",
    "date_created": "2024-04-24T15:25:01.000",
    "date_modified": "2024-04-24T15:25:02.000",
    "request_status": "Pending",
    "responsible_agency": "Department of Sanitation",
    "final_address": "3814 Martin Luther King, Jr. Blvd",
    "address_councildis": "B",
    "status": "Assigned to Contractor",
    "contractor": "IV Waste",
    "rowid": "1087755",
    "final_x": "3672513.43022",
    "final_y": "529651.891009",
    "longitude": "-90.09651040228133",
    "latitude": "29.950628795183896",
    "geocoded_column": {
      "latitude": "29.950628795183896",
      "longitude": "-90.09651040228133"
    }
  },
  {
    "service_request": "2024-1087754",
    "request_type": "Roads/Drainage",
    "request_reason": "Damaged Sidewalk",
    "date_created": "2024-04-24T15:24:46.000",
    "date_modified": "2024-04-24T15:24:47.000",
    "request_status": "Pending",
    "responsible_agency": "Department of Public Works",
    "final_address": "5329 Forest Park Ln",
    "address_councildis": "C",
    "status": "Pending",
    "rowid": "1087754",
    "final_x": "3704219.46423",
    "final_y": "510415.955119",
    "longitude": "-89.99710809486213",
    "latitude": "29.896757525071155",
    "geocoded_column": {
      "latitude": "29.896757525071155",
      "longitude": "-89.99710809486213"
    }
  },
  {
    "service_request": "2024-1087753",
    "request_type": "Trash/Recycling",
    "request_reason": "Replace Trash Cart",
    "date_created": "2024-04-24T15:24:40.000",
    "date_modified": "2024-04-24T15:24:41.000",
    "request_status": "Pending",
    "responsible_agency": "Department of Sanitation",
    "final_address": "5647 Hempstead Rd",
    "address_councildis": "E",
    "status": "Assigned to Contractor",
    "contractor": "Waste Pro",
    "rowid": "1087753",
    "final_x": "3707936.7571",
    "final_y": "558003.283611",
    "longitude": "-89.98360827414544",
    "latitude": "30.027485585869375",
    "geocoded_column": {
      "latitude": "30.027485585869375",
      "longitude": "-89.98360827414544"
    }
  },
  {
    "service_request": "2024-1087752",
    "request_type": "Trash/Recycling",
    "request_reason": "Request a Large Item Pick Up",
    "date_created": "2024-04-24T15:24:02.000",
    "date_modified": "2024-04-24T15:24:02.000",
    "request_status": "Pending",
    "responsible_agency": "Department of Sanitation",
    "final_address": "5451 Royal St",
    "address_councildis": "E",
    "status": "Assigned to Contractor",
    "contractor": "Waste Pro",
    "rowid": "1087752",
    "final_x": "3697077.02653",
    "final_y": "532450.673155",
    "longitude": "-90.01885023918626",
    "latitude": "29.957572557363264",
    "geocoded_column": {
      "latitude": "29.957572557363264",
      "longitude": "-90.01885023918626"
    }
  },
  {
    "service_request": "2024-1087751",
    "request_type": "Traffic Signals/Signs/Striping/Streetlights",
    "request_reason": "Disabled Parking Sign ",
    "date_created": "2024-04-24T15:15:33.000",
    "date_modified": "2024-04-24T15:15:33.000",
    "request_status": "Pending",
    "responsible_agency": "Department of Public Works",
    "final_address": "421 Loyola Ave",
    "address_councildis": "B",
    "status": "Pending",
    "rowid": "1087751",
    "final_x": "3678971.41378",
    "final_y": "530019.498369",
    "longitude": "-90.07610667314879",
    "latitude": "29.951446339501313",
    "geocoded_column": {
      "latitude": "29.951446339501313",
      "longitude": "-90.07610667314879"
    }
  },
  {
    "service_request": "2024-1087750",
    "request_type": "Property Maintenance",
    "request_reason": "Property Maintenance",
    "date_created": "2024-04-24T15:15:03.000",
    "date_modified": "2024-04-24T16:26:49.000",
    "case_close_date": "2024-04-24T11:26:49.000",
    "request_status": "Closed",
    "responsible_agency": "Department of Code Enforcement",
    "final_address": "5028 S Prieur St",
    "address_councildis": "B",
    "status": "Referred to Code Enforcement",
    "rowid": "1087750",
    "final_x": "3668668.63367",
    "final_y": "526582.946494",
    "longitude": "-90.10875389196148",
    "latitude": "29.942303748945914",
    "geocoded_column": {
      "latitude": "29.942303748945914",
      "longitude": "-90.10875389196148"
    }
  },
  {
    "service_request": "2024-1087749",
    "request_type": "Traffic Signals/Signs/Striping/Streetlights",
    "request_reason": "Street Light Outage/Malfunction",
    "date_created": "2024-04-24T15:12:16.000",
    "date_modified": "2024-04-24T15:12:16.000",
    "request_status": "Pending",
    "responsible_agency": "Department of Public Works",
    "final_address": "4365 America St",
    "address_councildis": "E",
    "status": "Assigned to Contractor",
    "contractor": "Legacy Professional Services",
    "rowid": "1087749",
    "final_x": "3699944.38608",
    "final_y": "553064.459735",
    "longitude": "-90.009043727342",
    "latitude": "30.01416214722305",
    "geocoded_column": {
      "latitude": "30.01416214722305",
      "longitude": "-90.009043727342"
    }
  },
  {
    "service_request": "2024-1087748",
    "request_type": "Property Maintenance",
    "request_reason": "Property Maintenance",
    "date_created": "2024-04-24T15:10:47.000",
    "date_modified": "2024-04-24T16:25:54.000",
    "case_close_date": "2024-04-24T11:25:54.000",
    "request_status": "Closed",
    "responsible_agency": "Department of Code Enforcement",
    "final_address": "5028 S Prieur St",
    "address_councildis": "B",
    "status": "Referred to Code Enforcement",
    "rowid": "1087748",
    "final_x": "3668668.63367",
    "final_y": "526582.946494",
    "longitude": "-90.10875389196148",
    "latitude": "29.942303748945914",
    "geocoded_column": {
      "latitude": "29.942303748945914",
      "longitude": "-90.10875389196148"
    }
  },
  {
    "service_request": "2024-1087747",
    "request_type": "Abandoned Vehicles",
    "request_reason": "Abandoned/Junk Vehicles",
    "date_created": "2024-04-24T15:09:26.000",
    "date_modified": "2024-04-24T15:10:53.000",
    "request_status": "Pending",
    "responsible_agency": "Department of Public Works",
    "final_address": "ARTS ST & N JOHNSON ST",
    "address_councildis": "D",
    "status": "Pending",
    "rowid": "1087747",
    "final_x": "3686944.3",
    "final_y": "539793.48",
    "longitude": "-90.05058676322125",
    "latitude": "29.978078448425286",
    "geocoded_column": {
      "latitude": "29.978078448425286",
      "longitude": "-90.05058676322125"
    }
  },
  {
    "service_request": "2024-1087746",
    "request_type": "Traffic Signals/Signs/Striping/Streetlights",
    "request_reason": "Additional signage",
    "date_created": "2024-04-24T15:09:23.000",
    "date_modified": "2024-04-24T15:09:24.000",
    "request_status": "Pending",
    "responsible_agency": "Department of Public Works",
    "final_address": "4342 America St",
    "address_councildis": "E",
    "status": "Pending",
    "rowid": "1087746",
    "final_x": "3699880.53431",
    "final_y": "552924.185815",
    "longitude": "-90.00925058689513",
    "latitude": "30.013778476021983",
    "geocoded_column": {
      "latitude": "30.013778476021983",
      "longitude": "-90.00925058689513"
    }
  },
  {
    "service_request": "2024-1087745",
    "request_type": "Trash/Recycling",
    "request_reason": "Request a Large Item Pick Up",
    "date_created": "2024-04-24T15:09:06.000",
    "date_modified": "2024-04-24T15:09:06.000",
    "request_status": "Pending",
    "responsible_agency": "Department of Sanitation",
    "final_address": "501 S Pierce St",
    "address_councildis": "A",
    "status": "Assigned to Contractor",
    "contractor": "IV Waste",
    "rowid": "1087745",
    "final_x": "3670458.76859",
    "final_y": "536768.807944",
    "longitude": "-90.10275665043663",
    "latitude": "29.970258777002673",
    "geocoded_column": {
      "latitude": "29.970258777002673",
      "longitude": "-90.10275665043663"
    }
  },
  {
    "service_request": "2024-1087744",
    "request_type": "Roads/Drainage",
    "request_reason": "Road Shoulder Repair",
    "date_created": "2024-04-24T15:04:13.000",
    "date_modified": "2024-04-24T15:04:14.000",
    "request_status": "Pending",
    "responsible_agency": "Department of Public Works",
    "final_address": "6429 Arts St",
    "address_councildis": "D",
    "status": "Pending",
    "rowid": "1087744",
    "final_x": "3685600.17244",
    "final_y": "556921.156122",
    "longitude": "-90.05422811935122",
    "latitude": "30.025214677439646",
    "geocoded_column": {
      "latitude": "30.025214677439646",
      "longitude": "-90.05422811935122"
    }
  },
  {
    "service_request": "2024-1087743",
    "request_type": "Traffic Signals/Signs/Striping/Streetlights",
    "request_reason": "Street Name Sign Damaged or Missing",
    "date_created": "2024-04-24T15:03:30.000",
    "date_modified": "2024-04-24T15:03:31.000",
    "request_status": "Pending",
    "responsible_agency": "Department of Public Works",
    "final_address": "MORRISON RD & HEATHER CT",
    "address_councildis": "E",
    "status": "Pending",
    "rowid": "1087743",
    "final_x": "3705708.4",
    "final_y": "561931.38",
    "longitude": "-89.99050418109748",
    "latitude": "30.038358295863592",
    "geocoded_column": {
      "latitude": "30.038358295863592",
      "longitude": "-89.99050418109748"
    }
  },
  {
    "service_request": "2024-1087742",
    "request_type": "Property Maintenance",
    "request_reason": "Property Maintenance",
    "date_created": "2024-04-24T15:01:36.000",
    "date_modified": "2024-04-24T15:41:22.000",
    "case_close_date": "2024-04-24T10:41:22.000",
    "request_status": "Closed",
    "responsible_agency": "Department of Code Enforcement",
    "final_address": "2020 Pauline St",
    "address_councildis": "D",
    "status": "Referred to Code Enforcement",
    "rowid": "1087742",
    "final_x": "3692044.68662",
    "final_y": "538983.164874",
    "longitude": "-90.03450700671745",
    "latitude": "29.975692385624832",
    "geocoded_column": {
      "latitude": "29.975692385624832",
      "longitude": "-90.03450700671745"
    }
  },
  {
    "service_request": "2024-1087741",
    "request_type": "Property Maintenance",
    "request_reason": "Property Maintenance",
    "date_created": "2024-04-24T15:00:56.000",
    "date_modified": "2024-04-24T16:12:29.000",
    "case_close_date": "2024-04-24T11:12:29.000",
    "request_status": "Closed",
    "responsible_agency": "Department of Code Enforcement",
    "final_address": "5028 S Prieur St",
    "address_councildis": "B",
    "status": "Referred to Code Enforcement",
    "rowid": "1087741",
    "final_x": "3668668.63367",
    "final_y": "526582.946494",
    "longitude": "-90.10875389196148",
    "latitude": "29.942303748945914",
    "geocoded_column": {
      "latitude": "29.942303748945914",
      "longitude": "-90.10875389196148"
    }
  },
  {
    "service_request": "2024-1087740",
    "request_type": "Abandoned Vehicles",
    "request_reason": "Abandoned/Junk Vehicles",
    "date_created": "2024-04-24T14:59:13.000",
    "date_modified": "2024-04-24T15:00:43.000",
    "request_status": "Pending",
    "responsible_agency": "Department of Public Works",
    "final_address": "1837 Dumaine St",
    "address_councildis": "D",
    "status": "Pending",
    "rowid": "1087740",
    "final_x": "3679684.41263",
    "final_y": "535630.63559",
    "longitude": "-90.07366059795147",
    "latitude": "29.96685353469244",
    "geocoded_column": {
      "latitude": "29.96685353469244",
      "longitude": "-90.07366059795147"
    }
  },
  {
    "service_request": "2024-1087739",
    "request_type": "Trash/Recycling",
    "request_reason": "Replace Trash Cart",
    "date_created": "2024-04-24T14:59:12.000",
    "date_modified": "2024-04-24T14:59:12.000",
    "request_status": "Pending",
    "responsible_agency": "Department of Sanitation",
    "final_address": "525 St Louis St",
    "address_councildis": "C",
    "status": "Assigned to Contractor",
    "contractor": "Empire Services",
    "rowid": "1087739",
    "final_x": "3682545.52258",
    "final_y": "531571.277379",
    "longitude": "-90.06476714850398",
    "latitude": "29.95560489217756",
    "geocoded_column": {
      "latitude": "29.95560489217756",
      "longitude": "-90.06476714850398"
    }
  },
  {
    "service_request": "2024-1087738",
    "request_type": "Abandoned Vehicles",
    "request_reason": "Abandoned/Junk Vehicles",
    "date_created": "2024-04-24T14:55:26.000",
    "date_modified": "2024-04-24T14:55:26.000",
    "request_status": "Pending",
    "responsible_agency": "Department of Public Works",
    "final_address": "1837 Dumaine St",
    "address_councildis": "D",
    "status": "Pending",
    "rowid": "1087738",
    "final_x": "3679684.41263",
    "final_y": "535630.63559",
    "longitude": "-90.07366059795147",
    "latitude": "29.96685353469244",
    "geocoded_column": {
      "latitude": "29.96685353469244",
      "longitude": "-90.07366059795147"
    }
  },
  {
    "service_request": "2024-1087737",
    "request_type": "Trash/Recycling",
    "request_reason": "Request a Large Item Pick Up",
    "date_created": "2024-04-24T14:54:17.000",
    "date_modified": "2024-04-24T19:49:47.000",
    "case_close_date": "2024-04-24T14:49:47.000",
    "request_status": "Closed",
    "responsible_agency": "Department of Sanitation",
    "final_address": "5315 Urquhart St",
    "address_councildis": "E",
    "status": "Duplicate Request",
    "contractor": "Waste Pro",
    "contractor_action": "Duplicate",
    "rowid": "1087737",
    "final_x": "3697158.92387",
    "final_y": "534784.931398",
    "longitude": "-90.01850705366016",
    "latitude": "29.96398835650419",
    "geocoded_column": {
      "latitude": "29.96398835650419",
      "longitude": "-90.01850705366016"
    }
  },
  {
    "service_request": "2024-1087736",
    "request_type": "Trash/Recycling",
    "request_reason": "MIssed Recycling Pick-Up",
    "date_created": "2024-04-24T14:52:58.000",
    "date_modified": "2024-04-24T15:08:08.000",
    "case_close_date": "2024-04-24T10:08:08.000",
    "request_status": "Closed",
    "responsible_agency": "Department of Sanitation",
    "final_address": "515 S Gayoso St",
    "address_councildis": "B",
    "status": "Invalid Request",
    "contractor": "IV Waste",
    "contractor_action": "Invalid Request",
    "rowid": "1087736",
    "final_x": "3673236.74612",
    "final_y": "534486.447045",
    "longitude": "-90.09406144087302",
    "latitude": "29.963900726954748",
    "geocoded_column": {
      "latitude": "29.963900726954748",
      "longitude": "-90.09406144087302"
    }
  },
  {
    "service_request": "2024-1087735",
    "request_type": "Trash/Recycling",
    "request_reason": "Request a Large Item Pick Up",
    "date_created": "2024-04-24T14:52:52.000",
    "date_modified": "2024-04-24T14:52:53.000",
    "request_status": "Pending",
    "responsible_agency": "Department of Sanitation",
    "final_address": "3009 Grand-Route St John St Unit 8",
    "address_councildis": "A",
    "status": "Assigned to Contractor",
    "contractor": "IV Waste",
    "rowid": "1087735",
    "final_x": "3677059.66798",
    "final_y": "540423.633995",
    "longitude": "-90.08178421824941",
    "latitude": "29.980111719286167",
    "geocoded_column": {
      "latitude": "29.980111719286167",
      "longitude": "-90.08178421824941"
    }
  },
  {
    "service_request": "2024-1087734",
    "request_type": "Trash/Recycling",
    "request_reason": "Request a Large Item Pick Up",
    "date_created": "2024-04-24T14:52:04.000",
    "date_modified": "2024-04-24T14:52:04.000",
    "request_status": "Pending",
    "responsible_agency": "Department of Sanitation",
    "final_address": "5623 Dauphine St",
    "address_councildis": "E",
    "status": "Assigned to Contractor",
    "contractor": "Waste Pro",
    "rowid": "1087734",
    "final_x": "3697964.68547",
    "final_y": "532604.682052",
    "longitude": "-90.01604169904628",
    "latitude": "29.957967997621008",
    "geocoded_column": {
      "latitude": "29.957967997621008",
      "longitude": "-90.01604169904628"
    }
  },
  {
    "service_request": "2024-1087733",
    "request_type": "Roads/Drainage",
    "request_reason": "Pothole",
    "date_created": "2024-04-24T14:51:52.000",
    "date_modified": "2024-04-24T14:51:52.000",
    "request_status": "Pending",
    "responsible_agency": "Department of Public Works",
    "final_address": "1662 Valmont St",
    "address_councildis": "B",
    "status": "Pending",
    "rowid": "1087733",
    "final_x": "3667832.85639",
    "final_y": "521780.610426",
    "longitude": "-90.11155430482025",
    "latitude": "29.92912339747289",
    "geocoded_column": {
      "latitude": "29.92912339747289",
      "longitude": "-90.11155430482025"
    }
  },
  {
    "service_request": "2024-1087732",
    "request_type": "Trash/Recycling",
    "request_reason": "Order Recycling Cart",
    "date_created": "2024-04-24T14:50:35.000",
    "date_modified": "2024-04-24T14:50:35.000",
    "request_status": "Pending",
    "responsible_agency": "Department of Sanitation",
    "final_address": "11101 Woodvine Ln",
    "address_councildis": "E",
    "status": "Pending",
    "rowid": "1087732",
    "final_x": "3716006.30124",
    "final_y": "559558.388573",
    "longitude": "-89.95805048288608",
    "latitude": "30.03149767129981",
    "geocoded_column": {
      "latitude": "30.03149767129981",
      "longitude": "-89.95805048288608"
    }
  },
  {
    "service_request": "2024-1087731",
    "request_type": "Trash/Recycling",
    "request_reason": "Request a Large Item Pick Up",
    "date_created": "2024-04-24T14:47:26.000",
    "date_modified": "2024-04-24T14:47:27.000",
    "request_status": "Pending",
    "responsible_agency": "Department of Sanitation",
    "final_address": "834 Louisa St",
    "address_councildis": "C",
    "status": "Assigned to Contractor",
    "contractor": "IV Waste",
    "rowid": "1087731",
    "final_x": "3689312.9158",
    "final_y": "535007.054726",
    "longitude": "-90.04327605647364",
    "latitude": "29.964844340355114",
    "geocoded_column": {
      "latitude": "29.964844340355114",
      "longitude": "-90.04327605647364"
    }
  },
  {
    "service_request": "2024-1087730",
    "request_type": "Traffic Signals/Signs/Striping/Streetlights",
    "request_reason": "Street Light Outage/Malfunction",
    "date_created": "2024-04-24T14:46:17.000",
    "date_modified": "2024-04-24T14:46:18.000",
    "request_status": "Pending",
    "responsible_agency": "Department of Public Works",
    "final_address": "1500 BLK Saint Louis St",
    "address_councildis": "C",
    "status": "Assigned to Contractor",
    "contractor": "Legacy Professional Services",
    "rowid": "1087730",
    "final_x": "3679722.83048",
    "final_y": "533649.565691",
    "longitude": "-90.07360805463605",
    "latitude": "29.961405106534183",
    "geocoded_column": {
      "latitude": "29.961405106534183",
      "longitude": "-90.07360805463605"
    }
  },
  {
    "service_request": "2024-1087728",
    "request_type": "Trash/Recycling",
    "request_reason": "Request a Large Item Pick Up",
    "date_created": "2024-04-24T14:43:46.000",
    "date_modified": "2024-04-24T14:43:47.000",
    "request_status": "Pending",
    "responsible_agency": "Department of Sanitation",
    "final_address": "7000 Cove Dr",
    "address_councildis": "E",
    "status": "Assigned to Contractor",
    "contractor": "Waste Pro",
    "rowid": "1087728",
    "final_x": "3700346.33834",
    "final_y": "558144.995931",
    "longitude": "-90.00758804699463",
    "latitude": "30.028118900315583",
    "geocoded_column": {
      "latitude": "30.028118900315583",
      "longitude": "-90.00758804699463"
    }
  },
  {
    "service_request": "2024-1087727",
    "request_type": "Trash/Recycling",
    "request_reason": "Request a Large Item Pick Up",
    "date_created": "2024-04-24T14:42:08.000",
    "date_modified": "2024-04-24T14:50:18.000",
    "case_close_date": "2024-04-24T09:50:18.000",
    "request_status": "Closed",
    "responsible_agency": "Department of Sanitation",
    "final_address": "5542 Chamberlain Dr",
    "address_councildis": "D",
    "status": "Assigned to Contractor",
    "contractor": "IV Waste",
    "contractor_action": "Completed",
    "rowid": "1087727",
    "final_x": "3679340.07093",
    "final_y": "552890.911127",
    "longitude": "-90.0741490313644",
    "latitude": "30.01432363277341",
    "geocoded_column": {
      "latitude": "30.01432363277341",
      "longitude": "-90.0741490313644"
    }
  },
  {
    "service_request": "2024-1087726",
    "request_type": "Traffic Signals/Signs/Striping/Streetlights",
    "request_reason": "Street Light Outage/Malfunction",
    "date_created": "2024-04-24T14:40:23.000",
    "date_modified": "2024-04-24T14:40:24.000",
    "request_status": "Pending",
    "responsible_agency": "Department of Public Works",
    "final_address": "1500 BLK Saint Louis St",
    "address_councildis": "C",
    "status": "Assigned to Contractor",
    "contractor": "Legacy Professional Services",
    "rowid": "1087726",
    "final_x": "3679722.83048",
    "final_y": "533649.565691",
    "longitude": "-90.07360805463605",
    "latitude": "29.961405106534183",
    "geocoded_column": {
      "latitude": "29.961405106534183",
      "longitude": "-90.07360805463605"
    }
  },
  {
    "service_request": "2024-1087725",
    "request_type": "Roads/Drainage",
    "request_reason": "Street Flooding / Drainage",
    "date_created": "2024-04-24T14:37:10.000",
    "date_modified": "2024-04-24T14:37:10.000",
    "request_status": "Pending",
    "responsible_agency": "Department of Public Works",
    "final_address": "N CORTEZ ST & TOULOUSE ST",
    "address_councildis": "A",
    "status": "Pending",
    "rowid": "1087725",
    "final_x": "3673166.5",
    "final_y": "539032.18",
    "longitude": "-90.09412802517346",
    "latitude": "29.976402045456197",
    "geocoded_column": {
      "latitude": "29.976402045456197",
      "longitude": "-90.09412802517346"
    }
  },
  {
    "service_request": "2024-1087724",
    "request_type": "Trash/Recycling",
    "request_reason": "Request a Large Item Pick Up",
    "date_created": "2024-04-24T14:35:19.000",
    "date_modified": "2024-04-24T14:35:19.000",
    "request_status": "Pending",
    "responsible_agency": "Department of Sanitation",
    "final_address": "LOUISA ST & BURGUNDY ST",
    "address_councildis": "C",
    "status": "Assigned to Contractor",
    "contractor": "IV Waste",
    "rowid": "1087724",
    "final_x": "3689365.0",
    "final_y": "535074.38",
    "longitude": "-90.0431091844416",
    "latitude": "29.965027848846585",
    "geocoded_column": {
      "latitude": "29.965027848846585",
      "longitude": "-90.0431091844416"
    }
  },
  {
    "service_request": "2024-1087723",
    "request_type": "Property Maintenance",
    "request_reason": "Property Maintenance",
    "date_created": "2024-04-24T14:31:03.000",
    "date_modified": "2024-04-24T14:31:03.000",
    "request_status": "Pending",
    "responsible_agency": "Department of Code Enforcement",
    "final_address": "106 N Derbigny St",
    "address_councildis": "B",
    "status": "Pending",
    "rowid": "1087723",
    "final_x": "3678383.9451",
    "final_y": "533134.192132",
    "longitude": "-90.07785385578508",
    "latitude": "29.96002840960084",
    "geocoded_column": {
      "latitude": "29.96002840960084",
      "longitude": "-90.07785385578508"
    }
  },
  {
    "service_request": "2024-1087722",
    "request_type": "Trash/Recycling",
    "request_reason": "Missed Trash Pick-Up",
    "date_created": "2024-04-24T14:29:42.000",
    "date_modified": "2024-04-24T15:04:39.000",
    "case_close_date": "2024-04-24T10:04:39.000",
    "request_status": "Closed",
    "responsible_agency": "Department of Sanitation",
    "final_address": "731 Fern St",
    "address_councildis": "A",
    "status": "Invalid Request",
    "contractor": "IV Waste",
    "contractor_action": "Invalid Request",
    "rowid": "1087722",
    "final_x": "3661572.91936",
    "final_y": "526733.867006",
    "longitude": "-90.1311517589614",
    "latitude": "29.942925341207168",
    "geocoded_column": {
      "latitude": "29.942925341207168",
      "longitude": "-90.1311517589614"
    }
  },
  {
    "service_request": "2024-1087721",
    "request_type": "Trash/Recycling",
    "request_reason": "Request a Large Item Pick Up",
    "date_created": "2024-04-24T14:27:50.000",
    "date_modified": "2024-04-24T14:27:51.000",
    "request_status": "Pending",
    "responsible_agency": "Department of Sanitation",
    "final_address": "4401 Skyview Dr",
    "address_councildis": "D",
    "status": "Assigned to Contractor",
    "contractor": "Waste Pro",
    "rowid": "1087721",
    "final_x": "3696898.76938",
    "final_y": "552558.122262",
    "longitude": "-90.01868464681878",
    "latitude": "30.012866343058153",
    "geocoded_column": {
      "latitude": "30.012866343058153",
      "longitude": "-90.01868464681878"
    }
  },
  {
    "service_request": "2024-1087720",
    "request_type": "Trash/Recycling",
    "request_reason": "Return Trash Cart",
    "date_created": "2024-04-24T14:25:57.000",
    "date_modified": "2024-04-24T14:25:58.000",
    "request_status": "Pending",
    "responsible_agency": "Department of Sanitation",
    "final_address": "316 Arabella St",
    "address_councildis": "A",
    "status": "Assigned to Contractor",
    "contractor": "IV Waste",
    "rowid": "1087720",
    "final_x": "3665403.00903",
    "final_y": "517353.032373",
    "longitude": "-90.11937297185182",
    "latitude": "29.917019964960193",
    "geocoded_column": {
      "latitude": "29.917019964960193",
      "longitude": "-90.11937297185182"
    }
  },
  {
    "service_request": "2024-1087719",
    "request_type": "Parks & Parkways",
    "request_reason": "Request Tree Service (Right of Way/Public Property)",
    "date_created": "2024-04-24T14:23:09.000",
    "date_modified": "2024-04-24T14:23:09.000",
    "request_status": "Pending",
    "responsible_agency": "Department of Parks & Parkway",
    "final_address": "5712 Rhodes Ave",
    "address_councildis": "C",
    "status": "Pending",
    "rowid": "1087719",
    "final_x": "3704511.0003",
    "final_y": "519803.104952",
    "longitude": "-89.99584229256715",
    "latitude": "29.92255962328348",
    "geocoded_column": {
      "latitude": "29.92255962328348",
      "longitude": "-89.99584229256715"
    }
  },
  {
    "service_request": "2024-1087718",
    "request_type": "Parks & Parkways",
    "request_reason": "Request Tree Service (Right of Way/Public Property)",
    "date_created": "2024-04-24T14:23:06.000",
    "date_modified": "2024-04-24T14:23:07.000",
    "request_status": "Pending",
    "responsible_agency": "Department of Parks & Parkway",
    "final_address": "232 28Th St",
    "address_councildis": "A",
    "status": "Pending",
    "rowid": "1087718",
    "final_x": "3665528.8752",
    "final_y": "550170.05538",
    "longitude": "-90.11787690485842",
    "latitude": "30.007252319739372",
    "geocoded_column": {
      "latitude": "30.007252319739372",
      "longitude": "-90.11787690485842"
    }
  },
  {
    "service_request": "2024-1087717",
    "request_type": "Traffic Signals/Signs/Striping/Streetlights",
    "request_reason": "Traffic Signal Malfunctioning/Damaged",
    "date_created": "2024-04-24T14:21:24.000",
    "date_modified": "2024-04-24T14:21:25.000",
    "request_status": "Pending",
    "responsible_agency": "Department of Public Works",
    "final_address": "HOWARD AVE & BARONNE ST",
    "address_councildis": "B",
    "status": "Pending",
    "rowid": "1087717",
    "final_x": "3679408.7",
    "final_y": "527574.18",
    "longitude": "-90.07481074100747",
    "latitude": "29.944709332002393",
    "geocoded_column": {
      "latitude": "29.944709332002393",
      "longitude": "-90.07481074100747"
    }
  },
  {
    "service_request": "2024-1087716",
    "request_type": "Abandoned Vehicles",
    "request_reason": "Abandoned/Junk Vehicles",
    "date_created": "2024-04-24T14:19:54.000",
    "date_modified": "2024-04-24T14:24:02.000",
    "request_status": "Pending",
    "responsible_agency": "Department of Public Works",
    "final_address": "3817 Annunciation St",
    "address_councildis": "B",
    "status": "Pending",
    "rowid": "1087716",
    "final_x": "3673473.28948",
    "final_y": "518041.491446",
    "longitude": "-90.09387620324793",
    "latitude": "29.91867544232452",
    "geocoded_column": {
      "latitude": "29.91867544232452",
      "longitude": "-90.09387620324793"
    }
  },
  {
    "service_request": "2024-1087714",
    "request_type": "Trash/Recycling",
    "request_reason": "Repair Trash Cart",
    "date_created": "2024-04-24T14:18:39.000",
    "date_modified": "2024-04-24T14:18:39.000",
    "request_status": "Pending",
    "responsible_agency": "Department of Sanitation",
    "final_address": "3708 Inwood Ave",
    "address_councildis": "C",
    "status": "Assigned to Contractor",
    "contractor": "Richards Disposal",
    "rowid": "1087714",
    "final_x": "3704451.01028",
    "final_y": "514846.261171",
    "longitude": "-89.99621424223413",
    "latitude": "29.90893193460702",
    "geocoded_column": {
      "latitude": "29.90893193460702",
      "longitude": "-89.99621424223413"
    }
  },
  {
    "service_request": "2024-1087715",
    "request_type": "Trash/Recycling",
    "request_reason": "Order Trash Cart",
    "date_created": "2024-04-24T14:18:39.000",
    "date_modified": "2024-04-24T14:18:40.000",
    "request_status": "Pending",
    "responsible_agency": "Department of Sanitation",
    "final_address": "3817 Annunciation St",
    "address_councildis": "B",
    "status": "Assigned to Contractor",
    "contractor": "IV Waste",
    "rowid": "1087715",
    "final_x": "3673473.28948",
    "final_y": "518041.491446",
    "longitude": "-90.09387620324793",
    "latitude": "29.91867544232452",
    "geocoded_column": {
      "latitude": "29.91867544232452",
      "longitude": "-90.09387620324793"
    }
  },
  {
    "service_request": "2024-1087713",
    "request_type": "Trash/Recycling",
    "request_reason": "Repair Trash Cart",
    "date_created": "2024-04-24T14:18:30.000",
    "date_modified": "2024-04-24T14:18:30.000",
    "request_status": "Pending",
    "responsible_agency": "Department of Sanitation",
    "final_address": "4914 Papania Dr",
    "address_councildis": "E",
    "status": "Assigned to Contractor",
    "contractor": "Waste Pro",
    "rowid": "1087713",
    "final_x": "3715462.84459",
    "final_y": "557593.518107",
    "longitude": "-89.95984223795165",
    "latitude": "30.026112985694848",
    "geocoded_column": {
      "latitude": "30.026112985694848",
      "longitude": "-89.95984223795165"
    }
  },
  {
    "service_request": "2024-1087712",
    "request_type": "Trash/Recycling",
    "request_reason": "Request a Large Item Pick Up",
    "date_created": "2024-04-24T14:18:18.000",
    "date_modified": "2024-04-24T14:18:18.000",
    "request_status": "Pending",
    "responsible_agency": "Department of Sanitation",
    "final_address": "4539 Reynes St",
    "address_councildis": "E",
    "status": "Assigned to Contractor",
    "contractor": "Waste Pro",
    "rowid": "1087712",
    "final_x": "3699329.81316",
    "final_y": "553946.260888",
    "longitude": "-90.01095330378358",
    "latitude": "30.016606282248585",
    "geocoded_column": {
      "latitude": "30.016606282248585",
      "longitude": "-90.01095330378358"
    }
  },
  {
    "service_request": "2024-1087711",
    "request_type": "Trash/Recycling",
    "request_reason": "Request a Large Item Pick Up",
    "date_created": "2024-04-24T14:17:54.000",
    "date_modified": "2024-04-24T14:17:55.000",
    "request_status": "Pending",
    "responsible_agency": "Department of Sanitation",
    "final_address": "1436 Elizardi Blvd",
    "address_councildis": "C",
    "status": "Assigned to Contractor",
    "contractor": "Richards Disposal",
    "rowid": "1087711",
    "final_x": "3694800.15152",
    "final_y": "525794.963453",
    "longitude": "-90.02627964251658",
    "latitude": "29.939343294273144",
    "geocoded_column": {
      "latitude": "29.939343294273144",
      "longitude": "-90.02627964251658"
    }
  },
  {
    "service_request": "2024-1087709",
    "request_type": "Property Maintenance",
    "request_reason": "Property Maintenance",
    "date_created": "2024-04-24T14:17:00.000",
    "date_modified": "2024-04-24T16:48:09.000",
    "case_close_date": "2024-04-24T11:48:09.000",
    "request_status": "Closed",
    "responsible_agency": "Department of Code Enforcement",
    "final_address": "3135 Sullen Pl",
    "address_councildis": "C",
    "status": "Referred to Code Enforcement",
    "rowid": "1087709",
    "final_x": "3707720.68881",
    "final_y": "519112.882423",
    "longitude": "-89.9857363100851",
    "latitude": "29.920558344960202",
    "geocoded_column": {
      "latitude": "29.920558344960202",
      "longitude": "-89.9857363100851"
    }
  },
  {
    "service_request": "2024-1087708",
    "request_type": "Trash/Recycling",
    "request_reason": "Request a Large Item Pick Up",
    "date_created": "2024-04-24T14:16:57.000",
    "date_modified": "2024-04-24T18:29:56.000",
    "case_close_date": "2024-04-24T13:29:56.000",
    "request_status": "Closed",
    "responsible_agency": "Department of Sanitation",
    "final_address": "7201 Salem Dr",
    "address_councildis": "E",
    "status": "Assigned to Contractor",
    "contractor": "Waste Pro",
    "contractor_action": "Completed",
    "rowid": "1087708",
    "final_x": "3706415.65246",
    "final_y": "561538.376223",
    "longitude": "-89.98828367487326",
    "latitude": "30.037254881773514",
    "geocoded_column": {
      "latitude": "30.037254881773514",
      "longitude": "-89.98828367487326"
    }
  },
  {
    "service_request": "2024-1087707",
    "request_type": "Trash/Recycling",
    "request_reason": "Request a Large Item Pick Up",
    "date_created": "2024-04-24T14:15:50.000",
    "date_modified": "2024-04-24T14:15:50.000",
    "request_status": "Pending",
    "responsible_agency": "Department of Sanitation",
    "final_address": "4914 Papania Dr",
    "address_councildis": "E",
    "status": "Assigned to Contractor",
    "contractor": "Waste Pro",
    "rowid": "1087707",
    "final_x": "3715462.84459",
    "final_y": "557593.518107",
    "longitude": "-89.95984223795165",
    "latitude": "30.026112985694848",
    "geocoded_column": {
      "latitude": "30.026112985694848",
      "longitude": "-89.95984223795165"
    }
  },
  {
    "service_request": "2024-1087706",
    "request_type": "Trash/Recycling",
    "request_reason": "Repair Trash Cart",
    "date_created": "2024-04-24T14:15:48.000",
    "date_modified": "2024-04-24T14:16:11.000",
    "request_status": "Pending",
    "responsible_agency": "Department of Sanitation",
    "final_address": "815 Leboeuf St",
    "address_councildis": "C",
    "status": "Assigned to Contractor",
    "contractor": "Richards Disposal",
    "rowid": "1087706",
    "final_x": "3689735.50537",
    "final_y": "528471.687936",
    "longitude": "-90.04217410652606",
    "latitude": "29.946861255152097",
    "geocoded_column": {
      "latitude": "29.946861255152097",
      "longitude": "-90.04217410652606"
    }
  },
  {
    "service_request": "2024-1087705",
    "request_type": "Roads/Drainage",
    "request_reason": "Pothole",
    "date_created": "2024-04-24T14:00:32.000",
    "date_modified": "2024-04-24T14:00:32.000",
    "request_status": "Pending",
    "responsible_agency": "Department of Public Works",
    "final_address": "13300 BLK Curran Rd",
    "address_councildis": "E",
    "status": "Pending",
    "rowid": "1087705",
    "final_x": "3716522.1263",
    "final_y": "570491.066483",
    "longitude": "-89.95600520006414",
    "latitude": "30.06154104031932",
    "geocoded_column": {
      "latitude": "30.06154104031932",
      "longitude": "-89.95600520006414"
    }
  },
  {
    "service_request": "2024-1087704",
    "request_type": "Roads/Drainage",
    "request_reason": "Catch Basin - Broken/Damage",
    "date_created": "2024-04-24T13:58:21.000",
    "date_modified": "2024-04-24T13:58:21.000",
    "request_status": "Pending",
    "responsible_agency": "Department of Public Works",
    "final_address": "5643 Pratt Dr",
    "address_councildis": "D",
    "status": "Pending",
    "rowid": "1087704",
    "final_x": "3680402.40802",
    "final_y": "553410.199383",
    "longitude": "-90.07077449783829",
    "latitude": "30.015719344614176",
    "geocoded_column": {
      "latitude": "30.015719344614176",
      "longitude": "-90.07077449783829"
    }
  },
  {
    "service_request": "2024-1087703",
    "request_type": "Roads/Drainage",
    "request_reason": "Pothole",
    "date_created": "2024-04-24T13:57:35.000",
    "date_modified": "2024-04-24T13:57:35.000",
    "request_status": "Pending",
    "responsible_agency": "Department of Public Works",
    "final_address": "N CORTEZ ST & TOULOUSE ST",
    "address_councildis": "A",
    "status": "Pending",
    "rowid": "1087703",
    "final_x": "3673166.5",
    "final_y": "539032.18",
    "longitude": "-90.09412802517346",
    "latitude": "29.976402045456197",
    "geocoded_column": {
      "latitude": "29.976402045456197",
      "longitude": "-90.09412802517346"
    }
  },
  {
    "service_request": "2024-1087702",
    "request_type": "Trash/Recycling",
    "request_reason": "Illegal Dumping",
    "date_created": "2024-04-24T13:54:45.000",
    "date_modified": "2024-04-24T13:54:46.000",
    "request_status": "Pending",
    "responsible_agency": "Department of Sanitation",
    "final_address": "2402 Spain St",
    "address_councildis": "D",
    "status": "Pending",
    "rowid": "1087702",
    "final_x": "3685669.11625",
    "final_y": "541246.286732",
    "longitude": "-90.05456302984508",
    "latitude": "29.982112346011522",
    "geocoded_column": {
      "latitude": "29.982112346011522",
      "longitude": "-90.05456302984508"
    }
  },
  {
    "service_request": "2024-1087701",
    "request_type": "Roads/Drainage",
    "request_reason": "Debris in Roadway",
    "date_created": "2024-04-24T13:50:52.000",
    "date_modified": "2024-04-24T13:50:52.000",
    "request_status": "Pending",
    "responsible_agency": "Department of Public Works",
    "final_address": "2208 Foucher St",
    "address_councildis": "B",
    "status": "Pending",
    "rowid": "1087701",
    "final_x": "3672721.17268",
    "final_y": "523386.504827",
    "longitude": "-90.09606807036256",
    "latitude": "29.93339486288668",
    "geocoded_column": {
      "latitude": "29.93339486288668",
      "longitude": "-90.09606807036256"
    }
  },
  {
    "service_request": "2024-1087700",
    "request_type": "Roads/Drainage",
    "request_reason": "Catch Basin - Clogged",
    "date_created": "2024-04-24T13:48:47.000",
    "date_modified": "2024-04-24T13:48:47.000",
    "request_status": "Pending",
    "responsible_agency": "Department of Public Works",
    "final_address": "ELYSIAN FIELDS AVE & LAKESHORE DR",
    "address_councildis": "D",
    "status": "Pending",
    "rowid": "1087700",
    "final_x": "3683153.2",
    "final_y": "558703.28",
    "longitude": "-90.06189768486175",
    "latitude": "30.030189739024028",
    "geocoded_column": {
      "latitude": "30.030189739024028",
      "longitude": "-90.06189768486175"
    }
  },
  {
    "service_request": "2024-1087699",
    "request_type": "Trash/Recycling",
    "request_reason": "Request a Large Item Pick Up",
    "date_created": "2024-04-24T13:44:19.000",
    "date_modified": "2024-04-24T13:44:19.000",
    "request_status": "Pending",
    "responsible_agency": "Department of Sanitation",
    "final_address": "6564 Coveview Ct",
    "address_councildis": "E",
    "status": "Assigned to Contractor",
    "contractor": "Waste Pro",
    "rowid": "1087699",
    "final_x": "3698918.07229",
    "final_y": "555659.446041",
    "longitude": "-90.01219181141009",
    "latitude": "30.021329949595213",
    "geocoded_column": {
      "latitude": "30.021329949595213",
      "longitude": "-90.01219181141009"
    }
  },
  {
    "service_request": "2024-1087698",
    "request_type": "Trash/Recycling",
    "request_reason": "Request a Large Item Pick Up",
    "date_created": "2024-04-24T13:44:13.000",
    "date_modified": "2024-04-24T13:44:14.000",
    "request_status": "Pending",
    "responsible_agency": "Department of Sanitation",
    "final_address": "7801 Lady Gray St",
    "address_councildis": "E",
    "status": "Assigned to Contractor",
    "contractor": "Waste Pro",
    "rowid": "1087698",
    "final_x": "3709587.29009",
    "final_y": "566006.430691",
    "longitude": "-89.97809366537889",
    "latitude": "30.0494374918845",
    "geocoded_column": {
      "latitude": "30.0494374918845",
      "longitude": "-89.97809366537889"
    }
  },
  {
    "service_request": "2024-1087697",
    "request_type": "Graffiti Removal",
    "request_reason": "Graffiti Removal",
    "date_created": "2024-04-24T13:43:45.000",
    "date_modified": "2024-04-24T13:43:45.000",
    "request_status": "Pending",
    "responsible_agency": "Department of Code Enforcement",
    "final_address": "3316 N Galvez St",
    "address_councildis": "D",
    "status": "Pending",
    "rowid": "1087697",
    "final_x": "3690861.78179",
    "final_y": "539482.158602",
    "longitude": "-90.03822512432592",
    "latitude": "29.977101256512732",
    "geocoded_column": {
      "latitude": "29.977101256512732",
      "longitude": "-90.03822512432592"
    }
  },
  {
    "service_request": "2024-1087696",
    "request_type": "Trash/Recycling",
    "request_reason": "Order Trash Cart",
    "date_created": "2024-04-24T13:42:21.000",
    "date_modified": "2024-04-24T13:42:21.000",
    "request_status": "Pending",
    "responsible_agency": "Department of Sanitation",
    "final_address": "1919 N Robertson St",
    "address_councildis": "C",
    "status": "Assigned to Contractor",
    "contractor": "IV Waste",
    "rowid": "1087696",
    "final_x": "3683924.80911",
    "final_y": "537731.785288",
    "longitude": "-90.06019572217653",
    "latitude": "29.972502107229335",
    "geocoded_column": {
      "latitude": "29.972502107229335",
      "longitude": "-90.06019572217653"
    }
  },
  {
    "service_request": "2024-1087695",
    "request_type": "Trash/Recycling",
    "request_reason": "Order Trash Cart",
    "date_created": "2024-04-24T13:41:38.000",
    "date_modified": "2024-04-24T13:41:39.000",
    "request_status": "Pending",
    "responsible_agency": "Department of Sanitation",
    "final_address": "1917 N Robertson St",
    "address_councildis": "C",
    "status": "Assigned to Contractor",
    "contractor": "IV Waste",
    "rowid": "1087695",
    "final_x": "3683913.66703",
    "final_y": "537729.052936",
    "longitude": "-90.0602310066756",
    "latitude": "29.97249493461157",
    "geocoded_column": {
      "latitude": "29.97249493461157",
      "longitude": "-90.0602310066756"
    }
  },
  {
    "service_request": "2024-1087694",
    "request_type": "Trash/Recycling",
    "request_reason": "Order Trash Cart",
    "date_created": "2024-04-24T13:41:24.000",
    "date_modified": "2024-04-24T13:41:25.000",
    "request_status": "Pending",
    "responsible_agency": "Department of Sanitation",
    "final_address": "1917 N Robertson St",
    "address_councildis": "C",
    "status": "Assigned to Contractor",
    "contractor": "IV Waste",
    "rowid": "1087694",
    "final_x": "3683913.66703",
    "final_y": "537729.052936",
    "longitude": "-90.0602310066756",
    "latitude": "29.97249493461157",
    "geocoded_column": {
      "latitude": "29.97249493461157",
      "longitude": "-90.0602310066756"
    }
  },
  {
    "service_request": "2024-1087693",
    "request_type": "Property Maintenance",
    "request_reason": "Property Maintenance",
    "date_created": "2024-04-24T13:40:30.000",
    "date_modified": "2024-04-24T14:03:24.000",
    "case_close_date": "2024-04-24T09:03:24.000",
    "request_status": "Closed",
    "responsible_agency": "Department of Code Enforcement",
    "final_address": "1716 Iberville St",
    "address_councildis": "B",
    "status": "Referred to Code Enforcement",
    "rowid": "1087693",
    "final_x": "3678385.16123",
    "final_y": "533156.00634",
    "longitude": "-90.07784926074912",
    "latitude": "29.96008835465523",
    "geocoded_column": {
      "latitude": "29.96008835465523",
      "longitude": "-90.07784926074912"
    }
  },
  {
    "service_request": "2024-1087692",
    "request_type": "Traffic Signals/Signs/Striping/Streetlights",
    "request_reason": "Street Light Outage/Malfunction",
    "date_created": "2024-04-24T13:40:06.000",
    "date_modified": "2024-04-24T13:40:07.000",
    "request_status": "Pending",
    "responsible_agency": "Department of Public Works",
    "final_address": "1512 St Louis St",
    "address_councildis": "C",
    "status": "Assigned to Contractor",
    "contractor": "Legacy Professional Services",
    "rowid": "1087692",
    "final_x": "3679915.11714",
    "final_y": "533426.975876",
    "longitude": "-90.07300857806864",
    "latitude": "29.960787246077214",
    "geocoded_column": {
      "latitude": "29.960787246077214",
      "longitude": "-90.07300857806864"
    }
  },
  {
    "service_request": "2024-1087691",
    "request_type": "Trash/Recycling",
    "request_reason": "Illegal Dumping",
    "date_created": "2024-04-24T13:37:59.000",
    "date_modified": "2024-04-24T13:38:38.000",
    "request_status": "Pending",
    "responsible_agency": "Department of Sanitation",
    "final_address": "1011 Conti St",
    "address_councildis": "C",
    "status": "Pending",
    "rowid": "1087691",
    "final_x": "3680969.66203",
    "final_y": "532332.916227",
    "longitude": "-90.06971662960923",
    "latitude": "29.957747018459333",
    "geocoded_column": {
      "latitude": "29.957747018459333",
      "longitude": "-90.06971662960923"
    }
  },
  {
    "service_request": "2024-1087690",
    "request_type": "Trash/Recycling",
    "request_reason": "Request a Large Item Pick Up",
    "date_created": "2024-04-24T13:37:56.000",
    "date_modified": "2024-04-24T13:37:57.000",
    "request_status": "Pending",
    "responsible_agency": "Department of Sanitation",
    "final_address": "4901 Haydel St",
    "address_councildis": "E",
    "status": "Assigned to Contractor",
    "contractor": "Waste Pro",
    "rowid": "1087690",
    "final_x": "3698998.30948",
    "final_y": "555257.084633",
    "longitude": "-90.0119529467249",
    "latitude": "30.020221064973413",
    "geocoded_column": {
      "latitude": "30.020221064973413",
      "longitude": "-90.0119529467249"
    }
  },
  {
    "service_request": "2024-1087688",
    "request_type": "Trash/Recycling",
    "request_reason": "Repair Trash Cart",
    "date_created": "2024-04-24T13:33:49.000",
    "date_modified": "2024-04-24T13:35:21.000",
    "request_status": "Pending",
    "responsible_agency": "Department of Sanitation",
    "final_address": "5528 St Ferdinand Dr",
    "address_councildis": "D",
    "status": "Assigned to Contractor",
    "contractor": "IV Waste",
    "rowid": "1087688",
    "final_x": "3688738.49129",
    "final_y": "553598.916183",
    "longitude": "-90.0444296239587",
    "latitude": "30.015983051531077",
    "geocoded_column": {
      "latitude": "30.015983051531077",
      "longitude": "-90.0444296239587"
    }
  },