[
  {
    "service_request": "2025-1167289",
    "request_type": "Trash/Recycling",
    "request_reason": "Request a Large Item Pick Up",
    "date_created": "2025-02-06T22:48:26.000",
    "date_modified": "2025-02-06T22:48:28.000",
    "request_status": "Pending",
    "responsible_agency": "Department of Sanitation",
    "final_address": "4321 Trieste St",
    "address_councildis": "E",
    "status": "Assigned to Contractor",
    "contractor": "Waste Pro",
    "rowid": "1167289",
    "final_x": "3760220.06697",
    "final_y": "573504.147946",
    "longitude": "-89.81775378901686",
    "latitude": "30.06830896010249",
    "geocoded_column": {
      "latitude": "30.06830896010249",
      "longitude": "-89.81775378901686"
    }
  },
  {
    "service_request": "2025-1167288",
    "request_type": "Roads and Streets",
    "request_reason": "Street Subsidence (Sinking)",
    "date_created": "2025-02-06T22:27:40.000",
    "date_modified": "2025-02-06T22:27:42.000",
    "request_status": "Pending",
    "responsible_agency": "Department of Public Works",
    "final_address": "4315 Cleveland Ave",
    "address_councildis": "A",
    "status": "Pending",
    "rowid": "1167288",
    "final_x": "3669938.80692",
    "final_y": "538749.292873",
    "longitude": "-90.10433166435438",
    "latitude": "29.975719788584538",
    "geocoded_column": {
      "latitude": "29.975719788584538",
      "longitude": "-90.10433166435438"
    }
  },
  {
    "service_request": "2025-1167287",
    "request_type": "Trash/Recycling",
    "request_reason": "Order Trash Cart",
    "date_created": "2025-02-06T22:23:18.000",
    "date_modified": "2025-02-06T22:23:22.000",
    "request_status": "Pending",
    "responsible_agency": "Department of Sanitation",
    "final_address": "145 N Telemachus St",
    "address_councildis": "B",
    "status": "Assigned to Contractor",
    "contractor": "IV Waste",
    "rowid": "1167287",
    "final_x": "3672498.97895",
    "final_y": "537753.334408",
    "longitude": "-90.09627986718958",
    "latitude": "29.972905486981844",
    "geocoded_column": {
      "latitude": "29.972905486981844",
      "longitude": "-90.09627986718958"
    }
  },
  {
    "service_request": "2025-1167286",
    "request_type": "Trash/Recycling",
    "request_reason": "Request a Large Item Pick Up",
    "date_created": "2025-02-06T22:21:57.000",
    "date_modified": "2025-02-06T22:21:59.000",
    "request_status": "Pending",
    "responsible_agency": "Department of Sanitation",
    "final_address": "145 N Telemachus St",
    "address_councildis": "B",
    "status": "Assigned to Contractor",
    "contractor": "IV Waste",
    "rowid": "1167286",
    "final_x": "3672498.97895",
    "final_y": "537753.334408",
    "longitude": "-90.09627986718958",
    "latitude": "29.972905486981844",
    "geocoded_column": {
      "latitude": "29.972905486981844",
      "longitude": "-90.09627986718958"
    }
  },
  {
    "service_request": "2025-1167285",
    "request_type": "Roads and Streets",
    "request_reason": "Sidewalk Damaged or Missing",
    "date_created": "2025-02-06T22:18:35.000",
    "date_modified": "2025-02-06T22:18:37.000",
    "request_status": "Pending",
    "responsible_agency": "Department of Public Works",
    "final_address": "215 N Carrollton Ave",
    "address_councildis": "A",
    "status": "Pending",
    "rowid": "1167285",
    "final_x": "3671411.62715",
    "final_y": "538832.544393",
    "longitude": "-90.09967724406714",
    "latitude": "29.97590518318674",
    "geocoded_column": {
      "latitude": "29.97590518318674",
      "longitude": "-90.09967724406714"
    }
  },
  {
    "service_request": "2025-1167284",
    "request_type": "Road Striping",
    "request_reason": "Crosswalks",
    "date_created": "2025-02-06T21:14:26.000",
    "date_modified": "2025-02-06T21:14:30.000",
    "request_status": "Pending",
    "responsible_agency": "Department of Public Works",
    "final_address": "CANAL ST & N CLARK ST & S CLARK ST",
    "address_councildis": "B",
    "status": "Pending",
    "rowid": "1167284",
    "final_x": "3672888.0",
    "final_y": "537036.38",
    "longitude": "-90.09507573117628",
    "latitude": "29.97092255096199",
    "geocoded_column": {
      "latitude": "29.97092255096199",
      "longitude": "-90.09507573117628"
    }
  },
  {
    "service_request": "2025-1167283",
    "request_type": "Abandoned Vehicles",
    "request_reason": "Abandoned/Junk Vehicles",
    "date_created": "2025-02-06T21:09:31.000",
    "date_modified": "2025-02-06T21:09:32.000",
    "request_status": "Pending",
    "responsible_agency": "Department of Public Works",
    "status": "Pending",
    "rowid": "1167283",
    "longitude": "0.0",
    "latitude": "0.0",
    "geocoded_column": {
      "latitude": "0.0",
      "longitude": "0.0"
    }
  },
  {
    "service_request": "2025-1167282",
    "request_type": "Abandoned Vehicles",
    "request_reason": "Abandoned/Junk Vehicles",
    "date_created": "2025-02-06T21:09:16.000",
    "date_modified": "2025-02-06T21:09:20.000",
    "request_status": "Pending",
    "responsible_agency": "Department of Public Works",
    "status": "Pending",
    "rowid": "1167282",
    "longitude": "0.0",
    "latitude": "0.0",
    "geocoded_column": {
      "latitude": "0.0",
      "longitude": "0.0"
    }
  },
  {
    "service_request": "2025-1167281",
    "request_type": "Abandoned Vehicles",
    "request_reason": "Abandoned/Junk Vehicles",
    "date_created": "2025-02-06T21:08:18.000",
    "date_modified": "2025-02-06T21:08:20.000",
    "request_status": "Pending",
    "responsible_agency": "Department of Public Works",
    "status": "Pending",
    "rowid": "1167281",
    "longitude": "0.0",
    "latitude": "0.0",
    "geocoded_column": {
      "latitude": "0.0",
      "longitude": "0.0"
    }
  },
  {
    "service_request": "2025-1167280",
    "request_type": "Trash/Recycling",
    "request_reason": "Illegal Dumping",
    "date_created": "2025-02-06T20:34:45.000",
    "date_modified": "2025-02-06T20:34:48.000",
    "request_status": "Pending",
    "responsible_agency": "Department of Sanitation",
    "final_address": "14440 Dwyer Blvd",
    "address_councildis": "E",
    "status": "Pending",
    "rowid": "1167280",
    "final_x": "3730378.69261",
    "final_y": "563496.59408",
    "longitude": "-89.91247948906991",
    "latitude": "30.041843947296353",
    "geocoded_column": {
      "latitude": "30.041843947296353",
      "longitude": "-89.91247948906991"
    }
  },
  {
    "service_request": "2025-1167279",
    "request_type": "Property Maintenance",
    "request_reason": "Property Maintenance",
    "date_created": "2025-02-06T20:18:37.000",
    "date_modified": "2025-02-06T20:18:39.000",
    "request_status": "Pending",
    "responsible_agency": "Department of Code Enforcement",
    "final_address": "1111 Poland Ave",
    "address_councildis": "D",
    "status": "Pending",
    "rowid": "1167279",
    "final_x": "3693198.2847",
    "final_y": "535193.421126",
    "longitude": "-90.03099967493971",
    "latitude": "29.965235929674588",
    "geocoded_column": {
      "latitude": "29.965235929674588",
      "longitude": "-90.03099967493971"
    }
  },
  {
    "service_request": "2025-1167278",
    "request_type": "Trash/Recycling",
    "request_reason": "Request a Large Item Pick Up",
    "date_created": "2025-02-06T19:40:18.000",
    "date_modified": "2025-02-06T19:40:21.000",
    "request_status": "Pending",
    "responsible_agency": "Department of Sanitation",
    "final_address": "5413 Burgundy St",
    "address_councildis": "E",
    "status": "Assigned to Contractor",
    "contractor": "Waste Pro",
    "rowid": "1167278",
    "final_x": "3697069.76682",
    "final_y": "533200.837316",
    "longitude": "-90.0188459887216",
    "latitude": "29.95963547257295",
    "geocoded_column": {
      "latitude": "29.95963547257295",
      "longitude": "-90.0188459887216"
    }
  },
  {
    "service_request": "2025-1167277",
    "request_type": "Streetlights",
    "request_reason": "Streetlight Outage/Malfunction",
    "date_created": "2025-02-06T19:31:54.000",
    "date_modified": "2025-02-06T19:31:55.000",
    "request_status": "Pending",
    "responsible_agency": "Department of Public Works",
    "final_address": "4256 Joycelyn Dr",
    "address_councildis": "C",
    "status": "Pending",
    "contractor": "Legacy Professional Services",
    "rowid": "1167277",
    "final_x": "3708253.58347",
    "final_y": "515005.993971",
    "longitude": "-89.98420685859895",
    "latitude": "29.909248584565965",
    "geocoded_column": {
      "latitude": "29.909248584565965",
      "longitude": "-89.98420685859895"
    }
  },
  {
    "service_request": "2025-1167276",
    "request_type": "Trash/Recycling",
    "request_reason": "Order Recycling Cart",
    "date_created": "2025-02-06T19:28:39.000",
    "date_modified": "2025-02-06T19:28:42.000",
    "request_status": "Pending",
    "responsible_agency": "Department of Sanitation",
    "final_address": "531 S Tonti St",
    "address_councildis": "B",
    "status": "Pending",
    "rowid": "1167276",
    "final_x": "3675311.08795",
    "final_y": "532889.892036",
    "longitude": "-90.08756567149986",
    "latitude": "29.959448886414037",
    "geocoded_column": {
      "latitude": "29.959448886414037",
      "longitude": "-90.08756567149986"
    }
  },
  {
    "service_request": "2025-1167275",
    "request_type": "Trash/Recycling",
    "request_reason": "Replace Trash Cart",
    "date_created": "2025-02-06T19:26:38.000",
    "date_modified": "2025-02-06T19:26:40.000",
    "request_status": "Pending",
    "responsible_agency": "Department of Sanitation",
    "final_address": "531 S Tonti St",
    "address_councildis": "B",
    "status": "Assigned to Contractor",
    "contractor": "IV Waste",
    "rowid": "1167275",
    "final_x": "3675311.08795",
    "final_y": "532889.892036",
    "longitude": "-90.08756567149986",
    "latitude": "29.959448886414037",
    "geocoded_column": {
      "latitude": "29.959448886414037",
      "longitude": "-90.08756567149986"
    }
  },
  {
    "service_request": "2025-1167274",
    "request_type": "Property Maintenance",
    "request_reason": "Property Maintenance",
    "date_created": "2025-02-06T18:35:04.000",
    "date_modified": "2025-02-06T18:35:05.000",
    "request_status": "Pending",
    "responsible_agency": "Department of Code Enforcement",
    "final_address": "1723 Jackson Ave",
    "address_councildis": "B",
    "status": "Pending",
    "rowid": "1167274",
    "final_x": "3677289.80462",
    "final_y": "524203.003836",
    "longitude": "-90.08161700348714",
    "latitude": "29.935503531383336",
    "geocoded_column": {
      "latitude": "29.935503531383336",
      "longitude": "-90.08161700348714"
    }
  },
  {
    "service_request": "2025-1167273",
    "request_type": "Trash/Recycling",
    "request_reason": "Request a Large Item Pick Up",
    "date_created": "2025-02-06T18:32:50.000",
    "date_modified": "2025-02-06T18:32:53.000",
    "request_status": "Pending",
    "responsible_agency": "Department of Sanitation",
    "final_address": "2328 Nashville Ave",
    "address_councildis": "A",
    "status": "Assigned to Contractor",
    "contractor": "IV Waste",
    "rowid": "1167273",
    "final_x": "3666955.573",
    "final_y": "524777.790588",
    "longitude": "-90.11422306272057",
    "latitude": "29.937390379299956",
    "geocoded_column": {
      "latitude": "29.937390379299956",
      "longitude": "-90.11422306272057"
    }
  },
  {
    "service_request": "2025-1167272",
    "request_type": "Trash/Recycling",
    "request_reason": "Request a Large Item Pick Up",
    "date_created": "2025-02-06T17:44:36.000",
    "date_modified": "2025-02-06T17:44:38.000",
    "request_status": "Pending",
    "responsible_agency": "Department of Sanitation",
    "final_address": "2939 Joliet St",
    "address_councildis": "A",
    "status": "Assigned to Contractor",
    "contractor": "IV Waste",
    "rowid": "1167272",
    "final_x": "3665243.73472",
    "final_y": "534046.004229",
    "longitude": "-90.11931745982943",
    "latitude": "29.962924934990983",
    "geocoded_column": {
      "latitude": "29.962924934990983",
      "longitude": "-90.11931745982943"
    }
  },
  {
    "service_request": "2025-1167271",
    "request_type": "Trash/Recycling",
    "request_reason": "Illegal Dumping",
    "date_created": "2025-02-06T17:42:40.000",
    "date_modified": "2025-02-06T17:42:42.000",
    "request_status": "Pending",
    "responsible_agency": "Department of Sanitation",
    "final_address": "4733 Banks St",
    "address_councildis": "A",
    "status": "Pending",
    "rowid": "1167271",
    "final_x": "3668194.61338",
    "final_y": "539116.410186",
    "longitude": "-90.10982795344768",
    "latitude": "29.97678056253909",
    "geocoded_column": {
      "latitude": "29.97678056253909",
      "longitude": "-90.10982795344768"
    }
  },
  {
    "service_request": "2025-1167270",
    "request_type": "Trash/Recycling",
    "request_reason": "Illegal Dumping",
    "date_created": "2025-02-06T17:41:05.000",
    "date_modified": "2025-02-06T17:41:08.000",
    "request_status": "Pending",
    "responsible_agency": "Department of Sanitation",
    "final_address": "4733 Banks St",
    "address_councildis": "A",
    "status": "Pending",
    "rowid": "1167270",
    "final_x": "3668194.61338",
    "final_y": "539116.410186",
    "longitude": "-90.10982795344768",
    "latitude": "29.97678056253909",
    "geocoded_column": {
      "latitude": "29.97678056253909",
      "longitude": "-90.10982795344768"
    }
  },
  {
    "service_request": "2025-1167269",
    "request_type": "Trash/Recycling",
    "request_reason": "Order Recycling Cart",
    "date_created": "2025-02-06T17:20:44.000",
    "date_modified": "2025-02-06T17:20:46.000",
    "request_status": "Pending",
    "responsible_agency": "Department of Sanitation",
    "final_address": "7 Glen Abbey Way",
    "address_councildis": "C",
    "status": "Pending",
    "rowid": "1167269",
    "final_x": "3716753.31628",
    "final_y": "515359.163316",
    "longitude": "-89.95736712846163",
    "latitude": "29.909941761295006",
    "geocoded_column": {
      "latitude": "29.909941761295006",
      "longitude": "-89.95736712846163"
    }
  },
  {
    "service_request": "2025-1167268",
    "request_type": "Trash/Recycling",
    "request_reason": "Replace Trash Cart",
    "date_created": "2025-02-06T17:07:33.000",
    "date_modified": "2025-02-06T17:07:35.000",
    "request_status": "Pending",
    "responsible_agency": "Department of Sanitation",
    "final_address": "7520 Willow St",
    "address_councildis": "A",
    "status": "Assigned to Contractor",
    "contractor": "IV Waste",
    "rowid": "1167268",
    "final_x": "3663890.24173",
    "final_y": "527517.700415",
    "longitude": "-90.12380925474635",
    "latitude": "29.945013576769085",
    "geocoded_column": {
      "latitude": "29.945013576769085",
      "longitude": "-90.12380925474635"
    }
  },
  {
    "service_request": "2025-1167267",
    "request_type": "Trash/Recycling",
    "request_reason": "Request a Large Item Pick Up",
    "date_created": "2025-02-06T16:59:52.000",
    "date_modified": "2025-02-06T16:59:54.000",
    "request_status": "Pending",
    "responsible_agency": "Department of Sanitation",
    "final_address": "1518 Gallier St",
    "address_councildis": "D",
    "status": "Assigned to Contractor",
    "contractor": "IV Waste",
    "rowid": "1167267",
    "final_x": "3690822.08444",
    "final_y": "537297.685256",
    "longitude": "-90.0384284689938",
    "latitude": "29.97109596233816",
    "geocoded_column": {
      "latitude": "29.97109596233816",
      "longitude": "-90.0384284689938"
    }
  },
  {
    "service_request": "2025-1167266",
    "request_type": "Trash/Recycling",
    "request_reason": "Request a Large Item Pick Up",
    "date_created": "2025-02-06T16:56:24.000",
    "date_modified": "2025-02-06T16:56:26.000",
    "request_status": "Pending",
    "responsible_agency": "Department of Sanitation",
    "final_address": "3149 St Thomas St",
    "address_councildis": "B",
    "status": "Assigned to Contractor",
    "contractor": "IV Waste",
    "rowid": "1167266",
    "final_x": "3676749.38843",
    "final_y": "518478.894006",
    "longitude": "-90.08352021087741",
    "latitude": "29.919780310153918",
    "geocoded_column": {
      "latitude": "29.919780310153918",
      "longitude": "-90.08352021087741"
    }
  },
  {
    "service_request": "2025-1167265",
    "request_type": "Trash/Recycling",
    "request_reason": "Request a Large Item Pick Up",
    "date_created": "2025-02-06T16:54:55.000",
    "date_modified": "2025-02-06T16:54:57.000",
    "request_status": "Pending",
    "responsible_agency": "Department of Sanitation",
    "final_address": "2100 Mirabeau Ave",
    "address_councildis": "D",
    "status": "Assigned to Contractor",
    "contractor": "IV Waste",
    "rowid": "1167265",
    "final_x": "3683132.25295",
    "final_y": "550564.339092",
    "longitude": "-90.06224918013726",
    "latitude": "30.007811273564865",
    "geocoded_column": {
      "latitude": "30.007811273564865",
      "longitude": "-90.06224918013726"
    }
  },
  {
    "service_request": "2025-1167264",
    "request_type": "Trash/Recycling",
    "request_reason": "Request a Large Item Pick Up",
    "date_created": "2025-02-06T16:54:18.000",
    "date_modified": "2025-02-06T16:54:20.000",
    "request_status": "Pending",
    "responsible_agency": "Department of Sanitation",
    "final_address": "4775 Rosalia Dr",
    "address_councildis": "E",
    "status": "Assigned to Contractor",
    "contractor": "Waste Pro",
    "rowid": "1167264",
    "final_x": "3711238.78584",
    "final_y": "556073.18249",
    "longitude": "-89.9732466278173",
    "latitude": "30.022071205179046",
    "geocoded_column": {
      "latitude": "30.022071205179046",
      "longitude": "-89.9732466278173"
    }
  },
  {
    "service_request": "2025-1167263",
    "request_type": "Trash/Recycling",
    "request_reason": "Repair Trash Cart",
    "date_created": "2025-02-06T16:51:37.000",
    "date_modified": "2025-02-06T16:51:39.000",
    "request_status": "Pending",
    "responsible_agency": "Department of Sanitation",
    "final_address": "1458 Calhoun St",
    "address_councildis": "A",
    "status": "Assigned to Contractor",
    "contractor": "IV Waste",
    "rowid": "1167263",
    "final_x": "3664398.80967",
    "final_y": "522082.83641",
    "longitude": "-90.12238488782242",
    "latitude": "29.930054659941668",
    "geocoded_column": {
      "latitude": "29.930054659941668",
      "longitude": "-90.12238488782242"
    }
  },
  {
    "service_request": "2025-1167262",
    "request_type": "Trash/Recycling",
    "request_reason": "Return Trash Cart",
    "date_created": "2025-02-06T16:51:32.000",
    "date_modified": "2025-02-06T16:51:34.000",
    "request_status": "Pending",
    "responsible_agency": "Department of Sanitation",
    "final_address": "8809 Willow St",
    "address_councildis": "A",
    "status": "Assigned to Contractor",
    "contractor": "IV Waste",
    "rowid": "1167262",
    "final_x": "3660550.37914",
    "final_y": "530661.786882",
    "longitude": "-90.13425040726646",
    "latitude": "29.953755326067103",
    "geocoded_column": {
      "latitude": "29.953755326067103",
      "longitude": "-90.13425040726646"
    }
  },
  {
    "service_request": "2025-1167261",
    "request_type": "Trash/Recycling",
    "request_reason": "Request a Large Item Pick Up",
    "date_created": "2025-02-06T16:50:31.000",
    "date_modified": "2025-02-06T16:50:32.000",
    "request_status": "Pending",
    "responsible_agency": "Department of Sanitation",
    "final_address": "1815 Benton St",
    "address_councildis": "E",
    "status": "Assigned to Contractor",
    "contractor": "Waste Pro",
    "rowid": "1167261",
    "final_x": "3699923.34743",
    "final_y": "536177.762183",
    "longitude": "-90.00972650483467",
    "latitude": "29.96773062961759",
    "geocoded_column": {
      "latitude": "29.96773062961759",
      "longitude": "-90.00972650483467"
    }
  },
  {
    "service_request": "2025-1167260",
    "request_type": "Trash/Recycling",
    "request_reason": "Request a Large Item Pick Up",
    "date_created": "2025-02-06T16:45:31.000",
    "date_modified": "2025-02-06T16:45:33.000",
    "request_status": "Pending",
    "responsible_agency": "Department of Sanitation",
    "final_address": "3710 Dumaine St",
    "address_councildis": "A",
    "status": "Assigned to Contractor",
    "contractor": "IV Waste",
    "rowid": "1167260",
    "final_x": "3673978.86824",
    "final_y": "539883.159754",
    "longitude": "-90.09153318995807",
    "latitude": "29.97871776674738",
    "geocoded_column": {
      "latitude": "29.97871776674738",
      "longitude": "-90.09153318995807"
    }
  },
  {
    "service_request": "2025-1167259",
    "request_type": "Trash/Recycling",
    "request_reason": "Missed Trash Pick-Up",
    "date_created": "2025-02-06T16:44:54.000",
    "date_modified": "2025-02-06T16:44:56.000",
    "request_status": "Pending",
    "responsible_agency": "Department of Sanitation",
    "final_address": "6766 Bellaire Dr",
    "address_councildis": "A",
    "status": "Assigned to Contractor",
    "contractor": "IV Waste",
    "rowid": "1167259",
    "final_x": "3664543.94906",
    "final_y": "553269.561751",
    "longitude": "-90.12088495985304",
    "latitude": "30.015803574272873",
    "geocoded_column": {
      "latitude": "30.015803574272873",
      "longitude": "-90.12088495985304"
    }
  },
  {
    "service_request": "2025-1167258",
    "request_type": "Trash/Recycling",
    "request_reason": "Order Second Trash Cart",
    "date_created": "2025-02-06T16:44:52.000",
    "date_modified": "2025-02-06T16:44:55.000",
    "request_status": "Pending",
    "responsible_agency": "Department of Sanitation",
    "final_address": "3710 Dumaine St",
    "address_councildis": "A",
    "status": "Assigned to Contractor",
    "contractor": "IV Waste",
    "rowid": "1167258",
    "final_x": "3673978.86824",
    "final_y": "539883.159754",
    "longitude": "-90.09153318995807",
    "latitude": "29.97871776674738",
    "geocoded_column": {
      "latitude": "29.97871776674738",
      "longitude": "-90.09153318995807"
    }
  },
  {
    "service_request": "2025-1167257",
    "request_type": "Trash/Recycling",
    "request_reason": "Order Trash Cart",
    "date_created": "2025-02-06T16:43:04.000",
    "date_modified": "2025-02-06T16:43:06.000",
    "request_status": "Pending",
    "responsible_agency": "Department of Sanitation",
    "final_address": "3710 Dumaine St",
    "address_councildis": "A",
    "status": "Assigned to Contractor",
    "contractor": "IV Waste",
    "rowid": "1167257",
    "final_x": "3673978.86824",
    "final_y": "539883.159754",
    "longitude": "-90.09153318995807",
    "latitude": "29.97871776674738",
    "geocoded_column": {
      "latitude": "29.97871776674738",
      "longitude": "-90.09153318995807"
    }
  },
  {
    "service_request": "2025-1167256",
    "request_type": "Trash/Recycling",
    "request_reason": "Start Trash Service",
    "date_created": "2025-02-06T16:42:31.000",
    "date_modified": "2025-02-06T16:42:33.000",
    "request_status": "Pending",
    "responsible_agency": "Department of Sanitation",
    "final_address": "3710 Dumaine St",
    "address_councildis": "A",
    "status": "Assigned to Contractor",
    "contractor": "IV Waste",
    "rowid": "1167256",
    "final_x": "3673978.86824",
    "final_y": "539883.159754",
    "longitude": "-90.09153318995807",
    "latitude": "29.97871776674738",
    "geocoded_column": {
      "latitude": "29.97871776674738",
      "longitude": "-90.09153318995807"
    }
  },
  {
    "service_request": "2025-1167255",
    "request_type": "Abandoned Vehicles",
    "request_reason": "Abandoned/Junk Vehicles",
    "date_created": "2025-02-06T16:41:49.000",
    "date_modified": "2025-02-06T16:41:51.000",
    "request_status": "Pending",
    "responsible_agency": "Department of Public Works",
    "final_address": "DIANA ST & TECHE ST",
    "address_councildis": "C",
    "status": "Pending",
    "rowid": "1167255",
    "final_x": "3686597.3",
    "final_y": "527539.48",
    "longitude": "-90.05211546004772",
    "latitude": "29.944394860509135",
    "geocoded_column": {
      "latitude": "29.944394860509135",
      "longitude": "-90.05211546004772"
    }
  },
  {
    "service_request": "2025-1167254",
    "request_type": "Trash/Recycling",
    "request_reason": "Repair Trash Cart",
    "date_created": "2025-02-06T16:41:20.000",
    "date_modified": "2025-02-06T16:41:22.000",
    "request_status": "Pending",
    "responsible_agency": "Department of Sanitation",
    "final_address": "2022 Chippewa St",
    "address_councildis": "B",
    "status": "Assigned to Contractor",
    "contractor": "IV Waste",
    "rowid": "1167254",
    "final_x": "3680319.5629",
    "final_y": "521299.788281",
    "longitude": "-90.07215291779012",
    "latitude": "29.927429290313864",
    "geocoded_column": {
      "latitude": "29.927429290313864",
      "longitude": "-90.07215291779012"
    }
  },
  {
    "service_request": "2025-1167253",
    "request_type": "Streetlights",
    "request_reason": "Streetlight Outage/Malfunction",
    "date_created": "2025-02-06T16:40:33.000",
    "date_modified": "2025-02-06T16:40:34.000",
    "request_status": "Pending",
    "responsible_agency": "Department of Public Works",
    "final_address": "5415 St Roch Ave",
    "address_councildis": "D",
    "status": "Pending",
    "contractor": "Legacy Professional Services",
    "rowid": "1167253",
    "final_x": "3685253.38869",
    "final_y": "552955.763031",
    "longitude": "-90.05546363909114",
    "latitude": "30.014321947854913",
    "geocoded_column": {
      "latitude": "30.014321947854913",
      "longitude": "-90.05546363909114"
    }
  },
  {
    "service_request": "2025-1167252",
    "request_type": "Trash/Recycling",
    "request_reason": "Repair Trash Cart",
    "date_created": "2025-02-06T16:37:32.000",
    "date_modified": "2025-02-06T17:44:55.000",
    "case_close_date": "2025-02-06T11:44:54.000",
    "request_status": "Closed",
    "responsible_agency": "Department of Sanitation",
    "final_address": "1343 Tricou St",
    "address_councildis": "E",
    "status": "Duplicate Request",
    "contractor": "Waste Pro",
    "contractor_action": "Duplicate",
    "rowid": "1167252",
    "final_x": "3700575.03466",
    "final_y": "534029.643653",
    "longitude": "-90.00774695220971",
    "latitude": "29.96180335965277",
    "geocoded_column": {
      "latitude": "29.96180335965277",
      "longitude": "-90.00774695220971"
    }
  },
  {
    "service_request": "2025-1167251",
    "request_type": "Trash/Recycling",
    "request_reason": "Request a Large Item Pick Up",
    "date_created": "2025-02-06T16:37:29.000",
    "date_modified": "2025-02-06T17:35:36.000",
    "case_close_date": "2025-02-06T11:35:35.000",
    "request_status": "Closed",
    "responsible_agency": "Department of Sanitation",
    "final_address": "6901 Mayo Rd",
    "address_councildis": "E",
    "status": "Duplicate Request",
    "contractor": "Waste Pro",
    "contractor_action": "Duplicate",
    "rowid": "1167251",
    "final_x": "3701922.58807",
    "final_y": "558194.875291",
    "longitude": "-90.00260539805275",
    "latitude": "30.02820580925371",
    "geocoded_column": {
      "latitude": "30.02820580925371",
      "longitude": "-90.00260539805275"
    }
  },
  {
    "service_request": "2025-1167250",
    "request_type": "Trash/Recycling",
    "request_reason": "Repair Trash Cart",
    "date_created": "2025-02-06T16:37:00.000",
    "date_modified": "2025-02-06T16:38:48.000",
    "request_status": "Pending",
    "responsible_agency": "Department of Sanitation",
    "final_address": "1337 Tricou St",
    "address_councildis": "E",
    "contractor": "Waste Pro",
    "rowid": "1167250",
    "final_x": "3700557.50314",
    "final_y": "533987.032197",
    "longitude": "-90.00780387018185",
    "latitude": "29.96168675105988",
    "geocoded_column": {
      "latitude": "29.96168675105988",
      "longitude": "-90.00780387018185"
    }
  },
  {
    "service_request": "2025-1167249",
    "request_type": "Trash/Recycling",
    "request_reason": "Repair Trash Cart",
    "date_created": "2025-02-06T16:33:18.000",
    "date_modified": "2025-02-06T16:33:19.000",
    "request_status": "Pending",
    "responsible_agency": "Department of Sanitation",
    "final_address": "1339 Tricou St",
    "address_councildis": "E",
    "status": "Assigned to Contractor",
    "contractor": "Waste Pro",
    "rowid": "1167249",
    "final_x": "3700572.50231",
    "final_y": "534013.399429",
    "longitude": "-90.00775554234096",
    "latitude": "29.961758774403233",
    "geocoded_column": {
      "latitude": "29.961758774403233",
      "longitude": "-90.00775554234096"
    }
  },
  {
    "service_request": "2025-1167248",
    "request_type": "Trash/Recycling",
    "request_reason": "Repair Trash Cart",
    "date_created": "2025-02-06T16:32:57.000",
    "date_modified": "2025-02-06T16:32:58.000",
    "request_status": "Pending",
    "responsible_agency": "Department of Sanitation",
    "final_address": "2523 Republic St",
    "address_councildis": "D",
    "status": "Assigned to Contractor",
    "contractor": "IV Waste",
    "rowid": "1167248",
    "final_x": "3680834.71176",
    "final_y": "541359.384396",
    "longitude": "-90.06982846439837",
    "latitude": "29.98257078988676",
    "geocoded_column": {
      "latitude": "29.98257078988676",
      "longitude": "-90.06982846439837"
    }
  },
  {
    "service_request": "2025-1167247",
    "request_type": "Trash/Recycling",
    "request_reason": "Order Trash Cart",
    "date_created": "2025-02-06T16:32:15.000",
    "date_modified": "2025-02-06T16:32:17.000",
    "request_status": "Pending",
    "responsible_agency": "Department of Sanitation",
    "final_address": "2525 Republic St",
    "address_councildis": "D",
    "status": "Assigned to Contractor",
    "contractor": "IV Waste",
    "rowid": "1167247",
    "final_x": "3680834.98959",
    "final_y": "541375.77326",
    "longitude": "-90.06982701607556",
    "latitude": "29.98261584511563",
    "geocoded_column": {
      "latitude": "29.98261584511563",
      "longitude": "-90.06982701607556"
    }
  },
  {
    "service_request": "2025-1167245",
    "request_type": "Property Maintenance",
    "request_reason": "Property Maintenance",
    "date_created": "2025-02-06T16:27:17.000",
    "date_modified": "2025-02-06T16:27:19.000",
    "request_status": "Pending",
    "responsible_agency": "Department of Code Enforcement",
    "final_address": "2601 Cleveland Ave",
    "address_councildis": "B",
    "status": "Pending",
    "rowid": "1167245",
    "final_x": "3675555.12238",
    "final_y": "534511.345733",
    "longitude": "-90.08673936340567",
    "latitude": "29.96390004085889",
    "geocoded_column": {
      "latitude": "29.96390004085889",
      "longitude": "-90.08673936340567"
    }
  },
  {
    "service_request": "2025-1167244",
    "request_type": "Roads and Streets",
    "request_reason": "Pothole",
    "date_created": "2025-02-06T16:26:23.000",
    "date_modified": "2025-02-06T16:26:24.000",
    "request_status": "Pending",
    "responsible_agency": "Department of Public Works",
    "final_address": "124 S Dupre St",
    "address_councildis": "B",
    "status": "Pending",
    "rowid": "1167244",
    "final_x": "3674506.78459",
    "final_y": "535421.034694",
    "longitude": "-90.09001874922411",
    "latitude": "29.966432697639334",
    "geocoded_column": {
      "latitude": "29.966432697639334",
      "longitude": "-90.09001874922411"
    }
  },
  {
    "service_request": "2025-1167243",
    "request_type": "Trash/Recycling",
    "request_reason": "Return Trash Cart",
    "date_created": "2025-02-06T16:24:21.000",
    "date_modified": "2025-02-06T16:24:28.000",
    "request_status": "Pending",
    "responsible_agency": "Department of Sanitation",
    "final_address": "4840 Treves St",
    "address_councildis": "E",
    "status": "Assigned to Contractor",
    "contractor": "Waste Pro",
    "rowid": "1167243",
    "final_x": "3729999.4192",
    "final_y": "562407.595295",
    "longitude": "-89.91372075465802",
    "latitude": "30.038862581614225",
    "geocoded_column": {
      "latitude": "30.038862581614225",
      "longitude": "-89.91372075465802"
    }
  },
  {
    "service_request": "2025-1167242",
    "request_type": "Abandoned Vehicles",
    "request_reason": "Abandoned/Junk Vehicles",
    "date_created": "2025-02-06T16:23:52.000",
    "date_modified": "2025-02-06T16:23:56.000",
    "request_status": "Pending",
    "responsible_agency": "Department of Public Works",
    "final_address": "435 Socrates St",
    "address_councildis": "C",
    "status": "Pending",
    "rowid": "1167242",
    "final_x": "3686887.60751",
    "final_y": "526358.540094",
    "longitude": "-90.05124059687623",
    "latitude": "29.941138747097337",
    "geocoded_column": {
      "latitude": "29.941138747097337",
      "longitude": "-90.05124059687623"
    }
  },
  {
    "service_request": "2025-1167241",
    "request_type": "Trash/Recycling",
    "request_reason": "Order Second Trash Cart",
    "date_created": "2025-02-06T16:23:30.000",
    "date_modified": "2025-02-06T16:23:32.000",
    "request_status": "Pending",
    "responsible_agency": "Department of Sanitation",
    "final_address": "4840 Treves St",
    "address_councildis": "E",
    "status": "Assigned to Contractor",
    "contractor": "Waste Pro",
    "rowid": "1167241",
    "final_x": "3729999.4192",
    "final_y": "562407.595295",
    "longitude": "-89.91372075465802",
    "latitude": "30.038862581614225",
    "geocoded_column": {
      "latitude": "30.038862581614225",
      "longitude": "-89.91372075465802"
    }
  },
  {
    "service_request": "2025-1167240",
    "request_type": "Streetlights",
    "request_reason": "Streetlight Outage/Malfunction",
    "date_created": "2025-02-06T16:23:23.000",
    "date_modified": "2025-02-06T16:23:24.000",
    "request_status": "Pending",
    "responsible_agency": "Department of Public Works",
    "final_address": "JOSEPHINE ST & PRYTANIA ST",
    "address_councildis": "B",
    "status": "Pending",
    "contractor": "Legacy Professional Services",
    "rowid": "1167240",
    "final_x": "3678240.7",
    "final_y": "523516.18",
    "longitude": "-90.0786387617619",
    "latitude": "29.93358639478493",
    "geocoded_column": {
      "latitude": "29.93358639478493",
      "longitude": "-90.0786387617619"
    }
  },
  {
    "service_request": "2025-1167239",
    "request_type": "Health Related Request",
    "request_reason": "Homeless Encampment Complaint",
    "date_created": "2025-02-06T16:16:56.000",
    "date_modified": "2025-02-06T16:24:26.000",
    "request_status": "Pending",
    "responsible_agency": "Health Department",
    "final_address": "2601 Cleveland Ave",
    "address_councildis": "B",
    "status": "Pending",
    "rowid": "1167239",
    "final_x": "3675555.12238",
    "final_y": "534511.345733",
    "longitude": "-90.08673936340567",
    "latitude": "29.96390004085889",
    "geocoded_column": {
      "latitude": "29.96390004085889",
      "longitude": "-90.08673936340567"
    }
  },
  {
    "service_request": "2025-1167238",
    "request_type": "Trash/Recycling",
    "request_reason": "Request a Large Item Pick Up",
    "date_created": "2025-02-06T16:13:47.000",
    "date_modified": "2025-02-06T16:13:50.000",
    "request_status": "Pending",
    "responsible_agency": "Department of Sanitation",
    "final_address": "4731 Laurel St, New Orleans, LA, 70115",
    "address_councildis": "B",
    "status": "Assigned to Contractor",
    "contractor": "IV Waste",
    "rowid": "1167238",
    "final_x": "3669748.19623",
    "final_y": "517995.269814",
    "longitude": "-90.10563596452802",
    "latitude": "29.918658618487708",
    "geocoded_column": {
      "latitude": "29.918658618487708",
      "longitude": "-90.10563596452802"
    }
  },
  {
    "service_request": "2025-1167237",
    "request_type": "Roads and Streets",
    "request_reason": "Street Subsidence (Sinking)",
    "date_created": "2025-02-06T16:08:20.000",
    "date_modified": "2025-02-06T16:08:22.000",
    "request_status": "Pending",
    "responsible_agency": "Department of Public Works",
    "final_address": "510 N Solomon St",
    "address_councildis": "A",
    "status": "Pending",
    "rowid": "1167237",
    "final_x": "3671572.02567",
    "final_y": "539971.583243",
    "longitude": "-90.0991319102808",
    "latitude": "29.979032403932614",
    "geocoded_column": {
      "latitude": "29.979032403932614",
      "longitude": "-90.0991319102808"
    }
  },
  {
    "service_request": "2025-1167236",
    "request_type": "Trash/Recycling",
    "request_reason": "Request a Large Item Pick Up",
    "date_created": "2025-02-06T16:05:46.000",
    "date_modified": "2025-02-06T16:05:48.000",
    "request_status": "Pending",
    "responsible_agency": "Department of Sanitation",
    "final_address": "2639 Valentine Ct",
    "address_councildis": "C",
    "status": "Assigned to Contractor",
    "contractor": "Richards Disposal",
    "rowid": "1167236",
    "final_x": "3699033.38084",
    "final_y": "521171.126713",
    "longitude": "-90.01308307377346",
    "latitude": "29.926495886125274",
    "geocoded_column": {
      "latitude": "29.926495886125274",
      "longitude": "-90.01308307377346"
    }
  },
  {
    "service_request": "2025-1167235",
    "request_type": "Abandoned Vehicles",
    "request_reason": "Abandoned/Junk Vehicles",
    "date_created": "2025-02-06T16:05:20.000",
    "date_modified": "2025-02-06T16:05:21.000",
    "request_status": "Pending",
    "responsible_agency": "Department of Public Works",
    "final_address": "PHILIP ST & S CLAIBORNE AVE",
    "address_councildis": "B",
    "status": "Pending",
    "rowid": "1167235",
    "final_x": "3674426.5",
    "final_y": "527470.48",
    "longitude": "-90.09054460811814",
    "latitude": "29.94457371673237",
    "geocoded_column": {
      "latitude": "29.94457371673237",
      "longitude": "-90.09054460811814"
    }
  },
  {
    "service_request": "2025-1167234",
    "request_type": "Trash/Recycling",
    "request_reason": "MIssed Recycling Pick-Up",
    "date_created": "2025-02-06T16:03:58.000",
    "date_modified": "2025-02-06T16:04:00.000",
    "request_status": "Pending",
    "responsible_agency": "Department of Sanitation",
    "final_address": "4430 Lancelot Dr, New Orleans, Louisiana, 70127",
    "address_councildis": "E",
    "status": "Assigned to Contractor",
    "contractor": "Waste Pro",
    "rowid": "1167234",
    "final_x": "3707544.13688",
    "final_y": "553760.070743",
    "longitude": "-89.98500668723098",
    "latitude": "30.01583111096896",
    "geocoded_column": {
      "latitude": "30.01583111096896",
      "longitude": "-89.98500668723098"
    }
  },
  {
    "service_request": "2025-1167233",
    "request_type": "Property Maintenance",
    "request_reason": "Property Maintenance",
    "date_created": "2025-02-06T16:02:47.000",
    "date_modified": "2025-02-06T16:02:49.000",
    "request_status": "Pending",
    "responsible_agency": "Department of Code Enforcement",
    "final_address": "205 N Tonti St",
    "address_councildis": "B",
    "status": "Pending",
    "rowid": "1167233",
    "final_x": "3676720.48296",
    "final_y": "534736.145158",
    "longitude": "-90.08305151564602",
    "latitude": "29.96448325070106",
    "geocoded_column": {
      "latitude": "29.96448325070106",
      "longitude": "-90.08305151564602"
    }
  },
  {
    "service_request": "2025-1167232",
    "request_type": "Roads and Streets",
    "request_reason": "Pothole",
    "date_created": "2025-02-06T16:02:47.000",
    "date_modified": "2025-02-06T16:02:49.000",
    "request_status": "Pending",
    "responsible_agency": "Department of Public Works",
    "final_address": "PINE ST & FRERET ST",
    "address_councildis": "A",
    "status": "Pending",
    "rowid": "1167232",
    "final_x": "3663527.3",
    "final_y": "526066.38",
    "longitude": "-90.12500350071613",
    "latitude": "29.94103343893924",
    "geocoded_column": {
      "latitude": "29.94103343893924",
      "longitude": "-90.12500350071613"
    }
  },
  {
    "service_request": "2025-1167231",
    "request_type": "Healthy Homes",
    "request_reason": "Healthy Homes",
    "date_created": "2025-02-06T15:52:41.000",
    "date_modified": "2025-02-06T15:52:44.000",
    "request_status": "Pending",
    "responsible_agency": "Department of Code Enforcement",
    "final_address": "2320 Annette St",
    "address_councildis": "D",
    "status": "Pending",
    "rowid": "1167231",
    "final_x": "3682739.34453",
    "final_y": "540764.748299",
    "longitude": "-90.06383350276255",
    "latitude": "29.98087786290694",
    "geocoded_column": {
      "latitude": "29.98087786290694",
      "longitude": "-90.06383350276255"
    }
  },
  {
    "service_request": "2025-1167230",
    "request_type": "Trash/Recycling",
    "request_reason": "Repair Trash Cart",
    "date_created": "2025-02-06T15:52:14.000",
    "date_modified": "2025-02-06T15:52:19.000",
    "request_status": "Pending",
    "responsible_agency": "Department of Sanitation",
    "final_address": "1424 St Roch Ave",
    "address_councildis": "C",
    "status": "Assigned to Contractor",
    "contractor": "IV Waste",
    "rowid": "1167230",
    "final_x": "3686298.49532",
    "final_y": "537741.001736",
    "longitude": "-90.05269888930142",
    "latitude": "29.972454716594683",
    "geocoded_column": {
      "latitude": "29.972454716594683",
      "longitude": "-90.05269888930142"
    }
  },
  {
    "service_request": "2025-1167229",
    "request_type": "General Services",
    "request_reason": "General Service Request",
    "date_created": "2025-02-06T15:41:16.000",
    "date_modified": "2025-02-06T15:44:33.000",
    "case_close_date": "2025-02-06T09:44:31.000",
    "request_status": "Closed",
    "responsible_agency": "Orleans Parish Communication District",
    "final_address": "2231 Amelia St",
    "address_councildis": "B",
    "status": "Question Answered.",
    "rowid": "1167229",
    "final_x": "3672588.72654",
    "final_y": "523519.092027",
    "longitude": "-90.09648167764865",
    "latitude": "29.933763366540227",
    "geocoded_column": {
      "latitude": "29.933763366540227",
      "longitude": "-90.09648167764865"
    }
  },
  {
    "service_request": "2025-1167228",
    "request_type": "Property Maintenance",
    "request_reason": "Property Maintenance",
    "date_created": "2025-02-06T15:40:48.000",
    "date_modified": "2025-02-06T15:45:19.000",
    "request_status": "Pending",
    "responsible_agency": "Department of Code Enforcement",
    "final_address": "2601 Cleveland Ave",
    "address_councildis": "B",
    "status": "Pending",
    "rowid": "1167228",
    "final_x": "3675555.12238",
    "final_y": "534511.345733",
    "longitude": "-90.08673936340567",
    "latitude": "29.96390004085889",
    "geocoded_column": {
      "latitude": "29.96390004085889",
      "longitude": "-90.08673936340567"
    }
  },
  {
    "service_request": "2025-1167227",
    "request_type": "Abandoned Vehicles",
    "request_reason": "Abandoned/Junk Vehicles",
    "date_created": "2025-02-06T15:33:40.000",
    "date_modified": "2025-02-06T15:33:42.000",
    "request_status": "Pending",
    "responsible_agency": "Department of Public Works",
    "final_address": "LOUISA ST & HIGGINS BLVD",
    "address_councildis": "D",
    "status": "Pending",
    "rowid": "1167227",
    "final_x": "3691967.1",
    "final_y": "545621.68",
    "longitude": "-90.03451439183051",
    "latitude": "29.99394833316442",
    "geocoded_column": {
      "latitude": "29.99394833316442",
      "longitude": "-90.03451439183051"
    }
  },
  {
    "service_request": "2025-1167226",
    "request_type": "Trash/Recycling",
    "request_reason": "Repair Recycling Cart",
    "date_created": "2025-02-06T15:33:08.000",
    "date_modified": "2025-02-06T15:33:10.000",
    "request_status": "Pending",
    "responsible_agency": "Department of Sanitation",
    "final_address": "7826 Tulsa St",
    "address_councildis": "E",
    "status": "Pending",
    "rowid": "1167226",
    "final_x": "3704069.16599",
    "final_y": "553404.414487",
    "longitude": "-89.99599906182205",
    "latitude": "30.01496516841647",
    "geocoded_column": {
      "latitude": "30.01496516841647",
      "longitude": "-89.99599906182205"
    }
  },
  {
    "service_request": "2025-1167225",
    "request_type": "Drainage",
    "request_reason": "Street Flooding",
    "date_created": "2025-02-06T15:31:31.000",
    "date_modified": "2025-02-06T15:31:33.000",
    "request_status": "Pending",
    "responsible_agency": "Sewerage & Water Board ",
    "final_address": "3124 Castine St",
    "address_councildis": "D",
    "status": "Pending",
    "rowid": "1167225",
    "final_x": "3677431.04174",
    "final_y": "543838.997262",
    "longitude": "-90.08049331907033",
    "latitude": "29.98949162339241",
    "geocoded_column": {
      "latitude": "29.98949162339241",
      "longitude": "-90.08049331907033"
    }
  },
  {
    "service_request": "2025-1167224",
    "request_type": "Trash/Recycling",
    "request_reason": "Request a Large Item Pick Up",
    "date_created": "2025-02-06T15:30:43.000",
    "date_modified": "2025-02-06T15:30:45.000",
    "request_status": "Pending",
    "responsible_agency": "Department of Sanitation",
    "final_address": "10941 S Hardy St",
    "address_councildis": "E",
    "status": "Assigned to Contractor",
    "contractor": "Waste Pro",
    "rowid": "1167224",
    "final_x": "3713028.78514",
    "final_y": "561773.520543",
    "longitude": "-89.96737602590312",
    "latitude": "30.037686327197044",
    "geocoded_column": {
      "latitude": "30.037686327197044",
      "longitude": "-89.96737602590312"
    }
  },
  {
    "service_request": "2025-1167223",
    "request_type": "Trash/Recycling",
    "request_reason": "Request a Large Item Pick Up",
    "date_created": "2025-02-06T15:27:38.000",
    "date_modified": "2025-02-06T15:27:40.000",
    "request_status": "Pending",
    "responsible_agency": "Department of Sanitation",
    "final_address": "1818 Jackson Ave",
    "address_councildis": "B",
    "status": "Assigned to Contractor",
    "contractor": "IV Waste",
    "rowid": "1167223",
    "final_x": "3676858.79963",
    "final_y": "524608.592764",
    "longitude": "-90.08296371785258",
    "latitude": "29.936631707164267",
    "geocoded_column": {
      "latitude": "29.936631707164267",
      "longitude": "-90.08296371785258"
    }
  },
  {
    "service_request": "2025-1167222",
    "request_type": "Trash/Recycling",
    "request_reason": "Illegal Dumping",
    "date_created": "2025-02-06T15:27:29.000",
    "date_modified": "2025-02-06T15:27:31.000",
    "request_status": "Pending",
    "responsible_agency": "Department of Sanitation",
    "final_address": "901 Piety St",
    "address_councildis": "C",
    "status": "Pending",
    "rowid": "1167222",
    "final_x": "3689679.88809",
    "final_y": "535029.022342",
    "longitude": "-90.04211640355143",
    "latitude": "29.96489337804015",
    "geocoded_column": {
      "latitude": "29.96489337804015",
      "longitude": "-90.04211640355143"
    }
  },
  {
    "service_request": "2025-1167221",
    "request_type": "Safety & Permits",
    "request_reason": "Licenses & Permits",
    "date_created": "2025-02-06T15:20:59.000",
    "date_modified": "2025-02-06T15:21:00.000",
    "request_status": "Pending",
    "responsible_agency": "Safety and Permits",
    "final_address": "1943 N Rampart St",
    "address_councildis": "C",
    "status": "Pending",
    "rowid": "1167221",
    "final_x": "3684229.0758",
    "final_y": "535901.470151",
    "longitude": "-90.05929906686211",
    "latitude": "29.967460076499936",
    "geocoded_column": {
      "latitude": "29.967460076499936",
      "longitude": "-90.05929906686211"
    }
  },
  {
    "service_request": "2025-1167220",
    "request_type": "Trash/Recycling",
    "request_reason": "Request a Large Item Pick Up",
    "date_created": "2025-02-06T15:19:40.000",
    "date_modified": "2025-02-06T15:19:42.000",
    "request_status": "Pending",
    "responsible_agency": "Department of Sanitation",
    "final_address": "6215 N Claiborne Ave",
    "address_councildis": "E",
    "status": "Assigned to Contractor",
    "contractor": "Waste Pro",
    "rowid": "1167220",
    "final_x": "3700707.84637",
    "final_y": "534926.423174",
    "longitude": "-90.00729478466258",
    "latitude": "29.96426495648887",
    "geocoded_column": {
      "latitude": "29.96426495648887",
      "longitude": "-90.00729478466258"
    }
  },
  {
    "service_request": "2025-1167219",
    "request_type": "Streetlights",
    "request_reason": "Streetlight Outage/Malfunction",
    "date_created": "2025-02-06T15:18:06.000",
    "date_modified": "2025-02-06T15:18:07.000",
    "request_status": "Pending",
    "responsible_agency": "Department of Public Works",
    "final_address": "7441 Dartmoor Dr",
    "address_councildis": "E",
    "status": "Pending",
    "contractor": "Legacy Professional Services",
    "rowid": "1167219",
    "final_x": "3704940.90884",
    "final_y": "562219.575263",
    "longitude": "-89.99291898194217",
    "latitude": "30.039175427976502",
    "geocoded_column": {
      "latitude": "30.039175427976502",
      "longitude": "-89.99291898194217"
    }
  },
  {
    "service_request": "2025-1167218",
    "request_type": "Trash/Recycling",
    "request_reason": "Request a Large Item Pick Up",
    "date_created": "2025-02-06T15:13:34.000",
    "date_modified": "2025-02-06T15:13:37.000",
    "request_status": "Pending",
    "responsible_agency": "Department of Sanitation",
    "final_address": "160 E Greenbrier Dr",
    "address_councildis": "E",
    "status": "Assigned to Contractor",
    "contractor": "Waste Pro",
    "rowid": "1167218",
    "final_x": "3717134.41298",
    "final_y": "565249.185698",
    "longitude": "-89.9542692064561",
    "latitude": "30.047107778389755",
    "geocoded_column": {
      "latitude": "30.047107778389755",
      "longitude": "-89.9542692064561"
    }
  },
  {
    "service_request": "2025-1167217",
    "request_type": "Trash/Recycling",
    "request_reason": "Repair Trash Cart",
    "date_created": "2025-02-06T15:13:24.000",
    "date_modified": "2025-02-06T15:13:25.000",
    "request_status": "Pending",
    "responsible_agency": "Department of Sanitation",
    "final_address": "4922 S Miro St",
    "address_councildis": "B",
    "status": "Assigned to Contractor",
    "contractor": "IV Waste",
    "rowid": "1167217",
    "final_x": "3669083.63719",
    "final_y": "527655.947711",
    "longitude": "-90.10740738471578",
    "latitude": "29.94524195228945",
    "geocoded_column": {
      "latitude": "29.94524195228945",
      "longitude": "-90.10740738471578"
    }
  },
  {
    "service_request": "2025-1167216",
    "request_type": "Trash/Recycling",
    "request_reason": "Return Trash Cart",
    "date_created": "2025-02-06T15:05:00.000",
    "date_modified": "2025-02-06T15:05:02.000",
    "request_status": "Pending",
    "responsible_agency": "Department of Sanitation",
    "final_address": "2812 Spain St",
    "address_councildis": "D",
    "status": "Assigned to Contractor",
    "contractor": "IV Waste",
    "rowid": "1167216",
    "final_x": "3685549.99337",
    "final_y": "543126.567565",
    "longitude": "-90.05487301470698",
    "latitude": "29.98728610751823",
    "geocoded_column": {
      "latitude": "29.98728610751823",
      "longitude": "-90.05487301470698"
    }
  },
  {
    "service_request": "2025-1167215",
    "request_type": "Trash/Recycling",
    "request_reason": "Request a Large Item Pick Up",
    "date_created": "2025-02-06T15:04:00.000",
    "date_modified": "2025-02-06T15:04:02.000",
    "request_status": "Pending",
    "responsible_agency": "Department of Sanitation",
    "final_address": "2812 Spain St",
    "address_councildis": "D",
    "status": "Assigned to Contractor",
    "contractor": "IV Waste",
    "rowid": "1167215",
    "final_x": "3685549.99337",
    "final_y": "543126.567565",
    "longitude": "-90.05487301470698",
    "latitude": "29.98728610751823",
    "geocoded_column": {
      "latitude": "29.98728610751823",
      "longitude": "-90.05487301470698"
    }
  },
  {
    "service_request": "2025-1167214",
    "request_type": "Trash/Recycling",
    "request_reason": "Repair Trash Cart",
    "date_created": "2025-02-06T14:58:15.000",
    "date_modified": "2025-02-06T14:58:18.000",
    "request_status": "Pending",
    "responsible_agency": "Department of Sanitation",
    "final_address": "1910 Pace Blvd",
    "address_councildis": "C",
    "status": "Assigned to Contractor",
    "contractor": "Richards Disposal",
    "rowid": "1167214",
    "final_x": "3694546.42749",
    "final_y": "523529.898043",
    "longitude": "-90.02716219522412",
    "latitude": "29.933123096879648",
    "geocoded_column": {
      "latitude": "29.933123096879648",
      "longitude": "-90.02716219522412"
    }
  },
  {
    "service_request": "2025-1167213",
    "request_type": "Trash/Recycling",
    "request_reason": "Repair Trash Cart",
    "date_created": "2025-02-06T14:58:01.000",
    "date_modified": "2025-02-06T14:58:05.000",
    "request_status": "Pending",
    "responsible_agency": "Department of Sanitation",
    "final_address": "1906 Pace Blvd",
    "address_councildis": "C",
    "status": "Assigned to Contractor",
    "contractor": "Richards Disposal",
    "rowid": "1167213",
    "final_x": "3694523.85808",
    "final_y": "523560.800827",
    "longitude": "-90.02723233295853",
    "latitude": "29.933208776371803",
    "geocoded_column": {
      "latitude": "29.933208776371803",
      "longitude": "-90.02723233295853"
    }
  },
  {
    "service_request": "2025-1167212",
    "request_type": "Trash/Recycling",
    "request_reason": "Repair Trash Cart",
    "date_created": "2025-02-06T14:57:07.000",
    "date_modified": "2025-02-06T14:57:08.000",
    "request_status": "Pending",
    "responsible_agency": "Department of Sanitation",
    "final_address": "1904 Pace Blvd",
    "address_councildis": "C",
    "status": "Assigned to Contractor",
    "contractor": "Richards Disposal",
    "rowid": "1167212",
    "final_x": "3694546.78627",
    "final_y": "523571.210235",
    "longitude": "-90.02715957589818",
    "latitude": "29.933236680040306",
    "geocoded_column": {
      "latitude": "29.933236680040306",
      "longitude": "-90.02715957589818"
    }
  },
  {
    "service_request": "2025-1167211",
    "request_type": "Trash/Recycling",
    "request_reason": "Repair Trash Cart",
    "date_created": "2025-02-06T14:56:50.000",
    "date_modified": "2025-02-06T14:56:54.000",
    "request_status": "Pending",
    "responsible_agency": "Department of Sanitation",
    "final_address": "1908 Pace Blvd",
    "address_councildis": "C",
    "status": "Assigned to Contractor",
    "contractor": "Richards Disposal",
    "rowid": "1167211",
    "final_x": "3694526.28861",
    "final_y": "523541.703611",
    "longitude": "-90.02722534718055",
    "latitude": "29.93315618937652",
    "geocoded_column": {
      "latitude": "29.93315618937652",
      "longitude": "-90.02722534718055"
    }
  },
  {
    "service_request": "2025-1167210",
    "request_type": "Streetlights",
    "request_reason": "New Streetlight Request",
    "date_created": "2025-02-06T14:53:51.000",
    "date_modified": "2025-02-06T14:53:52.000",
    "request_status": "Pending",
    "responsible_agency": "Department of Public Works",
    "final_address": "2401 Orleans Ave",
    "address_councildis": "D",
    "status": "Pending",
    "contractor": "Legacy Professional Services",
    "rowid": "1167210",
    "final_x": "3677875.43291",
    "final_y": "536272.206023",
    "longitude": "-90.07935118400007",
    "latitude": "29.9686721929249",
    "geocoded_column": {
      "latitude": "29.9686721929249",
      "longitude": "-90.07935118400007"
    }
  },
  {
    "service_request": "2025-1167209",
    "request_type": "Property Maintenance",
    "request_reason": "Property Maintenance",
    "date_created": "2025-02-06T14:52:30.000",
    "date_modified": "2025-02-06T15:32:18.000",
    "case_close_date": "2025-02-06T09:32:17.000",
    "request_status": "Closed",
    "responsible_agency": "Department of Code Enforcement",
    "final_address": "2514 N Galvez St",
    "address_councildis": "D",
    "status": "Referred to Code Enforcement",
    "rowid": "1167209",
    "final_x": "3687063.84079",
    "final_y": "540130.716491",
    "longitude": "-90.0501972845821",
    "latitude": "29.97900204956419",
    "geocoded_column": {
      "latitude": "29.97900204956419",
      "longitude": "-90.0501972845821"
    }
  },
  {
    "service_request": "2025-1167208",
    "request_type": "Abandoned Vehicles",
    "request_reason": "Abandoned/Junk Vehicles",
    "date_created": "2025-02-06T14:52:09.000",
    "date_modified": "2025-02-06T14:52:10.000",
    "request_status": "Pending",
    "responsible_agency": "Department of Public Works",
    "final_address": "709 Philip St",
    "address_councildis": "B",
    "status": "Pending",
    "rowid": "1167208",
    "final_x": "3679400.24962",
    "final_y": "520783.772665",
    "longitude": "-90.07507284925431",
    "latitude": "29.926038206516726",
    "geocoded_column": {
      "latitude": "29.926038206516726",
      "longitude": "-90.07507284925431"
    }
  },
  {
    "service_request": "2025-1167207",
    "request_type": "Trash/Recycling",
    "request_reason": "Request a Large Item Pick Up",
    "date_created": "2025-02-06T14:49:40.000",
    "date_modified": "2025-02-06T14:49:42.000",
    "request_status": "Pending",
    "responsible_agency": "Department of Sanitation",
    "final_address": "4421 America St",
    "address_councildis": "E",
    "status": "Assigned to Contractor",
    "contractor": "Waste Pro",
    "rowid": "1167207",
    "final_x": "3699930.04573",
    "final_y": "553297.220887",
    "longitude": "-90.00908053621995",
    "latitude": "30.014802607894083",
    "geocoded_column": {
      "latitude": "30.014802607894083",
      "longitude": "-90.00908053621995"
    }
  },
  {
    "service_request": "2025-1167206",
    "request_type": "Trash/Recycling",
    "request_reason": "Repair Trash Cart",
    "date_created": "2025-02-06T14:48:14.000",
    "date_modified": "2025-02-06T14:48:16.000",
    "request_status": "Pending",
    "responsible_agency": "Department of Sanitation",
    "final_address": "4317 America St",
    "address_councildis": "E",
    "status": "Assigned to Contractor",
    "contractor": "Waste Pro",
    "rowid": "1167206",
    "final_x": "3699984.58461",
    "final_y": "552734.440342",
    "longitude": "-90.0089287728475",
    "latitude": "30.01325344134638",
    "geocoded_column": {
      "latitude": "30.01325344134638",
      "longitude": "-90.0089287728475"
    }
  },
  {
    "service_request": "2025-1167205",
    "request_type": "Trash/Recycling",
    "request_reason": "Replace Trash Cart",
    "date_created": "2025-02-06T14:48:08.000",
    "date_modified": "2025-02-06T14:48:18.000",
    "request_status": "Pending",
    "responsible_agency": "Department of Sanitation",
    "final_address": "907 Chartres St",
    "address_councildis": "C",
    "status": "Assigned to Contractor",
    "contractor": "IV Waste",
    "rowid": "1167205",
    "final_x": "3683303.79087",
    "final_y": "532900.70138",
    "longitude": "-90.06232624667642",
    "latitude": "29.95923724968374",
    "geocoded_column": {
      "latitude": "29.95923724968374",
      "longitude": "-90.06232624667642"
    }
  },
  {
    "service_request": "2025-1167204",
    "request_type": "Trash/Recycling",
    "request_reason": "Repair Recycling Cart",
    "date_created": "2025-02-06T14:47:34.000",
    "date_modified": "2025-02-06T14:47:38.000",
    "request_status": "Pending",
    "responsible_agency": "Department of Sanitation",
    "final_address": "4600 Dale St",
    "address_councildis": "E",
    "status": "Pending",
    "rowid": "1167204",
    "final_x": "3699422.0202",
    "final_y": "554208.578328",
    "longitude": "-90.01065240336078",
    "latitude": "30.017324629339555",
    "geocoded_column": {
      "latitude": "30.017324629339555",
      "longitude": "-90.01065240336078"
    }
  },
  {
    "service_request": "2025-1167203",
    "request_type": "Trash/Recycling",
    "request_reason": "Replace Trash Cart",
    "date_created": "2025-02-06T14:44:08.000",
    "date_modified": "2025-02-06T14:44:11.000",
    "request_status": "Pending",
    "responsible_agency": "Department of Sanitation",
    "final_address": "6500 Virgilian St",
    "address_councildis": "D",
    "status": "Assigned to Contractor",
    "contractor": "Waste Pro",
    "rowid": "1167203",
    "final_x": "3697309.75568",
    "final_y": "555093.229145",
    "longitude": "-90.01729416837765",
    "latitude": "30.01982395821085",
    "geocoded_column": {
      "latitude": "30.01982395821085",
      "longitude": "-90.01729416837765"
    }
  },
  {
    "service_request": "2025-1167202",
    "request_type": "Street and Traffic Signs",
    "request_reason": "Additional Signage Request",
    "date_created": "2025-02-06T14:43:04.000",
    "date_modified": "2025-02-06T14:43:06.000",
    "request_status": "Pending",
    "responsible_agency": "Department of Public Works",
    "final_address": "7100 BLK Zimpel St",
    "address_councildis": "A",
    "status": "Pending",
    "rowid": "1167202",
    "final_x": "3664098.11501",
    "final_y": "526107.704134",
    "longitude": "-90.1231999476673",
    "latitude": "29.941130503253326",
    "geocoded_column": {
      "latitude": "29.941130503253326",
      "longitude": "-90.1231999476673"
    }
  },
  {
    "service_request": "2025-1167201",
    "request_type": "Trash/Recycling",
    "request_reason": "Request a Large Item Pick Up",
    "date_created": "2025-02-06T14:42:12.000",
    "date_modified": "2025-02-06T16:28:03.000",
    "request_status": "Pending",
    "responsible_agency": "Department of Sanitation",
    "final_address": "7145 Downman Rd",
    "address_councildis": "D",
    "status": "Assigned to Contractor",
    "contractor": "Waste Pro",
    "rowid": "1167201",
    "final_x": "3695294.48867",
    "final_y": "556839.897242",
    "longitude": "-90.02359864589498",
    "latitude": "30.024690123887616",
    "geocoded_column": {
      "latitude": "30.024690123887616",
      "longitude": "-90.02359864589498"
    }
  },
  {
    "service_request": "2025-1167200",
    "request_type": "Drainage",
    "request_reason": "Catch Basin Clogged",
    "date_created": "2025-02-06T14:40:55.000",
    "date_modified": "2025-02-06T14:40:57.000",
    "request_status": "Pending",
    "responsible_agency": "Sewerage & Water Board ",
    "final_address": "4511 Dryades St",
    "address_councildis": "B",
    "status": "Pending",
    "rowid": "1167200",
    "final_x": "3670230.14004",
    "final_y": "521937.415098",
    "longitude": "-90.1039812150858",
    "latitude": "29.92948405637512",
    "geocoded_column": {
      "latitude": "29.92948405637512",
      "longitude": "-90.1039812150858"
    }
  },
  {
    "service_request": "2025-1167199",
    "request_type": "Property Maintenance",
    "request_reason": "Property Maintenance",
    "date_created": "2025-02-06T14:37:49.000",
    "date_modified": "2025-02-06T14:47:40.000",
    "case_close_date": "2025-02-06T08:47:40.000",
    "request_status": "Closed",
    "responsible_agency": "Department of Code Enforcement",
    "final_address": "4500 Magnolia St",
    "address_councildis": "B",
    "status": "Referred to Code Enforcement",
    "rowid": "1167199",
    "final_x": "3669998.98721",
    "final_y": "524655.542332",
    "longitude": "-90.10461891188378",
    "latitude": "29.93696485016302",
    "geocoded_column": {
      "latitude": "29.93696485016302",
      "longitude": "-90.10461891188378"
    }
  },
  {
    "service_request": "2025-1167198",
    "request_type": "Streetlights",
    "request_reason": "New Streetlight Request",
    "date_created": "2025-02-06T14:37:47.000",
    "date_modified": "2025-02-06T14:37:48.000",
    "request_status": "Pending",
    "responsible_agency": "Department of Public Works",
    "final_address": "6208 S Rocheblave St",
    "address_councildis": "A",
    "status": "Pending",
    "contractor": "Legacy Professional Services",
    "rowid": "1167198",
    "final_x": "3667550.22113",
    "final_y": "528688.319808",
    "longitude": "-90.11221414310245",
    "latitude": "29.94812566251198",
    "geocoded_column": {
      "latitude": "29.94812566251198",
      "longitude": "-90.11221414310245"
    }
  },
  {
    "service_request": "2025-1167197",
    "request_type": "Trash/Recycling",
    "request_reason": "Request a Large Item Pick Up",
    "date_created": "2025-02-06T14:37:36.000",
    "date_modified": "2025-02-06T15:41:45.000",
    "request_status": "Pending",
    "responsible_agency": "Department of Sanitation",
    "final_address": "203 Fairfax Pl",
    "address_councildis": "C",
    "status": "Assigned to Contractor",
    "contractor": "Richards Disposal",
    "rowid": "1167197",
    "final_x": "3706132.38078",
    "final_y": "517360.447861",
    "longitude": "-89.9908146283407",
    "latitude": "29.91579102482397",
    "geocoded_column": {
      "latitude": "29.91579102482397",
      "longitude": "-89.9908146283407"
    }
  },
  {
    "service_request": "2025-1167196",
    "request_type": "Trash/Recycling",
    "request_reason": "Missed Trash Pick-Up",
    "date_created": "2025-02-06T14:36:55.000",
    "date_modified": "2025-02-06T14:48:37.000",
    "case_close_date": "2025-02-06T08:48:36.000",
    "request_status": "Closed",
    "responsible_agency": "Department of Sanitation",
    "final_address": "5951 Eastover Dr",
    "address_councildis": "E",
    "status": "Invalid Request",
    "contractor": "Waste Pro",
    "contractor_action": "Invalid Request",
    "rowid": "1167196",
    "final_x": "3719033.12434",
    "final_y": "564882.67645",
    "longitude": "-89.94828232873496",
    "latitude": "30.046037058225796",
    "geocoded_column": {
      "latitude": "30.046037058225796",
      "longitude": "-89.94828232873496"
    }
  },
  {
    "service_request": "2025-1167195",
    "request_type": "Abandoned Vehicles",
    "request_reason": "Vehicle Blocking Your Driveway",
    "date_created": "2025-02-06T14:36:30.000",
    "date_modified": "2025-02-06T14:37:28.000",
    "request_status": "Pending",
    "responsible_agency": "Department of Public Works",
    "final_address": "1279 Sere St",
    "address_councildis": "D",
    "status": "Pending",
    "rowid": "1167195",
    "final_x": "3677389.31816",
    "final_y": "545362.635472",
    "longitude": "-90.08057249381348",
    "latitude": "29.993682349457234",
    "geocoded_column": {
      "latitude": "29.993682349457234",
      "longitude": "-90.08057249381348"
    }
  },
  {
    "service_request": "2025-1167194",
    "request_type": "Trash/Recycling",
    "request_reason": "Request a Large Item Pick Up",
    "date_created": "2025-02-06T14:34:46.000",
    "date_modified": "2025-02-06T14:34:48.000",
    "request_status": "Pending",
    "responsible_agency": "Department of Sanitation",
    "final_address": "2124 Third St",
    "address_councildis": "B",
    "status": "Assigned to Contractor",
    "contractor": "IV Waste",
    "rowid": "1167194",
    "final_x": "3675311.03861",
    "final_y": "524524.281532",
    "longitude": "-90.08785296509178",
    "latitude": "29.936446228798825",
    "geocoded_column": {
      "latitude": "29.936446228798825",
      "longitude": "-90.08785296509178"
    }
  },
  {
    "service_request": "2025-1167193",
    "request_type": "Trash/Recycling",
    "request_reason": "Request a Large Item Pick Up",
    "date_created": "2025-02-06T14:24:21.000",
    "date_modified": "2025-02-06T14:24:23.000",
    "request_status": "Pending",
    "responsible_agency": "Department of Sanitation",
    "final_address": "4414 S Johnson St",
    "address_councildis": "B",
    "status": "Assigned to Contractor",
    "contractor": "IV Waste",
    "rowid": "1167193",
    "final_x": "3670066.93204",
    "final_y": "527164.012991",
    "longitude": "-90.10431946352622",
    "latitude": "29.943860328246693",
    "geocoded_column": {
      "latitude": "29.943860328246693",
      "longitude": "-90.10431946352622"
    }
  },
  {
    "service_request": "2025-1167192",
    "request_type": "Trash/Recycling",
    "request_reason": "Replace Trash Cart",
    "date_created": "2025-02-06T14:24:16.000",
    "date_modified": "2025-02-06T14:24:18.000",
    "request_status": "Pending",
    "responsible_agency": "Department of Sanitation",
    "final_address": "10201 Deer Park Blvd",
    "address_councildis": "E",
    "status": "Assigned to Contractor",
    "contractor": "Waste Pro",
    "rowid": "1167192",
    "final_x": "3712327.2643",
    "final_y": "560847.442398",
    "longitude": "-89.96962780958518",
    "latitude": "30.03516295839282",
    "geocoded_column": {
      "latitude": "30.03516295839282",
      "longitude": "-89.96962780958518"
    }
  },
  {
    "service_request": "2025-1167191",
    "request_type": "Trash/Recycling",
    "request_reason": "Request a Large Item Pick Up",
    "date_created": "2025-02-06T14:23:44.000",
    "date_modified": "2025-02-06T14:57:20.000",
    "case_close_date": "2025-02-06T08:57:20.000",
    "request_status": "Closed",
    "responsible_agency": "Department of Sanitation",
    "final_address": "2413 Third St",
    "address_councildis": "B",
    "status": "Invalid Request",
    "contractor": "IV Waste",
    "contractor_action": "Invalid Request",
    "rowid": "1167191",
    "final_x": "3674817.56763",
    "final_y": "525384.389693",
    "longitude": "-90.08938139444281",
    "latitude": "29.938825984653338",
    "geocoded_column": {
      "latitude": "29.938825984653338",
      "longitude": "-90.08938139444281"
    }
  },
  {
    "service_request": "2025-1167190",
    "request_type": "Trash/Recycling",
    "request_reason": "Request a Large Item Pick Up",
    "date_created": "2025-02-06T14:11:52.000",
    "date_modified": "2025-02-06T14:12:38.000",
    "request_status": "Pending",
    "responsible_agency": "Department of Sanitation",
    "final_address": "5535 Wimbledon Ct",
    "address_councildis": "C",
    "status": "Assigned to Contractor",
    "contractor": "Richards Disposal",
    "rowid": "1167190",
    "final_x": "3704553.43748",
    "final_y": "518981.781111",
    "longitude": "-89.99573860096585",
    "latitude": "29.920299905063672",
    "geocoded_column": {
      "latitude": "29.920299905063672",
      "longitude": "-89.99573860096585"
    }
  },
  {
    "service_request": "2025-1167189",
    "request_type": "Trash/Recycling",
    "request_reason": "Request a Large Item Pick Up",
    "date_created": "2025-02-06T14:08:37.000",
    "date_modified": "2025-02-06T14:08:40.000",
    "request_status": "Pending",
    "responsible_agency": "Department of Sanitation",
    "final_address": "1332 Gallier St",
    "address_councildis": "C",
    "status": "Assigned to Contractor",
    "contractor": "IV Waste",
    "rowid": "1167189",
    "final_x": "3690679.82524",
    "final_y": "536652.022215",
    "longitude": "-90.03890077612762",
    "latitude": "29.969325036365912",
    "geocoded_column": {
      "latitude": "29.969325036365912",
      "longitude": "-90.03890077612762"
    }
  },
  {
    "service_request": "2025-1167188",
    "request_type": "Trash/Recycling",
    "request_reason": "Request a Large Item Pick Up",
    "date_created": "2025-02-06T14:05:57.000",
    "date_modified": "2025-02-06T14:05:59.000",
    "request_status": "Pending",
    "responsible_agency": "Department of Sanitation",
    "final_address": "6006 Beechcraft St",
    "address_councildis": "D",
    "status": "Assigned to Contractor",
    "contractor": "Waste Pro",
    "rowid": "1167188",
    "final_x": "3696547.22211",
    "final_y": "553279.589783",
    "longitude": "-90.01976920809686",
    "latitude": "30.014861193304586",
    "geocoded_column": {
      "latitude": "30.014861193304586",
      "longitude": "-90.01976920809686"
    }
  },
  {
    "service_request": "2025-1167187",
    "request_type": "Trash/Recycling",
    "request_reason": "Request a Large Item Pick Up",
    "date_created": "2025-02-06T14:02:52.000",
    "date_modified": "2025-02-06T14:03:02.000",
    "request_status": "Pending",
    "responsible_agency": "Department of Sanitation",
    "final_address": "6125 Fleur-De-Lis Dr",
    "address_councildis": "A",
    "status": "Assigned to Contractor",
    "contractor": "IV Waste",
    "rowid": "1167187",
    "final_x": "3665282.17748",
    "final_y": "548334.496786",
    "longitude": "-90.11871776603554",
    "latitude": "30.002212361222195",
    "geocoded_column": {
      "latitude": "30.002212361222195",
      "longitude": "-90.11871776603554"
    }
  },
  {
    "service_request": "2025-1167186",
    "request_type": "Trash/Recycling",
    "request_reason": "Repair Trash Cart",
    "date_created": "2025-02-06T13:58:51.000",
    "date_modified": "2025-02-06T13:58:53.000",
    "request_status": "Pending",
    "responsible_agency": "Department of Sanitation",
    "final_address": "1313 Charbonnet St",
    "address_councildis": "E",
    "status": "Assigned to Contractor",
    "contractor": "Waste Pro",
    "rowid": "1167186",
    "final_x": "3698926.48144",
    "final_y": "534446.735045",
    "longitude": "-90.0129376093313",
    "latitude": "29.963002549527275",
    "geocoded_column": {
      "latitude": "29.963002549527275",
      "longitude": "-90.0129376093313"
    }
  },
  {
    "service_request": "2025-1167185",
    "request_type": "Trash/Recycling",
    "request_reason": "Missed Trash Pick-Up",
    "date_created": "2025-02-06T13:57:31.000",
    "date_modified": "2025-02-06T14:42:10.000",
    "case_close_date": "2025-02-06T08:42:08.000",
    "request_status": "Closed",
    "responsible_agency": "Department of Sanitation",
    "final_address": "5316 Douglass St",
    "address_councildis": "E",
    "status": "Invalid Request",
    "contractor": "Waste Pro",
    "contractor_action": "Invalid Request",
    "rowid": "1167185",
    "final_x": "3696344.98237",
    "final_y": "531838.202243",
    "longitude": "-90.02118395392957",
    "latitude": "29.955911548982716",
    "geocoded_column": {
      "latitude": "29.955911548982716",
      "longitude": "-90.02118395392957"
    }
  },
  {
    "service_request": "2025-1167184",
    "request_type": "Trash/Recycling",
    "request_reason": "Repair Trash Cart",
    "date_created": "2025-02-06T13:56:58.000",
    "date_modified": "2025-02-06T13:56:59.000",
    "request_status": "Pending",
    "responsible_agency": "Department of Sanitation",
    "final_address": "5527 Atlanta St",
    "address_councildis": "A",
    "status": "Assigned to Contractor",
    "contractor": "IV Waste",
    "rowid": "1167184",
    "final_x": "3666695.88359",
    "final_y": "520995.474617",
    "longitude": "-90.11516987001468",
    "latitude": "29.926997808687254",
    "geocoded_column": {
      "latitude": "29.926997808687254",
      "longitude": "-90.11516987001468"
    }
  },
  {
    "service_request": "2025-1167183",
    "request_type": "Trash/Recycling",
    "request_reason": "Repair Trash Cart",
    "date_created": "2025-02-06T13:48:55.000",
    "date_modified": "2025-02-06T13:48:58.000",
    "request_status": "Pending",
    "responsible_agency": "Department of Sanitation",
    "final_address": "2322 Palmer Ave",
    "address_councildis": "A",
    "status": "Assigned to Contractor",
    "contractor": "IV Waste",
    "rowid": "1167183",
    "final_x": "3666215.68852",
    "final_y": "525460.745341",
    "longitude": "-90.11653604015072",
    "latitude": "29.93928991083451",
    "geocoded_column": {
      "latitude": "29.93928991083451",
      "longitude": "-90.11653604015072"
    }
  },
  {
    "service_request": "2025-1167182",
    "request_type": "Trash/Recycling",
    "request_reason": "Repair Trash Cart",
    "date_created": "2025-02-06T13:42:38.000",
    "date_modified": "2025-02-06T13:42:40.000",
    "request_status": "Pending",
    "responsible_agency": "Department of Sanitation",
    "final_address": "1428 Carondelet St",
    "address_councildis": "B",
    "status": "Assigned to Contractor",
    "contractor": "IV Waste",
    "rowid": "1167182",
    "final_x": "3678875.3101",
    "final_y": "525807.051645",
    "longitude": "-90.07655600767788",
    "latitude": "29.9398664135188",
    "geocoded_column": {
      "latitude": "29.9398664135188",
      "longitude": "-90.07655600767788"
    }
  },
  {
    "service_request": "2025-1167181",
    "request_type": "Trash/Recycling",
    "request_reason": "Replace Trash Cart",
    "date_created": "2025-02-06T13:42:13.000",
    "date_modified": "2025-02-06T13:42:15.000",
    "request_status": "Pending",
    "responsible_agency": "Department of Sanitation",
    "final_address": "2849 General Collins Ave",
    "address_councildis": "C",
    "status": "Assigned to Contractor",
    "contractor": "Richards Disposal",
    "rowid": "1167181",
    "final_x": "3698295.0289",
    "final_y": "520667.002937",
    "longitude": "-90.01543213562965",
    "latitude": "29.925133090169385",
    "geocoded_column": {
      "latitude": "29.925133090169385",
      "longitude": "-90.01543213562965"
    }
  },
  {
    "service_request": "2025-1167180",
    "request_type": "Trash/Recycling",
    "request_reason": "Request a Large Item Pick Up",
    "date_created": "2025-02-06T13:42:02.000",
    "date_modified": "2025-02-06T13:42:04.000",
    "request_status": "Pending",
    "responsible_agency": "Department of Sanitation",
    "final_address": "836 Arabella St",
    "address_councildis": "A",
    "status": "Assigned to Contractor",
    "contractor": "IV Waste",
    "rowid": "1167180",
    "final_x": "3665849.57306",
    "final_y": "519234.951927",
    "longitude": "-90.11790041215298",
    "latitude": "29.922181638002623",
    "geocoded_column": {
      "latitude": "29.922181638002623",
      "longitude": "-90.11790041215298"
    }
  },
  {
    "service_request": "2025-1167179",
    "request_type": "Streetlights",
    "request_reason": "Streetlight Outage/Malfunction",
    "date_created": "2025-02-06T13:41:02.000",
    "date_modified": "2025-02-06T13:41:03.000",
    "request_status": "Pending",
    "responsible_agency": "Department of Public Works",
    "final_address": "10711 Harrow Rd",
    "address_councildis": "E",
    "status": "Pending",
    "contractor": "Legacy Professional Services",
    "rowid": "1167179",
    "final_x": "3711201.48766",
    "final_y": "563575.01008",
    "longitude": "-89.97308308683837",
    "latitude": "30.042699471093773",
    "geocoded_column": {
      "latitude": "30.042699471093773",
      "longitude": "-89.97308308683837"
    }
  },
  {
    "service_request": "2025-1167178",
    "request_type": "Trash/Recycling",
    "request_reason": "Replace Trash Cart",
    "date_created": "2025-02-06T13:38:33.000",
    "date_modified": "2025-02-06T13:38:35.000",
    "request_status": "Pending",
    "responsible_agency": "Department of Sanitation",
    "final_address": "5709 Chartres St Apt 102",
    "address_councildis": "E",
    "status": "Assigned to Contractor",
    "contractor": "Waste Pro",
    "rowid": "1167178",
    "final_x": "3697985.14115",
    "final_y": "531852.460931",
    "longitude": "-90.01600441403816",
    "latitude": "29.95589900897041",
    "geocoded_column": {
      "latitude": "29.95589900897041",
      "longitude": "-90.01600441403816"
    }
  },
  {
    "service_request": "2025-1167177",
    "request_type": "Abandoned Vehicles",
    "request_reason": "Abandoned/Junk Vehicles",
    "date_created": "2025-02-06T13:34:58.000",
    "date_modified": "2025-02-06T13:35:00.000",
    "request_status": "Pending",
    "responsible_agency": "Department of Public Works",
    "status": "Pending",
    "rowid": "1167177",
    "longitude": "0.0",
    "latitude": "0.0",
    "geocoded_column": {
      "latitude": "0.0",
      "longitude": "0.0"
    }
  },
  {
    "service_request": "2025-1167176",
    "request_type": "Abandoned Vehicles",
    "request_reason": "Abandoned/Junk Vehicles",
    "date_created": "2025-02-06T13:34:31.000",
    "date_modified": "2025-02-06T13:34:33.000",
    "request_status": "Pending",
    "responsible_agency": "Department of Public Works",
    "status": "Pending",
    "rowid": "1167176",
    "longitude": "0.0",
    "latitude": "0.0",
    "geocoded_column": {
      "latitude": "0.0",
      "longitude": "0.0"
    }
  },
  {
    "service_request": "2025-1167175",
    "request_type": "Abandoned Vehicles",
    "request_reason": "Abandoned/Junk Vehicles",
    "date_created": "2025-02-06T13:34:12.000",
    "date_modified": "2025-02-06T13:34:14.000",
    "request_status": "Pending",
    "responsible_agency": "Department of Public Works",
    "status": "Pending",
    "rowid": "1167175",
    "longitude": "0.0",
    "latitude": "0.0",
    "geocoded_column": {
      "latitude": "0.0",
      "longitude": "0.0"
    }
  },
  {
    "service_request": "2025-1167174",
    "request_type": "Roads and Streets",
    "request_reason": "Pothole",
    "date_created": "2025-02-06T13:25:35.000",
    "date_modified": "2025-02-06T13:25:37.000",
    "request_status": "Pending",
    "responsible_agency": "Department of Public Works",
    "final_address": "4105 Orleans Ave",
    "address_councildis": "A",
    "status": "Pending",
    "rowid": "1167174",
    "final_x": "3672696.66657",
    "final_y": "540255.549259",
    "longitude": "-90.09557016636619",
    "latitude": "29.97977985723724",
    "geocoded_column": {
      "latitude": "29.97977985723724",
      "longitude": "-90.09557016636619"
    }
  },
  {
    "service_request": "2025-1167173",
    "request_type": "Health Related Request",
    "request_reason": "Homeless Encampment Complaint",
    "date_created": "2025-02-06T13:19:27.000",
    "date_modified": "2025-02-06T13:49:04.000",
    "request_status": "Pending",
    "responsible_agency": "Health Department",
    "final_address": "900 Jefferson Ave",
    "address_councildis": "A",
    "status": "Pending",
    "rowid": "1167173",
    "final_x": "3666723.60954",
    "final_y": "518810.378807",
    "longitude": "-90.11515567854786",
    "latitude": "29.92098867364364",
    "geocoded_column": {
      "latitude": "29.92098867364364",
      "longitude": "-90.11515567854786"
    }
  },
  {
    "service_request": "2025-1167172",
    "request_type": "Trash/Recycling",
    "request_reason": "MIssed Recycling Pick-Up",
    "date_created": "2025-02-06T13:11:03.000",
    "date_modified": "2025-02-06T14:40:47.000",
    "case_close_date": "2025-02-06T08:40:47.000",
    "request_status": "Closed",
    "responsible_agency": "Department of Sanitation",
    "final_address": "1000 BLK Dante St",
    "address_councildis": "A",
    "status": "Invalid Request",
    "contractor": "IV Waste",
    "contractor_action": "Invalid Request",
    "rowid": "1167172",
    "final_x": "3661069.4731",
    "final_y": "528472.29094",
    "longitude": "-90.13268375752205",
    "latitude": "29.94771996739963",
    "geocoded_column": {
      "latitude": "29.94771996739963",
      "longitude": "-90.13268375752205"
    }
  },
  {
    "service_request": "2025-1167171",
    "request_type": "Streetlights",
    "request_reason": "Streetlight Outage/Malfunction",
    "date_created": "2025-02-06T13:09:30.000",
    "date_modified": "2025-02-06T13:40:54.000",
    "case_close_date": "2025-02-06T07:40:54.000",
    "request_status": "Closed",
    "responsible_agency": "Department of Public Works",
    "final_address": "ALABO ST & N ROCHEBLAVE ST",
    "address_councildis": "E",
    "status": "Duplicate Request",
    "contractor": "Legacy Professional Services",
    "rowid": "1167171",
    "final_x": "3700218.5",
    "final_y": "538409.78",
    "longitude": "-90.00871292570996",
    "latitude": "29.973858494645775",
    "geocoded_column": {
      "latitude": "29.973858494645775",
      "longitude": "-90.00871292570996"
    }
  },
  {
    "service_request": "2025-1167170",
    "request_type": "Trash/Recycling",
    "request_reason": "Illegal Dumping",
    "date_created": "2025-02-06T13:08:24.000",
    "date_modified": "2025-02-06T13:08:25.000",
    "request_status": "Pending",
    "responsible_agency": "Department of Sanitation",
    "final_address": "ALABO ST & N ROCHEBLAVE ST",
    "address_councildis": "E",
    "status": "Pending",
    "rowid": "1167170",
    "final_x": "3700218.5",
    "final_y": "538409.78",
    "longitude": "-90.00871292570996",
    "latitude": "29.973858494645775",
    "geocoded_column": {
      "latitude": "29.973858494645775",
      "longitude": "-90.00871292570996"
    }
  },
  {
    "service_request": "2025-1167169",
    "request_type": "Abandoned Vehicles",
    "request_reason": "Abandoned/Junk Vehicles",
    "date_created": "2025-02-06T13:07:31.000",
    "date_modified": "2025-02-06T13:07:31.000",
    "request_status": "Pending",
    "responsible_agency": "Department of Public Works",
    "final_address": "7905 Oleander St",
    "address_councildis": "B",
    "status": "Pending",
    "rowid": "1167169",
    "final_x": "3667322.46785",
    "final_y": "533201.033348",
    "longitude": "-90.11278148015303",
    "latitude": "29.960540821058732",
    "geocoded_column": {
      "latitude": "29.960540821058732",
      "longitude": "-90.11278148015303"
    }
  },
  {
    "service_request": "2025-1167168",
    "request_type": "Abandoned Vehicles",
    "request_reason": "Abandoned/Junk Vehicles",
    "date_created": "2025-02-06T13:06:21.000",
    "date_modified": "2025-02-06T13:06:23.000",
    "request_status": "Pending",
    "responsible_agency": "Department of Public Works",
    "final_address": "7923 Oleander St",
    "address_councildis": "B",
    "status": "Pending",
    "rowid": "1167168",
    "final_x": "3667233.72129",
    "final_y": "533284.722884",
    "longitude": "-90.11305891057518",
    "latitude": "29.960773538762602",
    "geocoded_column": {
      "latitude": "29.960773538762602",
      "longitude": "-90.11305891057518"
    }
  },
  {
    "service_request": "2025-1167167",
    "request_type": "Roads and Streets",
    "request_reason": "Abandoned Service Cut",
    "date_created": "2025-02-06T13:04:47.000",
    "date_modified": "2025-02-06T13:06:20.000",
    "request_status": "Pending",
    "responsible_agency": "Department of Public Works",
    "final_address": "8201 Curran Rd",
    "address_councildis": "E",
    "status": "Pending",
    "rowid": "1167167",
    "final_x": "3702733.41898",
    "final_y": "561981.162015",
    "longitude": "-89.99990400658685",
    "latitude": "30.038590704883664",
    "geocoded_column": {
      "latitude": "30.038590704883664",
      "longitude": "-89.99990400658685"
    }
  },
  {
    "service_request": "2025-1167166",
    "request_type": "Roads and Streets",
    "request_reason": "Pothole",
    "date_created": "2025-02-06T13:04:19.000",
    "date_modified": "2025-02-06T13:05:35.000",
    "request_status": "Pending",
    "responsible_agency": "Department of Public Works",
    "final_address": "7701 Mayo Rd",
    "address_councildis": "E",
    "status": "Pending",
    "rowid": "1167166",
    "final_x": "3700804.24509",
    "final_y": "561060.28867",
    "longitude": "-90.00603438925937",
    "latitude": "30.03612025020994",
    "geocoded_column": {
      "latitude": "30.03612025020994",
      "longitude": "-90.00603438925937"
    }
  },
  {
    "service_request": "2025-1167165",
    "request_type": "Trash/Recycling",
    "request_reason": "Request a Large Item Pick Up",
    "date_created": "2025-02-06T12:45:47.000",
    "date_modified": "2025-02-06T12:45:49.000",
    "request_status": "Pending",
    "responsible_agency": "Department of Sanitation",
    "final_address": "1616 N Broad St",
    "address_councildis": "D",
    "status": "Assigned to Contractor",
    "contractor": "IV Waste",
    "rowid": "1167165",
    "final_x": "3679260.73992",
    "final_y": "540229.377291",
    "longitude": "-90.07483904962848",
    "latitude": "29.979511291867027",
    "geocoded_column": {
      "latitude": "29.979511291867027",
      "longitude": "-90.07483904962848"
    }
  },
  {
    "service_request": "2025-1167164",
    "request_type": "Trash/Recycling",
    "request_reason": "Illegal Dumping",
    "date_created": "2025-02-06T12:40:36.000",
    "date_modified": "2025-02-06T12:40:38.000",
    "request_status": "Pending",
    "responsible_agency": "Department of Sanitation",
    "final_address": "7 Mars Pl",
    "address_councildis": "B",
    "status": "Pending",
    "rowid": "1167164",
    "final_x": "3667397.94996",
    "final_y": "533296.57818",
    "longitude": "-90.11253990746481",
    "latitude": "29.9608013268185",
    "geocoded_column": {
      "latitude": "29.9608013268185",
      "longitude": "-90.11253990746481"
    }
  },
  {
    "service_request": "2025-1167163",
    "request_type": "Drainage",
    "request_reason": "Catch Basin Clogged",
    "date_created": "2025-02-06T12:39:34.000",
    "date_modified": "2025-02-06T12:41:04.000",
    "request_status": "Pending",
    "responsible_agency": "Sewerage & Water Board ",
    "final_address": "8000 Branch Dr",
    "address_councildis": "E",
    "status": "Pending",
    "rowid": "1167163",
    "final_x": "3713938.18667",
    "final_y": "569702.26007",
    "longitude": "-89.96420273360671",
    "latitude": "30.059457296329548",
    "geocoded_column": {
      "latitude": "30.059457296329548",
      "longitude": "-89.96420273360671"
    }
  },
  {
    "service_request": "2025-1167162",
    "request_type": "Property Maintenance",
    "request_reason": "Property Maintenance",
    "date_created": "2025-02-06T12:33:46.000",
    "date_modified": "2025-02-06T13:55:51.000",
    "case_close_date": "2025-02-06T07:55:49.000",
    "request_status": "Closed",
    "responsible_agency": "Department of Code Enforcement",
    "final_address": "1614 Painters St",
    "address_councildis": "D",
    "status": "Referred to Code Enforcement",
    "rowid": "1167162",
    "final_x": "3687362.49878",
    "final_y": "538498.587209",
    "longitude": "-90.04931177569073",
    "latitude": "29.974505069728085",
    "geocoded_column": {
      "latitude": "29.974505069728085",
      "longitude": "-90.04931177569073"
    }
  },
  {
    "service_request": "2025-1167161",
    "request_type": "Trash/Recycling",
    "request_reason": "Request a Large Item Pick Up",
    "date_created": "2025-02-06T12:32:52.000",
    "date_modified": "2025-02-06T12:32:56.000",
    "request_status": "Pending",
    "responsible_agency": "Department of Sanitation",
    "final_address": "1549 N Galvez St",
    "address_councildis": "D",
    "status": "Assigned to Contractor",
    "contractor": "IV Waste",
    "rowid": "1167161",
    "final_x": "3680572.48111",
    "final_y": "538644.526857",
    "longitude": "-90.07075120374877",
    "latitude": "29.975113823280072",
    "geocoded_column": {
      "latitude": "29.975113823280072",
      "longitude": "-90.07075120374877"
    }
  },
  {
    "service_request": "2025-1167160",
    "request_type": "Trash/Recycling",
    "request_reason": "Request a Large Item Pick Up",
    "date_created": "2025-02-06T12:29:53.000",
    "date_modified": "2025-02-06T12:29:56.000",
    "request_status": "Pending",
    "responsible_agency": "Department of Sanitation",
    "final_address": "4921 Tynecastle Dr",
    "address_councildis": "E",
    "status": "Assigned to Contractor",
    "contractor": "Waste Pro",
    "rowid": "1167160",
    "final_x": "3718504.54271",
    "final_y": "557997.723035",
    "longitude": "-89.95021555227486",
    "latitude": "30.02712378493039",
    "geocoded_column": {
      "latitude": "30.02712378493039",
      "longitude": "-89.95021555227486"
    }
  },
  {
    "service_request": "2025-1167159",
    "request_type": "General Services",
    "request_reason": "General Service Request",
    "date_created": "2025-02-06T12:18:40.000",
    "date_modified": "2025-02-06T13:50:06.000",
    "case_close_date": "2025-02-06T07:50:05.000",
    "request_status": "Closed",
    "responsible_agency": "Orleans Parish Communication District",
    "final_address": "2717 S Rocheblave St, New Orleans, Louisiana, 70125",
    "address_councildis": "B",
    "status": "Duplicate Request",
    "rowid": "1167159",
    "final_x": "3671796.74107",
    "final_y": "529059.697536",
    "longitude": "-90.09879348909057",
    "latitude": "29.949021709759673",
    "geocoded_column": {
      "latitude": "29.949021709759673",
      "longitude": "-90.09879348909057"
    }
  },
  {
    "service_request": "2025-1167158",
    "request_type": "Trash/Recycling",
    "request_reason": "Illegal Dumping",
    "date_created": "2025-02-06T12:17:38.000",
    "date_modified": "2025-02-06T12:18:52.000",
    "request_status": "Pending",
    "responsible_agency": "Department of Sanitation",
    "final_address": "2717 S Rocheblave St, New Orleans, Louisiana, 70125",
    "address_councildis": "B",
    "rowid": "1167158",
    "final_x": "3671796.74107",
    "final_y": "529059.697536",
    "longitude": "-90.09879348909057",
    "latitude": "29.949021709759673",
    "geocoded_column": {
      "latitude": "29.949021709759673",
      "longitude": "-90.09879348909057"
    }
  },
  {
    "service_request": "2025-1167157",
    "request_type": "Property Maintenance",
    "request_reason": "Property Maintenance",
    "date_created": "2025-02-06T12:15:57.000",
    "date_modified": "2025-02-06T13:47:12.000",
    "case_close_date": "2025-02-06T07:47:11.000",
    "request_status": "Closed",
    "responsible_agency": "Department of Code Enforcement",
    "final_address": "6594 Bellaire Dr",
    "address_councildis": "A",
    "status": "Referred to Code Enforcement",
    "rowid": "1167157",
    "final_x": "3664480.90983",
    "final_y": "551949.45743",
    "longitude": "-90.12112826140735",
    "latitude": "30.012175582048837",
    "geocoded_column": {
      "latitude": "30.012175582048837",
      "longitude": "-90.12112826140735"
    }
  },
  {
    "service_request": "2025-1167156",
    "request_type": "Trash/Recycling",
    "request_reason": "Request a Large Item Pick Up",
    "date_created": "2025-02-06T12:13:17.000",
    "date_modified": "2025-02-06T12:13:19.000",
    "request_status": "Pending",
    "responsible_agency": "Department of Sanitation",
    "final_address": "2013 Elysian Fields Ave",
    "address_councildis": "D",
    "status": "Assigned to Contractor",
    "contractor": "IV Waste",
    "rowid": "1167156",
    "final_x": "3684842.33724",
    "final_y": "539759.766986",
    "longitude": "-90.0572266814117",
    "latitude": "29.97805028429573",
    "geocoded_column": {
      "latitude": "29.97805028429573",
      "longitude": "-90.0572266814117"
    }
  },
  {
    "service_request": "2025-1167155",
    "request_type": "Property Maintenance",
    "request_reason": "Property Maintenance",
    "date_created": "2025-02-06T12:10:00.000",
    "date_modified": "2025-02-06T13:39:07.000",
    "case_close_date": "2025-02-06T07:39:06.000",
    "request_status": "Closed",
    "responsible_agency": "Department of Code Enforcement",
    "final_address": "3062 Boyd St",
    "address_councildis": "C",
    "status": "Referred to Code Enforcement",
    "rowid": "1167155",
    "final_x": "3708141.41464",
    "final_y": "519209.106807",
    "longitude": "-89.98440471070415",
    "latitude": "29.920809316181895",
    "geocoded_column": {
      "latitude": "29.920809316181895",
      "longitude": "-89.98440471070415"
    }
  },
  {
    "service_request": "2025-1167154",
    "request_type": "Trash/Recycling",
    "request_reason": "Repair Recycling Cart",
    "date_created": "2025-02-06T12:09:08.000",
    "date_modified": "2025-02-06T12:09:10.000",
    "request_status": "Pending",
    "responsible_agency": "Department of Sanitation",
    "final_address": "569 Joseph St",
    "address_councildis": "A",
    "status": "Pending",
    "rowid": "1167154",
    "final_x": "3666046.70016",
    "final_y": "518404.071478",
    "longitude": "-90.11730599505982",
    "latitude": "29.919891226377402",
    "geocoded_column": {
      "latitude": "29.919891226377402",
      "longitude": "-90.11730599505982"
    }
  },
  {
    "service_request": "2025-1167153",
    "request_type": "Drainage",
    "request_reason": "Street Flooding",
    "date_created": "2025-02-06T12:08:34.000",
    "date_modified": "2025-02-06T12:08:39.000",
    "request_status": "Pending",
    "responsible_agency": "Sewerage & Water Board ",
    "final_address": "331 Fairway Dr",
    "address_councildis": "A",
    "status": "Pending",
    "rowid": "1167153",
    "final_x": "3664313.95719",
    "final_y": "541862.683532",
    "longitude": "-90.12199264231886",
    "latitude": "29.984445260994764",
    "geocoded_column": {
      "latitude": "29.984445260994764",
      "longitude": "-90.12199264231886"
    }
  },
  {
    "service_request": "2025-1167152",
    "request_type": "Drainage",
    "request_reason": "Street Flooding",
    "date_created": "2025-02-06T12:07:00.000",
    "date_modified": "2025-02-06T12:07:02.000",
    "request_status": "Pending",
    "responsible_agency": "Sewerage & Water Board ",
    "final_address": "331 Fairway Dr",
    "address_councildis": "A",
    "status": "Pending",
    "rowid": "1167152",
    "final_x": "3664313.95719",
    "final_y": "541862.683532",
    "longitude": "-90.12199264231886",
    "latitude": "29.984445260994764",
    "geocoded_column": {
      "latitude": "29.984445260994764",
      "longitude": "-90.12199264231886"
    }
  },
  {
    "service_request": "2025-1167151",
    "request_type": "Trash/Recycling",
    "request_reason": "Request a Large Item Pick Up",
    "date_created": "2025-02-06T12:05:48.000",
    "date_modified": "2025-02-06T12:05:51.000",
    "request_status": "Pending",
    "responsible_agency": "Department of Sanitation",
    "final_address": "4551 Hauck Dr",
    "address_councildis": "E",
    "status": "Assigned to Contractor",
    "contractor": "Waste Pro",
    "rowid": "1167151",
    "final_x": "3714717.11301",
    "final_y": "555877.552153",
    "longitude": "-89.96226351098198",
    "latitude": "30.0214193167204",
    "geocoded_column": {
      "latitude": "30.0214193167204",
      "longitude": "-89.96226351098198"
    }
  },
  {
    "service_request": "2025-1167150",
    "request_type": "Trash/Recycling",
    "request_reason": "Order Trash Cart",
    "date_created": "2025-02-06T12:04:35.000",
    "date_modified": "2025-02-06T12:04:38.000",
    "request_status": "Pending",
    "responsible_agency": "Department of Sanitation",
    "final_address": "1726 Soniat St",
    "address_councildis": "B",
    "status": "Assigned to Contractor",
    "contractor": "IV Waste",
    "rowid": "1167150",
    "final_x": "3668412.47828",
    "final_y": "522053.142266",
    "longitude": "-90.10971535797277",
    "latitude": "29.92985576650478",
    "geocoded_column": {
      "latitude": "29.92985576650478",
      "longitude": "-90.10971535797277"
    }
  },