[
  {
    "service_request": "2021-848970",
    "request_type": "Trash/Recycling",
    "request_reason": "Request a Large Item Pick Up",
    "date_created": "2021-12-17T22:46:51.000",
    "date_modified": "2021-12-17T22:46:51.000",
    "request_status": "Pending",
    "responsible_agency": "Department of Sanitation",
    "final_address": "2929 Seine St",
    "address_councildis": "C",
    "status": "Assigned to Contractor",
    "contractor": "Richards Disposal",
    "rowid": "848970",
    "final_x": "3694043.99453",
    "final_y": "520585.804344",
    "longitude": "-90.0288541453706",
    "latitude": "29.925043578697295",
    "geocoded_column": {
      "latitude": "29.925043578697295",
      "longitude": "-90.0288541453706"
    }
  },
  {
    "service_request": "2021-848969",
    "request_type": "Trash/Recycling",
    "request_reason": "Request a Large Item Pick Up",
    "date_created": "2021-12-17T22:16:12.000",
    "date_modified": "2021-12-17T23:00:27.000",
    "request_status": "Pending",
    "responsible_agency": "Department of Sanitation",
    "final_address": "1776 Sere St",
    "address_councildis": "D",
    "status": "Assigned to Contractor",
    "contractor": "Metro Disposal",
    "rowid": "848969",
    "final_x": "3681039.74824",
    "final_y": "545578.20648",
    "longitude": "-90.06903383059742",
    "latitude": "29.994164848320324",
    "geocoded_column": {
      "latitude": "29.994164848320324",
      "longitude": "-90.06903383059742"
    }
  },
  {
    "service_request": "2021-848968",
    "request_type": "Traffic Signals/Signs/Striping/Streetlights",
    "request_reason": "Street Light Outage/Malfunction",
    "date_created": "2021-12-17T21:49:51.000",
    "date_modified": "2021-12-17T21:49:52.000",
    "request_status": "Pending",
    "responsible_agency": "Department of Public Works",
    "final_address": "1020 N Broad St",
    "address_councildis": "D",
    "status": "Pending",
    "contractor": "Royal Engineering",
    "rowid": "848968",
    "final_x": "3677597.16226",
    "final_y": "537922.568393",
    "longitude": "-90.08017297804723",
    "latitude": "29.973218495946025",
    "geocoded_column": {
      "latitude": "29.973218495946025",
      "longitude": "-90.08017297804723"
    }
  },
  {
    "service_request": "2021-848967",
    "request_type": "Traffic Signals/Signs/Striping/Streetlights",
    "request_reason": "Street Light Outage/Malfunction",
    "date_created": "2021-12-17T21:46:56.000",
    "date_modified": "2021-12-17T21:46:57.000",
    "request_status": "Pending",
    "responsible_agency": "Department of Public Works",
    "final_address": "1020 N Broad St",
    "address_councildis": "D",
    "status": "Pending",
    "contractor": "Royal Engineering",
    "rowid": "848967",
    "final_x": "3677597.16226",
    "final_y": "537922.568393",
    "longitude": "-90.08017297804723",
    "latitude": "29.973218495946025",
    "geocoded_column": {
      "latitude": "29.973218495946025",
      "longitude": "-90.08017297804723"
    }
  },
  {
    "service_request": "2021-848966",
    "request_type": "Traffic Signals/Signs/Striping/Streetlights",
    "request_reason": "Street Light Outage/Malfunction",
    "date_created": "2021-12-17T21:44:51.000",
    "date_modified": "2021-12-17T21:44:51.000",
    "request_status": "Pending",
    "responsible_agency": "Department of Public Works",
    "final_address": "1018 N Broad St",
    "address_councildis": "D",
    "status": "Pending",
    "contractor": "Royal Engineering",
    "rowid": "848966",
    "final_x": "3677584.14267",
    "final_y": "537913.020361",
    "longitude": "-90.08021442632464",
    "latitude": "29.973192633647933",
    "geocoded_column": {
      "latitude": "29.973192633647933",
      "longitude": "-90.08021442632464"
    }
  },
  {
    "service_request": "2021-848965",
    "request_type": "Traffic Signals/Signs/Striping/Streetlights",
    "request_reason": "Street Light Outage/Malfunction",
    "date_created": "2021-12-17T21:30:53.000",
    "date_modified": "2021-12-17T21:30:54.000",
    "request_status": "Pending",
    "responsible_agency": "Department of Public Works",
    "final_address": "1250 Poydras St",
    "address_councildis": "B",
    "status": "Pending",
    "contractor": "Royal Engineering",
    "rowid": "848965",
    "final_x": "3678742.78946",
    "final_y": "529780.303233",
    "longitude": "-90.07683683921958",
    "latitude": "29.950795528552497",
    "geocoded_column": {
      "latitude": "29.950795528552497",
      "longitude": "-90.07683683921958"
    }
  },
  {
    "service_request": "2021-848963",
    "request_type": "Traffic Signals/Signs/Striping/Streetlights",
    "request_reason": "Street Light Outage/Malfunction",
    "date_created": "2021-12-17T21:22:56.000",
    "date_modified": "2021-12-17T21:22:56.000",
    "request_status": "Pending",
    "responsible_agency": "Department of Public Works",
    "final_address": "1250 Poydras St Ste 2100",
    "address_councildis": "B",
    "status": "Pending",
    "contractor": "Royal Engineering",
    "rowid": "848963",
    "final_x": "3678739.57787",
    "final_y": "529765.480577",
    "longitude": "-90.07684749300586",
    "latitude": "29.950754868049437",
    "geocoded_column": {
      "latitude": "29.950754868049437",
      "longitude": "-90.07684749300586"
    }
  },
  {
    "service_request": "2021-848962",
    "request_type": "Roads/Drainage",
    "request_reason": "Debris in Roadway",
    "date_created": "2021-12-17T21:17:59.000",
    "date_modified": "2021-12-17T21:17:59.000",
    "request_status": "Pending",
    "responsible_agency": "Department of Public Works",
    "final_address": "3045 Royal St",
    "address_councildis": "C",
    "status": "Pending",
    "rowid": "848962",
    "final_x": "3688413.68822",
    "final_y": "534585.515973",
    "longitude": "-90.046130705577",
    "latitude": "29.963713062648118",
    "geocoded_column": {
      "latitude": "29.963713062648118",
      "longitude": "-90.046130705577"
    }
  },
  {
    "service_request": "2021-848961",
    "request_type": "Abandoned Vehicles",
    "request_reason": "Abandoned/Junk Vehicles",
    "date_created": "2021-12-17T21:07:50.000",
    "date_modified": "2021-12-17T21:07:50.000",
    "request_status": "Pending",
    "responsible_agency": "Department of Public Works",
    "final_address": "4114 Prytania St",
    "address_councildis": "B",
    "status": "Pending",
    "rowid": "848961",
    "final_x": "3671880.13083",
    "final_y": "520367.562104",
    "longitude": "-90.09882587677305",
    "latitude": "29.92511868489121",
    "geocoded_column": {
      "latitude": "29.92511868489121",
      "longitude": "-90.09882587677305"
    }
  },
  {
    "service_request": "2021-848959",
    "request_type": "Traffic Signals/Signs/Striping/Streetlights",
    "request_reason": "Street Light Outage/Malfunction",
    "date_created": "2021-12-17T18:58:20.000",
    "date_modified": "2021-12-17T18:58:21.000",
    "request_status": "Pending",
    "responsible_agency": "Department of Public Works",
    "final_address": "4841 St Bernard Ave",
    "address_councildis": "D",
    "status": "Pending",
    "contractor": "Royal Engineering",
    "rowid": "848959",
    "final_x": "3676815.21294",
    "final_y": "550048.715412",
    "longitude": "-90.08222438119026",
    "latitude": "30.006584660859755",
    "geocoded_column": {
      "latitude": "30.006584660859755",
      "longitude": "-90.08222438119026"
    }
  },
  {
    "service_request": "2021-848958",
    "request_type": "Traffic Signals/Signs/Striping/Streetlights",
    "request_reason": "Street Light Outage/Malfunction",
    "date_created": "2021-12-17T18:49:59.000",
    "date_modified": "2021-12-17T18:50:00.000",
    "request_status": "Pending",
    "responsible_agency": "Department of Public Works",
    "final_address": "5328 St Anthony Ave",
    "address_councildis": "D",
    "status": "Pending",
    "contractor": "Royal Engineering",
    "rowid": "848958",
    "final_x": "3682085.85154",
    "final_y": "552869.315095",
    "longitude": "-90.06547449354196",
    "latitude": "30.01418099850067",
    "geocoded_column": {
      "latitude": "30.01418099850067",
      "longitude": "-90.06547449354196"
    }
  },
  {
    "service_request": "2021-848957",
    "request_type": "Traffic Signals/Signs/Striping/Streetlights",
    "request_reason": "Street Light Outage/Malfunction",
    "date_created": "2021-12-17T18:49:12.000",
    "date_modified": "2021-12-17T19:00:28.000",
    "request_status": "Pending",
    "responsible_agency": "Department of Public Works",
    "final_address": "3835 Ford St",
    "address_councildis": "D",
    "status": "Pending",
    "contractor": "Royal Engineering",
    "rowid": "848957",
    "final_x": "3688940.19606",
    "final_y": "547492.304018",
    "longitude": "-90.04400943048998",
    "latitude": "29.999185865906",
    "geocoded_column": {
      "latitude": "29.999185865906",
      "longitude": "-90.04400943048998"
    }
  },
  {
    "service_request": "2021-848956",
    "request_type": "Traffic Signals/Signs/Striping/Streetlights",
    "request_reason": "Street Light Outage/Malfunction",
    "date_created": "2021-12-17T18:47:06.000",
    "date_modified": "2021-12-17T18:47:06.000",
    "request_status": "Pending",
    "responsible_agency": "Department of Public Works",
    "final_address": "5157 St Anthony Ave",
    "address_councildis": "D",
    "status": "Pending",
    "contractor": "Royal Engineering",
    "rowid": "848956",
    "final_x": "3682334.32623",
    "final_y": "551808.822422",
    "longitude": "-90.06472653515327",
    "latitude": "30.01125746666359",
    "geocoded_column": {
      "latitude": "30.01125746666359",
      "longitude": "-90.06472653515327"
    }
  },
  {
    "service_request": "2021-848954",
    "request_type": "Traffic Signals/Signs/Striping/Streetlights",
    "request_reason": "Street Light Outage/Malfunction",
    "date_created": "2021-12-17T17:56:44.000",
    "date_modified": "2021-12-17T18:00:24.000",
    "request_status": "Pending",
    "responsible_agency": "Department of Public Works",
    "final_address": "2411 Elysian Fields Ave",
    "address_councildis": "D",
    "status": "Pending",
    "contractor": "Royal Engineering",
    "rowid": "848954",
    "final_x": "3684742.60073",
    "final_y": "541439.410892",
    "longitude": "-90.05748261589386",
    "latitude": "29.98267176828205",
    "geocoded_column": {
      "latitude": "29.98267176828205",
      "longitude": "-90.05748261589386"
    }
  },
  {
    "service_request": "2021-848953",
    "request_type": "Traffic Signals/Signs/Striping/Streetlights",
    "request_reason": "Street Light Outage/Malfunction",
    "date_created": "2021-12-17T17:51:33.000",
    "date_modified": "2021-12-17T21:57:14.000",
    "request_status": "Pending",
    "responsible_agency": "Department of Public Works",
    "final_address": "1601 Kabel Dr, New Orleans, Louisiana, 70131",
    "address_councildis": "C",
    "status": "Pending",
    "contractor": "Royal Engineering",
    "rowid": "848953",
    "final_x": "3700647.24125",
    "final_y": "522004.784442",
    "longitude": "-90.00795815857933",
    "latitude": "29.928736928234436",
    "geocoded_column": {
      "latitude": "29.928736928234436",
      "longitude": "-90.00795815857933"
    }
  },
  {
    "service_request": "2021-848952",
    "request_type": "Traffic Signals/Signs/Striping/Streetlights",
    "request_reason": "Street Light Outage/Malfunction",
    "date_created": "2021-12-17T17:51:04.000",
    "date_modified": "2021-12-17T17:51:04.000",
    "request_status": "Pending",
    "responsible_agency": "Department of Public Works",
    "final_address": "2800 BLK Law St",
    "address_councildis": "D",
    "status": "Pending",
    "contractor": "Royal Engineering",
    "rowid": "848952",
    "final_x": "3688013.51337",
    "final_y": "542102.929033",
    "longitude": "-90.0471279416716",
    "latitude": "29.984395658400917",
    "geocoded_column": {
      "latitude": "29.984395658400917",
      "longitude": "-90.0471279416716"
    }
  },
  {
    "service_request": "2021-848950",
    "request_type": "Traffic Signals/Signs/Striping/Streetlights",
    "request_reason": "Street Light Outage/Malfunction",
    "date_created": "2021-12-17T17:50:42.000",
    "date_modified": "2021-12-17T17:50:43.000",
    "request_status": "Pending",
    "responsible_agency": "Department of Public Works",
    "final_address": "2800 BLK Law St",
    "address_councildis": "D",
    "status": "Pending",
    "contractor": "Royal Engineering",
    "rowid": "848950",
    "final_x": "3688013.51337",
    "final_y": "542102.929033",
    "longitude": "-90.0471279416716",
    "latitude": "29.984395658400917",
    "geocoded_column": {
      "latitude": "29.984395658400917",
      "longitude": "-90.0471279416716"
    }
  },
  {
    "service_request": "2021-848947",
    "request_type": "Trash/Recycling",
    "request_reason": "Order Recycling Cart",
    "date_created": "2021-12-17T17:31:27.000",
    "date_modified": "2021-12-17T17:31:27.000",
    "request_status": "Pending",
    "responsible_agency": "Department of Sanitation",
    "final_address": "1228 Music St",
    "address_councildis": "C",
    "status": "Pending",
    "rowid": "848947",
    "final_x": "3686753.29385",
    "final_y": "537058.968584",
    "longitude": "-90.05128665877064",
    "latitude": "29.97056537963878",
    "geocoded_column": {
      "latitude": "29.97056537963878",
      "longitude": "-90.05128665877064"
    }
  },
  {
    "service_request": "2021-848946",
    "request_type": "Traffic Signals/Signs/Striping/Streetlights",
    "request_reason": "Striping/Road Surface Markings",
    "date_created": "2021-12-17T17:18:48.000",
    "date_modified": "2021-12-17T18:00:29.000",
    "request_status": "Pending",
    "responsible_agency": "Department of Public Works",
    "final_address": "2300 St Claude Ave",
    "address_councildis": "C",
    "status": "Pending",
    "rowid": "848946",
    "final_x": "3685972.92796",
    "final_y": "536198.830855",
    "longitude": "-90.05378147430721",
    "latitude": "29.96822428536932",
    "geocoded_column": {
      "latitude": "29.96822428536932",
      "longitude": "-90.05378147430721"
    }
  },
  {
    "service_request": "2021-848945",
    "request_type": "COVID-19",
    "request_reason": "COVID-19 Business Non-Compliance",
    "date_created": "2021-12-17T17:12:10.000",
    "date_modified": "2021-12-17T18:00:31.000",
    "request_status": "Pending",
    "responsible_agency": "Safety and Permits",
    "final_address": "801 Roosevelt Pl",
    "address_councildis": "A",
    "status": "Pending",
    "rowid": "848945",
    "final_x": "3673495.3499",
    "final_y": "539668.52929",
    "longitude": "-90.09306766220448",
    "latitude": "29.978142005898846",
    "geocoded_column": {
      "latitude": "29.978142005898846",
      "longitude": "-90.09306766220448"
    }
  },
  {
    "service_request": "2021-848944",
    "request_type": "EMS",
    "request_reason": "EMS Lost & Found",
    "date_created": "2021-12-17T17:09:41.000",
    "date_modified": "2021-12-17T18:00:34.000",
    "request_status": "Pending",
    "responsible_agency": "Emergency Medical Services",
    "final_address": "4626 Gabriel Dr",
    "address_councildis": "E",
    "status": "Pending",
    "rowid": "848944",
    "final_x": "3708890.73316",
    "final_y": "554967.887832",
    "longitude": "-89.98070704012913",
    "latitude": "30.01910850087669",
    "geocoded_column": {
      "latitude": "30.01910850087669",
      "longitude": "-89.98070704012913"
    }
  },
  {
    "service_request": "2021-848943",
    "request_type": "COVID-19",
    "request_reason": "COVID-19 Business Non-Compliance",
    "date_created": "2021-12-17T17:08:02.000",
    "date_modified": "2021-12-17T18:00:37.000",
    "request_status": "Pending",
    "responsible_agency": "Safety and Permits",
    "final_address": "1131 Tchoupitoulas St",
    "address_councildis": "B",
    "status": "Pending",
    "rowid": "848943",
    "final_x": "3681857.8948",
    "final_y": "525809.741117",
    "longitude": "-90.06713946769803",
    "latitude": "29.939783520421557",
    "geocoded_column": {
      "latitude": "29.939783520421557",
      "longitude": "-90.06713946769803"
    }
  },
  {
    "service_request": "2021-848942",
    "request_type": "Traffic Signals/Signs/Striping/Streetlights",
    "request_reason": "Traffic Signal Malfunctioning/Damaged",
    "date_created": "2021-12-17T17:05:51.000",
    "date_modified": "2021-12-17T17:05:51.000",
    "request_status": "Pending",
    "responsible_agency": "Department of Public Works",
    "final_address": "BEHRMAN AVE & NEWTON ST & GENERAL MEYER AVE",
    "address_councildis": "C",
    "status": "Pending",
    "rowid": "848942",
    "final_x": "3691444.9",
    "final_y": "527803.48",
    "longitude": "-90.03680081344356",
    "latitude": "29.944970838810654",
    "geocoded_column": {
      "latitude": "29.944970838810654",
      "longitude": "-90.03680081344356"
    }
  },
  {
    "service_request": "2021-848941",
    "request_type": "Traffic Signals/Signs/Striping/Streetlights",
    "request_reason": "Request for Traffic Calming due to Speeding",
    "date_created": "2021-12-17T17:01:50.000",
    "date_modified": "2021-12-17T18:00:38.000",
    "request_status": "Pending",
    "responsible_agency": "Department of Public Works",
    "final_address": "2300 St Claude Ave",
    "address_councildis": "C",
    "status": "Pending",
    "rowid": "848941",
    "final_x": "3685972.92796",
    "final_y": "536198.830855",
    "longitude": "-90.05378147430721",
    "latitude": "29.96822428536932",
    "geocoded_column": {
      "latitude": "29.96822428536932",
      "longitude": "-90.05378147430721"
    }
  },
  {
    "service_request": "2021-848940",
    "request_type": "Abandoned Vehicles",
    "request_reason": "Abandoned/Junk Vehicles",
    "date_created": "2021-12-17T16:58:52.000",
    "date_modified": "2021-12-17T16:58:52.000",
    "request_status": "Pending",
    "responsible_agency": "Department of Public Works",
    "final_address": "1115 Margaret Pl",
    "address_councildis": "B",
    "status": "Pending",
    "rowid": "848940",
    "final_x": "3680232.65935",
    "final_y": "526275.687166",
    "longitude": "-90.07225437650185",
    "latitude": "29.94111399958505",
    "geocoded_column": {
      "latitude": "29.94111399958505",
      "longitude": "-90.07225437650185"
    }
  },
  {
    "service_request": "2021-848939",
    "request_type": "Trash/Recycling",
    "request_reason": "Request a Large Item Pick Up",
    "date_created": "2021-12-17T16:56:39.000",
    "date_modified": "2021-12-17T17:01:12.000",
    "request_status": "Pending",
    "responsible_agency": "Department of Sanitation",
    "final_address": "2429 Felicity St",
    "address_councildis": "B",
    "status": "Assigned to Contractor",
    "contractor": "Richards Disposal",
    "rowid": "848939",
    "final_x": "3675998.05345",
    "final_y": "527112.458495",
    "longitude": "-90.08559505550309",
    "latitude": "29.94354231357682",
    "geocoded_column": {
      "latitude": "29.94354231357682",
      "longitude": "-90.08559505550309"
    }
  },
  {
    "service_request": "2021-848938",
    "request_type": "Trash/Recycling",
    "request_reason": "Request a Large Item Pick Up",
    "date_created": "2021-12-17T16:42:31.000",
    "date_modified": "2021-12-17T16:42:31.000",
    "request_status": "Pending",
    "responsible_agency": "Department of Sanitation",
    "final_address": "3310 Florence Ave",
    "address_councildis": "C",
    "status": "Assigned to Contractor",
    "contractor": "Richards Disposal",
    "rowid": "848938",
    "final_x": "3692886.05968",
    "final_y": "521713.98777",
    "longitude": "-90.03246892464766",
    "latitude": "29.928181898448383",
    "geocoded_column": {
      "latitude": "29.928181898448383",
      "longitude": "-90.03246892464766"
    }
  },
  {
    "service_request": "2021-848937",
    "request_type": "Roads/Drainage",
    "request_reason": "Man hole cover issue",
    "date_created": "2021-12-17T16:36:51.000",
    "date_modified": "2021-12-17T16:36:51.000",
    "request_status": "Pending",
    "responsible_agency": "Department of Public Works",
    "final_address": "1123 Margaret Pl",
    "address_councildis": "B",
    "status": "Pending",
    "rowid": "848937",
    "final_x": "3680202.61595",
    "final_y": "526237.04787",
    "longitude": "-90.07235057154209",
    "latitude": "29.94100866351144",
    "geocoded_column": {
      "latitude": "29.94100866351144",
      "longitude": "-90.07235057154209"
    }
  },
  {
    "service_request": "2021-848936",
    "request_type": "Trash/Recycling",
    "request_reason": "Illegal Dumping",
    "date_created": "2021-12-17T16:32:43.000",
    "date_modified": "2021-12-17T16:32:43.000",
    "request_status": "Pending",
    "responsible_agency": "Department of Code Enforcement",
    "final_address": "1233 Horace St",
    "address_councildis": "C",
    "status": "Pending",
    "rowid": "848936",
    "final_x": "3696311.66999",
    "final_y": "526718.56275",
    "longitude": "-90.0214742251164",
    "latitude": "29.94183537698711",
    "geocoded_column": {
      "latitude": "29.94183537698711",
      "longitude": "-90.0214742251164"
    }
  },
  {
    "service_request": "2021-848935",
    "request_type": "Property Maintenance",
    "request_reason": "Property Maintenance",
    "date_created": "2021-12-17T16:32:24.000",
    "date_modified": "2021-12-17T16:32:24.000",
    "request_status": "Pending",
    "responsible_agency": "Department of Code Enforcement",
    "final_address": "1233 Horace St",
    "address_councildis": "C",
    "status": "Pending",
    "rowid": "848935",
    "final_x": "3696311.66999",
    "final_y": "526718.56275",
    "longitude": "-90.0214742251164",
    "latitude": "29.94183537698711",
    "geocoded_column": {
      "latitude": "29.94183537698711",
      "longitude": "-90.0214742251164"
    }
  },
  {
    "service_request": "2021-848934",
    "request_type": "Trash/Recycling",
    "request_reason": "Request a Large Item Pick Up",
    "date_created": "2021-12-17T16:25:52.000",
    "date_modified": "2021-12-17T16:25:55.000",
    "request_status": "Pending",
    "responsible_agency": "Department of Sanitation",
    "final_address": "2831 Marigny St",
    "address_councildis": "D",
    "status": "Assigned to Contractor",
    "contractor": "Metro Disposal",
    "rowid": "848934",
    "final_x": "3684913.81999",
    "final_y": "543271.677198",
    "longitude": "-90.05687735180449",
    "latitude": "29.987704609329924",
    "geocoded_column": {
      "latitude": "29.987704609329924",
      "longitude": "-90.05687735180449"
    }
  },
  {
    "service_request": "2021-848933",
    "request_type": "Traffic Signals/Signs/Striping/Streetlights",
    "request_reason": "Traffic Signal Malfunctioning/Damaged",
    "date_created": "2021-12-17T16:15:07.000",
    "date_modified": "2021-12-17T16:15:07.000",
    "request_status": "Pending",
    "responsible_agency": "Department of Public Works",
    "final_address": "GENERAL MEYER AVE & SHIRLEY DR",
    "address_councildis": "C",
    "status": "Pending",
    "rowid": "848933",
    "final_x": "3693172.5",
    "final_y": "527521.78",
    "longitude": "-90.03135637952057",
    "latitude": "29.944142397456922",
    "geocoded_column": {
      "latitude": "29.944142397456922",
      "longitude": "-90.03135637952057"
    }
  },
  {
    "service_request": "2021-848932",
    "request_type": "Abandoned Vehicles",
    "request_reason": "Abandoned/Junk Vehicles",
    "date_created": "2021-12-17T16:14:40.000",
    "date_modified": "2021-12-17T16:14:40.000",
    "request_status": "Pending",
    "responsible_agency": "Department of Public Works",
    "final_address": "1115 Margaret Pl",
    "address_councildis": "B",
    "status": "Pending",
    "rowid": "848932",
    "final_x": "3680232.65935",
    "final_y": "526275.687166",
    "longitude": "-90.07225437650185",
    "latitude": "29.94111399958505",
    "geocoded_column": {
      "latitude": "29.94111399958505",
      "longitude": "-90.07225437650185"
    }
  },
  {
    "service_request": "2021-848931",
    "request_type": "Trash/Recycling",
    "request_reason": "Illegal Dumping",
    "date_created": "2021-12-17T16:11:49.000",
    "date_modified": "2021-12-17T17:01:16.000",
    "request_status": "Pending",
    "responsible_agency": "Department of Sanitation",
    "final_address": "7701 N Coronet Ct",
    "address_councildis": "E",
    "status": "Pending",
    "rowid": "848931",
    "final_x": "3702427.66909",
    "final_y": "557592.182939",
    "longitude": "-90.00103152657313",
    "latitude": "30.02653250001217",
    "geocoded_column": {
      "latitude": "30.02653250001217",
      "longitude": "-90.00103152657313"
    }
  },
  {
    "service_request": "2021-848928",
    "request_type": "COVID-19",
    "request_reason": "COVID-19 Business Non-Compliance",
    "date_created": "2021-12-17T16:09:02.000",
    "date_modified": "2021-12-17T16:09:03.000",
    "request_status": "Pending",
    "responsible_agency": "Safety and Permits",
    "final_address": "429 Decatur St",
    "address_councildis": "C",
    "status": "Pending",
    "rowid": "848928",
    "final_x": "3682615.06274",
    "final_y": "531349.875714",
    "longitude": "-90.06455530685383",
    "latitude": "29.95499399576132",
    "geocoded_column": {
      "latitude": "29.95499399576132",
      "longitude": "-90.06455530685383"
    }
  },
  {
    "service_request": "2021-848925",
    "request_type": "Trash/Recycling",
    "request_reason": "Missed Trash Pick-Up",
    "date_created": "2021-12-17T15:55:15.000",
    "date_modified": "2021-12-17T16:00:32.000",
    "request_status": "Pending",
    "responsible_agency": "Department of Sanitation",
    "final_address": "2928 Dumaine St",
    "address_councildis": "A",
    "status": "Assigned to Contractor",
    "contractor": "Richards Disposal",
    "rowid": "848925",
    "final_x": "3676200.546",
    "final_y": "538195.097033",
    "longitude": "-90.08457439651139",
    "latitude": "29.97400978156463",
    "geocoded_column": {
      "latitude": "29.97400978156463",
      "longitude": "-90.08457439651139"
    }
  },
  {
    "service_request": "2021-848924",
    "request_type": "Roads/Drainage",
    "request_reason": "Road Shoulder Repair",
    "date_created": "2021-12-17T15:41:27.000",
    "date_modified": "2021-12-17T15:41:27.000",
    "request_status": "Pending",
    "responsible_agency": "Department of Public Works",
    "final_address": "4743 Charlmark Dr",
    "address_councildis": "E",
    "status": "Pending",
    "rowid": "848924",
    "final_x": "3711512.81662",
    "final_y": "556041.107417",
    "longitude": "-89.97238197222306",
    "latitude": "30.021974064808084",
    "geocoded_column": {
      "latitude": "30.021974064808084",
      "longitude": "-89.97238197222306"
    }
  },
  {
    "service_request": "2021-848923",
    "request_type": "Safety & Permits",
    "request_reason": "Licenses & Permits",
    "date_created": "2021-12-17T15:39:11.000",
    "date_modified": "2021-12-17T15:40:12.000",
    "request_status": "Pending",
    "responsible_agency": "Safety and Permits",
    "final_address": "4635 Mendez St",
    "address_councildis": "D",
    "status": "Pending",
    "rowid": "848923",
    "final_x": "3690908.89539",
    "final_y": "554084.468056",
    "longitude": "-90.03755478887165",
    "latitude": "30.017250830677483",
    "geocoded_column": {
      "latitude": "30.017250830677483",
      "longitude": "-90.03755478887165"
    }
  },
  {
    "service_request": "2021-848922",
    "request_type": "Trash/Recycling",
    "request_reason": "Order Trash Cart",
    "date_created": "2021-12-17T15:37:15.000",
    "date_modified": "2021-12-17T16:00:34.000",
    "request_status": "Pending",
    "responsible_agency": "Department of Sanitation",
    "final_address": "5513 Patio Way",
    "address_councildis": "E",
    "status": "Assigned to Contractor",
    "contractor": "Metro Disposal",
    "rowid": "848922",
    "final_x": "3725430.74931",
    "final_y": "563944.026785",
    "longitude": "-89.9280992692334",
    "latitude": "30.043241975917116",
    "geocoded_column": {
      "latitude": "30.043241975917116",
      "longitude": "-89.9280992692334"
    }
  },
  {
    "service_request": "2021-848920",
    "request_type": "Roads/Drainage",
    "request_reason": "Man hole cover issue",
    "date_created": "2021-12-17T15:30:56.000",
    "date_modified": "2021-12-17T15:32:07.000",
    "request_status": "Pending",
    "responsible_agency": "Department of Public Works",
    "final_address": "CANAL ST & ROYAL ST",
    "address_councildis": "C",
    "status": "Pending",
    "rowid": "848920",
    "final_x": "3681217.0",
    "final_y": "530712.28",
    "longitude": "-90.06899207564706",
    "latitude": "29.95328331567276",
    "geocoded_column": {
      "latitude": "29.95328331567276",
      "longitude": "-90.06899207564706"
    }
  },
  {
    "service_request": "2021-848918",
    "request_type": "Safety & Permits",
    "request_reason": "Construction permit",
    "date_created": "2021-12-17T15:27:52.000",
    "date_modified": "2021-12-17T15:27:52.000",
    "request_status": "Pending",
    "responsible_agency": "Department of Code Enforcement",
    "final_address": "923 Vallette St",
    "address_councildis": "C",
    "status": "Pending",
    "rowid": "848918",
    "final_x": "3687413.59887",
    "final_y": "528158.855936",
    "longitude": "-90.04951626507646",
    "latitude": "29.946072811050666",
    "geocoded_column": {
      "latitude": "29.946072811050666",
      "longitude": "-90.04951626507646"
    }
  },
  {
    "service_request": "2021-848917",
    "request_type": "Abandoned Vehicles",
    "request_reason": "Abandoned/Junk Vehicles",
    "date_created": "2021-12-17T15:26:18.000",
    "date_modified": "2021-12-17T16:00:38.000",
    "request_status": "Pending",
    "responsible_agency": "Department of Public Works",
    "final_address": "240 Burgundy St",
    "address_councildis": "C",
    "status": "Pending",
    "rowid": "848917",
    "final_x": "3680820.13973",
    "final_y": "531830.619459",
    "longitude": "-90.07020626220672",
    "latitude": "29.956370405782703",
    "geocoded_column": {
      "latitude": "29.956370405782703",
      "longitude": "-90.07020626220672"
    }
  },
  {
    "service_request": "2021-848916",
    "request_type": "Trash/Recycling",
    "request_reason": "Replace Trash Cart",
    "date_created": "2021-12-17T15:24:27.000",
    "date_modified": "2021-12-17T16:00:40.000",
    "request_status": "Pending",
    "responsible_agency": "Department of Sanitation",
    "final_address": "1301 St Bernard Ave",
    "address_councildis": "C",
    "status": "Assigned to Contractor",
    "contractor": "Metro Disposal",
    "rowid": "848916",
    "final_x": "3682919.3446",
    "final_y": "536532.769031",
    "longitude": "-90.06341312216362",
    "latitude": "29.969235907623844",
    "geocoded_column": {
      "latitude": "29.969235907623844",
      "longitude": "-90.06341312216362"
    }
  },
  {
    "service_request": "2021-848915",
    "request_type": "Trash/Recycling",
    "request_reason": "Illegal Dumping",
    "date_created": "2021-12-17T15:23:28.000",
    "date_modified": "2021-12-17T16:00:41.000",
    "request_status": "Pending",
    "responsible_agency": "Department of Sanitation",
    "final_address": "I 10 E & ANNETTE ST & N ROMAN ST",
    "address_councildis": "D",
    "status": "Pending",
    "rowid": "848915",
    "final_x": "3682939.8",
    "final_y": "538727.28",
    "longitude": "-90.06327170497366",
    "latitude": "29.97526942829095",
    "geocoded_column": {
      "latitude": "29.97526942829095",
      "longitude": "-90.06327170497366"
    }
  },
  {
    "service_request": "2021-848914",
    "request_type": "Trash/Recycling",
    "request_reason": "Request a Large Item Pick Up",
    "date_created": "2021-12-17T15:22:47.000",
    "date_modified": "2021-12-17T16:00:42.000",
    "request_status": "Pending",
    "responsible_agency": "Department of Sanitation",
    "final_address": "936 Moss St",
    "address_councildis": "A",
    "status": "Assigned to Contractor",
    "contractor": "Richards Disposal",
    "rowid": "848914",
    "final_x": "3674988.42037",
    "final_y": "539614.096458",
    "longitude": "-90.08835387514017",
    "latitude": "29.977947812326022",
    "geocoded_column": {
      "latitude": "29.977947812326022",
      "longitude": "-90.08835387514017"
    }
  },
  {
    "service_request": "2021-848913",
    "request_type": "COVID-19",
    "request_reason": "COVID-19 Business Non-Compliance",
    "date_created": "2021-12-17T15:17:45.000",
    "date_modified": "2021-12-17T15:17:46.000",
    "request_status": "Pending",
    "responsible_agency": "Safety and Permits",
    "final_address": "7900 Lakeshore Dr",
    "address_councildis": "D",
    "status": "Pending",
    "rowid": "848913",
    "final_x": "3666876.25191",
    "final_y": "556934.571034",
    "longitude": "-90.11339262061627",
    "latitude": "30.02581298879661",
    "geocoded_column": {
      "latitude": "30.02581298879661",
      "longitude": "-90.11339262061627"
    }
  },
  {
    "service_request": "2021-848912",
    "request_type": "Roads/Drainage",
    "request_reason": "Pothole",
    "date_created": "2021-12-17T15:16:49.000",
    "date_modified": "2021-12-17T16:00:44.000",
    "request_status": "Pending",
    "responsible_agency": "Department of Public Works",
    "final_address": "2214 Second St",
    "address_councildis": "B",
    "status": "Pending",
    "rowid": "848912",
    "final_x": "3675418.66529",
    "final_y": "524911.201084",
    "longitude": "-90.08749990209384",
    "latitude": "29.937506913853465",
    "geocoded_column": {
      "latitude": "29.937506913853465",
      "longitude": "-90.08749990209384"
    }
  },
  {
    "service_request": "2021-848911",
    "request_type": "Trash/Recycling",
    "request_reason": "Replace Trash Cart",
    "date_created": "2021-12-17T15:13:52.000",
    "date_modified": "2021-12-17T16:00:45.000",
    "request_status": "Pending",
    "responsible_agency": "Department of Sanitation",
    "final_address": "2456 Chelsea Dr",
    "address_councildis": "C",
    "status": "Assigned to Contractor",
    "contractor": "Richards Disposal",
    "rowid": "848911",
    "final_x": "3704713.21284",
    "final_y": "522181.079994",
    "longitude": "-89.9951163286146",
    "latitude": "29.929091735276486",
    "geocoded_column": {
      "latitude": "29.929091735276486",
      "longitude": "-89.9951163286146"
    }
  },
  {
    "service_request": "2021-848910",
    "request_type": "Abandoned Vehicles",
    "request_reason": "Abandoned/Junk Vehicles",
    "date_created": "2021-12-17T15:13:11.000",
    "date_modified": "2021-12-17T16:00:46.000",
    "request_status": "Pending",
    "responsible_agency": "Department of Public Works",
    "final_address": "2642 N Rocheblave St",
    "address_councildis": "D",
    "status": "Pending",
    "rowid": "848910",
    "final_x": "3686871.13974",
    "final_y": "541226.964428",
    "longitude": "-90.05076715192533",
    "latitude": "29.98202227599444",
    "geocoded_column": {
      "latitude": "29.98202227599444",
      "longitude": "-90.05076715192533"
    }
  },
  {
    "service_request": "2021-848909",
    "request_type": "Trash/Recycling",
    "request_reason": "Request a Large Item Pick Up",
    "date_created": "2021-12-17T15:11:55.000",
    "date_modified": "2021-12-17T16:00:47.000",
    "request_status": "Pending",
    "responsible_agency": "Department of Sanitation",
    "final_address": "4140 St Peter St",
    "address_councildis": "A",
    "status": "Assigned to Contractor",
    "contractor": "Richards Disposal",
    "rowid": "848909",
    "final_x": "3672222.89025",
    "final_y": "540142.840779",
    "longitude": "-90.09707038935633",
    "latitude": "29.979484011130275",
    "geocoded_column": {
      "latitude": "29.979484011130275",
      "longitude": "-90.09707038935633"
    }
  },
  {
    "service_request": "2021-848908",
    "request_type": "Roads/Drainage",
    "request_reason": "Road Shoulder Repair",
    "date_created": "2021-12-17T15:07:29.000",
    "date_modified": "2021-12-17T16:00:49.000",
    "request_status": "Pending",
    "responsible_agency": "Department of Public Works",
    "final_address": "6226 Morrison Rd",
    "address_councildis": "D",
    "status": "Pending",
    "rowid": "848908",
    "final_x": "3696459.54781",
    "final_y": "557726.980891",
    "longitude": "-90.0198851453676",
    "latitude": "30.02709259768325",
    "geocoded_column": {
      "latitude": "30.02709259768325",
      "longitude": "-90.0198851453676"
    }
  },
  {
    "service_request": "2021-848907",
    "request_type": "Trash/Recycling",
    "request_reason": "Missed Trash Pick-Up",
    "date_created": "2021-12-17T15:05:51.000",
    "date_modified": "2021-12-17T15:05:51.000",
    "request_status": "Pending",
    "responsible_agency": "Department of Sanitation",
    "final_address": "1409 St Mary St",
    "address_councildis": "B",
    "status": "Assigned to Contractor",
    "contractor": "Richards Disposal",
    "rowid": "848907",
    "final_x": "3679051.99368",
    "final_y": "523708.383803",
    "longitude": "-90.07607089283698",
    "latitude": "29.934090439944463",
    "geocoded_column": {
      "latitude": "29.934090439944463",
      "longitude": "-90.07607089283698"
    }
  },
  {
    "service_request": "2021-848904",
    "request_type": "Trash/Recycling",
    "request_reason": "Request a Large Item Pick Up",
    "date_created": "2021-12-17T15:01:15.000",
    "date_modified": "2021-12-17T16:00:55.000",
    "request_status": "Pending",
    "responsible_agency": "Department of Sanitation",
    "final_address": "818 Hagan St",
    "address_councildis": "A",
    "status": "Assigned to Contractor",
    "contractor": "Richards Disposal",
    "rowid": "848904",
    "final_x": "3675021.88481",
    "final_y": "538881.724105",
    "longitude": "-90.0882733164016",
    "latitude": "29.975933039098337",
    "geocoded_column": {
      "latitude": "29.975933039098337",
      "longitude": "-90.0882733164016"
    }
  },
  {
    "service_request": "2021-848903",
    "request_type": "Abandoned Vehicles",
    "request_reason": "Abandoned/Junk Vehicles",
    "date_created": "2021-12-17T14:59:19.000",
    "date_modified": "2021-12-17T14:59:19.000",
    "request_status": "Pending",
    "responsible_agency": "Department of Public Works",
    "final_address": "ORETHA CASTLE HALEY BLVD & DRYADES ST & CALLIOPE ST",
    "address_councildis": "B",
    "status": "Pending",
    "rowid": "848903",
    "final_x": "3678705.21",
    "final_y": "527297.49",
    "longitude": "-90.07704144738564",
    "latitude": "29.943969753650155",
    "geocoded_column": {
      "latitude": "29.943969753650155",
      "longitude": "-90.07704144738564"
    }
  },
  {
    "service_request": "2021-848902",
    "request_type": "Traffic Signals/Signs/Striping/Streetlights",
    "request_reason": "Street Light Outage/Malfunction",
    "date_created": "2021-12-17T14:56:44.000",
    "date_modified": "2021-12-17T15:00:29.000",
    "request_status": "Pending",
    "responsible_agency": "Department of Public Works",
    "final_address": "4500 Charlene Dr",
    "address_councildis": "E",
    "status": "Pending",
    "contractor": "Royal Engineering",
    "rowid": "848902",
    "final_x": "3708000.39499",
    "final_y": "554017.886808",
    "longitude": "-89.9835555342862",
    "latitude": "30.016525235166437",
    "geocoded_column": {
      "latitude": "30.016525235166437",
      "longitude": "-89.9835555342862"
    }
  },
  {
    "service_request": "2021-848901",
    "request_type": "Abandoned Vehicles",
    "request_reason": "Abandoned/Junk Vehicles",
    "date_created": "2021-12-17T14:56:26.000",
    "date_modified": "2021-12-17T15:00:33.000",
    "request_status": "Pending",
    "responsible_agency": "Department of Public Works",
    "final_address": "3634 Elysian Fields Ave",
    "address_councildis": "D",
    "status": "Pending",
    "rowid": "848901",
    "final_x": "3684089.35356",
    "final_y": "546147.654864",
    "longitude": "-90.05938055746454",
    "latitude": "29.995637753324253",
    "geocoded_column": {
      "latitude": "29.995637753324253",
      "longitude": "-90.05938055746454"
    }
  },
  {
    "service_request": "2021-848899",
    "request_type": "Roads/Drainage",
    "request_reason": "Accessibility Ramps, Curbs and Sidewalk Repair",
    "date_created": "2021-12-17T14:49:33.000",
    "date_modified": "2021-12-17T14:49:33.000",
    "request_status": "Pending",
    "responsible_agency": "Department of Public Works",
    "final_address": "7149 Westhaven Rd",
    "address_councildis": "E",
    "status": "Pending",
    "rowid": "848899",
    "final_x": "3703754.26257",
    "final_y": "560122.723677",
    "longitude": "-89.99674639708648",
    "latitude": "30.033448023492415",
    "geocoded_column": {
      "latitude": "30.033448023492415",
      "longitude": "-89.99674639708648"
    }
  },
  {
    "service_request": "2021-848898",
    "request_type": "Traffic Signals/Signs/Striping/Streetlights",
    "request_reason": "Street Name Sign Damaged or Missing",
    "date_created": "2021-12-17T14:47:07.000",
    "date_modified": "2021-12-17T15:00:39.000",
    "request_status": "Pending",
    "responsible_agency": "Department of Public Works",
    "final_address": "7720 Windward Ct",
    "address_councildis": "E",
    "status": "Pending",
    "rowid": "848898",
    "final_x": "3715427.41426",
    "final_y": "569828.833702",
    "longitude": "-89.95949064229477",
    "latitude": "30.05975630995269",
    "geocoded_column": {
      "latitude": "30.05975630995269",
      "longitude": "-89.95949064229477"
    }
  },
  {
    "service_request": "2021-848897",
    "request_type": "Property Maintenance",
    "request_reason": "Property Maintenance",
    "date_created": "2021-12-17T14:47:04.000",
    "date_modified": "2021-12-17T14:47:04.000",
    "request_status": "Pending",
    "responsible_agency": "Department of Code Enforcement",
    "final_address": "1345 Annette St",
    "address_councildis": "C",
    "status": "Pending",
    "rowid": "848897",
    "final_x": "3683116.75381",
    "final_y": "536920.837256",
    "longitude": "-90.06277610046752",
    "latitude": "29.97029694363221",
    "geocoded_column": {
      "latitude": "29.97029694363221",
      "longitude": "-90.06277610046752"
    }
  },
  {
    "service_request": "2021-848896",
    "request_type": "Property Maintenance",
    "request_reason": "Property Maintenance",
    "date_created": "2021-12-17T14:45:14.000",
    "date_modified": "2021-12-17T14:45:14.000",
    "request_status": "Pending",
    "responsible_agency": "Department of Code Enforcement",
    "final_address": "1241 Annette St",
    "address_councildis": "C",
    "status": "Pending",
    "rowid": "848896",
    "final_x": "3683158.88988",
    "final_y": "536491.430023",
    "longitude": "-90.06265806892783",
    "latitude": "29.96911493754835",
    "geocoded_column": {
      "latitude": "29.96911493754835",
      "longitude": "-90.06265806892783"
    }
  },
  {
    "service_request": "2021-848895",
    "request_type": "Traffic Signals/Signs/Striping/Streetlights",
    "request_reason": "Traffic Signal Malfunctioning/Damaged",
    "date_created": "2021-12-17T14:45:08.000",
    "date_modified": "2021-12-17T14:45:08.000",
    "request_status": "Pending",
    "responsible_agency": "Department of Public Works",
    "final_address": "3931 General Meyer Ave",
    "address_councildis": "C",
    "status": "Pending",
    "rowid": "848895",
    "final_x": "3698830.46666",
    "final_y": "524726.416572",
    "longitude": "-90.01359435058635",
    "latitude": "29.9362781341848",
    "geocoded_column": {
      "latitude": "29.9362781341848",
      "longitude": "-90.01359435058635"
    }
  },
  {
    "service_request": "2021-848894",
    "request_type": "Traffic Signals/Signs/Striping/Streetlights",
    "request_reason": "Street Light Outage/Malfunction",
    "date_created": "2021-12-17T14:44:24.000",
    "date_modified": "2021-12-17T15:00:42.000",
    "request_status": "Pending",
    "responsible_agency": "Department of Public Works",
    "final_address": "7149 Westhaven Rd",
    "address_councildis": "E",
    "status": "Pending",
    "contractor": "Royal Engineering",
    "rowid": "848894",
    "final_x": "3703754.26257",
    "final_y": "560122.723677",
    "longitude": "-89.99674639708648",
    "latitude": "30.033448023492415",
    "geocoded_column": {
      "latitude": "30.033448023492415",
      "longitude": "-89.99674639708648"
    }
  },
  {
    "service_request": "2021-848893",
    "request_type": "Property Maintenance",
    "request_reason": "Property Maintenance",
    "date_created": "2021-12-17T14:43:13.000",
    "date_modified": "2021-12-17T14:43:13.000",
    "request_status": "Pending",
    "responsible_agency": "Department of Code Enforcement",
    "final_address": "1844 Pauger St",
    "address_councildis": "C",
    "status": "Pending",
    "rowid": "848893",
    "final_x": "3683815.42082",
    "final_y": "536545.097351",
    "longitude": "-90.06058281802005",
    "latitude": "29.96924246870389",
    "geocoded_column": {
      "latitude": "29.96924246870389",
      "longitude": "-90.06058281802005"
    }
  },
  {
    "service_request": "2021-848892",
    "request_type": "Trash/Recycling",
    "request_reason": "Missed Trash Pick-Up",
    "date_created": "2021-12-17T14:42:35.000",
    "date_modified": "2021-12-17T15:00:45.000",
    "request_status": "Pending",
    "responsible_agency": "Department of Sanitation",
    "final_address": "3013 Constance St",
    "address_councildis": "B",
    "status": "Assigned to Contractor",
    "contractor": "Richards Disposal",
    "rowid": "848892",
    "final_x": "3676422.43157",
    "final_y": "520020.58156",
    "longitude": "-90.08449921676215",
    "latitude": "29.924029255762015",
    "geocoded_column": {
      "latitude": "29.924029255762015",
      "longitude": "-90.08449921676215"
    }
  },
  {
    "service_request": "2021-848891",
    "request_type": "Property Maintenance",
    "request_reason": "Property Maintenance",
    "date_created": "2021-12-17T14:40:48.000",
    "date_modified": "2021-12-17T14:40:48.000",
    "request_status": "Pending",
    "responsible_agency": "Department of Code Enforcement",
    "final_address": "2019 Marais St",
    "address_councildis": "C",
    "status": "Pending",
    "rowid": "848891",
    "final_x": "3684382.01634",
    "final_y": "536651.549511",
    "longitude": "-90.05878973029225",
    "latitude": "29.969517858089105",
    "geocoded_column": {
      "latitude": "29.969517858089105",
      "longitude": "-90.05878973029225"
    }
  },
  {
    "service_request": "2021-848889",
    "request_type": "Property Maintenance",
    "request_reason": "Property Maintenance",
    "date_created": "2021-12-17T14:38:21.000",
    "date_modified": "2021-12-17T14:38:21.000",
    "request_status": "Pending",
    "responsible_agency": "Department of Code Enforcement",
    "final_address": "1204 St Anthony St",
    "address_councildis": "C",
    "status": "Pending",
    "rowid": "848889",
    "final_x": "3683476.28405",
    "final_y": "536245.007815",
    "longitude": "-90.06166435371306",
    "latitude": "29.96842767984801",
    "geocoded_column": {
      "latitude": "29.96842767984801",
      "longitude": "-90.06166435371306"
    }
  },
  {
    "service_request": "2021-848888",
    "request_type": "Property Maintenance",
    "request_reason": "Property Maintenance",
    "date_created": "2021-12-17T14:36:36.000",
    "date_modified": "2021-12-17T14:36:36.000",
    "request_status": "Pending",
    "responsible_agency": "Department of Code Enforcement",
    "final_address": "1228 Annette St",
    "address_councildis": "C",
    "status": "Pending",
    "rowid": "848888",
    "final_x": "3683095.4797",
    "final_y": "536389.026823",
    "longitude": "-90.06286190825124",
    "latitude": "29.96883529750927",
    "geocoded_column": {
      "latitude": "29.96883529750927",
      "longitude": "-90.06286190825124"
    }
  },
  {
    "service_request": "2021-848887",
    "request_type": "Property Maintenance",
    "request_reason": "Property Maintenance",
    "date_created": "2021-12-17T14:35:31.000",
    "date_modified": "2021-12-17T14:35:31.000",
    "request_status": "Pending",
    "responsible_agency": "Department of Code Enforcement",
    "final_address": "1238 Annette St",
    "address_councildis": "C",
    "status": "Pending",
    "rowid": "848887",
    "final_x": "3683084.98818",
    "final_y": "536471.196935",
    "longitude": "-90.06289216391815",
    "latitude": "29.969061556769883",
    "geocoded_column": {
      "latitude": "29.969061556769883",
      "longitude": "-90.06289216391815"
    }
  },
  {
    "service_request": "2021-848884",
    "request_type": "Roads/Drainage",
    "request_reason": "Pothole",
    "date_created": "2021-12-17T14:26:57.000",
    "date_modified": "2021-12-17T14:26:57.000",
    "request_status": "Pending",
    "responsible_agency": "Department of Public Works",
    "final_address": "3337 Dearmas St",
    "address_councildis": "C",
    "status": "Pending",
    "rowid": "848884",
    "final_x": "3696677.8344",
    "final_y": "526952.17651",
    "longitude": "-90.02030972245538",
    "latitude": "29.942466201626925",
    "geocoded_column": {
      "latitude": "29.942466201626925",
      "longitude": "-90.02030972245538"
    }
  },
  {
    "service_request": "2021-848883",
    "request_type": "Roads/Drainage",
    "request_reason": "Road Shoulder Repair",
    "date_created": "2021-12-17T14:25:56.000",
    "date_modified": "2021-12-17T15:00:53.000",
    "request_status": "Pending",
    "responsible_agency": "Department of Public Works",
    "final_address": "7190 Queensway Dr",
    "address_councildis": "E",
    "status": "Pending",
    "rowid": "848883",
    "final_x": "3718662.24991",
    "final_y": "570027.429926",
    "longitude": "-89.94925805918417",
    "latitude": "30.060195326196283",
    "geocoded_column": {
      "latitude": "30.060195326196283",
      "longitude": "-89.94925805918417"
    }
  },
  {
    "service_request": "2021-848882",
    "request_type": "Abandoned Vehicles",
    "request_reason": "Abandoned/Junk Vehicles",
    "date_created": "2021-12-17T14:24:43.000",
    "date_modified": "2021-12-17T14:24:43.000",
    "request_status": "Pending",
    "responsible_agency": "Department of Public Works",
    "final_address": "4133 General Pershing St",
    "address_councildis": "B",
    "status": "Pending",
    "rowid": "848882",
    "final_x": "3670028.04846",
    "final_y": "529492.805889",
    "longitude": "-90.10436336924452",
    "latitude": "29.95026489527118",
    "geocoded_column": {
      "latitude": "29.95026489527118",
      "longitude": "-90.10436336924452"
    }
  },
  {
    "service_request": "2021-848881",
    "request_type": "Abandoned Vehicles",
    "request_reason": "Abandoned/Junk Vehicles",
    "date_created": "2021-12-17T14:19:56.000",
    "date_modified": "2021-12-17T14:19:56.000",
    "request_status": "Pending",
    "responsible_agency": "Department of Public Works",
    "final_address": "2523 Baronne St",
    "address_councildis": "B",
    "status": "Pending",
    "rowid": "848881",
    "final_x": "3676099.80673",
    "final_y": "523575.274235",
    "longitude": "-90.08539542248633",
    "latitude": "29.933813170935956",
    "geocoded_column": {
      "latitude": "29.933813170935956",
      "longitude": "-90.08539542248633"
    }
  },
  {
    "service_request": "2021-848880",
    "request_type": "Trash/Recycling",
    "request_reason": "Illegal Dumping",
    "date_created": "2021-12-17T14:19:13.000",
    "date_modified": "2021-12-17T15:00:57.000",
    "request_status": "Pending",
    "responsible_agency": "Department of Sanitation",
    "final_address": "New Orleans,LA",
    "address_councildis": "B",
    "rowid": "848880",
    "final_x": "3680060.53045",
    "final_y": "522525.12217",
    "longitude": "-90.0729280706318",
    "latitude": "29.930806393476256",
    "geocoded_column": {
      "latitude": "29.930806393476256",
      "longitude": "-90.0729280706318"
    }
  },
  {
    "service_request": "2021-848878",
    "request_type": "COVID-19",
    "request_reason": "COVID-19 Business Non-Compliance",
    "date_created": "2021-12-17T14:05:52.000",
    "date_modified": "2021-12-17T14:05:54.000",
    "request_status": "Pending",
    "responsible_agency": "Safety and Permits",
    "final_address": "1532 Ursulines Ave",
    "address_councildis": "C",
    "status": "Pending",
    "rowid": "848878",
    "final_x": "3680969.06331",
    "final_y": "535499.700038",
    "longitude": "-90.06960823449643",
    "latitude": "29.966454611620595",
    "geocoded_column": {
      "latitude": "29.966454611620595",
      "longitude": "-90.06960823449643"
    }
  },
  {
    "service_request": "2021-848877",
    "request_type": "Trash/Recycling",
    "request_reason": "Repair Trash Cart",
    "date_created": "2021-12-17T14:00:50.000",
    "date_modified": "2021-12-17T15:01:00.000",
    "request_status": "Pending",
    "responsible_agency": "Department of Sanitation",
    "final_address": "2076 Hyman Pl",
    "address_councildis": "C",
    "status": "Assigned to Contractor",
    "contractor": "Richards Disposal",
    "rowid": "848877",
    "final_x": "3701166.72919",
    "final_y": "523027.120379",
    "longitude": "-90.00628087679655",
    "latitude": "29.93153146533134",
    "geocoded_column": {
      "latitude": "29.93153146533134",
      "longitude": "-90.00628087679655"
    }
  },
  {
    "service_request": "2021-848876",
    "request_type": "Trash/Recycling",
    "request_reason": "Order Trash Cart",
    "date_created": "2021-12-17T13:55:27.000",
    "date_modified": "2021-12-17T14:00:37.000",
    "request_status": "Pending",
    "responsible_agency": "Department of Sanitation",
    "final_address": "6323 Perrier St, New Orleans, Louisiana, 70118",
    "address_councildis": "A",
    "status": "Assigned to Contractor",
    "contractor": "Richards Disposal",
    "rowid": "848876",
    "final_x": "3663872.37184",
    "final_y": "521062.245881",
    "longitude": "-90.12408077422971",
    "latitude": "29.927263644495273",
    "geocoded_column": {
      "latitude": "29.927263644495273",
      "longitude": "-90.12408077422971"
    }
  },
  {
    "service_request": "2021-848875",
    "request_type": "Abandoned Vehicles",
    "request_reason": "Abandoned/Junk Vehicles",
    "date_created": "2021-12-17T13:54:17.000",
    "date_modified": "2021-12-17T15:01:01.000",
    "request_status": "Pending",
    "responsible_agency": "Department of Public Works",
    "final_address": "MAZANT ST & N MIRO ST",
    "address_councildis": "D",
    "status": "Pending",
    "rowid": "848875",
    "final_x": "3693134.3",
    "final_y": "539375.48",
    "longitude": "-90.0310516362992",
    "latitude": "29.97673710641933",
    "geocoded_column": {
      "latitude": "29.97673710641933",
      "longitude": "-90.0310516362992"
    }
  },
  {
    "service_request": "2021-848874",
    "request_type": "Trash/Recycling",
    "request_reason": "Missed Trash Pick-Up",
    "date_created": "2021-12-17T13:53:55.000",
    "date_modified": "2021-12-17T14:00:38.000",
    "request_status": "Pending",
    "responsible_agency": "Department of Sanitation",
    "final_address": "2200 BLK Andry St",
    "address_councildis": "E",
    "status": "Assigned to Contractor",
    "contractor": "Metro Disposal",
    "rowid": "848874",
    "final_x": "3698353.03797",
    "final_y": "538273.877636",
    "longitude": "-90.01460937183515",
    "latitude": "29.973543977066036",
    "geocoded_column": {
      "latitude": "29.973543977066036",
      "longitude": "-90.01460937183515"
    }
  },
  {
    "service_request": "2021-848873",
    "request_type": "Trash/Recycling",
    "request_reason": "Illegal Dumping",
    "date_created": "2021-12-17T13:53:16.000",
    "date_modified": "2021-12-17T13:53:59.000",
    "case_close_date": "2021-12-17T07:53:59.000",
    "request_status": "Closed",
    "responsible_agency": "Department of Sanitation",
    "final_address": "1800 BLK Saint Anthony St",
    "address_councildis": "D",
    "status": "Resolved",
    "rowid": "848873",
    "final_x": "3683293.6196",
    "final_y": "538944.300836",
    "longitude": "-90.06214664618419",
    "latitude": "29.975855371705666",
    "geocoded_column": {
      "latitude": "29.975855371705666",
      "longitude": "-90.06214664618419"
    }
  },
  {
    "service_request": "2021-848872",
    "request_type": "Trash/Recycling",
    "request_reason": "Illegal Dumping",
    "date_created": "2021-12-17T13:49:11.000",
    "date_modified": "2021-12-17T13:49:53.000",
    "case_close_date": "2021-12-17T07:49:53.000",
    "request_status": "Closed",
    "responsible_agency": "Department of Sanitation",
    "final_address": "ANNETTE ST & N ROMAN ST",
    "address_councildis": "D",
    "status": "Resolved",
    "rowid": "848872",
    "final_x": "3682939.8",
    "final_y": "538727.28",
    "longitude": "-90.06327170497366",
    "latitude": "29.97526942829095",
    "geocoded_column": {
      "latitude": "29.97526942829095",
      "longitude": "-90.06327170497366"
    }
  },
  {
    "service_request": "2021-848871",
    "request_type": "Abandoned Vehicles",
    "request_reason": "Abandoned/Junk Vehicles",
    "date_created": "2021-12-17T13:41:19.000",
    "date_modified": "2021-12-17T14:00:39.000",
    "request_status": "Pending",
    "responsible_agency": "Department of Public Works",
    "final_address": "2321 S Roman St",
    "address_councildis": "B",
    "status": "Pending",
    "rowid": "848871",
    "final_x": "3673959.85204",
    "final_y": "528151.216511",
    "longitude": "-90.09199467125363",
    "latitude": "29.946459426800402",
    "geocoded_column": {
      "latitude": "29.946459426800402",
      "longitude": "-90.09199467125363"
    }
  },
  {
    "service_request": "2021-848870",
    "request_type": "Roads/Drainage",
    "request_reason": "Catch Basin - Clogged",
    "date_created": "2021-12-17T13:26:05.000",
    "date_modified": "2021-12-17T14:00:44.000",
    "request_status": "Pending",
    "responsible_agency": "Department of Public Works",
    "final_address": "1542 Flanders St",
    "address_councildis": "C",
    "status": "Pending",
    "rowid": "848870",
    "final_x": "3696735.83581",
    "final_y": "525493.207997",
    "longitude": "-90.0201793886779",
    "latitude": "29.93845271594013",
    "geocoded_column": {
      "latitude": "29.93845271594013",
      "longitude": "-90.0201793886779"
    }
  },
  {
    "service_request": "2021-848869",
    "request_type": "Trash/Recycling",
    "request_reason": "Request a Large Item Pick Up",
    "date_created": "2021-12-17T13:25:21.000",
    "date_modified": "2021-12-17T14:00:45.000",
    "request_status": "Pending",
    "responsible_agency": "Department of Sanitation",
    "final_address": "2103 Fourth St",
    "address_councildis": "B",
    "status": "Assigned to Contractor",
    "contractor": "Richards Disposal",
    "rowid": "848869",
    "final_x": "3675201.42229",
    "final_y": "524256.04102",
    "longitude": "-90.0882082305467",
    "latitude": "29.93571193072257",
    "geocoded_column": {
      "latitude": "29.93571193072257",
      "longitude": "-90.0882082305467"
    }
  },
  {
    "service_request": "2021-848867",
    "request_type": "Trash/Recycling",
    "request_reason": "Illegal Dumping",
    "date_created": "2021-12-17T13:19:49.000",
    "date_modified": "2021-12-17T13:19:49.000",
    "request_status": "Pending",
    "responsible_agency": "Department of Sanitation",
    "final_address": "2108 Third St",
    "address_councildis": "B",
    "status": "Pending",
    "rowid": "848867",
    "final_x": "3675385.15675",
    "final_y": "524412.670844",
    "longitude": "-90.08762280179653",
    "latitude": "29.93613712044748",
    "geocoded_column": {
      "latitude": "29.93613712044748",
      "longitude": "-90.08762280179653"
    }
  },
  {
    "service_request": "2021-848866",
    "request_type": "Traffic Signals/Signs/Striping/Streetlights",
    "request_reason": "Street Light Outage/Malfunction",
    "date_created": "2021-12-17T13:17:26.000",
    "date_modified": "2021-12-17T14:00:48.000",
    "request_status": "Pending",
    "responsible_agency": "Department of Public Works",
    "final_address": "16080 Chef Menteur Hwy",
    "address_councildis": "E",
    "status": "Pending",
    "contractor": "Royal Engineering",
    "rowid": "848866",
    "final_x": "3737258.72641",
    "final_y": "564923.07133",
    "longitude": "-89.89067965707169",
    "latitude": "30.045529779210423",
    "geocoded_column": {
      "latitude": "30.045529779210423",
      "longitude": "-89.89067965707169"
    }
  },
  {
    "service_request": "2021-848865",
    "request_type": "Roads/Drainage",
    "request_reason": "Street Subsidence (Sinking)",
    "date_created": "2021-12-17T13:15:40.000",
    "date_modified": "2021-12-17T14:43:15.000",
    "request_status": "Pending",
    "responsible_agency": "Department of Public Works",
    "final_address": "2347 Prentiss Ave",
    "address_councildis": "D",
    "status": "Inspected",
    "rowid": "848865",
    "final_x": "3684768.44713",
    "final_y": "554003.8406",
    "longitude": "-90.05695892411597",
    "latitude": "30.017218638730156",
    "geocoded_column": {
      "latitude": "30.017218638730156",
      "longitude": "-90.05695892411597"
    }
  },
  {
    "service_request": "2021-848864",
    "request_type": "Parks & Parkways",
    "request_reason": "Request Tree Service (Right of Way/Public Property)",
    "date_created": "2021-12-17T13:14:50.000",
    "date_modified": "2021-12-17T13:57:26.000",
    "request_status": "Pending",
    "responsible_agency": "Department of Parks & Parkway",
    "final_address": "1549 N Johnson St",
    "address_councildis": "D",
    "status": "Pending",
    "rowid": "848864",
    "final_x": "3680869.47554",
    "final_y": "538457.927369",
    "longitude": "-90.0698197168814",
    "latitude": "29.974591737602122",
    "geocoded_column": {
      "latitude": "29.974591737602122",
      "longitude": "-90.0698197168814"
    }
  },
  {
    "service_request": "2021-848860",
    "request_type": "Trash/Recycling",
    "request_reason": "Replace Trash Cart",
    "date_created": "2021-12-17T13:02:01.000",
    "date_modified": "2021-12-17T14:01:20.000",
    "request_status": "Pending",
    "responsible_agency": "Department of Sanitation",
    "final_address": "2818 Constance St Unit 4",
    "address_councildis": "B",
    "status": "Assigned to Contractor",
    "contractor": "Richards Disposal",
    "rowid": "848860",
    "final_x": "3677160.38382",
    "final_y": "520353.411",
    "longitude": "-90.08215829029423",
    "latitude": "29.924922293096973",
    "geocoded_column": {
      "latitude": "29.924922293096973",
      "longitude": "-90.08215829029423"
    }
  },
  {
    "service_request": "2021-848859",
    "request_type": "Trash/Recycling",
    "request_reason": "Request a Large Item Pick Up",
    "date_created": "2021-12-17T13:00:50.000",
    "date_modified": "2021-12-17T14:01:23.000",
    "request_status": "Pending",
    "responsible_agency": "Department of Sanitation",
    "final_address": "526 Caffin Ave, New Orleans, Louisiana, 70117",
    "address_councildis": "E",
    "status": "Assigned to Contractor",
    "contractor": "Metro Disposal",
    "rowid": "848859",
    "final_x": "3697427.75376",
    "final_y": "531837.569091",
    "longitude": "-90.01776497977315",
    "latitude": "29.95587566988968",
    "geocoded_column": {
      "latitude": "29.95587566988968",
      "longitude": "-90.01776497977315"
    }
  },
  {
    "service_request": "2021-848858",
    "request_type": "Trash/Recycling",
    "request_reason": "Dead Animal Pick Up",
    "date_created": "2021-12-17T12:59:52.000",
    "date_modified": "2021-12-17T12:59:52.000",
    "request_status": "Pending",
    "responsible_agency": "Department of Sanitation",
    "final_address": "6200 BLK Dwyer Rd",
    "address_councildis": "D",
    "status": "Assigned to Contractor",
    "contractor": "Metro Disposal",
    "rowid": "848858",
    "final_x": "3697234.83023",
    "final_y": "555005.649619",
    "longitude": "-90.0175340849278",
    "latitude": "30.019585513666442",
    "geocoded_column": {
      "latitude": "30.019585513666442",
      "longitude": "-90.0175340849278"
    }
  },
  {
    "service_request": "2021-848857",
    "request_type": "Trash/Recycling",
    "request_reason": "Request a Large Item Pick Up",
    "date_created": "2021-12-17T12:59:26.000",
    "date_modified": "2021-12-17T13:00:51.000",
    "request_status": "Pending",
    "responsible_agency": "Department of Sanitation",
    "final_address": "3526 Huntlee Dr",
    "address_councildis": "C",
    "status": "Assigned to Contractor",
    "contractor": "Richards Disposal",
    "rowid": "848857",
    "final_x": "3701778.11127",
    "final_y": "517986.252022",
    "longitude": "-90.00453537227872",
    "latitude": "29.917651332864647",
    "geocoded_column": {
      "latitude": "29.917651332864647",
      "longitude": "-90.00453537227872"
    }
  },
  {
    "service_request": "2021-848855",
    "request_type": "Trash/Recycling",
    "request_reason": "Missed Trash Pick-Up",
    "date_created": "2021-12-17T12:55:28.000",
    "date_modified": "2021-12-17T13:00:55.000",
    "request_status": "Pending",
    "responsible_agency": "Department of Sanitation",
    "final_address": "1217 St Mary St",
    "address_councildis": "B",
    "status": "Assigned to Contractor",
    "contractor": "Richards Disposal",
    "rowid": "848855",
    "final_x": "3679407.8349",
    "final_y": "523265.183419",
    "longitude": "-90.07496288117927",
    "latitude": "29.932861044042042",
    "geocoded_column": {
      "latitude": "29.932861044042042",
      "longitude": "-90.07496288117927"
    }
  },
  {
    "service_request": "2021-848854",
    "request_type": "Trash/Recycling",
    "request_reason": "Request a Large Item Pick Up",
    "date_created": "2021-12-17T12:51:05.000",
    "date_modified": "2021-12-17T13:00:57.000",
    "request_status": "Pending",
    "responsible_agency": "Department of Sanitation",
    "final_address": "2501 Annunciation St",
    "address_councildis": "B",
    "status": "Assigned to Contractor",
    "contractor": "Richards Disposal",
    "rowid": "848854",
    "final_x": "3678381.10792",
    "final_y": "520429.62188",
    "longitude": "-90.07830222776624",
    "latitude": "29.9250951402123",
    "geocoded_column": {
      "latitude": "29.9250951402123",
      "longitude": "-90.07830222776624"
    }
  },
  {
    "service_request": "2021-848853",
    "request_type": "Abandoned Vehicles",
    "request_reason": "Abandoned/Junk Vehicles",
    "date_created": "2021-12-17T12:48:15.000",
    "date_modified": "2021-12-17T13:00:59.000",
    "request_status": "Pending",
    "responsible_agency": "Department of Public Works",
    "final_address": "3116 Cleveland Ave, New Orleans, Louisiana, 70119",
    "address_councildis": "B",
    "status": "Pending",
    "rowid": "848853",
    "final_x": "3673629.4315",
    "final_y": "535784.785991",
    "longitude": "-90.09277698587567",
    "latitude": "29.967459038374624",
    "geocoded_column": {
      "latitude": "29.967459038374624",
      "longitude": "-90.09277698587567"
    }
  },
  {
    "service_request": "2021-848852",
    "request_type": "Roads/Drainage",
    "request_reason": "Unpermitted work in ROW",
    "date_created": "2021-12-17T12:34:30.000",
    "date_modified": "2021-12-17T13:01:00.000",
    "request_status": "Pending",
    "responsible_agency": "Department of Public Works",
    "final_address": "7713 N Coronet Ct",
    "address_councildis": "E",
    "status": "Inspected",
    "rowid": "848852",
    "final_x": "3702490.13943",
    "final_y": "557606.815835",
    "longitude": "-90.00083359094901",
    "latitude": "30.026570737451806",
    "geocoded_column": {
      "latitude": "30.026570737451806",
      "longitude": "-90.00083359094901"
    }
  },
  {
    "service_request": "2021-848851",
    "request_type": "Trash/Recycling",
    "request_reason": "Repair Trash Cart",
    "date_created": "2021-12-17T12:34:06.000",
    "date_modified": "2021-12-17T13:01:03.000",
    "request_status": "Pending",
    "responsible_agency": "Department of Sanitation",
    "final_address": "636 S Lopez St",
    "address_councildis": "B",
    "status": "Assigned to Contractor",
    "contractor": "Richards Disposal",
    "rowid": "848851",
    "final_x": "3672478.6107",
    "final_y": "534328.883013",
    "longitude": "-90.09646093702555",
    "latitude": "29.963490002784503",
    "geocoded_column": {
      "latitude": "29.963490002784503",
      "longitude": "-90.09646093702555"
    }
  },
  {
    "service_request": "2021-848850",
    "request_type": "Traffic Signals/Signs/Striping/Streetlights",
    "request_reason": "Street Light Outage/Malfunction",
    "date_created": "2021-12-17T12:30:41.000",
    "date_modified": "2021-12-17T12:30:41.000",
    "request_status": "Pending",
    "responsible_agency": "Department of Public Works",
    "final_address": "1347 Exposition Blvd",
    "address_councildis": "A",
    "status": "Pending",
    "contractor": "Royal Engineering",
    "rowid": "848850",
    "final_x": "3663998.75546",
    "final_y": "521655.668281",
    "longitude": "-90.12366203492047",
    "latitude": "29.92889170135593",
    "geocoded_column": {
      "latitude": "29.92889170135593",
      "longitude": "-90.12366203492047"
    }
  },
  {
    "service_request": "2021-848849",
    "request_type": "Trash/Recycling",
    "request_reason": "Request a Large Item Pick Up",
    "date_created": "2021-12-17T12:28:12.000",
    "date_modified": "2021-12-17T13:01:05.000",
    "request_status": "Pending",
    "responsible_agency": "Department of Sanitation",
    "final_address": "4800 Lynhuber Dr",
    "address_councildis": "D",
    "status": "Assigned to Contractor",
    "contractor": "Metro Disposal",
    "rowid": "848849",
    "final_x": "3697927.70762",
    "final_y": "554596.710744",
    "longitude": "-90.01535969651725",
    "latitude": "30.01843919118177",
    "geocoded_column": {
      "latitude": "30.01843919118177",
      "longitude": "-90.01535969651725"
    }
  },
  {
    "service_request": "2021-848848",
    "request_type": "Trash/Recycling",
    "request_reason": "Missed Trash Pick-Up",
    "date_created": "2021-12-17T12:27:29.000",
    "date_modified": "2021-12-17T13:01:06.000",
    "request_status": "Pending",
    "responsible_agency": "Department of Sanitation",
    "final_address": "10251 Deer Trl, New Orleans, Louisiana, 70127",
    "address_councildis": "E",
    "status": "Assigned to Contractor",
    "contractor": "Metro Disposal",
    "rowid": "848848",
    "final_x": "3711820.84216",
    "final_y": "561650.074271",
    "longitude": "-89.97119801716433",
    "latitude": "30.037386438202393",
    "geocoded_column": {
      "latitude": "30.037386438202393",
      "longitude": "-89.97119801716433"
    }
  },
  {
    "service_request": "2021-848846",
    "request_type": "Traffic Signals/Signs/Striping/Streetlights",
    "request_reason": "Street Light Outage/Malfunction",
    "date_created": "2021-12-17T12:24:49.000",
    "date_modified": "2021-12-17T12:24:50.000",
    "request_status": "Pending",
    "responsible_agency": "Department of Public Works",
    "final_address": "833 St Ann St",
    "address_councildis": "C",
    "status": "Pending",
    "contractor": "Royal Engineering",
    "rowid": "848846",
    "final_x": "3682293.30895",
    "final_y": "533172.523332",
    "longitude": "-90.06550760407573",
    "latitude": "29.960015448494726",
    "geocoded_column": {
      "latitude": "29.960015448494726",
      "longitude": "-90.06550760407573"
    }
  },
  {
    "service_request": "2021-848845",
    "request_type": "Trash/Recycling",
    "request_reason": "Replace Trash Cart",
    "date_created": "2021-12-17T12:22:55.000",
    "date_modified": "2021-12-17T12:22:55.000",
    "request_status": "Pending",
    "responsible_agency": "Department of Sanitation",
    "final_address": "3110 Pauger St",
    "address_councildis": "D",
    "status": "Assigned to Contractor",
    "contractor": "Metro Disposal",
    "rowid": "848845",
    "final_x": "3683452.11932",
    "final_y": "541093.758604",
    "longitude": "-90.06157071338207",
    "latitude": "29.98176079261086",
    "geocoded_column": {
      "latitude": "29.98176079261086",
      "longitude": "-90.06157071338207"
    }
  },
  {
    "service_request": "2021-848843",
    "request_type": "Trash/Recycling",
    "request_reason": "Request a Large Item Pick Up",
    "date_created": "2021-12-17T12:17:52.000",
    "date_modified": "2021-12-17T12:17:53.000",
    "request_status": "Pending",
    "responsible_agency": "Department of Sanitation",
    "final_address": "331 Bermuda St",
    "address_councildis": "C",
    "status": "Assigned to Contractor",
    "contractor": "Richards Disposal",
    "rowid": "848843",
    "final_x": "3686410.8118",
    "final_y": "530554.538882",
    "longitude": "-90.05259785499386",
    "latitude": "29.952690977899227",
    "geocoded_column": {
      "latitude": "29.952690977899227",
      "longitude": "-90.05259785499386"
    }
  },
  {
    "service_request": "2021-848842",
    "request_type": "Abandoned Vehicles",
    "request_reason": "Abandoned/Junk Vehicles",
    "date_created": "2021-12-17T12:17:40.000",
    "date_modified": "2021-12-17T12:17:40.000",
    "request_status": "Pending",
    "responsible_agency": "Department of Public Works",
    "status": "Inspected",
    "rowid": "848842",
    "longitude": "0.0",
    "latitude": "0.0",
    "geocoded_column": {
      "latitude": "0.0",
      "longitude": "0.0"
    }
  },
  {
    "service_request": "2021-848841",
    "request_type": "Traffic Signals/Signs/Striping/Streetlights",
    "request_reason": "Street Light Outage/Malfunction",
    "date_created": "2021-12-17T12:12:30.000",
    "date_modified": "2021-12-17T13:01:08.000",
    "request_status": "Pending",
    "responsible_agency": "Department of Public Works",
    "final_address": "12000 Hayne Blvd",
    "address_councildis": "E",
    "status": "Pending",
    "contractor": "Royal Engineering",
    "rowid": "848841",
    "final_x": "3712819.66565",
    "final_y": "569070.338662",
    "longitude": "-89.9677620707979",
    "latitude": "30.057756472505755",
    "geocoded_column": {
      "latitude": "30.057756472505755",
      "longitude": "-89.9677620707979"
    }
  },
  {
    "service_request": "2021-848840",
    "request_type": "Trash/Recycling",
    "request_reason": "Request a Large Item Pick Up",
    "date_created": "2021-12-17T12:06:43.000",
    "date_modified": "2021-12-17T13:01:10.000",
    "request_status": "Pending",
    "responsible_agency": "Department of Sanitation",
    "final_address": "1830 Fern St",
    "address_councildis": "A",
    "status": "Assigned to Contractor",
    "contractor": "Richards Disposal",
    "rowid": "848840",
    "final_x": "3664099.74746",
    "final_y": "529632.504193",
    "longitude": "-90.12307725297977",
    "latitude": "29.950822523726508",
    "geocoded_column": {
      "latitude": "29.950822523726508",
      "longitude": "-90.12307725297977"
    }
  },
  {
    "service_request": "2021-848839",
    "request_type": "Traffic Signals/Signs/Striping/Streetlights",
    "request_reason": "Traffic Signal Malfunctioning/Damaged",
    "date_created": "2021-12-17T12:05:52.000",
    "date_modified": "2021-12-17T13:01:12.000",
    "request_status": "Pending",
    "responsible_agency": "Department of Public Works",
    "final_address": "WASHINGTON AVE & S CLAIBORNE AVE",
    "address_councildis": "B",
    "status": "Pending",
    "rowid": "848839",
    "final_x": "3673195.7",
    "final_y": "526653.08",
    "longitude": "-90.09445851618365",
    "latitude": "29.942362783507658",
    "geocoded_column": {
      "latitude": "29.942362783507658",
      "longitude": "-90.09445851618365"
    }
  },
  {
    "service_request": "2021-848837",
    "request_type": "Trash/Recycling",
    "request_reason": "Order Trash Cart",
    "date_created": "2021-12-17T11:59:20.000",
    "date_modified": "2021-12-17T12:02:02.000",
    "request_status": "Pending",
    "responsible_agency": "Department of Sanitation",
    "final_address": "1812 Martin Luther King, Jr. Blvd",
    "address_councildis": "B",
    "status": "Assigned to Contractor",
    "contractor": "Richards Disposal",
    "rowid": "848837",
    "final_x": "3678290.36354",
    "final_y": "526061.671998",
    "longitude": "-90.07839396543066",
    "latitude": "29.940584163643585",
    "geocoded_column": {
      "latitude": "29.940584163643585",
      "longitude": "-90.07839396543066"
    }
  },
  {
    "service_request": "2021-848836",
    "request_type": "Trash/Recycling",
    "request_reason": "Order Trash Cart",
    "date_created": "2021-12-17T11:57:15.000",
    "date_modified": "2021-12-17T12:02:07.000",
    "request_status": "Pending",
    "responsible_agency": "Department of Sanitation",
    "final_address": "1814 Martin Luther King, Jr. Blvd",
    "address_councildis": "B",
    "status": "Assigned to Contractor",
    "contractor": "Richards Disposal",
    "rowid": "848836",
    "final_x": "3678283.3323",
    "final_y": "526066.533118",
    "longitude": "-90.07841599616037",
    "latitude": "29.940597741857626",
    "geocoded_column": {
      "latitude": "29.940597741857626",
      "longitude": "-90.07841599616037"
    }
  },
  {
    "service_request": "2021-848835",
    "request_type": "Traffic Signals/Signs/Striping/Streetlights",
    "request_reason": "Street Light Outage/Malfunction",
    "date_created": "2021-12-17T11:55:31.000",
    "date_modified": "2021-12-17T11:55:32.000",
    "request_status": "Pending",
    "responsible_agency": "Department of Public Works",
    "final_address": "7700 BLK Lehigh St",
    "address_councildis": "E",
    "status": "Pending",
    "contractor": "Royal Engineering",
    "rowid": "848835",
    "final_x": "3710173.62916",
    "final_y": "566292.262872",
    "longitude": "-89.97622979164422",
    "latitude": "30.050204333579266",
    "geocoded_column": {
      "latitude": "30.050204333579266",
      "longitude": "-89.97622979164422"
    }
  },
  {
    "service_request": "2021-848834",
    "request_type": "Trash/Recycling",
    "request_reason": "Repair Trash Cart",
    "date_created": "2021-12-17T11:51:40.000",
    "date_modified": "2021-12-17T12:02:09.000",
    "request_status": "Pending",
    "responsible_agency": "Department of Sanitation",
    "final_address": "2820 Leonidas St",
    "address_councildis": "A",
    "status": "Assigned to Contractor",
    "contractor": "Richards Disposal",
    "rowid": "848834",
    "final_x": "3664610.90784",
    "final_y": "533983.896773",
    "longitude": "-90.12131793121779",
    "latitude": "29.962772580606554",
    "geocoded_column": {
      "latitude": "29.962772580606554",
      "longitude": "-90.12131793121779"
    }
  },
  {
    "service_request": "2021-848833",
    "request_type": "Trash/Recycling",
    "request_reason": "Order Trash Cart",
    "date_created": "2021-12-17T11:51:26.000",
    "date_modified": "2021-12-17T12:02:11.000",
    "request_status": "Pending",
    "responsible_agency": "Department of Sanitation",
    "final_address": "4916 Moore Dr",
    "address_councildis": "D",
    "status": "Assigned to Contractor",
    "contractor": "Metro Disposal",
    "rowid": "848833",
    "final_x": "3679899.73519",
    "final_y": "549677.16514",
    "longitude": "-90.07249250026004",
    "latitude": "30.005470064894986",
    "geocoded_column": {
      "latitude": "30.005470064894986",
      "longitude": "-90.07249250026004"
    }
  },
  {
    "service_request": "2021-848832",
    "request_type": "Trash/Recycling",
    "request_reason": "Replace Trash Cart",
    "date_created": "2021-12-17T11:48:15.000",
    "date_modified": "2021-12-17T12:02:12.000",
    "request_status": "Pending",
    "responsible_agency": "Department of Sanitation",
    "final_address": "1623 Seventh St",
    "address_councildis": "B",
    "status": "Assigned to Contractor",
    "contractor": "Richards Disposal",
    "rowid": "848832",
    "final_x": "3675144.76104",
    "final_y": "522288.910778",
    "longitude": "-90.08845458143722",
    "latitude": "29.930304655542766",
    "geocoded_column": {
      "latitude": "29.930304655542766",
      "longitude": "-90.08845458143722"
    }
  },
  {
    "service_request": "2021-848831",
    "request_type": "Traffic Signals/Signs/Striping/Streetlights",
    "request_reason": "Street Light Outage/Malfunction",
    "date_created": "2021-12-17T11:46:31.000",
    "date_modified": "2021-12-17T12:02:14.000",
    "request_status": "Pending",
    "responsible_agency": "Department of Public Works",
    "final_address": "2816 Leonidas St",
    "address_councildis": "A",
    "status": "Pending",
    "contractor": "Royal Engineering",
    "rowid": "848831",
    "final_x": "3664591.59732",
    "final_y": "533960.917829",
    "longitude": "-90.12137967911245",
    "latitude": "29.96270995767357",
    "geocoded_column": {
      "latitude": "29.96270995767357",
      "longitude": "-90.12137967911245"
    }
  },
  {
    "service_request": "2021-848830",
    "request_type": "Traffic Signals/Signs/Striping/Streetlights",
    "request_reason": "Street Name Sign Damaged or Missing",
    "date_created": "2021-12-17T11:45:00.000",
    "date_modified": "2021-12-17T12:02:15.000",
    "request_status": "Pending",
    "responsible_agency": "Department of Public Works",
    "final_address": "VALENCE ST & MAGNOLIA ST",
    "address_councildis": "B",
    "status": "Pending",
    "rowid": "848830",
    "final_x": "3669357.2",
    "final_y": "524628.38",
    "longitude": "-90.10664599254918",
    "latitude": "29.936909070281033",
    "geocoded_column": {
      "latitude": "29.936909070281033",
      "longitude": "-90.10664599254918"
    }
  },
  {
    "service_request": "2021-848827",
    "request_type": "Trash/Recycling",
    "request_reason": "Order Trash Cart",
    "date_created": "2021-12-17T11:36:02.000",
    "date_modified": "2021-12-17T11:36:13.000",
    "request_status": "Pending",
    "responsible_agency": "Department of Sanitation",
    "final_address": "4727 Patterson St",
    "address_councildis": "C",
    "status": "Assigned to Contractor",
    "contractor": "Richards Disposal",
    "rowid": "848827",
    "final_x": "3701523.31722",
    "final_y": "524830.398844",
    "longitude": "-90.00508918899084",
    "latitude": "29.936478492771695",
    "geocoded_column": {
      "latitude": "29.936478492771695",
      "longitude": "-90.00508918899084"
    }
  },
  {
    "service_request": "2021-848826",
    "request_type": "Trash/Recycling",
    "request_reason": "Order Trash Cart",
    "date_created": "2021-12-17T11:34:05.000",
    "date_modified": "2021-12-17T11:34:05.000",
    "request_status": "Pending",
    "responsible_agency": "Department of Sanitation",
    "final_address": "4733 Patterson St",
    "address_councildis": "C",
    "status": "Assigned to Contractor",
    "contractor": "Richards Disposal",
    "rowid": "848826",
    "final_x": "3701585.47261",
    "final_y": "524809.38758",
    "longitude": "-90.00489373244972",
    "latitude": "29.93641873785952",
    "geocoded_column": {
      "latitude": "29.93641873785952",
      "longitude": "-90.00489373244972"
    }
  },
  {
    "service_request": "2021-848825",
    "request_type": "Trash/Recycling",
    "request_reason": "Request a Large Item Pick Up",
    "date_created": "2021-12-17T11:33:11.000",
    "date_modified": "2021-12-17T11:33:12.000",
    "request_status": "Pending",
    "responsible_agency": "Department of Sanitation",
    "final_address": "3434 Palmyra St",
    "address_councildis": "B",
    "status": "Assigned to Contractor",
    "contractor": "Richards Disposal",
    "rowid": "848825",
    "final_x": "3672420.74843",
    "final_y": "536290.288455",
    "longitude": "-90.09657680659699",
    "latitude": "29.968884926564794",
    "geocoded_column": {
      "latitude": "29.968884926564794",
      "longitude": "-90.09657680659699"
    }
  },
  {
    "service_request": "2021-848823",
    "request_type": "Abandoned Vehicles",
    "request_reason": "Abandoned/Junk Vehicles",
    "date_created": "2021-12-17T11:27:08.000",
    "date_modified": "2021-12-17T11:27:09.000",
    "request_status": "Pending",
    "responsible_agency": "Department of Public Works",
    "final_address": "4601 Bundy Rd",
    "address_councildis": "E",
    "status": "Pending",
    "rowid": "848823",
    "final_x": "3709558.57099",
    "final_y": "554859.392664",
    "longitude": "-89.97860097683011",
    "latitude": "30.018788487532298",
    "geocoded_column": {
      "latitude": "30.018788487532298",
      "longitude": "-89.97860097683011"
    }
  },
  {
    "service_request": "2021-848819",
    "request_type": "Trash/Recycling",
    "request_reason": "Request a Large Item Pick Up",
    "date_created": "2021-12-17T11:15:23.000",
    "date_modified": "2021-12-17T12:02:19.000",
    "request_status": "Pending",
    "responsible_agency": "Department of Sanitation",
    "final_address": "6035 Garfield St, New Orleans, Louisiana, 70118",
    "address_councildis": "A",
    "status": "Assigned to Contractor",
    "contractor": "Richards Disposal",
    "rowid": "848819",
    "final_x": "3665141.25293",
    "final_y": "521676.296761",
    "longitude": "-90.12005469619926",
    "latitude": "29.928915208713946",
    "geocoded_column": {
      "latitude": "29.928915208713946",
      "longitude": "-90.12005469619926"
    }
  },
  {
    "service_request": "2021-848817",
    "request_type": "Trash/Recycling",
    "request_reason": "MIssed Recycling Pick-Up",
    "date_created": "2021-12-17T11:07:41.000",
    "date_modified": "2021-12-17T12:02:20.000",
    "request_status": "Pending",
    "responsible_agency": "Department of Sanitation",
    "final_address": "7927 Willow St",
    "address_councildis": "A",
    "status": "Assigned to Contractor",
    "contractor": "Richards Disposal",
    "rowid": "848817",
    "final_x": "3662892.21792",
    "final_y": "528546.184576",
    "longitude": "-90.12692614990462",
    "latitude": "29.9478705084713",
    "geocoded_column": {
      "latitude": "29.9478705084713",
      "longitude": "-90.12692614990462"
    }
  },
  {
    "service_request": "2021-848815",
    "request_type": "Abandoned Vehicles",
    "request_reason": "Abandoned/Junk Vehicles",
    "date_created": "2021-12-17T11:05:44.000",
    "date_modified": "2021-12-17T11:05:44.000",
    "request_status": "Pending",
    "responsible_agency": "Department of Public Works",
    "final_address": "501 S Rendon St",
    "address_councildis": "B",
    "status": "Pending",
    "rowid": "848815",
    "final_x": "3672557.5435",
    "final_y": "535166.278342",
    "longitude": "-90.0961831238627",
    "latitude": "29.96579021617916",
    "geocoded_column": {
      "latitude": "29.96579021617916",
      "longitude": "-90.0961831238627"
    }
  },
  {
    "service_request": "2021-848814",
    "request_type": "Traffic Signals/Signs/Striping/Streetlights",
    "request_reason": "Street Light Outage/Malfunction",
    "date_created": "2021-12-17T10:49:11.000",
    "date_modified": "2021-12-17T11:01:09.000",
    "request_status": "Pending",
    "responsible_agency": "Department of Public Works",
    "final_address": "8830 Hayne Blvd",
    "address_councildis": "E",
    "status": "Pending",
    "contractor": "Royal Engineering",
    "rowid": "848814",
    "final_x": "3704289.89924",
    "final_y": "563995.365665",
    "longitude": "-89.9949107927332",
    "latitude": "30.044079074239054",
    "geocoded_column": {
      "latitude": "30.044079074239054",
      "longitude": "-89.9949107927332"
    }
  },
  {
    "service_request": "2021-848813",
    "request_type": "Trash/Recycling",
    "request_reason": "Repair Trash Cart",
    "date_created": "2021-12-17T10:47:42.000",
    "date_modified": "2021-12-17T10:47:43.000",
    "request_status": "Pending",
    "responsible_agency": "Department of Sanitation",
    "final_address": "429 Florida Blvd",
    "address_councildis": "A",
    "status": "Assigned to Contractor",
    "contractor": "Metro Disposal",
    "rowid": "848813",
    "final_x": "3667543.72148",
    "final_y": "545585.171984",
    "longitude": "-90.11166585723004",
    "latitude": "29.994586555224554",
    "geocoded_column": {
      "latitude": "29.994586555224554",
      "longitude": "-90.11166585723004"
    }
  },
  {
    "service_request": "2021-848812",
    "request_type": "Trash/Recycling",
    "request_reason": "Request a Large Item Pick Up",
    "date_created": "2021-12-17T10:47:08.000",
    "date_modified": "2021-12-17T10:47:09.000",
    "request_status": "Pending",
    "responsible_agency": "Department of Sanitation",
    "final_address": "4200 S Johnson St",
    "address_councildis": "B",
    "status": "Assigned to Contractor",
    "contractor": "Richards Disposal",
    "rowid": "848812",
    "final_x": "3670924.46151",
    "final_y": "527240.394879",
    "longitude": "-90.10160941087133",
    "latitude": "29.944045034904434",
    "geocoded_column": {
      "latitude": "29.944045034904434",
      "longitude": "-90.10160941087133"
    }
  },
  {
    "service_request": "2021-848811",
    "request_type": "Trash/Recycling",
    "request_reason": "Order Recycling Cart",
    "date_created": "2021-12-17T10:46:35.000",
    "date_modified": "2021-12-17T10:46:35.000",
    "request_status": "Pending",
    "responsible_agency": "Department of Sanitation",
    "final_address": "429 Florida Blvd",
    "address_councildis": "A",
    "status": "Pending",
    "rowid": "848811",
    "final_x": "3667543.72148",
    "final_y": "545585.171984",
    "longitude": "-90.11166585723004",
    "latitude": "29.994586555224554",
    "geocoded_column": {
      "latitude": "29.994586555224554",
      "longitude": "-90.11166585723004"
    }
  },
  {
    "service_request": "2021-848810",
    "request_type": "Traffic Signals/Signs/Striping/Streetlights",
    "request_reason": "Street Light Outage/Malfunction",
    "date_created": "2021-12-17T10:44:45.000",
    "date_modified": "2021-12-17T10:44:45.000",
    "request_status": "Pending",
    "responsible_agency": "Department of Public Works",
    "final_address": "429 Florida Blvd",
    "address_councildis": "A",
    "status": "Pending",
    "contractor": "Royal Engineering",
    "rowid": "848810",
    "final_x": "3667543.72148",
    "final_y": "545585.171984",
    "longitude": "-90.11166585723004",
    "latitude": "29.994586555224554",
    "geocoded_column": {
      "latitude": "29.994586555224554",
      "longitude": "-90.11166585723004"
    }
  },
  {
    "service_request": "2021-848809",
    "request_type": "Traffic Signals/Signs/Striping/Streetlights",
    "request_reason": "Street Name Sign Damaged or Missing",
    "date_created": "2021-12-17T10:26:26.000",
    "date_modified": "2021-12-17T11:01:11.000",
    "request_status": "Pending",
    "responsible_agency": "Department of Public Works",
    "final_address": "State St & Willow St, New Orleans, Louisiana, 70118",
    "address_councildis": "A",
    "rowid": "848809",
    "final_x": "3666819.8",
    "final_y": "525764.68",
    "longitude": "-90.11461857043614",
    "latitude": "29.940107979999212",
    "geocoded_column": {
      "latitude": "29.940107979999212",
      "longitude": "-90.11461857043614"
    }
  },
  {
    "service_request": "2021-848807",
    "request_type": "Roads/Drainage",
    "request_reason": "Catch Basin - Broken/Damage",
    "date_created": "2021-12-17T10:09:05.000",
    "date_modified": "2021-12-17T14:14:42.000",
    "case_close_date": "2021-12-17T08:14:42.000",
    "request_status": "Closed",
    "responsible_agency": "Department of Public Works",
    "final_address": "7200 Downman Rd",
    "address_councildis": "D",
    "status": "Duplicate Case",
    "rowid": "848807",
    "final_x": "3694978.47222",
    "final_y": "557048.165786",
    "longitude": "-90.02458968301826",
    "latitude": "30.025272711762245",
    "geocoded_column": {
      "latitude": "30.025272711762245",
      "longitude": "-90.02458968301826"
    }
  },
  {
    "service_request": "2021-848806",
    "request_type": "Health Related Questions",
    "request_reason": "Noise Ordinance Complaint",
    "date_created": "2021-12-17T10:07:55.000",
    "date_modified": "2021-12-17T11:01:14.000",
    "request_status": "Pending",
    "responsible_agency": "Health Department",
    "final_address": "OKEEFE AVE & LAFAYETTE ST",
    "address_councildis": "B",
    "status": "Pending",
    "rowid": "848806",
    "final_x": "3679446.1",
    "final_y": "529190.88",
    "longitude": "-90.07463658656482",
    "latitude": "29.949153587277227",
    "geocoded_column": {
      "latitude": "29.949153587277227",
      "longitude": "-90.07463658656482"
    }
  },
  {
    "service_request": "2021-848805",
    "request_type": "Trash/Recycling",
    "request_reason": "Request a Large Item Pick Up",
    "date_created": "2021-12-17T10:06:58.000",
    "date_modified": "2021-12-17T10:06:59.000",
    "request_status": "Pending",
    "responsible_agency": "Department of Sanitation",
    "final_address": "8311 Birch St",
    "address_councildis": "A",
    "status": "Assigned to Contractor",
    "contractor": "Richards Disposal",
    "rowid": "848805",
    "final_x": "3662318.35667",
    "final_y": "530008.140289",
    "longitude": "-90.1286895389724",
    "latitude": "29.951907017854175",
    "geocoded_column": {
      "latitude": "29.951907017854175",
      "longitude": "-90.1286895389724"
    }
  },
  {
    "service_request": "2021-848804",
    "request_type": "Traffic Signals/Signs/Striping/Streetlights",
    "request_reason": "Additional signage",
    "date_created": "2021-12-17T10:05:06.000",
    "date_modified": "2021-12-17T11:01:15.000",
    "request_status": "Pending",
    "responsible_agency": "Department of Public Works",
    "final_address": "CLOUET ST & N ROBERTSON ST & N ROBERTSON AVE",
    "address_councildis": "C",
    "status": "Pending",
    "rowid": "848804",
    "final_x": "3689375.3",
    "final_y": "537483.08",
    "longitude": "-90.04299099990166",
    "latitude": "29.971650610135935",
    "geocoded_column": {
      "latitude": "29.971650610135935",
      "longitude": "-90.04299099990166"
    }
  },
  {
    "service_request": "2021-848802",
    "request_type": "Property Maintenance",
    "request_reason": "Property Maintenance",
    "date_created": "2021-12-17T09:52:32.000",
    "date_modified": "2021-12-17T10:01:50.000",
    "request_status": "Pending",
    "responsible_agency": "Department of Code Enforcement",
    "final_address": "8609 Stroelitz St",
    "address_councildis": "A",
    "status": "Pending",
    "rowid": "848802",
    "final_x": "3666601.38497",
    "final_y": "536250.794311",
    "longitude": "-90.11495612185045",
    "latitude": "29.968947756416984",
    "geocoded_column": {
      "latitude": "29.968947756416984",
      "longitude": "-90.11495612185045"
    }
  },
  {
    "service_request": "2021-848801",
    "request_type": "Abandoned Vehicles",
    "request_reason": "Abandoned/Junk Vehicles",
    "date_created": "2021-12-17T09:48:48.000",
    "date_modified": "2021-12-17T09:48:48.000",
    "request_status": "Pending",
    "responsible_agency": "Department of Public Works",
    "final_address": "1604 N Dorgenois St",
    "address_councildis": "D",
    "status": "Pending",
    "rowid": "848801",
    "final_x": "3679622.07125",
    "final_y": "539833.877066",
    "longitude": "-90.07371155278604",
    "latitude": "29.978412886276306",
    "geocoded_column": {
      "latitude": "29.978412886276306",
      "longitude": "-90.07371155278604"
    }
  },
  {
    "service_request": "2021-848800",
    "request_type": "Trash/Recycling",
    "request_reason": "Request a Large Item Pick Up",
    "date_created": "2021-12-17T09:48:16.000",
    "date_modified": "2021-12-17T09:48:16.000",
    "request_status": "Pending",
    "responsible_agency": "Department of Sanitation",
    "final_address": "1630 Second St",
    "address_councildis": "B",
    "status": "Assigned to Contractor",
    "contractor": "Richards Disposal",
    "rowid": "848800",
    "final_x": "3676510.81685",
    "final_y": "523270.825595",
    "longitude": "-90.08410835988671",
    "latitude": "29.932963721813557",
    "geocoded_column": {
      "latitude": "29.932963721813557",
      "longitude": "-90.08410835988671"
    }
  },
  {
    "service_request": "2021-848799",
    "request_type": "Roads/Drainage",
    "request_reason": "Catch Basin - Clogged",
    "date_created": "2021-12-17T09:46:22.000",
    "date_modified": "2021-12-17T09:46:22.000",
    "request_status": "Pending",
    "responsible_agency": "Department of Public Works",
    "final_address": "2138 Magazine St",
    "address_councildis": "B",
    "status": "Pending",
    "rowid": "848799",
    "final_x": "3678936.49397",
    "final_y": "522094.616122",
    "longitude": "-90.07649140251388",
    "latitude": "29.929656592521393",
    "geocoded_column": {
      "latitude": "29.929656592521393",
      "longitude": "-90.07649140251388"
    }
  },
  {
    "service_request": "2021-848798",
    "request_type": "Traffic Signals/Signs/Striping/Streetlights",
    "request_reason": "Street Light Outage/Malfunction",
    "date_created": "2021-12-17T09:44:50.000",
    "date_modified": "2021-12-17T10:01:52.000",
    "request_status": "Pending",
    "responsible_agency": "Department of Public Works",
    "final_address": "2471 N Rampart St",
    "address_councildis": "C",
    "status": "Pending",
    "contractor": "Royal Engineering",
    "rowid": "848798",
    "final_x": "3686393.0726",
    "final_y": "536084.712775",
    "longitude": "-90.05245867111009",
    "latitude": "29.967897593052978",
    "geocoded_column": {
      "latitude": "29.967897593052978",
      "longitude": "-90.05245867111009"
    }
  },
  {
    "service_request": "2021-848797",
    "request_type": "Traffic Signals/Signs/Striping/Streetlights",
    "request_reason": "Street Light Outage/Malfunction",
    "date_created": "2021-12-17T09:40:26.000",
    "date_modified": "2021-12-17T09:40:27.000",
    "request_status": "Pending",
    "responsible_agency": "Department of Public Works",
    "final_address": "900 BLK Perdido St",
    "address_councildis": "B",
    "status": "Pending",
    "contractor": "Royal Engineering",
    "rowid": "848797",
    "final_x": "3679961.70697",
    "final_y": "529914.711612",
    "longitude": "-90.0729834507535",
    "latitude": "29.95112829727571",
    "geocoded_column": {
      "latitude": "29.95112829727571",
      "longitude": "-90.0729834507535"
    }
  },
  {
    "service_request": "2021-848795",
    "request_type": "Roads/Drainage",
    "request_reason": "Man hole cover issue",
    "date_created": "2021-12-17T09:36:49.000",
    "date_modified": "2021-12-17T09:36:49.000",
    "request_status": "Pending",
    "responsible_agency": "Department of Public Works",
    "final_address": "PERDIDO ST & PENN ST",
    "address_councildis": "B",
    "status": "Pending",
    "rowid": "848795",
    "final_x": "3679905.7",
    "final_y": "529941.38",
    "longitude": "-90.0731593667439",
    "latitude": "29.95120332016437",
    "geocoded_column": {
      "latitude": "29.95120332016437",
      "longitude": "-90.0731593667439"
    }
  },