[
  {
    "service_request": "2022-897481",
    "request_type": "Health Related Questions",
    "request_reason": "Noise Ordinance Complaint",
    "date_created": "2022-07-07T01:14:23.000",
    "date_modified": "2022-07-07T01:14:23.000",
    "request_status": "Pending",
    "responsible_agency": "Health Department",
    "final_address": "1659 N Rocheblave St",
    "address_councildis": "D",
    "status": "Pending",
    "rowid": "897481",
    "final_x": "3680228.89333",
    "final_y": "539951.295946",
    "longitude": "-90.07179090465783",
    "latitude": "29.978717391121254",
    "geocoded_column": {
      "latitude": "29.978717391121254",
      "longitude": "-90.07179090465783"
    }
  },
  {
    "service_request": "2022-897480",
    "request_type": "Roads/Drainage",
    "request_reason": "Street Subsidence (Sinking)",
    "date_created": "2022-07-07T00:45:47.000",
    "date_modified": "2022-07-07T00:45:47.000",
    "request_status": "Pending",
    "responsible_agency": "Department of Public Works",
    "final_address": "4258 Vendome Pl",
    "address_councildis": "B",
    "status": "Pending",
    "rowid": "897480",
    "final_x": "3669138.33402",
    "final_y": "531517.219459",
    "longitude": "-90.10710422338153",
    "latitude": "29.955857577685023",
    "geocoded_column": {
      "latitude": "29.955857577685023",
      "longitude": "-90.10710422338153"
    }
  },
  {
    "service_request": "2022-897479",
    "request_type": "Traffic Signals/Signs/Striping/Streetlights",
    "request_reason": "Street Light Outage/Malfunction",
    "date_created": "2022-07-07T00:37:53.000",
    "date_modified": "2022-07-07T00:37:54.000",
    "request_status": "Pending",
    "responsible_agency": "Department of Public Works",
    "final_address": "4150 Earhart Blvd",
    "address_councildis": "B",
    "status": "Pending",
    "contractor": "Royal Engineering",
    "rowid": "897479",
    "final_x": "3671885.14446",
    "final_y": "531621.784131",
    "longitude": "-90.09842717620424",
    "latitude": "29.95606398312866",
    "geocoded_column": {
      "latitude": "29.95606398312866",
      "longitude": "-90.09842717620424"
    }
  },
  {
    "service_request": "2022-897478",
    "request_type": "Trash/Recycling",
    "request_reason": "Missed Trash Pick-Up",
    "date_created": "2022-07-07T00:23:58.000",
    "date_modified": "2022-07-07T00:23:58.000",
    "request_status": "Pending",
    "responsible_agency": "Department of Sanitation",
    "final_address": "4258 Vendome Pl",
    "address_councildis": "B",
    "status": "Assigned to Contractor",
    "contractor": "Richards Disposal",
    "rowid": "897478",
    "final_x": "3669138.33402",
    "final_y": "531517.219459",
    "longitude": "-90.10710422338153",
    "latitude": "29.955857577685023",
    "geocoded_column": {
      "latitude": "29.955857577685023",
      "longitude": "-90.10710422338153"
    }
  },
  {
    "service_request": "2022-897477",
    "request_type": "Trash/Recycling",
    "request_reason": "Missed Trash Pick-Up",
    "date_created": "2022-07-07T00:13:16.000",
    "date_modified": "2022-07-07T00:13:17.000",
    "request_status": "Pending",
    "responsible_agency": "Department of Sanitation",
    "final_address": "4258 Vendome Pl",
    "address_councildis": "B",
    "status": "Assigned to Contractor",
    "contractor": "Richards Disposal",
    "rowid": "897477",
    "final_x": "3669138.33402",
    "final_y": "531517.219459",
    "longitude": "-90.10710422338153",
    "latitude": "29.955857577685023",
    "geocoded_column": {
      "latitude": "29.955857577685023",
      "longitude": "-90.10710422338153"
    }
  },
  {
    "service_request": "2022-897476",
    "request_type": "Abandoned Vehicles",
    "request_reason": "Abandoned/Junk Vehicles",
    "date_created": "2022-07-06T22:44:20.000",
    "date_modified": "2022-07-06T22:44:20.000",
    "request_status": "Pending",
    "responsible_agency": "Department of Public Works",
    "final_address": "7660 Pineridge St",
    "address_councildis": "E",
    "status": "Pending",
    "rowid": "897476",
    "final_x": "3718803.73337",
    "final_y": "572117.579944",
    "longitude": "-89.94873100648547",
    "latitude": "30.065937665411305",
    "geocoded_column": {
      "latitude": "30.065937665411305",
      "longitude": "-89.94873100648547"
    }
  },
  {
    "service_request": "2022-897475",
    "request_type": "Trash/Recycling",
    "request_reason": "Repair Recycling Cart",
    "date_created": "2022-07-06T22:35:59.000",
    "date_modified": "2022-07-06T22:35:59.000",
    "request_status": "Pending",
    "responsible_agency": "Department of Sanitation",
    "final_address": "4649 Arts St",
    "address_councildis": "D",
    "status": "Pending",
    "rowid": "897475",
    "final_x": "3686049.94556",
    "final_y": "549990.855828",
    "longitude": "-90.05305158830822",
    "latitude": "30.006145085504038",
    "geocoded_column": {
      "latitude": "30.006145085504038",
      "longitude": "-90.05305158830822"
    }
  },
  {
    "service_request": "2022-897474",
    "request_type": "Traffic Signals/Signs/Striping/Streetlights",
    "request_reason": "Street Light Outage/Malfunction",
    "date_created": "2022-07-06T22:06:03.000",
    "date_modified": "2022-07-06T22:06:03.000",
    "request_status": "Pending",
    "responsible_agency": "Department of Public Works",
    "final_address": "6224 York St",
    "address_councildis": "A",
    "status": "Pending",
    "contractor": "Royal Engineering",
    "rowid": "897474",
    "final_x": "3667651.61293",
    "final_y": "528971.729152",
    "longitude": "-90.11188446799234",
    "latitude": "29.948901974600375",
    "geocoded_column": {
      "latitude": "29.948901974600375",
      "longitude": "-90.11188446799234"
    }
  },
  {
    "service_request": "2022-897473",
    "request_type": "Traffic Signals/Signs/Striping/Streetlights",
    "request_reason": "Street Light Outage/Malfunction",
    "date_created": "2022-07-06T21:42:54.000",
    "date_modified": "2022-07-06T21:42:54.000",
    "request_status": "Pending",
    "responsible_agency": "Department of Public Works",
    "final_address": "1011 Port St",
    "address_councildis": "C",
    "status": "Pending",
    "contractor": "Royal Engineering",
    "rowid": "897473",
    "final_x": "3687366.44591",
    "final_y": "536056.179847",
    "longitude": "-90.04938574405226",
    "latitude": "29.967789183022887",
    "geocoded_column": {
      "latitude": "29.967789183022887",
      "longitude": "-90.04938574405226"
    }
  },
  {
    "service_request": "2022-897472",
    "request_type": "Roads/Drainage",
    "request_reason": "Catch Basin - Clogged",
    "date_created": "2022-07-06T21:37:11.000",
    "date_modified": "2022-07-06T21:37:11.000",
    "request_status": "Pending",
    "responsible_agency": "Department of Public Works",
    "final_address": "214 N Alexander St",
    "address_councildis": "A",
    "status": "Pending",
    "rowid": "897472",
    "final_x": "3670354.9954",
    "final_y": "539588.490634",
    "longitude": "-90.10298876225767",
    "latitude": "29.97801501768856",
    "geocoded_column": {
      "latitude": "29.97801501768856",
      "longitude": "-90.10298876225767"
    }
  },
  {
    "service_request": "2022-897471",
    "request_type": "Roads/Drainage",
    "request_reason": "Pothole",
    "date_created": "2022-07-06T21:36:14.000",
    "date_modified": "2022-07-06T21:36:14.000",
    "request_status": "Pending",
    "responsible_agency": "Department of Public Works",
    "final_address": "5033 St Bernard Ave",
    "address_councildis": "D",
    "status": "Pending",
    "rowid": "897471",
    "final_x": "3676792.1483",
    "final_y": "550783.571221",
    "longitude": "-90.08227190048952",
    "latitude": "30.008605944965897",
    "geocoded_column": {
      "latitude": "30.008605944965897",
      "longitude": "-90.08227190048952"
    }
  },
  {
    "service_request": "2022-897470",
    "request_type": "Property Maintenance",
    "request_reason": "Property Maintenance",
    "date_created": "2022-07-06T21:28:01.000",
    "date_modified": "2022-07-06T21:28:01.000",
    "request_status": "Pending",
    "responsible_agency": "Department of Code Enforcement",
    "final_address": "3729 Annunciation St",
    "address_councildis": "B",
    "status": "Pending",
    "rowid": "897470",
    "final_x": "3673662.79515",
    "final_y": "518085.373686",
    "longitude": "-90.0932765332611",
    "latitude": "29.918790466598665",
    "geocoded_column": {
      "latitude": "29.918790466598665",
      "longitude": "-90.0932765332611"
    }
  },
  {
    "service_request": "2022-897469",
    "request_type": "Trash/Recycling",
    "request_reason": "Replace Trash Cart",
    "date_created": "2022-07-06T21:23:21.000",
    "date_modified": "2022-07-06T21:23:22.000",
    "request_status": "Pending",
    "responsible_agency": "Department of Sanitation",
    "final_address": "729 Lowerline St, New Orleans, Louisiana, 70118",
    "address_councildis": "A",
    "status": "Assigned to Contractor",
    "contractor": "Richards Disposal",
    "rowid": "897469",
    "final_x": "3666937.63591",
    "final_y": "531466.928387",
    "longitude": "-90.1140549759421",
    "latitude": "29.955783867371395",
    "geocoded_column": {
      "latitude": "29.955783867371395",
      "longitude": "-90.1140549759421"
    }
  },
  {
    "service_request": "2022-897467",
    "request_type": "Trash/Recycling",
    "request_reason": "Missed Trash Pick-Up",
    "date_created": "2022-07-06T21:01:08.000",
    "date_modified": "2022-07-06T21:01:09.000",
    "request_status": "Pending",
    "responsible_agency": "Department of Sanitation",
    "final_address": "7471 Pitt St, New Orleans, Louisiana, 70118",
    "address_councildis": "A",
    "status": "Assigned to Contractor",
    "contractor": "Richards Disposal",
    "rowid": "897467",
    "final_x": "3660918.94387",
    "final_y": "523832.040379",
    "longitude": "-90.13331247911697",
    "latitude": "29.93496508537649",
    "geocoded_column": {
      "latitude": "29.93496508537649",
      "longitude": "-90.13331247911697"
    }
  },
  {
    "service_request": "2022-897466",
    "request_type": "Trash/Recycling",
    "request_reason": "Illegal Dumping",
    "date_created": "2022-07-06T21:00:20.000",
    "date_modified": "2022-07-06T21:00:20.000",
    "request_status": "Pending",
    "responsible_agency": "Department of Sanitation",
    "final_address": "639 Loyola Ave",
    "address_councildis": "B",
    "status": "Pending",
    "rowid": "897466",
    "final_x": "3678812.45179",
    "final_y": "529120.849216",
    "longitude": "-90.07663971762535",
    "latitude": "29.948980150081656",
    "geocoded_column": {
      "latitude": "29.948980150081656",
      "longitude": "-90.07663971762535"
    }
  },
  {
    "service_request": "2022-897465",
    "request_type": "Traffic Signals/Signs/Striping/Streetlights",
    "request_reason": "Street Light Outage/Malfunction",
    "date_created": "2022-07-06T20:56:22.000",
    "date_modified": "2022-07-06T20:56:23.000",
    "request_status": "Pending",
    "responsible_agency": "Department of Public Works",
    "final_address": "44 Yosemite Dr",
    "address_councildis": "C",
    "status": "Pending",
    "contractor": "Royal Engineering",
    "rowid": "897465",
    "final_x": "3700015.00663",
    "final_y": "516968.635125",
    "longitude": "-90.01013756761661",
    "latitude": "29.914909335566335",
    "geocoded_column": {
      "latitude": "29.914909335566335",
      "longitude": "-90.01013756761661"
    }
  },
  {
    "service_request": "2022-897464",
    "request_type": "Traffic Signals/Signs/Striping/Streetlights",
    "request_reason": "Traffic Signal Malfunctioning/Damaged",
    "date_created": "2022-07-06T20:42:43.000",
    "date_modified": "2022-07-06T20:42:44.000",
    "request_status": "Pending",
    "responsible_agency": "Department of Public Works",
    "final_address": "PRYTANIA ST & LOUISIANA AVE",
    "address_councildis": "B",
    "status": "Pending",
    "rowid": "897464",
    "final_x": "3674402.4",
    "final_y": "521036.18",
    "longitude": "-90.09084098464633",
    "latitude": "29.92688220672283",
    "geocoded_column": {
      "latitude": "29.92688220672283",
      "longitude": "-90.09084098464633"
    }
  },
  {
    "service_request": "2022-897463",
    "request_type": "Trash/Recycling",
    "request_reason": "Order Trash Cart",
    "date_created": "2022-07-06T20:40:05.000",
    "date_modified": "2022-07-06T20:40:05.000",
    "request_status": "Pending",
    "responsible_agency": "Department of Sanitation",
    "final_address": "816 First St",
    "address_councildis": "B",
    "status": "Assigned to Contractor",
    "contractor": "Richards Disposal",
    "rowid": "897463",
    "final_x": "3678555.42229",
    "final_y": "520684.461049",
    "longitude": "-90.07774315831291",
    "latitude": "29.92579061400443",
    "geocoded_column": {
      "latitude": "29.92579061400443",
      "longitude": "-90.07774315831291"
    }
  },
  {
    "service_request": "2022-897462",
    "request_type": "Trash/Recycling",
    "request_reason": "Request a Large Item Pick Up",
    "date_created": "2022-07-06T20:39:59.000",
    "date_modified": "2022-07-06T20:39:59.000",
    "request_status": "Pending",
    "responsible_agency": "Department of Sanitation",
    "final_address": "1825 Cadiz St",
    "address_councildis": "B",
    "status": "Assigned to Contractor",
    "contractor": "Richards Disposal",
    "rowid": "897462",
    "final_x": "3670038.94887",
    "final_y": "521747.234234",
    "longitude": "-90.10459121032423",
    "latitude": "29.928966758733726",
    "geocoded_column": {
      "latitude": "29.928966758733726",
      "longitude": "-90.10459121032423"
    }
  },
  {
    "service_request": "2022-897461",
    "request_type": "Trash/Recycling",
    "request_reason": "Missed Trash Pick-Up",
    "date_created": "2022-07-06T20:35:41.000",
    "date_modified": "2022-07-06T20:35:42.000",
    "request_status": "Pending",
    "responsible_agency": "Department of Sanitation",
    "final_address": "7454 Pearl St, New Orleans, Louisiana, 70118",
    "address_councildis": "A",
    "status": "Assigned to Contractor",
    "contractor": "Richards Disposal",
    "rowid": "897461",
    "final_x": "3661877.85805",
    "final_y": "525009.360957",
    "longitude": "-90.13024615583403",
    "latitude": "29.93817469637002",
    "geocoded_column": {
      "latitude": "29.93817469637002",
      "longitude": "-90.13024615583403"
    }
  },
  {
    "service_request": "2022-897460",
    "request_type": "Trash/Recycling",
    "request_reason": "Order Recycling Cart",
    "date_created": "2022-07-06T20:31:53.000",
    "date_modified": "2022-07-06T20:31:53.000",
    "request_status": "Pending",
    "responsible_agency": "Department of Sanitation",
    "final_address": "816 N Robertson St",
    "address_councildis": "C",
    "status": "Pending",
    "rowid": "897460",
    "final_x": "3680426.97986",
    "final_y": "534717.39847",
    "longitude": "-90.07134733532891",
    "latitude": "29.96431997765802",
    "geocoded_column": {
      "latitude": "29.96431997765802",
      "longitude": "-90.07134733532891"
    }
  },
  {
    "service_request": "2022-897459",
    "request_type": "Trash/Recycling",
    "request_reason": "Missed Trash Pick-Up",
    "date_created": "2022-07-06T20:24:05.000",
    "date_modified": "2022-07-06T20:24:06.000",
    "request_status": "Pending",
    "responsible_agency": "Department of Sanitation",
    "final_address": "914 Pleasant St",
    "address_councildis": "B",
    "status": "Assigned to Contractor",
    "contractor": "Richards Disposal",
    "rowid": "897459",
    "final_x": "3675790.90683",
    "final_y": "519311.832951",
    "longitude": "-90.08651706221367",
    "latitude": "29.92209933617099",
    "geocoded_column": {
      "latitude": "29.92209933617099",
      "longitude": "-90.08651706221367"
    }
  },
  {
    "service_request": "2022-897458",
    "request_type": "Trash/Recycling",
    "request_reason": "Missed Trash Pick-Up",
    "date_created": "2022-07-06T20:20:33.000",
    "date_modified": "2022-07-06T20:20:33.000",
    "request_status": "Pending",
    "responsible_agency": "Department of Sanitation",
    "final_address": "208 Hillary St",
    "address_councildis": "A",
    "status": "Assigned to Contractor",
    "contractor": "Richards Disposal",
    "rowid": "897458",
    "final_x": "3660791.92806",
    "final_y": "524467.190908",
    "longitude": "-90.13369247583448",
    "latitude": "29.936715206414828",
    "geocoded_column": {
      "latitude": "29.936715206414828",
      "longitude": "-90.13369247583448"
    }
  },
  {
    "service_request": "2022-897457",
    "request_type": "Property Maintenance",
    "request_reason": "Property Maintenance",
    "date_created": "2022-07-06T20:18:27.000",
    "date_modified": "2022-07-06T20:18:27.000",
    "request_status": "Pending",
    "responsible_agency": "Department of Code Enforcement",
    "final_address": "2 Gannon Rd",
    "address_councildis": "E",
    "status": "Pending",
    "rowid": "897457",
    "final_x": "3716058.77957",
    "final_y": "570534.616167",
    "longitude": "-89.95746816849034",
    "latitude": "30.061676089794005",
    "geocoded_column": {
      "latitude": "30.061676089794005",
      "longitude": "-89.95746816849034"
    }
  },
  {
    "service_request": "2022-897456",
    "request_type": "Trash/Recycling",
    "request_reason": "Missed Trash Pick-Up",
    "date_created": "2022-07-06T20:16:46.000",
    "date_modified": "2022-07-06T20:16:47.000",
    "request_status": "Pending",
    "responsible_agency": "Department of Sanitation",
    "final_address": "127 Alvin Callender St",
    "address_councildis": "A",
    "status": "Assigned to Contractor",
    "contractor": "Richards Disposal",
    "rowid": "897456",
    "final_x": "3661079.35078",
    "final_y": "523318.053627",
    "longitude": "-90.13282307405838",
    "latitude": "29.933547163249973",
    "geocoded_column": {
      "latitude": "29.933547163249973",
      "longitude": "-90.13282307405838"
    }
  },
  {
    "service_request": "2022-897455",
    "request_type": "Trash/Recycling",
    "request_reason": "Missed Trash Pick-Up",
    "date_created": "2022-07-06T20:13:49.000",
    "date_modified": "2022-07-06T20:13:50.000",
    "request_status": "Pending",
    "responsible_agency": "Department of Sanitation",
    "final_address": "7015 Jeannette St, New Orleans, Louisiana, 70118",
    "address_councildis": "A",
    "status": "Assigned to Contractor",
    "contractor": "Richards Disposal",
    "rowid": "897455",
    "final_x": "3665124.02164",
    "final_y": "527173.250943",
    "longitude": "-90.11992533156736",
    "latitude": "29.944030583429733",
    "geocoded_column": {
      "latitude": "29.944030583429733",
      "longitude": "-90.11992533156736"
    }
  },
  {
    "service_request": "2022-897454",
    "request_type": "Trash/Recycling",
    "request_reason": "Missed Trash Pick-Up",
    "date_created": "2022-07-06T20:11:12.000",
    "date_modified": "2022-07-06T20:12:06.000",
    "request_status": "Pending",
    "responsible_agency": "Department of Sanitation",
    "final_address": "6711 Tara Ln",
    "address_councildis": "E",
    "status": "Assigned to Contractor",
    "contractor": "Metro Disposal",
    "rowid": "897454",
    "final_x": "3707667.94161",
    "final_y": "558715.359388",
    "longitude": "-89.98443121334512",
    "latitude": "30.029452219035004",
    "geocoded_column": {
      "latitude": "30.029452219035004",
      "longitude": "-89.98443121334512"
    }
  },
  {
    "service_request": "2022-897453",
    "request_type": "Abandoned Vehicles",
    "request_reason": "Abandoned/Junk Vehicles",
    "date_created": "2022-07-06T20:03:56.000",
    "date_modified": "2022-07-06T20:03:56.000",
    "request_status": "Pending",
    "responsible_agency": "Department of Public Works",
    "final_address": "2844 Grand Route St John St",
    "address_councildis": "A",
    "status": "Pending",
    "rowid": "897453",
    "final_x": "3677935.83541",
    "final_y": "540221.099979",
    "longitude": "-90.07902391577285",
    "latitude": "29.979528477542306",
    "geocoded_column": {
      "latitude": "29.979528477542306",
      "longitude": "-90.07902391577285"
    }
  },
  {
    "service_request": "2022-897452",
    "request_type": "Trash/Recycling",
    "request_reason": "Missed Trash Pick-Up",
    "date_created": "2022-07-06T20:01:09.000",
    "date_modified": "2022-07-06T20:01:10.000",
    "request_status": "Pending",
    "responsible_agency": "Department of Sanitation",
    "final_address": "7719 Pearl St",
    "address_councildis": "A",
    "status": "Assigned to Contractor",
    "contractor": "Richards Disposal",
    "rowid": "897452",
    "final_x": "3661322.75584",
    "final_y": "525685.491069",
    "longitude": "-90.1319762934953",
    "latitude": "29.940049854606897",
    "geocoded_column": {
      "latitude": "29.940049854606897",
      "longitude": "-90.1319762934953"
    }
  },
  {
    "service_request": "2022-897451",
    "request_type": "Trash/Recycling",
    "request_reason": "Missed Trash Pick-Up",
    "date_created": "2022-07-06T20:01:06.000",
    "date_modified": "2022-07-06T20:01:07.000",
    "request_status": "Pending",
    "responsible_agency": "Department of Sanitation",
    "final_address": "7719 Pearl St",
    "address_councildis": "A",
    "status": "Assigned to Contractor",
    "contractor": "Richards Disposal",
    "rowid": "897451",
    "final_x": "3661322.75584",
    "final_y": "525685.491069",
    "longitude": "-90.1319762934953",
    "latitude": "29.940049854606897",
    "geocoded_column": {
      "latitude": "29.940049854606897",
      "longitude": "-90.1319762934953"
    }
  },
  {
    "service_request": "2022-897450",
    "request_type": "Trash/Recycling",
    "request_reason": "Illegal Dumping",
    "date_created": "2022-07-06T19:54:32.000",
    "date_modified": "2022-07-06T19:54:32.000",
    "request_status": "Pending",
    "responsible_agency": "Department of Sanitation",
    "final_address": "1228 General Ogden St",
    "address_councildis": "A",
    "status": "Pending",
    "rowid": "897450",
    "final_x": "3660009.42714",
    "final_y": "530485.617602",
    "longitude": "-90.13596433164113",
    "latitude": "29.95328647151915",
    "geocoded_column": {
      "latitude": "29.95328647151915",
      "longitude": "-90.13596433164113"
    }
  },
  {
    "service_request": "2022-897449",
    "request_type": "Trash/Recycling",
    "request_reason": "Illegal Dumping",
    "date_created": "2022-07-06T19:51:07.000",
    "date_modified": "2022-07-06T19:51:07.000",
    "request_status": "Pending",
    "responsible_agency": "Department of Sanitation",
    "final_address": "8826 Plum St",
    "address_councildis": "A",
    "status": "Pending",
    "rowid": "897449",
    "final_x": "3660179.53888",
    "final_y": "530427.577602",
    "longitude": "-90.13542910482363",
    "latitude": "29.953121991186883",
    "geocoded_column": {
      "latitude": "29.953121991186883",
      "longitude": "-90.13542910482363"
    }
  },
  {
    "service_request": "2022-897447",
    "request_type": "Trash/Recycling",
    "request_reason": "Replace Trash Cart",
    "date_created": "2022-07-06T19:41:03.000",
    "date_modified": "2022-07-06T19:41:04.000",
    "request_status": "Pending",
    "responsible_agency": "Department of Sanitation",
    "final_address": "1631 Sixth St",
    "address_councildis": "B",
    "status": "Assigned to Contractor",
    "contractor": "Richards Disposal",
    "rowid": "897447",
    "final_x": "3675383.72424",
    "final_y": "522475.95353",
    "longitude": "-90.08769379233294",
    "latitude": "29.930811821581226",
    "geocoded_column": {
      "latitude": "29.930811821581226",
      "longitude": "-90.08769379233294"
    }
  },
  {
    "service_request": "2022-897446",
    "request_type": "Parks & Parkways",
    "request_reason": "Request Tree Service (Right of Way/Public Property)",
    "date_created": "2022-07-06T19:38:31.000",
    "date_modified": "2022-07-06T19:38:31.000",
    "request_status": "Pending",
    "responsible_agency": "Department of Parks & Parkway",
    "final_address": "3026 Ponce De Leon St",
    "address_councildis": "A",
    "status": "Pending",
    "rowid": "897446",
    "final_x": "3676912.20616",
    "final_y": "540483.986827",
    "longitude": "-90.0822478835028",
    "latitude": "29.980282096681076",
    "geocoded_column": {
      "latitude": "29.980282096681076",
      "longitude": "-90.0822478835028"
    }
  },
  {
    "service_request": "2022-897445",
    "request_type": "Parks & Parkways",
    "request_reason": "Request Tree Service (Right of Way/Public Property)",
    "date_created": "2022-07-06T19:36:06.000",
    "date_modified": "2022-07-06T19:36:06.000",
    "request_status": "Pending",
    "responsible_agency": "Department of Parks & Parkway",
    "final_address": "3025 Grand Route St John St",
    "address_councildis": "A",
    "status": "Pending",
    "rowid": "897445",
    "final_x": "3676945.13589",
    "final_y": "540348.113291",
    "longitude": "-90.08214856337527",
    "latitude": "29.9799075026694",
    "geocoded_column": {
      "latitude": "29.9799075026694",
      "longitude": "-90.08214856337527"
    }
  },
  {
    "service_request": "2022-897444",
    "request_type": "Trash/Recycling",
    "request_reason": "Order Recycling Cart",
    "date_created": "2022-07-06T19:35:41.000",
    "date_modified": "2022-07-06T19:35:41.000",
    "request_status": "Pending",
    "responsible_agency": "Department of Sanitation",
    "final_address": "1526 Dumaine St",
    "address_councildis": "C",
    "status": "Pending",
    "rowid": "897444",
    "final_x": "3680558.51931",
    "final_y": "534874.830918",
    "longitude": "-90.07092646720449",
    "latitude": "29.964748878921352",
    "geocoded_column": {
      "latitude": "29.964748878921352",
      "longitude": "-90.07092646720449"
    }
  },
  {
    "service_request": "2022-897443",
    "request_type": "Roads/Drainage",
    "request_reason": "Street Flooding / Drainage",
    "date_created": "2022-07-06T19:30:45.000",
    "date_modified": "2022-07-06T19:30:45.000",
    "request_status": "Pending",
    "responsible_agency": "Department of Public Works",
    "final_address": "343 S Cortez St",
    "address_councildis": "A",
    "status": "Pending",
    "rowid": "897443",
    "final_x": "3671342.24219",
    "final_y": "536722.578375",
    "longitude": "-90.09996811112062",
    "latitude": "29.97010554268942",
    "geocoded_column": {
      "latitude": "29.97010554268942",
      "longitude": "-90.09996811112062"
    }
  },
  {
    "service_request": "2022-897442",
    "request_type": "Trash/Recycling",
    "request_reason": "Repair Trash Cart",
    "date_created": "2022-07-06T19:30:32.000",
    "date_modified": "2022-07-06T19:30:33.000",
    "request_status": "Pending",
    "responsible_agency": "Department of Sanitation",
    "final_address": "2609 Danneel St",
    "address_councildis": "B",
    "status": "Assigned to Contractor",
    "contractor": "Richards Disposal",
    "rowid": "897442",
    "final_x": "3675546.73736",
    "final_y": "524045.036668",
    "longitude": "-90.08712530975335",
    "latitude": "29.935121415400904",
    "geocoded_column": {
      "latitude": "29.935121415400904",
      "longitude": "-90.08712530975335"
    }
  },
  {
    "service_request": "2022-897441",
    "request_type": "Trash/Recycling",
    "request_reason": "Request a Large Item Pick Up",
    "date_created": "2022-07-06T19:17:03.000",
    "date_modified": "2022-07-06T19:17:03.000",
    "request_status": "Pending",
    "responsible_agency": "Department of Sanitation",
    "final_address": "2800 Banks St",
    "address_councildis": "B",
    "status": "Assigned to Contractor",
    "contractor": "Richards Disposal",
    "rowid": "897441",
    "final_x": "3674083.11752",
    "final_y": "534477.686021",
    "longitude": "-90.09138897541445",
    "latitude": "29.963851439977457",
    "geocoded_column": {
      "latitude": "29.963851439977457",
      "longitude": "-90.09138897541445"
    }
  },
  {
    "service_request": "2022-897440",
    "request_type": "Abandoned Vehicles",
    "request_reason": "Abandoned/Junk Vehicles",
    "date_created": "2022-07-06T19:10:37.000",
    "date_modified": "2022-07-06T19:10:37.000",
    "request_status": "Pending",
    "responsible_agency": "Department of Public Works",
    "final_address": "1023 Lyons St",
    "address_councildis": "B",
    "status": "Pending",
    "rowid": "897440",
    "final_x": "3669270.53562",
    "final_y": "519176.783607",
    "longitude": "-90.10710378197561",
    "latitude": "29.92192147178124",
    "geocoded_column": {
      "latitude": "29.92192147178124",
      "longitude": "-90.10710378197561"
    }
  },
  {
    "service_request": "2022-897439",
    "request_type": "Trash/Recycling",
    "request_reason": "Missed Trash Pick-Up",
    "date_created": "2022-07-06T19:06:29.000",
    "date_modified": "2022-07-06T19:06:29.000",
    "request_status": "Pending",
    "responsible_agency": "Department of Sanitation",
    "final_address": "425 Audubon Blvd",
    "address_councildis": "B",
    "status": "Assigned to Contractor",
    "contractor": "Richards Disposal",
    "rowid": "897439",
    "final_x": "3667522.00935",
    "final_y": "530394.362882",
    "longitude": "-90.11224581527765",
    "latitude": "29.95281755201174",
    "geocoded_column": {
      "latitude": "29.95281755201174",
      "longitude": "-90.11224581527765"
    }
  },
  {
    "service_request": "2022-897438",
    "request_type": "Trash/Recycling",
    "request_reason": "Missed Trash Pick-Up",
    "date_created": "2022-07-06T19:05:20.000",
    "date_modified": "2022-07-06T19:05:21.000",
    "request_status": "Pending",
    "responsible_agency": "Department of Sanitation",
    "final_address": "329 Lowerline St",
    "address_councildis": "A",
    "status": "Assigned to Contractor",
    "contractor": "Richards Disposal",
    "rowid": "897438",
    "final_x": "3661536.41658",
    "final_y": "523552.803195",
    "longitude": "-90.13137236076453",
    "latitude": "29.93417947531416",
    "geocoded_column": {
      "latitude": "29.93417947531416",
      "longitude": "-90.13137236076453"
    }
  },
  {
    "service_request": "2022-897437",
    "request_type": "Trash/Recycling",
    "request_reason": "Missed Trash Pick-Up",
    "date_created": "2022-07-06T18:54:50.000",
    "date_modified": "2022-07-06T18:54:51.000",
    "request_status": "Pending",
    "responsible_agency": "Department of Sanitation",
    "final_address": "7616 Hurst St",
    "address_councildis": "A",
    "status": "Assigned to Contractor",
    "contractor": "Richards Disposal",
    "rowid": "897437",
    "final_x": "3660793.83546",
    "final_y": "524642.908284",
    "longitude": "-90.1336806460374",
    "latitude": "29.93719831889418",
    "geocoded_column": {
      "latitude": "29.93719831889418",
      "longitude": "-90.1336806460374"
    }
  },
  {
    "service_request": "2022-897436",
    "request_type": "Trash/Recycling",
    "request_reason": "Missed Trash Pick-Up",
    "date_created": "2022-07-06T18:54:24.000",
    "date_modified": "2022-07-06T18:54:24.000",
    "request_status": "Pending",
    "responsible_agency": "Department of Sanitation",
    "final_address": "8542 Fordham Ct",
    "address_councildis": "E",
    "status": "Assigned to Contractor",
    "contractor": "Metro Disposal",
    "rowid": "897436",
    "final_x": "3705133.92638",
    "final_y": "560316.987997",
    "longitude": "-89.99237936106077",
    "latitude": "30.033937851410833",
    "geocoded_column": {
      "latitude": "30.033937851410833",
      "longitude": "-89.99237936106077"
    }
  },
  {
    "service_request": "2022-897435",
    "request_type": "Trash/Recycling",
    "request_reason": "Missed Trash Pick-Up",
    "date_created": "2022-07-06T18:50:56.000",
    "date_modified": "2022-07-06T18:50:58.000",
    "request_status": "Pending",
    "responsible_agency": "Department of Sanitation",
    "final_address": "7911 Jeannette St",
    "address_councildis": "A",
    "status": "Assigned to Contractor",
    "contractor": "Richards Disposal",
    "rowid": "897435",
    "final_x": "3663202.66061",
    "final_y": "528727.407936",
    "longitude": "-90.12593992459634",
    "latitude": "29.9483598234777",
    "geocoded_column": {
      "latitude": "29.9483598234777",
      "longitude": "-90.12593992459634"
    }
  },
  {
    "service_request": "2022-897434",
    "request_type": "Trash/Recycling",
    "request_reason": "Missed Trash Pick-Up",
    "date_created": "2022-07-06T18:47:13.000",
    "date_modified": "2022-07-06T18:47:14.000",
    "request_status": "Pending",
    "responsible_agency": "Department of Sanitation",
    "final_address": "7600 Hurst St",
    "address_councildis": "A",
    "status": "Assigned to Contractor",
    "contractor": "Richards Disposal",
    "rowid": "897434",
    "final_x": "3660885.10944",
    "final_y": "524562.83174",
    "longitude": "-90.13339513437518",
    "latitude": "29.936975505733685",
    "geocoded_column": {
      "latitude": "29.936975505733685",
      "longitude": "-90.13339513437518"
    }
  },
  {
    "service_request": "2022-897433",
    "request_type": "Trash/Recycling",
    "request_reason": "Missed Trash Pick-Up",
    "date_created": "2022-07-06T18:45:39.000",
    "date_modified": "2022-07-06T18:45:39.000",
    "request_status": "Pending",
    "responsible_agency": "Department of Sanitation",
    "final_address": "8517 Fordham Ct",
    "address_councildis": "E",
    "status": "Assigned to Contractor",
    "contractor": "Metro Disposal",
    "rowid": "897433",
    "final_x": "3704801.37579",
    "final_y": "560363.794845",
    "longitude": "-89.9934285240372",
    "latitude": "30.03407724861469",
    "geocoded_column": {
      "latitude": "30.03407724861469",
      "longitude": "-89.9934285240372"
    }
  },
  {
    "service_request": "2022-897432",
    "request_type": "Traffic Signals/Signs/Striping/Streetlights",
    "request_reason": "Street Light Outage/Malfunction",
    "date_created": "2022-07-06T18:42:09.000",
    "date_modified": "2022-07-06T18:42:09.000",
    "request_status": "Pending",
    "responsible_agency": "Department of Public Works",
    "final_address": "1340 Poydras St",
    "address_councildis": "B",
    "status": "Pending",
    "contractor": "Royal Engineering",
    "rowid": "897432",
    "final_x": "3678593.49717",
    "final_y": "529815.185473",
    "longitude": "-90.0773070210807",
    "latitude": "29.950895943655407",
    "geocoded_column": {
      "latitude": "29.950895943655407",
      "longitude": "-90.0773070210807"
    }
  },
  {
    "service_request": "2022-897431",
    "request_type": "Trash/Recycling",
    "request_reason": "Request a Large Item Pick Up",
    "date_created": "2022-07-06T18:39:15.000",
    "date_modified": "2022-07-06T18:39:16.000",
    "request_status": "Pending",
    "responsible_agency": "Department of Sanitation",
    "final_address": "2416 Broadway St",
    "address_councildis": "A",
    "status": "Assigned to Contractor",
    "contractor": "Richards Disposal",
    "rowid": "897431",
    "final_x": "3666634.66746",
    "final_y": "530275.214657",
    "longitude": "-90.11505165675878",
    "latitude": "29.952515904601903",
    "geocoded_column": {
      "latitude": "29.952515904601903",
      "longitude": "-90.11505165675878"
    }
  },
  {
    "service_request": "2022-897430",
    "request_type": "Trash/Recycling",
    "request_reason": "Missed Trash Pick-Up",
    "date_created": "2022-07-06T18:33:26.000",
    "date_modified": "2022-07-06T18:33:27.000",
    "request_status": "Pending",
    "responsible_agency": "Department of Sanitation",
    "final_address": "1900 BLK Audubon St",
    "address_councildis": "A",
    "status": "Assigned to Contractor",
    "contractor": "Richards Disposal",
    "rowid": "897430",
    "final_x": "3665898.29021",
    "final_y": "528531.215035",
    "longitude": "-90.11743524527486",
    "latitude": "29.947741978596035",
    "geocoded_column": {
      "latitude": "29.947741978596035",
      "longitude": "-90.11743524527486"
    }
  },
  {
    "service_request": "2022-897429",
    "request_type": "Trash/Recycling",
    "request_reason": "Request a Large Item Pick Up",
    "date_created": "2022-07-06T18:33:18.000",
    "date_modified": "2022-07-06T18:33:18.000",
    "request_status": "Pending",
    "responsible_agency": "Department of Sanitation",
    "final_address": "4501 Orleans Ave, New Orleans, Louisiana, 70119",
    "status": "Assigned to Contractor",
    "rowid": "897429",
    "longitude": "0.0",
    "latitude": "0.0",
    "geocoded_column": {
      "latitude": "0.0",
      "longitude": "0.0"
    }
  },
  {
    "service_request": "2022-897428",
    "request_type": "Trash/Recycling",
    "request_reason": "Request a Large Item Pick Up",
    "date_created": "2022-07-06T18:27:14.000",
    "date_modified": "2022-07-06T18:27:15.000",
    "request_status": "Pending",
    "responsible_agency": "Department of Sanitation",
    "final_address": "2327 DAbadie St",
    "address_councildis": "D",
    "status": "Assigned to Contractor",
    "contractor": "Metro Disposal",
    "rowid": "897428",
    "final_x": "3680508.94293",
    "final_y": "540044.025099",
    "longitude": "-90.0709031766651",
    "latitude": "29.978963883157824",
    "geocoded_column": {
      "latitude": "29.978963883157824",
      "longitude": "-90.0709031766651"
    }
  },
  {
    "service_request": "2022-897427",
    "request_type": "Roads/Drainage",
    "request_reason": "Pothole",
    "date_created": "2022-07-06T18:23:33.000",
    "date_modified": "2022-07-06T18:23:33.000",
    "request_status": "Pending",
    "responsible_agency": "Department of Public Works",
    "final_address": "2401 Jasmine St",
    "address_councildis": "D",
    "status": "Pending",
    "rowid": "897427",
    "final_x": "3685607.42934",
    "final_y": "548018.73621",
    "longitude": "-90.05451913634228",
    "latitude": "30.000736058041092",
    "geocoded_column": {
      "latitude": "30.000736058041092",
      "longitude": "-90.05451913634228"
    }
  },
  {
    "service_request": "2022-897426",
    "request_type": "Property Maintenance",
    "request_reason": "Property Maintenance",
    "date_created": "2022-07-06T18:22:59.000",
    "date_modified": "2022-07-06T18:22:59.000",
    "request_status": "Pending",
    "responsible_agency": "Department of Code Enforcement",
    "final_address": "2925 Thalia St",
    "address_councildis": "B",
    "status": "Pending",
    "rowid": "897426",
    "final_x": "3675402.20769",
    "final_y": "528383.806016",
    "longitude": "-90.0874326536843",
    "latitude": "29.94705592683009",
    "geocoded_column": {
      "latitude": "29.94705592683009",
      "longitude": "-90.0874326536843"
    }
  },
  {
    "service_request": "2022-897425",
    "request_type": "Trash/Recycling",
    "request_reason": "Replace Trash Cart",
    "date_created": "2022-07-06T18:22:41.000",
    "date_modified": "2022-07-06T18:22:42.000",
    "request_status": "Pending",
    "responsible_agency": "Department of Sanitation",
    "final_address": "654 N Pierce St",
    "address_councildis": "A",
    "status": "Assigned to Contractor",
    "contractor": "Richards Disposal",
    "rowid": "897425",
    "final_x": "3672900.52104",
    "final_y": "539759.30209",
    "longitude": "-90.09494324893608",
    "latitude": "29.978409290317277",
    "geocoded_column": {
      "latitude": "29.978409290317277",
      "longitude": "-90.09494324893608"
    }
  },
  {
    "service_request": "2022-897424",
    "request_type": "Trash/Recycling",
    "request_reason": "Missed Trash Pick-Up",
    "date_created": "2022-07-06T18:20:24.000",
    "date_modified": "2022-07-06T18:20:24.000",
    "request_status": "Pending",
    "responsible_agency": "Department of Sanitation",
    "final_address": "7825 Scottwood Dr",
    "address_councildis": "E",
    "status": "Assigned to Contractor",
    "contractor": "Metro Disposal",
    "rowid": "897424",
    "final_x": "3716628.90015",
    "final_y": "571727.79972",
    "longitude": "-89.95562068823158",
    "latitude": "30.064938012820544",
    "geocoded_column": {
      "latitude": "30.064938012820544",
      "longitude": "-89.95562068823158"
    }
  },
  {
    "service_request": "2022-897423",
    "request_type": "Roads/Drainage",
    "request_reason": "Pothole",
    "date_created": "2022-07-06T18:16:47.000",
    "date_modified": "2022-07-06T18:16:47.000",
    "request_status": "Pending",
    "responsible_agency": "Department of Public Works",
    "final_address": "2401 Joseph St",
    "address_councildis": "A",
    "status": "Pending",
    "rowid": "897423",
    "final_x": "3667516.85389",
    "final_y": "524849.595836",
    "longitude": "-90.1124486396867",
    "latitude": "29.93757138849858",
    "geocoded_column": {
      "latitude": "29.93757138849858",
      "longitude": "-90.1124486396867"
    }
  },
  {
    "service_request": "2022-897422",
    "request_type": "Property Maintenance",
    "request_reason": "Property Maintenance",
    "date_created": "2022-07-06T18:14:10.000",
    "date_modified": "2022-07-06T18:14:10.000",
    "request_status": "Pending",
    "responsible_agency": "Department of Code Enforcement",
    "final_address": "812 N Rocheblave St",
    "address_councildis": "D",
    "status": "Pending",
    "rowid": "897422",
    "final_x": "3677837.99272",
    "final_y": "536687.240647",
    "longitude": "-90.07945507944503",
    "latitude": "29.969814523040622",
    "geocoded_column": {
      "latitude": "29.969814523040622",
      "longitude": "-90.07945507944503"
    }
  },
  {
    "service_request": "2022-897421",
    "request_type": "Trash/Recycling",
    "request_reason": "Missed Trash Pick-Up",
    "date_created": "2022-07-06T18:12:55.000",
    "date_modified": "2022-07-06T18:12:56.000",
    "request_status": "Pending",
    "responsible_agency": "Department of Sanitation",
    "final_address": "7322 Willow St",
    "address_councildis": "A",
    "status": "Assigned to Contractor",
    "contractor": "Richards Disposal",
    "rowid": "897421",
    "final_x": "3664118.54336",
    "final_y": "527320.798655",
    "longitude": "-90.12309499909185",
    "latitude": "29.944465531679526",
    "geocoded_column": {
      "latitude": "29.944465531679526",
      "longitude": "-90.12309499909185"
    }
  },
  {
    "service_request": "2022-897420",
    "request_type": "Trash/Recycling",
    "request_reason": "Missed Trash Pick-Up",
    "date_created": "2022-07-06T18:11:30.000",
    "date_modified": "2022-07-06T18:11:30.000",
    "request_status": "Pending",
    "responsible_agency": "Department of Sanitation",
    "final_address": "7718 Benjamin St",
    "address_councildis": "A",
    "status": "Assigned to Contractor",
    "contractor": "Richards Disposal",
    "rowid": "897420",
    "final_x": "3660766.14317",
    "final_y": "525151.110973",
    "longitude": "-90.13375127596495",
    "latitude": "29.938596513092808",
    "geocoded_column": {
      "latitude": "29.938596513092808",
      "longitude": "-90.13375127596495"
    }
  },
  {
    "service_request": "2022-897419",
    "request_type": "Trash/Recycling",
    "request_reason": "Illegal Dumping",
    "date_created": "2022-07-06T18:08:19.000",
    "date_modified": "2022-07-06T18:08:19.000",
    "request_status": "Pending",
    "responsible_agency": "Department of Sanitation",
    "final_address": "3700 BLK Joliet St",
    "address_councildis": "A",
    "status": "Pending",
    "rowid": "897419",
    "final_x": "3666978.53904",
    "final_y": "536000.640385",
    "longitude": "-90.11377344851172",
    "latitude": "29.968248883887263",
    "geocoded_column": {
      "latitude": "29.968248883887263",
      "longitude": "-90.11377344851172"
    }
  },
  {
    "service_request": "2022-897418",
    "request_type": "Trash/Recycling",
    "request_reason": "Return Recycling Cart",
    "date_created": "2022-07-06T18:07:09.000",
    "date_modified": "2022-07-06T18:07:10.000",
    "request_status": "Pending",
    "responsible_agency": "Department of Sanitation",
    "final_address": "4923 S Rocheblave St",
    "address_councildis": "B",
    "status": "Pending",
    "rowid": "897418",
    "final_x": "3669144.85466",
    "final_y": "528460.037696",
    "longitude": "-90.10718693429686",
    "latitude": "29.947451137002638",
    "geocoded_column": {
      "latitude": "29.947451137002638",
      "longitude": "-90.10718693429686"
    }
  },
  {
    "service_request": "2022-897417",
    "request_type": "Abandoned Vehicles",
    "request_reason": "Abandoned/Junk Vehicles",
    "date_created": "2022-07-06T18:04:59.000",
    "date_modified": "2022-07-06T18:04:59.000",
    "request_status": "Pending",
    "responsible_agency": "Department of Public Works",
    "final_address": "102 Neil Ave",
    "address_councildis": "C",
    "status": "Pending",
    "rowid": "897417",
    "final_x": "3705698.10916",
    "final_y": "518839.246967",
    "longitude": "-89.99213071039154",
    "latitude": "29.919871194082823",
    "geocoded_column": {
      "latitude": "29.919871194082823",
      "longitude": "-89.99213071039154"
    }
  },
  {
    "service_request": "2022-897416",
    "request_type": "Trash/Recycling",
    "request_reason": "Replace Trash Cart",
    "date_created": "2022-07-06T17:59:09.000",
    "date_modified": "2022-07-06T17:59:10.000",
    "request_status": "Pending",
    "responsible_agency": "Department of Sanitation",
    "final_address": "2317 S Johnson St",
    "address_councildis": "B",
    "status": "Assigned to Contractor",
    "contractor": "Richards Disposal",
    "rowid": "897416",
    "final_x": "3673576.38945",
    "final_y": "528683.780288",
    "longitude": "-90.09318720159895",
    "latitude": "29.947935218921902",
    "geocoded_column": {
      "latitude": "29.947935218921902",
      "longitude": "-90.09318720159895"
    }
  },
  {
    "service_request": "2022-897415",
    "request_type": "Trash/Recycling",
    "request_reason": "Replace Trash Cart",
    "date_created": "2022-07-06T17:58:51.000",
    "date_modified": "2022-07-06T17:58:52.000",
    "request_status": "Pending",
    "responsible_agency": "Department of Sanitation",
    "final_address": "4037 Ulloa St",
    "address_councildis": "A",
    "status": "Assigned to Contractor",
    "contractor": "Richards Disposal",
    "rowid": "897415",
    "final_x": "3669819.61492",
    "final_y": "536399.998919",
    "longitude": "-90.1047876599315",
    "latitude": "29.96926353446488",
    "geocoded_column": {
      "latitude": "29.96926353446488",
      "longitude": "-90.1047876599315"
    }
  },
  {
    "service_request": "2022-897414",
    "request_type": "Trash/Recycling",
    "request_reason": "Missed Trash Pick-Up",
    "date_created": "2022-07-06T17:52:57.000",
    "date_modified": "2022-07-06T17:52:57.000",
    "request_status": "Pending",
    "responsible_agency": "Department of Sanitation",
    "final_address": "417 Hillary St",
    "address_councildis": "A",
    "status": "Assigned to Contractor",
    "contractor": "Richards Disposal",
    "rowid": "897414",
    "final_x": "3661537.05453",
    "final_y": "525180.112701",
    "longitude": "-90.13131645441244",
    "latitude": "29.938654044409045",
    "geocoded_column": {
      "latitude": "29.938654044409045",
      "longitude": "-90.13131645441244"
    }
  },
  {
    "service_request": "2022-897413",
    "request_type": "Traffic Signals/Signs/Striping/Streetlights",
    "request_reason": "Street Light Outage/Malfunction",
    "date_created": "2022-07-06T17:52:49.000",
    "date_modified": "2022-07-06T17:52:49.000",
    "request_status": "Pending",
    "responsible_agency": "Department of Public Works",
    "final_address": "11266 Asphodel Dr",
    "address_councildis": "E",
    "status": "Pending",
    "contractor": "Royal Engineering",
    "rowid": "897413",
    "final_x": "3717824.41695",
    "final_y": "559716.868189",
    "longitude": "-89.95229918718786",
    "latitude": "30.031873299617057",
    "geocoded_column": {
      "latitude": "30.031873299617057",
      "longitude": "-89.95229918718786"
    }
  },
  {
    "service_request": "2022-897412",
    "request_type": "Trash/Recycling",
    "request_reason": "Request a Large Item Pick Up",
    "date_created": "2022-07-06T17:45:58.000",
    "date_modified": "2022-07-06T17:45:58.000",
    "request_status": "Pending",
    "responsible_agency": "Department of Sanitation",
    "final_address": "5140 Warrington Dr, New Orleans, Louisiana, 70122",
    "address_councildis": "D",
    "status": "Assigned to Contractor",
    "contractor": "Metro Disposal",
    "rowid": "897412",
    "final_x": "3680925.83669",
    "final_y": "551461.548437",
    "longitude": "-90.06918862668834",
    "latitude": "30.01034539117859",
    "geocoded_column": {
      "latitude": "30.01034539117859",
      "longitude": "-90.06918862668834"
    }
  },
  {
    "service_request": "2022-897411",
    "request_type": "Trash/Recycling",
    "request_reason": "Missed Trash Pick-Up",
    "date_created": "2022-07-06T17:44:02.000",
    "date_modified": "2022-07-06T17:44:03.000",
    "request_status": "Pending",
    "responsible_agency": "Department of Sanitation",
    "final_address": "7522 Jeannette St",
    "address_councildis": "A",
    "status": "Assigned to Contractor",
    "contractor": "Richards Disposal",
    "rowid": "897411",
    "final_x": "3664069.328",
    "final_y": "527748.667711",
    "longitude": "-90.12323612034218",
    "latitude": "29.945643463521094",
    "geocoded_column": {
      "latitude": "29.945643463521094",
      "longitude": "-90.12323612034218"
    }
  },
  {
    "service_request": "2022-897410",
    "request_type": "Trash/Recycling",
    "request_reason": "Request a Large Item Pick Up",
    "date_created": "2022-07-06T17:38:18.000",
    "date_modified": "2022-07-06T17:38:19.000",
    "request_status": "Pending",
    "responsible_agency": "Department of Sanitation",
    "final_address": "3225 Marais St, New Orleans, Louisiana, 70117",
    "address_councildis": "C",
    "status": "Assigned to Contractor",
    "contractor": "Metro Disposal",
    "rowid": "897410",
    "final_x": "3689820.47369",
    "final_y": "536201.702215",
    "longitude": "-90.04163069791184",
    "latitude": "29.968113479986183",
    "geocoded_column": {
      "latitude": "29.968113479986183",
      "longitude": "-90.04163069791184"
    }
  },
  {
    "service_request": "2022-897409",
    "request_type": "Trash/Recycling",
    "request_reason": "Request a Large Item Pick Up",
    "date_created": "2022-07-06T17:37:11.000",
    "date_modified": "2022-07-06T17:37:11.000",
    "request_status": "Pending",
    "responsible_agency": "Department of Sanitation",
    "final_address": "2221 Laharpe St",
    "address_councildis": "D",
    "status": "Assigned to Contractor",
    "contractor": "Metro Disposal",
    "rowid": "897409",
    "final_x": "3680190.04911",
    "final_y": "538968.972554",
    "longitude": "-90.07194774324864",
    "latitude": "29.976017518111956",
    "geocoded_column": {
      "latitude": "29.976017518111956",
      "longitude": "-90.07194774324864"
    }
  },
  {
    "service_request": "2022-897408",
    "request_type": "Trash/Recycling",
    "request_reason": "Repair Trash Cart",
    "date_created": "2022-07-06T17:33:35.000",
    "date_modified": "2022-07-06T17:33:35.000",
    "request_status": "Pending",
    "responsible_agency": "Department of Sanitation",
    "final_address": "3532 Pin Oak Ave",
    "address_councildis": "C",
    "status": "Assigned to Contractor",
    "contractor": "Richards Disposal",
    "rowid": "897408",
    "final_x": "3703413.43402",
    "final_y": "515048.661939",
    "longitude": "-89.99948154550616",
    "latitude": "29.909521719457512",
    "geocoded_column": {
      "latitude": "29.909521719457512",
      "longitude": "-89.99948154550616"
    }
  },
  {
    "service_request": "2022-897407",
    "request_type": "Trash/Recycling",
    "request_reason": "Missed Trash Pick-Up",
    "date_created": "2022-07-06T17:33:27.000",
    "date_modified": "2022-07-06T17:33:28.000",
    "request_status": "Pending",
    "responsible_agency": "Department of Sanitation",
    "final_address": "7312 Benjamin St",
    "address_councildis": "A",
    "status": "Assigned to Contractor",
    "contractor": "Richards Disposal",
    "rowid": "897407",
    "final_x": "3662079.13799",
    "final_y": "524067.913532",
    "longitude": "-90.12964191636387",
    "latitude": "29.93558020108946",
    "geocoded_column": {
      "latitude": "29.93558020108946",
      "longitude": "-90.12964191636387"
    }
  },
  {
    "service_request": "2022-897406",
    "request_type": "Roads/Drainage",
    "request_reason": "Street Subsidence (Sinking)",
    "date_created": "2022-07-06T17:29:26.000",
    "date_modified": "2022-07-06T17:29:26.000",
    "request_status": "Pending",
    "responsible_agency": "Department of Public Works",
    "final_address": "LEONIDAS ST & PALMETTO ST",
    "address_councildis": "A",
    "status": "Pending",
    "rowid": "897406",
    "final_x": "3666801.4",
    "final_y": "536328.08",
    "longitude": "-90.1143218623348",
    "latitude": "29.969154416972902",
    "geocoded_column": {
      "latitude": "29.969154416972902",
      "longitude": "-90.1143218623348"
    }
  },
  {
    "service_request": "2022-897404",
    "request_type": "Traffic Signals/Signs/Striping/Streetlights",
    "request_reason": "Street Light Outage/Malfunction",
    "date_created": "2022-07-06T17:26:59.000",
    "date_modified": "2022-07-06T17:27:00.000",
    "request_status": "Pending",
    "responsible_agency": "Department of Public Works",
    "final_address": "221 N Lopez St",
    "address_councildis": "B",
    "status": "Pending",
    "contractor": "Royal Engineering",
    "rowid": "897404",
    "final_x": "3674162.69857",
    "final_y": "536773.739912",
    "longitude": "-90.09105905627311",
    "latitude": "29.970162441362035",
    "geocoded_column": {
      "latitude": "29.970162441362035",
      "longitude": "-90.09105905627311"
    }
  },
  {
    "service_request": "2022-897403",
    "request_type": "Trash/Recycling",
    "request_reason": "Missed Trash Pick-Up",
    "date_created": "2022-07-06T17:26:24.000",
    "date_modified": "2022-07-06T17:41:52.000",
    "request_status": "Pending",
    "responsible_agency": "Department of Sanitation",
    "final_address": "New Orleans,LA",
    "address_councildis": "A",
    "status": "Assigned to Contractor",
    "contractor": "Richards Disposal",
    "rowid": "897403",
    "final_x": "3663415.62195",
    "final_y": "526758.049598",
    "longitude": "-90.12533306839717",
    "latitude": "29.94293854733253",
    "geocoded_column": {
      "latitude": "29.94293854733253",
      "longitude": "-90.12533306839717"
    }
  },
  {
    "service_request": "2022-897401",
    "request_type": "Roads/Drainage",
    "request_reason": "Accessibility Ramps, Curbs and Sidewalk Repair",
    "date_created": "2022-07-06T17:22:27.000",
    "date_modified": "2022-07-06T17:22:27.000",
    "request_status": "Pending",
    "responsible_agency": "Department of Public Works",
    "final_address": "6220 Stratford Pl",
    "address_councildis": "C",
    "status": "Pending",
    "rowid": "897401",
    "final_x": "3707077.95505",
    "final_y": "516235.292596",
    "longitude": "-89.98787175992624",
    "latitude": "29.912666740363584",
    "geocoded_column": {
      "latitude": "29.912666740363584",
      "longitude": "-89.98787175992624"
    }
  },
  {
    "service_request": "2022-897400",
    "request_type": "Trash/Recycling",
    "request_reason": "Missed Trash Pick-Up",
    "date_created": "2022-07-06T17:17:34.000",
    "date_modified": "2022-07-06T17:17:34.000",
    "request_status": "Pending",
    "responsible_agency": "Department of Sanitation",
    "final_address": "541 Audubon St",
    "address_councildis": "A",
    "status": "Assigned to Contractor",
    "contractor": "Richards Disposal",
    "rowid": "897400",
    "final_x": "3662921.3417",
    "final_y": "524026.812348",
    "longitude": "-90.12698442419376",
    "latitude": "29.935442831917573",
    "geocoded_column": {
      "latitude": "29.935442831917573",
      "longitude": "-90.12698442419376"
    }
  },
  {
    "service_request": "2022-897399",
    "request_type": "Trash/Recycling",
    "request_reason": "Missed Trash Pick-Up",
    "date_created": "2022-07-06T17:15:32.000",
    "date_modified": "2022-07-06T17:15:33.000",
    "request_status": "Pending",
    "responsible_agency": "Department of Sanitation",
    "final_address": "8012 Panola St",
    "address_councildis": "A",
    "status": "Assigned to Contractor",
    "contractor": "Richards Disposal",
    "rowid": "897399",
    "final_x": "3664302.62477",
    "final_y": "530468.129538",
    "longitude": "-90.12240878314542",
    "latitude": "29.953114329355717",
    "geocoded_column": {
      "latitude": "29.953114329355717",
      "longitude": "-90.12240878314542"
    }
  },
  {
    "service_request": "2022-897398",
    "request_type": "Trash/Recycling",
    "request_reason": "Replace Trash Cart",
    "date_created": "2022-07-06T17:11:08.000",
    "date_modified": "2022-07-06T17:11:08.000",
    "request_status": "Pending",
    "responsible_agency": "Department of Sanitation",
    "final_address": "6528 Marshal Foch St",
    "address_councildis": "A",
    "status": "Assigned to Contractor",
    "contractor": "Metro Disposal",
    "rowid": "897398",
    "final_x": "3670067.81626",
    "final_y": "550843.943445",
    "longitude": "-90.10351423682525",
    "latitude": "30.00897210714418",
    "geocoded_column": {
      "latitude": "30.00897210714418",
      "longitude": "-90.10351423682525"
    }
  },
  {
    "service_request": "2022-897397",
    "request_type": "Trash/Recycling",
    "request_reason": "Repair Trash Cart",
    "date_created": "2022-07-06T17:10:01.000",
    "date_modified": "2022-07-06T17:10:02.000",
    "request_status": "Pending",
    "responsible_agency": "Department of Sanitation",
    "final_address": "1316 Harmony St",
    "address_councildis": "B",
    "status": "Assigned to Contractor",
    "contractor": "Richards Disposal",
    "rowid": "897397",
    "final_x": "3675353.70465",
    "final_y": "520773.805497",
    "longitude": "-90.08784696740828",
    "latitude": "29.926132363170485",
    "geocoded_column": {
      "latitude": "29.926132363170485",
      "longitude": "-90.08784696740828"
    }
  },
  {
    "service_request": "2022-897396",
    "request_type": "Trash/Recycling",
    "request_reason": "Missed Trash Pick-Up",
    "date_created": "2022-07-06T17:08:29.000",
    "date_modified": "2022-07-06T17:08:30.000",
    "request_status": "Pending",
    "responsible_agency": "Department of Sanitation",
    "final_address": "7432 Hurst St",
    "address_councildis": "A",
    "status": "Assigned to Contractor",
    "contractor": "Richards Disposal",
    "rowid": "897396",
    "final_x": "3661462.61306",
    "final_y": "524033.978172",
    "longitude": "-90.13158942548503",
    "latitude": "29.935504683472388",
    "geocoded_column": {
      "latitude": "29.935504683472388",
      "longitude": "-90.13158942548503"
    }
  },
  {
    "service_request": "2022-897395",
    "request_type": "Property Maintenance",
    "request_reason": "Property Maintenance",
    "date_created": "2022-07-06T17:08:02.000",
    "date_modified": "2022-07-06T17:08:02.000",
    "request_status": "Pending",
    "responsible_agency": "Department of Code Enforcement",
    "final_address": "2168 Florida Ave",
    "address_councildis": "D",
    "status": "Pending",
    "rowid": "897395",
    "final_x": "3684409.60578",
    "final_y": "542354.894861",
    "longitude": "-90.0585022081231",
    "latitude": "29.985199217126496",
    "geocoded_column": {
      "latitude": "29.985199217126496",
      "longitude": "-90.0585022081231"
    }
  },
  {
    "service_request": "2022-897394",
    "request_type": "Trash/Recycling",
    "request_reason": "Request a Large Item Pick Up",
    "date_created": "2022-07-06T17:06:16.000",
    "date_modified": "2022-07-06T17:06:17.000",
    "request_status": "Pending",
    "responsible_agency": "Department of Sanitation",
    "final_address": "5230 Laurel St",
    "address_councildis": "B",
    "status": "Assigned to Contractor",
    "contractor": "Richards Disposal",
    "rowid": "897394",
    "final_x": "3667769.40756",
    "final_y": "517827.236598",
    "longitude": "-90.11188763622705",
    "latitude": "29.9182547289633",
    "geocoded_column": {
      "latitude": "29.9182547289633",
      "longitude": "-90.11188763622705"
    }
  },
  {
    "service_request": "2022-897393",
    "request_type": "Abandoned Vehicles",
    "request_reason": "Abandoned/Junk Vehicles",
    "date_created": "2022-07-06T17:04:23.000",
    "date_modified": "2022-07-06T17:04:23.000",
    "request_status": "Pending",
    "responsible_agency": "Department of Public Works",
    "final_address": "1121 Carondelet St",
    "address_councildis": "B",
    "status": "Pending",
    "rowid": "897393",
    "final_x": "3679276.56303",
    "final_y": "526730.092798",
    "longitude": "-90.07525719764539",
    "latitude": "29.942392362999723",
    "geocoded_column": {
      "latitude": "29.942392362999723",
      "longitude": "-90.07525719764539"
    }
  },
  {
    "service_request": "2022-897392",
    "request_type": "Property Maintenance",
    "request_reason": "Property Maintenance",
    "date_created": "2022-07-06T17:04:20.000",
    "date_modified": "2022-07-06T17:04:20.000",
    "request_status": "Pending",
    "responsible_agency": "Department of Code Enforcement",
    "final_address": "2164 Florida Ave",
    "address_councildis": "D",
    "status": "Pending",
    "rowid": "897392",
    "final_x": "3684358.35573",
    "final_y": "542374.478221",
    "longitude": "-90.05866339715226",
    "latitude": "29.985254632183466",
    "geocoded_column": {
      "latitude": "29.985254632183466",
      "longitude": "-90.05866339715226"
    }
  },
  {
    "service_request": "2022-897391",
    "request_type": "Property Maintenance",
    "request_reason": "Property Maintenance",
    "date_created": "2022-07-06T17:03:11.000",
    "date_modified": "2022-07-06T17:03:11.000",
    "request_status": "Pending",
    "responsible_agency": "Department of Code Enforcement",
    "final_address": "2160 Florida Ave",
    "address_councildis": "D",
    "status": "Pending",
    "rowid": "897391",
    "final_x": "3684317.93909",
    "final_y": "542389.894861",
    "longitude": "-90.05879051457502",
    "latitude": "29.985298258699665",
    "geocoded_column": {
      "latitude": "29.985298258699665",
      "longitude": "-90.05879051457502"
    }
  },
  {
    "service_request": "2022-897390",
    "request_type": "Property Maintenance",
    "request_reason": "Property Maintenance",
    "date_created": "2022-07-06T17:01:18.000",
    "date_modified": "2022-07-06T17:01:18.000",
    "request_status": "Pending",
    "responsible_agency": "Department of Code Enforcement",
    "final_address": "2152 Florida Ave",
    "address_councildis": "D",
    "status": "Pending",
    "rowid": "897390",
    "final_x": "3684252.93909",
    "final_y": "542413.228173",
    "longitude": "-90.05899500251422",
    "latitude": "29.985364404927264",
    "geocoded_column": {
      "latitude": "29.985364404927264",
      "longitude": "-90.05899500251422"
    }
  },
  {
    "service_request": "2022-897389",
    "request_type": "Trash/Recycling",
    "request_reason": "MIssed Recycling Pick-Up",
    "date_created": "2022-07-06T17:00:15.000",
    "date_modified": "2022-07-06T17:00:16.000",
    "request_status": "Pending",
    "responsible_agency": "Department of Sanitation",
    "final_address": "2026 Chestnut St",
    "address_councildis": "B",
    "status": "Assigned to Contractor",
    "contractor": "Richards Disposal",
    "rowid": "897389",
    "final_x": "3678886.36078",
    "final_y": "522995.002299",
    "longitude": "-90.07661849018102",
    "latitude": "29.932133871368038",
    "geocoded_column": {
      "latitude": "29.932133871368038",
      "longitude": "-90.07661849018102"
    }
  },
  {
    "service_request": "2022-897388",
    "request_type": "Property Maintenance",
    "request_reason": "Property Maintenance",
    "date_created": "2022-07-06T16:59:29.000",
    "date_modified": "2022-07-06T16:59:29.000",
    "request_status": "Pending",
    "responsible_agency": "Department of Code Enforcement",
    "final_address": "2148 Florida Ave",
    "address_councildis": "D",
    "status": "Pending",
    "rowid": "897388",
    "final_x": "3684221.27241",
    "final_y": "542421.561549",
    "longitude": "-90.05909473155859",
    "latitude": "29.9853882870981",
    "geocoded_column": {
      "latitude": "29.9853882870981",
      "longitude": "-90.05909473155859"
    }
  },
  {
    "service_request": "2022-897387",
    "request_type": "Trash/Recycling",
    "request_reason": "Missed Trash Pick-Up",
    "date_created": "2022-07-06T16:58:12.000",
    "date_modified": "2022-07-06T16:58:13.000",
    "request_status": "Pending",
    "responsible_agency": "Department of Sanitation",
    "final_address": "4633 Dart St, New Orleans, Louisiana, 70125",
    "address_councildis": "B",
    "status": "Assigned to Contractor",
    "contractor": "Richards Disposal",
    "rowid": "897387",
    "final_x": "3669125.99137",
    "final_y": "531725.207875",
    "longitude": "-90.10713616915234",
    "latitude": "29.95642984055844",
    "geocoded_column": {
      "latitude": "29.95642984055844",
      "longitude": "-90.10713616915234"
    }
  },
  {
    "service_request": "2022-897386",
    "request_type": "Property Maintenance",
    "request_reason": "Property Maintenance",
    "date_created": "2022-07-06T16:57:41.000",
    "date_modified": "2022-07-06T16:57:41.000",
    "request_status": "Pending",
    "responsible_agency": "Department of Code Enforcement",
    "final_address": "2723 Frenchmen St",
    "address_councildis": "D",
    "status": "Pending",
    "rowid": "897386",
    "final_x": "3684145.38626",
    "final_y": "542337.242893",
    "longitude": "-90.05933738527828",
    "latitude": "29.98515876076725",
    "geocoded_column": {
      "latitude": "29.98515876076725",
      "longitude": "-90.05933738527828"
    }
  },
  {
    "service_request": "2022-897385",
    "request_type": "Property Maintenance",
    "request_reason": "Property Maintenance",
    "date_created": "2022-07-06T16:56:33.000",
    "date_modified": "2022-07-06T16:56:33.000",
    "request_status": "Pending",
    "responsible_agency": "Department of Code Enforcement",
    "final_address": "2719 Frenchmen St",
    "address_councildis": "D",
    "status": "Pending",
    "rowid": "897385",
    "final_x": "3684150.73973",
    "final_y": "542308.073357",
    "longitude": "-90.05932150034893",
    "latitude": "29.98507839117457",
    "geocoded_column": {
      "latitude": "29.98507839117457",
      "longitude": "-90.05932150034893"
    }
  },
  {
    "service_request": "2022-897384",
    "request_type": "Trash/Recycling",
    "request_reason": "Request a Large Item Pick Up",
    "date_created": "2022-07-06T16:56:24.000",
    "date_modified": "2022-07-06T16:56:25.000",
    "request_status": "Pending",
    "responsible_agency": "Department of Sanitation",
    "final_address": "4042 Banks St",
    "address_councildis": "A",
    "status": "Assigned to Contractor",
    "contractor": "Richards Disposal",
    "rowid": "897384",
    "final_x": "3670440.85927",
    "final_y": "537257.713672",
    "longitude": "-90.10279662867502",
    "latitude": "29.971603632347993",
    "geocoded_column": {
      "latitude": "29.971603632347993",
      "longitude": "-90.10279662867502"
    }
  },
  {
    "service_request": "2022-897383",
    "request_type": "Trash/Recycling",
    "request_reason": "Order Recycling Cart",
    "date_created": "2022-07-06T16:48:03.000",
    "date_modified": "2022-07-06T16:48:03.000",
    "request_status": "Pending",
    "responsible_agency": "Department of Sanitation",
    "final_address": "7625 Freret St",
    "address_councildis": "A",
    "status": "Pending",
    "rowid": "897383",
    "final_x": "3662684.83687",
    "final_y": "526828.902526",
    "longitude": "-90.12763799163987",
    "latitude": "29.943154534317078",
    "geocoded_column": {
      "latitude": "29.943154534317078",
      "longitude": "-90.12763799163987"
    }
  },
  {
    "service_request": "2022-897382",
    "request_type": "Abandoned Vehicles",
    "request_reason": "Abandoned/Junk Vehicles",
    "date_created": "2022-07-06T16:47:58.000",
    "date_modified": "2022-07-06T16:47:58.000",
    "request_status": "Pending",
    "responsible_agency": "Department of Public Works",
    "final_address": "4129 Coliseum St",
    "address_councildis": "B",
    "status": "Pending",
    "rowid": "897382",
    "final_x": "3671820.18113",
    "final_y": "519949.305464",
    "longitude": "-90.09902934150941",
    "latitude": "29.923970388660877",
    "geocoded_column": {
      "latitude": "29.923970388660877",
      "longitude": "-90.09902934150941"
    }
  },
  {
    "service_request": "2022-897381",
    "request_type": "Roads/Drainage",
    "request_reason": "Street Subsidence (Sinking)",
    "date_created": "2022-07-06T16:44:43.000",
    "date_modified": "2022-07-06T16:44:43.000",
    "request_status": "Pending",
    "responsible_agency": "Department of Public Works",
    "final_address": "5245 Pratt Dr",
    "address_councildis": "D",
    "status": "Pending",
    "rowid": "897381",
    "final_x": "3680518.13",
    "final_y": "551909.082006",
    "longitude": "-90.07046114165612",
    "latitude": "30.011588308625694",
    "geocoded_column": {
      "latitude": "30.011588308625694",
      "longitude": "-90.07046114165612"
    }
  },
  {
    "service_request": "2022-897380",
    "request_type": "EMS",
    "request_reason": "EMS Compliment",
    "date_created": "2022-07-06T16:44:33.000",
    "date_modified": "2022-07-06T16:44:34.000",
    "request_status": "Pending",
    "responsible_agency": "Emergency Medical Services",
    "final_address": "993 Crystal St",
    "address_councildis": "D",
    "status": "Pending",
    "rowid": "897380",
    "final_x": "3671518.51707",
    "final_y": "557163.762267",
    "longitude": "-90.09871584580539",
    "latitude": "30.026306465022707",
    "geocoded_column": {
      "latitude": "30.026306465022707",
      "longitude": "-90.09871584580539"
    }
  },
  {
    "service_request": "2022-897379",
    "request_type": "Trash/Recycling",
    "request_reason": "Request a Large Item Pick Up",
    "date_created": "2022-07-06T16:43:15.000",
    "date_modified": "2022-07-06T16:43:15.000",
    "request_status": "Pending",
    "responsible_agency": "Department of Sanitation",
    "final_address": "5328 Marigny St",
    "address_councildis": "D",
    "status": "Assigned to Contractor",
    "contractor": "Metro Disposal",
    "rowid": "897379",
    "final_x": "3684068.94479",
    "final_y": "552587.447894",
    "longitude": "-90.05921882646233",
    "latitude": "30.013345483038382",
    "geocoded_column": {
      "latitude": "30.013345483038382",
      "longitude": "-90.05921882646233"
    }
  },
  {
    "service_request": "2022-897378",
    "request_type": "Trash/Recycling",
    "request_reason": "Order Recycling Cart",
    "date_created": "2022-07-06T16:41:49.000",
    "date_modified": "2022-07-06T16:41:49.000",
    "request_status": "Pending",
    "responsible_agency": "Department of Sanitation",
    "final_address": "5245 Pratt Dr",
    "address_councildis": "D",
    "status": "Pending",
    "rowid": "897378",
    "final_x": "3680518.13",
    "final_y": "551909.082006",
    "longitude": "-90.07046114165612",
    "latitude": "30.011588308625694",
    "geocoded_column": {
      "latitude": "30.011588308625694",
      "longitude": "-90.07046114165612"
    }
  },
  {
    "service_request": "2022-897377",
    "request_type": "Trash/Recycling",
    "request_reason": "Order Trash Cart",
    "date_created": "2022-07-06T16:40:50.000",
    "date_modified": "2022-07-06T16:40:51.000",
    "request_status": "Pending",
    "responsible_agency": "Department of Sanitation",
    "final_address": "5245 Pratt Dr",
    "address_councildis": "D",
    "status": "Assigned to Contractor",
    "contractor": "Metro Disposal",
    "rowid": "897377",
    "final_x": "3680518.13",
    "final_y": "551909.082006",
    "longitude": "-90.07046114165612",
    "latitude": "30.011588308625694",
    "geocoded_column": {
      "latitude": "30.011588308625694",
      "longitude": "-90.07046114165612"
    }
  },
  {
    "service_request": "2022-897376",
    "request_type": "Trash/Recycling",
    "request_reason": "Missed Trash Pick-Up",
    "date_created": "2022-07-06T16:35:37.000",
    "date_modified": "2022-07-06T16:35:37.000",
    "request_status": "Pending",
    "responsible_agency": "Department of Sanitation",
    "final_address": "1407 Broadway St, New Orleans, Louisiana, 70118",
    "address_councildis": "A",
    "status": "Assigned to Contractor",
    "contractor": "Richards Disposal",
    "rowid": "897376",
    "final_x": "3664654.91085",
    "final_y": "527133.861695",
    "longitude": "-90.12140776611189",
    "latitude": "29.943935926929935",
    "geocoded_column": {
      "latitude": "29.943935926929935",
      "longitude": "-90.12140776611189"
    }
  },
  {
    "service_request": "2022-897375",
    "request_type": "Traffic Signals/Signs/Striping/Streetlights",
    "request_reason": "Traffic Signal Malfunctioning/Damaged",
    "date_created": "2022-07-06T16:35:20.000",
    "date_modified": "2022-07-06T16:35:20.000",
    "request_status": "Pending",
    "responsible_agency": "Department of Public Works",
    "final_address": "12170 Old Gentilly Rd",
    "address_councildis": "E",
    "status": "Pending",
    "rowid": "897375",
    "final_x": "3720228.10841",
    "final_y": "552556.804182",
    "longitude": "-89.9449776298222",
    "latitude": "30.012106113304142",
    "geocoded_column": {
      "latitude": "30.012106113304142",
      "longitude": "-89.9449776298222"
    }
  },
  {
    "service_request": "2022-897374",
    "request_type": "Trash/Recycling",
    "request_reason": "Request a Large Item Pick Up",
    "date_created": "2022-07-06T16:34:45.000",
    "date_modified": "2022-07-06T16:34:46.000",
    "request_status": "Pending",
    "responsible_agency": "Department of Sanitation",
    "final_address": "1331 Poland Ave",
    "address_councildis": "D",
    "status": "Assigned to Contractor",
    "contractor": "Metro Disposal",
    "rowid": "897374",
    "final_x": "3693365.04349",
    "final_y": "536012.072135",
    "longitude": "-90.03044366573775",
    "latitude": "29.967481718080315",
    "geocoded_column": {
      "latitude": "29.967481718080315",
      "longitude": "-90.03044366573775"
    }
  },
  {
    "service_request": "2022-897373",
    "request_type": "Trash/Recycling",
    "request_reason": "Missed Trash Pick-Up",
    "date_created": "2022-07-06T16:33:30.000",
    "date_modified": "2022-07-06T16:33:31.000",
    "request_status": "Pending",
    "responsible_agency": "Department of Sanitation",
    "final_address": "7515 Leake Ave",
    "address_councildis": "A",
    "status": "Assigned to Contractor",
    "contractor": "Richards Disposal",
    "rowid": "897373",
    "final_x": "3660797.05517",
    "final_y": "524169.422524",
    "longitude": "-90.13368613136757",
    "latitude": "29.935896289560308",
    "geocoded_column": {
      "latitude": "29.935896289560308",
      "longitude": "-90.13368613136757"
    }
  },
  {
    "service_request": "2022-897372",
    "request_type": "Trash/Recycling",
    "request_reason": "MIssed Recycling Pick-Up",
    "date_created": "2022-07-06T16:30:46.000",
    "date_modified": "2022-07-06T16:30:47.000",
    "request_status": "Pending",
    "responsible_agency": "Department of Sanitation",
    "final_address": "1409 St Mary St",
    "address_councildis": "B",
    "status": "Assigned to Contractor",
    "contractor": "Richards Disposal",
    "rowid": "897372",
    "final_x": "3679051.99368",
    "final_y": "523708.383803",
    "longitude": "-90.07607089283698",
    "latitude": "29.934090439944463",
    "geocoded_column": {
      "latitude": "29.934090439944463",
      "longitude": "-90.07607089283698"
    }
  },
  {
    "service_request": "2022-897371",
    "request_type": "Mosquito, Termite & Rodent Control",
    "request_reason": "Rodent Complaint (Rats)",
    "date_created": "2022-07-06T16:28:40.000",
    "date_modified": "2022-07-06T16:28:40.000",
    "request_status": "Pending",
    "responsible_agency": "Mosquito, Termite & Rodent Control Board",
    "final_address": "262 Hay Pl",
    "address_councildis": "A",
    "status": "Pending",
    "rowid": "897371",
    "final_x": "3665658.75559",
    "final_y": "554170.761752",
    "longitude": "-90.11733244212289",
    "latitude": "30.018249075559076",
    "geocoded_column": {
      "latitude": "30.018249075559076",
      "longitude": "-90.11733244212289"
    }
  },
  {
    "service_request": "2022-897370",
    "request_type": "Trash/Recycling",
    "request_reason": "Replace Trash Cart",
    "date_created": "2022-07-06T16:24:51.000",
    "date_modified": "2022-07-06T16:24:52.000",
    "request_status": "Pending",
    "responsible_agency": "Department of Sanitation",
    "final_address": "2203 Ursulines Ave",
    "address_councildis": "D",
    "status": "Assigned to Contractor",
    "contractor": "Richards Disposal",
    "rowid": "897370",
    "final_x": "3679261.60981",
    "final_y": "536955.133448",
    "longitude": "-90.07494987304965",
    "latitude": "29.970508224165766",
    "geocoded_column": {
      "latitude": "29.970508224165766",
      "longitude": "-90.07494987304965"
    }
  },
  {
    "service_request": "2022-897369",
    "request_type": "Parks & Parkways",
    "request_reason": "Request Grass Cutting Service (City Owned Property)",
    "date_created": "2022-07-06T16:17:59.000",
    "date_modified": "2022-07-06T16:59:48.000",
    "request_status": "Pending",
    "responsible_agency": "Department of Parks & Parkway",
    "final_address": "New Orleans,LA",
    "address_councildis": "D",
    "rowid": "897369",
    "final_x": "3682574.1588",
    "final_y": "546781.605137",
    "longitude": "-90.06414473559565",
    "latitude": "29.997427124222842",
    "geocoded_column": {
      "latitude": "29.997427124222842",
      "longitude": "-90.06414473559565"
    }
  },
  {
    "service_request": "2022-897368",
    "request_type": "Trash/Recycling",
    "request_reason": "MIssed Recycling Pick-Up",
    "date_created": "2022-07-06T16:07:41.000",
    "date_modified": "2022-07-06T16:07:41.000",
    "request_status": "Pending",
    "responsible_agency": "Department of Sanitation",
    "final_address": "2120 Philip St",
    "address_councildis": "B",
    "status": "Assigned to Contractor",
    "contractor": "Richards Disposal",
    "rowid": "897368",
    "final_x": "3676027.93307",
    "final_y": "524969.019901",
    "longitude": "-90.08557441098043",
    "latitude": "29.937647667773895",
    "geocoded_column": {
      "latitude": "29.937647667773895",
      "longitude": "-90.08557441098043"
    }
  },
  {
    "service_request": "2022-897367",
    "request_type": "Trash/Recycling",
    "request_reason": "MIssed Recycling Pick-Up",
    "date_created": "2022-07-06T16:06:45.000",
    "date_modified": "2022-07-06T16:06:45.000",
    "request_status": "Pending",
    "responsible_agency": "Department of Sanitation",
    "final_address": "1302 Constantinople St",
    "address_councildis": "B",
    "status": "Assigned to Contractor",
    "contractor": "Richards Disposal",
    "rowid": "897367",
    "final_x": "3672316.43828",
    "final_y": "520252.107512",
    "longitude": "-90.09745252227002",
    "latitude": "29.924788289127164",
    "geocoded_column": {
      "latitude": "29.924788289127164",
      "longitude": "-90.09745252227002"
    }
  },
  {
    "service_request": "2022-897366",
    "request_type": "Roads/Drainage",
    "request_reason": "Catch Basin - Broken/Damage",
    "date_created": "2022-07-06T16:05:40.000",
    "date_modified": "2022-07-06T16:05:40.000",
    "request_status": "Pending",
    "responsible_agency": "Department of Public Works",
    "final_address": "4800 Strasbourg Pl",
    "address_councildis": "E",
    "status": "Pending",
    "rowid": "897366",
    "final_x": "3725836.46822",
    "final_y": "560958.674718",
    "longitude": "-89.92693285057463",
    "latitude": "30.03501980421422",
    "geocoded_column": {
      "latitude": "30.03501980421422",
      "longitude": "-89.92693285057463"
    }
  },
  {
    "service_request": "2022-897365",
    "request_type": "Trash/Recycling",
    "request_reason": "Replace Trash Cart",
    "date_created": "2022-07-06T16:02:01.000",
    "date_modified": "2022-07-06T16:02:01.000",
    "request_status": "Pending",
    "responsible_agency": "Department of Sanitation",
    "final_address": "6528 Marshal Foch St",
    "address_councildis": "A",
    "status": "Assigned to Contractor",
    "contractor": "Metro Disposal",
    "rowid": "897365",
    "final_x": "3670067.81626",
    "final_y": "550843.943445",
    "longitude": "-90.10351423682525",
    "latitude": "30.00897210714418",
    "geocoded_column": {
      "latitude": "30.00897210714418",
      "longitude": "-90.10351423682525"
    }
  },
  {
    "service_request": "2022-897364",
    "request_type": "Trash/Recycling",
    "request_reason": "Return Trash Cart",
    "date_created": "2022-07-06T16:00:57.000",
    "date_modified": "2022-07-06T16:00:57.000",
    "request_status": "Pending",
    "responsible_agency": "Department of Sanitation",
    "final_address": "629 Eighth St",
    "address_councildis": "B",
    "status": "Assigned to Contractor",
    "contractor": "Richards Disposal",
    "rowid": "897364",
    "final_x": "3677012.98856",
    "final_y": "518914.910391",
    "longitude": "-90.0826731319067",
    "latitude": "29.920971306163214",
    "geocoded_column": {
      "latitude": "29.920971306163214",
      "longitude": "-90.0826731319067"
    }
  },
  {
    "service_request": "2022-897363",
    "request_type": "Trash/Recycling",
    "request_reason": "Order Trash Cart",
    "date_created": "2022-07-06T15:56:43.000",
    "date_modified": "2022-07-06T15:56:43.000",
    "request_status": "Pending",
    "responsible_agency": "Department of Sanitation",
    "final_address": "530 S Solomon St",
    "address_councildis": "A",
    "status": "Assigned to Contractor",
    "contractor": "Richards Disposal",
    "rowid": "897363",
    "final_x": "3669491.24302",
    "final_y": "537227.534472",
    "longitude": "-90.10579668868031",
    "latitude": "29.971548656753583",
    "geocoded_column": {
      "latitude": "29.971548656753583",
      "longitude": "-90.10579668868031"
    }
  },
  {
    "service_request": "2022-897362",
    "request_type": "Roads/Drainage",
    "request_reason": "Pothole",
    "date_created": "2022-07-06T15:54:57.000",
    "date_modified": "2022-07-06T15:54:57.000",
    "request_status": "Pending",
    "responsible_agency": "Department of Public Works",
    "final_address": "5300 Constance St",
    "address_councildis": "B",
    "status": "Pending",
    "rowid": "897362",
    "final_x": "3667395.98317",
    "final_y": "518230.786166",
    "longitude": "-90.11305277484065",
    "latitude": "29.919375303756233",
    "geocoded_column": {
      "latitude": "29.919375303756233",
      "longitude": "-90.11305277484065"
    }
  },
  {
    "service_request": "2022-897361",
    "request_type": "Trash/Recycling",
    "request_reason": "Request a Large Item Pick Up",
    "date_created": "2022-07-06T15:54:12.000",
    "date_modified": "2022-07-06T15:54:13.000",
    "request_status": "Pending",
    "responsible_agency": "Department of Sanitation",
    "final_address": "5939 West End Blvd",
    "address_councildis": "A",
    "status": "Assigned to Contractor",
    "contractor": "Metro Disposal",
    "rowid": "897361",
    "final_x": "3666554.31277",
    "final_y": "547468.000785",
    "longitude": "-90.11472803639829",
    "latitude": "29.99979265615956",
    "geocoded_column": {
      "latitude": "29.99979265615956",
      "longitude": "-90.11472803639829"
    }
  },
  {
    "service_request": "2022-897360",
    "request_type": "Trash/Recycling",
    "request_reason": "MIssed Recycling Pick-Up",
    "date_created": "2022-07-06T15:53:45.000",
    "date_modified": "2022-07-06T15:53:46.000",
    "request_status": "Pending",
    "responsible_agency": "Department of Sanitation",
    "final_address": "6253 Brighton Pl",
    "address_councildis": "C",
    "status": "Assigned to Contractor",
    "contractor": "Richards Disposal",
    "rowid": "897360",
    "final_x": "3707397.63908",
    "final_y": "519993.858744",
    "longitude": "-89.98672333811827",
    "latitude": "29.922991165286675",
    "geocoded_column": {
      "latitude": "29.922991165286675",
      "longitude": "-89.98672333811827"
    }
  },
  {
    "service_request": "2022-897359",
    "request_type": "Trash/Recycling",
    "request_reason": "Illegal Dumping",
    "date_created": "2022-07-06T15:51:21.000",
    "date_modified": "2022-07-06T15:51:35.000",
    "request_status": "Pending",
    "responsible_agency": "Department of Sanitation",
    "final_address": "2269 N Galvez St",
    "address_councildis": "D",
    "status": "Pending",
    "rowid": "897359",
    "final_x": "3685412.85077",
    "final_y": "540078.415883",
    "longitude": "-90.05541357717695",
    "latitude": "29.978908973905767",
    "geocoded_column": {
      "latitude": "29.978908973905767",
      "longitude": "-90.05541357717695"
    }
  },
  {
    "service_request": "2022-897358",
    "request_type": "Trash/Recycling",
    "request_reason": "Order Trash Cart",
    "date_created": "2022-07-06T15:49:54.000",
    "date_modified": "2022-07-06T15:49:55.000",
    "request_status": "Pending",
    "responsible_agency": "Department of Sanitation",
    "final_address": "2016 Fourth St",
    "address_councildis": "B",
    "status": "Assigned to Contractor",
    "contractor": "Richards Disposal",
    "rowid": "897358",
    "final_x": "3675282.26779",
    "final_y": "524016.162492",
    "longitude": "-90.08796123068466",
    "latitude": "29.93504992721255",
    "geocoded_column": {
      "latitude": "29.93504992721255",
      "longitude": "-90.08796123068466"
    }
  },
  {
    "service_request": "2022-897357",
    "request_type": "Traffic Signals/Signs/Striping/Streetlights",
    "request_reason": "Traffic Signal Malfunctioning/Damaged",
    "date_created": "2022-07-06T15:48:43.000",
    "date_modified": "2022-07-06T15:48:43.000",
    "request_status": "Pending",
    "responsible_agency": "Department of Public Works",
    "final_address": "1ST ST & ST CHARLES AVE",
    "address_councildis": "B",
    "status": "Pending",
    "rowid": "897357",
    "final_x": "3676936.9",
    "final_y": "523236.08",
    "longitude": "-90.08276444265984",
    "latitude": "29.932855402941573",
    "geocoded_column": {
      "latitude": "29.932855402941573",
      "longitude": "-90.08276444265984"
    }
  },
  {
    "service_request": "2022-897355",
    "request_type": "Trash/Recycling",
    "request_reason": "Request a Large Item Pick Up",
    "date_created": "2022-07-06T15:45:42.000",
    "date_modified": "2022-07-06T15:45:42.000",
    "request_status": "Pending",
    "responsible_agency": "Department of Sanitation",
    "final_address": "2671 Gladiolus St",
    "address_councildis": "D",
    "status": "Assigned to Contractor",
    "contractor": "Metro Disposal",
    "rowid": "897355",
    "final_x": "3687603.52022",
    "final_y": "547636.531474",
    "longitude": "-90.04822689931315",
    "latitude": "29.999623727660598",
    "geocoded_column": {
      "latitude": "29.999623727660598",
      "longitude": "-90.04822689931315"
    }
  },
  {
    "service_request": "2022-897354",
    "request_type": "Trash/Recycling",
    "request_reason": "Replace Trash Cart",
    "date_created": "2022-07-06T15:44:46.000",
    "date_modified": "2022-07-06T15:44:47.000",
    "request_status": "Pending",
    "responsible_agency": "Department of Sanitation",
    "final_address": "726 Louisa St",
    "address_councildis": "C",
    "status": "Assigned to Contractor",
    "contractor": "Metro Disposal",
    "rowid": "897354",
    "final_x": "3689208.82422",
    "final_y": "534593.224325",
    "longitude": "-90.04361947936893",
    "latitude": "29.963709673161627",
    "geocoded_column": {
      "latitude": "29.963709673161627",
      "longitude": "-90.04361947936893"
    }
  },
  {
    "service_request": "2022-897353",
    "request_type": "Trash/Recycling",
    "request_reason": "Missed Trash Pick-Up",
    "date_created": "2022-07-06T15:43:25.000",
    "date_modified": "2022-07-06T15:43:26.000",
    "request_status": "Pending",
    "responsible_agency": "Department of Sanitation",
    "final_address": "76 Versailles Blvd",
    "address_councildis": "B",
    "status": "Assigned to Contractor",
    "contractor": "Richards Disposal",
    "rowid": "897353",
    "final_x": "3667859.38644",
    "final_y": "530665.146434",
    "longitude": "-90.11117140524786",
    "latitude": "29.953552227979444",
    "geocoded_column": {
      "latitude": "29.953552227979444",
      "longitude": "-90.11117140524786"
    }
  },
  {
    "service_request": "2022-897352",
    "request_type": "Roads/Drainage",
    "request_reason": "Catch Basin - Clogged",
    "date_created": "2022-07-06T15:43:22.000",
    "date_modified": "2022-07-06T15:43:22.000",
    "request_status": "Pending",
    "responsible_agency": "Department of Public Works",
    "final_address": "100 BLK Camp St",
    "address_councildis": "B",
    "status": "Pending",
    "rowid": "897352",
    "final_x": "3681384.35832",
    "final_y": "530284.107527",
    "longitude": "-90.068478554501",
    "latitude": "29.952100907296813",
    "geocoded_column": {
      "latitude": "29.952100907296813",
      "longitude": "-90.068478554501"
    }
  },
  {
    "service_request": "2022-897351",
    "request_type": "Trash/Recycling",
    "request_reason": "Request a Large Item Pick Up",
    "date_created": "2022-07-06T15:42:13.000",
    "date_modified": "2022-07-06T15:42:13.000",
    "request_status": "Pending",
    "responsible_agency": "Department of Sanitation",
    "final_address": "1318 Deslonde St",
    "address_councildis": "E",
    "status": "Assigned to Contractor",
    "contractor": "Metro Disposal",
    "rowid": "897351",
    "final_x": "3695592.42115",
    "final_y": "535328.159622",
    "longitude": "-90.02343429031347",
    "latitude": "29.965531374249323",
    "geocoded_column": {
      "latitude": "29.965531374249323",
      "longitude": "-90.02343429031347"
    }
  },
  {
    "service_request": "2022-897350",
    "request_type": "Trash/Recycling",
    "request_reason": "Repair Trash Cart",
    "date_created": "2022-07-06T15:34:22.000",
    "date_modified": "2022-07-06T15:34:22.000",
    "request_status": "Pending",
    "responsible_agency": "Department of Sanitation",
    "final_address": "4522 S Carrollton Ave",
    "address_councildis": "A",
    "status": "Assigned to Contractor",
    "contractor": "Richards Disposal",
    "rowid": "897350",
    "final_x": "3670546.47879",
    "final_y": "537492.365832",
    "longitude": "-90.10245510490881",
    "latitude": "29.972245727574723",
    "geocoded_column": {
      "latitude": "29.972245727574723",
      "longitude": "-90.10245510490881"
    }
  },
  {
    "service_request": "2022-897349",
    "request_type": "Trash/Recycling",
    "request_reason": "Repair Trash Cart",
    "date_created": "2022-07-06T15:34:01.000",
    "date_modified": "2022-07-06T15:43:56.000",
    "request_status": "Pending",
    "responsible_agency": "Department of Sanitation",
    "final_address": "7732 Devine Ave, New Orleans, Louisiana, 70127",
    "address_councildis": "E",
    "contractor": "Metro Disposal",
    "rowid": "897349",
    "final_x": "3705387.25803",
    "final_y": "563400.428768",
    "longitude": "-89.99146469805525",
    "latitude": "30.042407943636174",
    "geocoded_column": {
      "latitude": "30.042407943636174",
      "longitude": "-89.99146469805525"
    }
  },
  {
    "service_request": "2022-897348",
    "request_type": "Trash/Recycling",
    "request_reason": "Repair Trash Cart",
    "date_created": "2022-07-06T15:33:52.000",
    "date_modified": "2022-07-06T15:33:53.000",
    "request_status": "Pending",
    "responsible_agency": "Department of Sanitation",
    "final_address": "4520 S Carrollton Ave",
    "address_councildis": "A",
    "status": "Assigned to Contractor",
    "contractor": "Richards Disposal",
    "rowid": "897348",
    "final_x": "3670546.47879",
    "final_y": "537492.365832",
    "longitude": "-90.10245510490881",
    "latitude": "29.972245727574723",
    "geocoded_column": {
      "latitude": "29.972245727574723",
      "longitude": "-90.10245510490881"
    }
  },
  {
    "service_request": "2022-897347",
    "request_type": "Trash/Recycling",
    "request_reason": "Replace Trash Cart",
    "date_created": "2022-07-06T15:32:10.000",
    "date_modified": "2022-07-06T15:32:11.000",
    "request_status": "Pending",
    "responsible_agency": "Department of Sanitation",
    "final_address": "4729 St Roch Ave",
    "address_councildis": "D",
    "status": "Assigned to Contractor",
    "contractor": "Metro Disposal",
    "rowid": "897347",
    "final_x": "3685432.61372",
    "final_y": "550396.285652",
    "longitude": "-90.05498759640683",
    "latitude": "30.007278821862915",
    "geocoded_column": {
      "latitude": "30.007278821862915",
      "longitude": "-90.05498759640683"
    }
  },
  {
    "service_request": "2022-897346",
    "request_type": "Trash/Recycling",
    "request_reason": "Request a Large Item Pick Up",
    "date_created": "2022-07-06T15:31:35.000",
    "date_modified": "2022-07-06T15:31:36.000",
    "request_status": "Pending",
    "responsible_agency": "Department of Sanitation",
    "final_address": "1721 S Carrollton Ave",
    "address_councildis": "A",
    "status": "Assigned to Contractor",
    "contractor": "Richards Disposal",
    "rowid": "897346",
    "final_x": "3663404.76935",
    "final_y": "529702.839937",
    "longitude": "-90.12526930966501",
    "latitude": "29.951036089916336",
    "geocoded_column": {
      "latitude": "29.951036089916336",
      "longitude": "-90.12526930966501"
    }
  },
  {
    "service_request": "2022-897345",
    "request_type": "Property Maintenance",
    "request_reason": "Property Maintenance",
    "date_created": "2022-07-06T15:28:13.000",
    "date_modified": "2022-07-06T15:28:13.000",
    "request_status": "Pending",
    "responsible_agency": "Department of Code Enforcement",
    "final_address": "4617 Eastern St",
    "address_councildis": "D",
    "status": "Pending",
    "rowid": "897345",
    "final_x": "3688119.34915",
    "final_y": "549920.530196",
    "longitude": "-90.04651635178003",
    "latitude": "30.005887976005898",
    "geocoded_column": {
      "latitude": "30.005887976005898",
      "longitude": "-90.04651635178003"
    }
  },
  {
    "service_request": "2022-897344",
    "request_type": "Parks & Parkways",
    "request_reason": "Request Tree Service (Right of Way/Public Property)",
    "date_created": "2022-07-06T15:27:02.000",
    "date_modified": "2022-07-06T15:27:03.000",
    "request_status": "Pending",
    "responsible_agency": "Department of Parks & Parkway",
    "final_address": "3706 General Pershing St",
    "address_councildis": "B",
    "status": "Pending",
    "rowid": "897344",
    "final_x": "3670474.87707",
    "final_y": "528258.09216",
    "longitude": "-90.10299437641524",
    "latitude": "29.94685665147115",
    "geocoded_column": {
      "latitude": "29.94685665147115",
      "longitude": "-90.10299437641524"
    }
  },
  {
    "service_request": "2022-897343",
    "request_type": "Roads/Drainage",
    "request_reason": "Pothole",
    "date_created": "2022-07-06T15:26:26.000",
    "date_modified": "2022-07-06T15:26:26.000",
    "request_status": "Pending",
    "responsible_agency": "Department of Public Works",
    "final_address": "5300 Memphis St",
    "address_councildis": "A",
    "status": "Pending",
    "rowid": "897343",
    "final_x": "3668607.50721",
    "final_y": "542266.721869",
    "longitude": "-90.10841753798775",
    "latitude": "29.985430723979512",
    "geocoded_column": {
      "latitude": "29.985430723979512",
      "longitude": "-90.10841753798775"
    }
  },
  {
    "service_request": "2022-897342",
    "request_type": "Trash/Recycling",
    "request_reason": "Missed Trash Pick-Up",
    "date_created": "2022-07-06T15:26:14.000",
    "date_modified": "2022-07-06T15:26:14.000",
    "request_status": "Pending",
    "responsible_agency": "Department of Sanitation",
    "final_address": "6019 Louisville St",
    "address_councildis": "A",
    "status": "Assigned to Contractor",
    "contractor": "Metro Disposal",
    "rowid": "897342",
    "final_x": "3667841.35745",
    "final_y": "547492.885522",
    "longitude": "-90.11066135540084",
    "latitude": "29.999823381258206",
    "geocoded_column": {
      "latitude": "29.999823381258206",
      "longitude": "-90.11066135540084"
    }
  },
  {
    "service_request": "2022-897341",
    "request_type": "Trash/Recycling",
    "request_reason": "Request a Large Item Pick Up",
    "date_created": "2022-07-06T15:20:04.000",
    "date_modified": "2022-07-06T15:20:05.000",
    "request_status": "Pending",
    "responsible_agency": "Department of Sanitation",
    "final_address": "5305 Memphis St",
    "address_councildis": "A",
    "status": "Assigned to Contractor",
    "contractor": "Metro Disposal",
    "rowid": "897341",
    "final_x": "3668733.54522",
    "final_y": "542223.513677",
    "longitude": "-90.10802089410237",
    "latitude": "29.985308210783504",
    "geocoded_column": {
      "latitude": "29.985308210783504",
      "longitude": "-90.10802089410237"
    }
  },
  {
    "service_request": "2022-897340",
    "request_type": "Trash/Recycling",
    "request_reason": "Missed Trash Pick-Up",
    "date_created": "2022-07-06T15:17:39.000",
    "date_modified": "2022-07-06T15:17:40.000",
    "request_status": "Pending",
    "responsible_agency": "Department of Sanitation",
    "final_address": "7724 Dominican St",
    "address_councildis": "A",
    "status": "Assigned to Contractor",
    "contractor": "Richards Disposal",
    "rowid": "897340",
    "final_x": "3660956.46266",
    "final_y": "525441.609085",
    "longitude": "-90.13314080767398",
    "latitude": "29.939389811085764",
    "geocoded_column": {
      "latitude": "29.939389811085764",
      "longitude": "-90.13314080767398"
    }
  },
  {
    "service_request": "2022-897339",
    "request_type": "Trash/Recycling",
    "request_reason": "Missed Trash Pick-Up",
    "date_created": "2022-07-06T15:13:11.000",
    "date_modified": "2022-07-06T15:13:12.000",
    "request_status": "Pending",
    "responsible_agency": "Department of Sanitation",
    "final_address": "1631 Saint Charles Ave, New Orleans, Louisiana, 70130",
    "status": "Assigned to Contractor",
    "rowid": "897339",
    "longitude": "0.0",
    "latitude": "0.0",
    "geocoded_column": {
      "latitude": "0.0",
      "longitude": "0.0"
    }
  },