[
  {
    "service_request": "2023-968026",
    "request_type": "Property Maintenance",
    "request_reason": "Property Maintenance",
    "date_created": "2023-01-18T00:54:45.000",
    "date_modified": "2023-01-18T00:54:45.000",
    "request_status": "Pending",
    "responsible_agency": "Department of Code Enforcement",
    "final_address": "1157 N Broad St",
    "address_councildis": "A",
    "status": "Pending",
    "rowid": "968026",
    "final_x": "3677812.93275",
    "final_y": "538593.844809",
    "longitude": "-90.07946833231163",
    "latitude": "29.975057785248215",
    "geocoded_column": {
      "latitude": "29.975057785248215",
      "longitude": "-90.07946833231163"
    }
  },
  {
    "service_request": "2023-968025",
    "request_type": "Traffic Signals/Signs/Striping/Streetlights",
    "request_reason": "Street Light Outage/Malfunction",
    "date_created": "2023-01-17T23:15:19.000",
    "date_modified": "2023-01-17T23:15:19.000",
    "request_status": "Pending",
    "responsible_agency": "Department of Public Works",
    "final_address": "511 Marigny St",
    "address_councildis": "C",
    "status": "Assigned to Contractor",
    "contractor": "Legacy Professional Services",
    "rowid": "968025",
    "final_x": "3685685.18006",
    "final_y": "534303.235909",
    "longitude": "-90.05475699102634",
    "latitude": "29.963020888370004",
    "geocoded_column": {
      "latitude": "29.963020888370004",
      "longitude": "-90.05475699102634"
    }
  },
  {
    "service_request": "2023-968023",
    "request_type": "Property Maintenance",
    "request_reason": "Property Maintenance",
    "date_created": "2023-01-17T23:04:25.000",
    "date_modified": "2023-01-17T23:04:25.000",
    "request_status": "Pending",
    "responsible_agency": "Department of Code Enforcement",
    "final_address": "529 Leboeuf St",
    "address_councildis": "C",
    "status": "Pending",
    "rowid": "968023",
    "final_x": "3689776.77372",
    "final_y": "529561.533569",
    "longitude": "-90.04200502814714",
    "latitude": "29.94985667771283",
    "geocoded_column": {
      "latitude": "29.94985667771283",
      "longitude": "-90.04200502814714"
    }
  },
  {
    "service_request": "2023-968022",
    "request_type": "Trash/Recycling",
    "request_reason": "Missed Trash Pick-Up",
    "date_created": "2023-01-17T22:53:55.000",
    "date_modified": "2023-01-17T22:53:56.000",
    "request_status": "Pending",
    "responsible_agency": "Department of Sanitation",
    "final_address": "4222 Pitt St",
    "address_councildis": "B",
    "status": "Assigned to Contractor",
    "contractor": "Richards Disposal",
    "rowid": "968022",
    "final_x": "3671437.90497",
    "final_y": "520554.902584",
    "longitude": "-90.10021548093425",
    "latitude": "29.92564690464922",
    "geocoded_column": {
      "latitude": "29.92564690464922",
      "longitude": "-90.10021548093425"
    }
  },
  {
    "service_request": "2023-968021",
    "request_type": "Traffic Signals/Signs/Striping/Streetlights",
    "request_reason": "Request for Traffic Calming due to Speeding",
    "date_created": "2023-01-17T22:18:33.000",
    "date_modified": "2023-01-17T22:18:33.000",
    "request_status": "Pending",
    "responsible_agency": "Department of Public Works",
    "final_address": "5701 Crowder Blvd",
    "address_councildis": "E",
    "status": "Pending",
    "rowid": "968021",
    "final_x": "3705377.62999",
    "final_y": "558023.320475",
    "longitude": "-89.99169410197185",
    "latitude": "30.02762331816234",
    "geocoded_column": {
      "latitude": "30.02762331816234",
      "longitude": "-89.99169410197185"
    }
  },
  {
    "service_request": "2023-968020",
    "request_type": "Trash/Recycling",
    "request_reason": "Replace Recycling Cart",
    "date_created": "2023-01-17T22:16:03.000",
    "date_modified": "2023-01-17T22:16:03.000",
    "request_status": "Pending",
    "responsible_agency": "Department of Sanitation",
    "final_address": "2165 Treasure St",
    "address_councildis": "D",
    "status": "Pending",
    "rowid": "968020",
    "final_x": "3684188.47804",
    "final_y": "544058.310926",
    "longitude": "-90.05914082613111",
    "latitude": "29.989889771054884",
    "geocoded_column": {
      "latitude": "29.989889771054884",
      "longitude": "-90.05914082613111"
    }
  },
  {
    "service_request": "2023-968018",
    "request_type": "Roads/Drainage",
    "request_reason": "Pothole",
    "date_created": "2023-01-17T22:08:00.000",
    "date_modified": "2023-01-17T22:08:00.000",
    "request_status": "Pending",
    "responsible_agency": "Department of Public Works",
    "final_address": "1000 Dublin St",
    "address_councildis": "A",
    "status": "Pending",
    "rowid": "968018",
    "final_x": "3661228.21286",
    "final_y": "528150.302016",
    "longitude": "-90.13219320803226",
    "latitude": "29.946830026152547",
    "geocoded_column": {
      "latitude": "29.946830026152547",
      "longitude": "-90.13219320803226"
    }
  },
  {
    "service_request": "2023-968017",
    "request_type": "Property Maintenance",
    "request_reason": "Property Maintenance",
    "date_created": "2023-01-17T21:59:07.000",
    "date_modified": "2023-01-17T21:59:07.000",
    "request_status": "Pending",
    "responsible_agency": "Department of Code Enforcement",
    "final_address": "5531 Bundy Rd",
    "address_councildis": "E",
    "status": "Pending",
    "rowid": "968017",
    "final_x": "3709794.83281",
    "final_y": "558304.343132",
    "longitude": "-89.97772570640545",
    "latitude": "30.028253069371488",
    "geocoded_column": {
      "latitude": "30.028253069371488",
      "longitude": "-89.97772570640545"
    }
  },
  {
    "service_request": "2023-968016",
    "request_type": "Roads/Drainage",
    "request_reason": "Street Subsidence (Sinking)",
    "date_created": "2023-01-17T21:49:05.000",
    "date_modified": "2023-01-17T21:49:05.000",
    "request_status": "Pending",
    "responsible_agency": "Department of Public Works",
    "final_address": "5333 Tullis Dr",
    "address_councildis": "C",
    "status": "Pending",
    "rowid": "968016",
    "final_x": "3703585.81226",
    "final_y": "511670.670832",
    "longitude": "-89.99906163996056",
    "latitude": "29.900227872844688",
    "geocoded_column": {
      "latitude": "29.900227872844688",
      "longitude": "-89.99906163996056"
    }
  },
  {
    "service_request": "2023-968015",
    "request_type": "Roads/Drainage",
    "request_reason": "Street Subsidence (Sinking)",
    "date_created": "2023-01-17T21:46:40.000",
    "date_modified": "2023-01-17T21:46:40.000",
    "request_status": "Pending",
    "responsible_agency": "Department of Public Works",
    "final_address": "5333 Tullis Dr",
    "address_councildis": "C",
    "status": "Pending",
    "rowid": "968015",
    "final_x": "3703585.81226",
    "final_y": "511670.670832",
    "longitude": "-89.99906163996056",
    "latitude": "29.900227872844688",
    "geocoded_column": {
      "latitude": "29.900227872844688",
      "longitude": "-89.99906163996056"
    }
  },
  {
    "service_request": "2023-968014",
    "request_type": "Trash/Recycling",
    "request_reason": "Missed Trash Pick-Up",
    "date_created": "2023-01-17T21:45:25.000",
    "date_modified": "2023-01-17T21:45:26.000",
    "request_status": "Pending",
    "responsible_agency": "Department of Sanitation",
    "final_address": "5216 Atlanta St",
    "address_councildis": "B",
    "status": "Assigned to Contractor",
    "contractor": "Richards Disposal",
    "rowid": "968014",
    "final_x": "3667950.65569",
    "final_y": "520683.950457",
    "longitude": "-90.11121935799825",
    "latitude": "29.9261044765486",
    "geocoded_column": {
      "latitude": "29.9261044765486",
      "longitude": "-90.11121935799825"
    }
  },
  {
    "service_request": "2023-968013",
    "request_type": "Roads/Drainage",
    "request_reason": "Street Subsidence (Sinking)",
    "date_created": "2023-01-17T21:44:18.000",
    "date_modified": "2023-01-17T21:44:18.000",
    "request_status": "Pending",
    "responsible_agency": "Department of Public Works",
    "final_address": "5333 Tullis Dr",
    "address_councildis": "C",
    "status": "Pending",
    "rowid": "968013",
    "final_x": "3703585.81226",
    "final_y": "511670.670832",
    "longitude": "-89.99906163996056",
    "latitude": "29.900227872844688",
    "geocoded_column": {
      "latitude": "29.900227872844688",
      "longitude": "-89.99906163996056"
    }
  },
  {
    "service_request": "2023-968012",
    "request_type": "Roads/Drainage",
    "request_reason": "Street Subsidence (Sinking)",
    "date_created": "2023-01-17T21:41:40.000",
    "date_modified": "2023-01-17T21:41:40.000",
    "request_status": "Pending",
    "responsible_agency": "Department of Public Works",
    "final_address": "5333 Tullis Dr",
    "address_councildis": "C",
    "status": "Pending",
    "rowid": "968012",
    "final_x": "3703585.81226",
    "final_y": "511670.670832",
    "longitude": "-89.99906163996056",
    "latitude": "29.900227872844688",
    "geocoded_column": {
      "latitude": "29.900227872844688",
      "longitude": "-89.99906163996056"
    }
  },
  {
    "service_request": "2023-968011",
    "request_type": "Roads/Drainage",
    "request_reason": "Street Subsidence (Sinking)",
    "date_created": "2023-01-17T21:38:42.000",
    "date_modified": "2023-01-17T21:38:42.000",
    "request_status": "Pending",
    "responsible_agency": "Department of Public Works",
    "final_address": "5333 Tullis Dr",
    "address_councildis": "C",
    "status": "Pending",
    "rowid": "968011",
    "final_x": "3703585.81226",
    "final_y": "511670.670832",
    "longitude": "-89.99906163996056",
    "latitude": "29.900227872844688",
    "geocoded_column": {
      "latitude": "29.900227872844688",
      "longitude": "-89.99906163996056"
    }
  },
  {
    "service_request": "2023-968010",
    "request_type": "Roads/Drainage",
    "request_reason": "Street Flooding / Drainage",
    "date_created": "2023-01-17T21:36:55.000",
    "date_modified": "2023-01-17T21:36:55.000",
    "request_status": "Pending",
    "responsible_agency": "Department of Public Works",
    "final_address": "5904 Annunciation St",
    "address_councildis": "A",
    "status": "Pending",
    "rowid": "968010",
    "final_x": "3664847.81332",
    "final_y": "517637.226678",
    "longitude": "-90.12111592177729",
    "latitude": "29.91781757278294",
    "geocoded_column": {
      "latitude": "29.91781757278294",
      "longitude": "-90.12111592177729"
    }
  },
  {
    "service_request": "2023-968009",
    "request_type": "Roads/Drainage",
    "request_reason": "Street Subsidence (Sinking)",
    "date_created": "2023-01-17T21:31:52.000",
    "date_modified": "2023-01-17T21:31:52.000",
    "request_status": "Pending",
    "responsible_agency": "Department of Public Works",
    "final_address": "5333 Tullis Dr",
    "address_councildis": "C",
    "status": "Pending",
    "rowid": "968009",
    "final_x": "3703585.81226",
    "final_y": "511670.670832",
    "longitude": "-89.99906163996056",
    "latitude": "29.900227872844688",
    "geocoded_column": {
      "latitude": "29.900227872844688",
      "longitude": "-89.99906163996056"
    }
  },
  {
    "service_request": "2023-968008",
    "request_type": "Trash/Recycling",
    "request_reason": "Request a Large Item Pick Up",
    "date_created": "2023-01-17T21:00:48.000",
    "date_modified": "2023-01-17T21:00:49.000",
    "request_status": "Pending",
    "responsible_agency": "Department of Sanitation",
    "final_address": "614 Esplanade Ave, New Orleans, Louisiana, 70116",
    "address_councildis": "C",
    "status": "Assigned to Contractor",
    "contractor": "Empire Services",
    "rowid": "968008",
    "final_x": "3684193.25231",
    "final_y": "534226.798277",
    "longitude": "-90.05947099322388",
    "latitude": "29.962856401929088",
    "geocoded_column": {
      "latitude": "29.962856401929088",
      "longitude": "-90.05947099322388"
    }
  },
  {
    "service_request": "2023-968007",
    "request_type": "Trash/Recycling",
    "request_reason": "Request a Large Item Pick Up",
    "date_created": "2023-01-17T20:45:02.000",
    "date_modified": "2023-01-17T20:45:02.000",
    "request_status": "Pending",
    "responsible_agency": "Department of Sanitation",
    "final_address": "14912 Curran Rd",
    "address_councildis": "E",
    "status": "Assigned to Contractor",
    "contractor": "Waste Pro",
    "rowid": "968007",
    "final_x": "3720665.19577",
    "final_y": "574116.672938",
    "longitude": "-89.94277005382037",
    "latitude": "30.071372347607458",
    "geocoded_column": {
      "latitude": "30.071372347607458",
      "longitude": "-89.94277005382037"
    }
  },
  {
    "service_request": "2023-968006",
    "request_type": "Abandoned Vehicles",
    "request_reason": "Abandoned/Junk Vehicles",
    "date_created": "2023-01-17T20:18:54.000",
    "date_modified": "2023-01-17T20:18:55.000",
    "request_status": "Pending",
    "responsible_agency": "Department of Public Works",
    "final_address": "1ST ST & MAGAZINE ST",
    "address_councildis": "B",
    "status": "Pending",
    "rowid": "968006",
    "final_x": "3678080.3",
    "final_y": "521503.78",
    "longitude": "-90.07921467002753",
    "latitude": "29.928057781401485",
    "geocoded_column": {
      "latitude": "29.928057781401485",
      "longitude": "-90.07921467002753"
    }
  },
  {
    "service_request": "2023-968005",
    "request_type": "Traffic Signals/Signs/Striping/Streetlights",
    "request_reason": "Street Light Outage/Malfunction",
    "date_created": "2023-01-17T20:08:38.000",
    "date_modified": "2023-01-17T20:08:39.000",
    "request_status": "Pending",
    "responsible_agency": "Department of Public Works",
    "final_address": "9100 Dixon St",
    "address_councildis": "A",
    "status": "Assigned to Contractor",
    "contractor": "Legacy Professional Services",
    "rowid": "968005",
    "final_x": "3665762.52672",
    "final_y": "537841.438857",
    "longitude": "-90.11755200194045",
    "latitude": "29.973345999648412",
    "geocoded_column": {
      "latitude": "29.973345999648412",
      "longitude": "-90.11755200194045"
    }
  },
  {
    "service_request": "2023-968004",
    "request_type": "Trash/Recycling",
    "request_reason": "Order Recycling Cart",
    "date_created": "2023-01-17T20:04:05.000",
    "date_modified": "2023-01-17T20:04:05.000",
    "request_status": "Pending",
    "responsible_agency": "Department of Sanitation",
    "final_address": "4741 Major Dr",
    "address_councildis": "E",
    "status": "Pending",
    "rowid": "968004",
    "final_x": "3718332.65452",
    "final_y": "556945.161178",
    "longitude": "-89.95079882664871",
    "latitude": "30.024235365060548",
    "geocoded_column": {
      "latitude": "30.024235365060548",
      "longitude": "-89.95079882664871"
    }
  },
  {
    "service_request": "2023-968003",
    "request_type": "Trash/Recycling",
    "request_reason": "Request a Large Item Pick Up",
    "date_created": "2023-01-17T19:56:18.000",
    "date_modified": "2023-01-17T19:56:19.000",
    "request_status": "Pending",
    "responsible_agency": "Department of Sanitation",
    "final_address": "5548 Rosemary Pl",
    "address_councildis": "A",
    "status": "Assigned to Contractor",
    "contractor": "IV Waste",
    "rowid": "968003",
    "final_x": "3667025.37517",
    "final_y": "544264.057167",
    "longitude": "-90.11334768843476",
    "latitude": "29.990969127087325",
    "geocoded_column": {
      "latitude": "29.990969127087325",
      "longitude": "-90.11334768843476"
    }
  },
  {
    "service_request": "2023-968002",
    "request_type": "Abandoned Vehicles",
    "request_reason": "Abandoned/Junk Vehicles",
    "date_created": "2023-01-17T19:50:45.000",
    "date_modified": "2023-01-17T19:50:45.000",
    "request_status": "Pending",
    "responsible_agency": "Department of Public Works",
    "final_address": "1216 Bordeaux St, New Orleans, Louisiana, 70115",
    "address_councildis": "B",
    "status": "Pending",
    "rowid": "968002",
    "final_x": "3669441.98791",
    "final_y": "519829.994808",
    "longitude": "-90.10654050202348",
    "latitude": "29.923712549219815",
    "geocoded_column": {
      "latitude": "29.923712549219815",
      "longitude": "-90.10654050202348"
    }
  },
  {
    "service_request": "2023-968001",
    "request_type": "Trash/Recycling",
    "request_reason": "Replace Trash Cart",
    "date_created": "2023-01-17T19:49:56.000",
    "date_modified": "2023-01-17T19:49:57.000",
    "request_status": "Pending",
    "responsible_agency": "Department of Sanitation",
    "final_address": "7050 Edgefield Dr",
    "address_councildis": "E",
    "status": "Assigned to Contractor",
    "contractor": "Waste Pro",
    "rowid": "968001",
    "final_x": "3718687.64972",
    "final_y": "569150.090406",
    "longitude": "-89.94921127171993",
    "latitude": "30.057782163760944",
    "geocoded_column": {
      "latitude": "30.057782163760944",
      "longitude": "-89.94921127171993"
    }
  },
  {
    "service_request": "2023-968000",
    "request_type": "Trash/Recycling",
    "request_reason": "Order Recycling Cart",
    "date_created": "2023-01-17T19:41:36.000",
    "date_modified": "2023-01-17T19:41:36.000",
    "request_status": "Pending",
    "responsible_agency": "Department of Sanitation",
    "final_address": "700 Independence St",
    "address_councildis": "C",
    "status": "Pending",
    "rowid": "968000",
    "final_x": "3690570.62588",
    "final_y": "534052.694213",
    "longitude": "-90.03933833755224",
    "latitude": "29.96218118756963",
    "geocoded_column": {
      "latitude": "29.96218118756963",
      "longitude": "-90.03933833755224"
    }
  },
  {
    "service_request": "2023-967999",
    "request_type": "Traffic Signals/Signs/Striping/Streetlights",
    "request_reason": "Street Light Outage/Malfunction",
    "date_created": "2023-01-17T19:39:37.000",
    "date_modified": "2023-01-17T19:39:38.000",
    "request_status": "Pending",
    "responsible_agency": "Department of Public Works",
    "final_address": "3615 Royal St",
    "address_councildis": "C",
    "status": "Assigned to Contractor",
    "contractor": "Legacy Professional Services",
    "rowid": "967999",
    "final_x": "3690484.28694",
    "final_y": "534077.263237",
    "longitude": "-90.03961010617122",
    "latitude": "29.962251424502387",
    "geocoded_column": {
      "latitude": "29.962251424502387",
      "longitude": "-90.03961010617122"
    }
  },
  {
    "service_request": "2023-967998",
    "request_type": "Trash/Recycling",
    "request_reason": "MIssed Recycling Pick-Up",
    "date_created": "2023-01-17T19:34:00.000",
    "date_modified": "2023-01-17T19:34:01.000",
    "request_status": "Pending",
    "responsible_agency": "Department of Sanitation",
    "final_address": "220 S Solomon St",
    "address_councildis": "A",
    "status": "Assigned to Contractor",
    "contractor": "Richards Disposal",
    "rowid": "967998",
    "final_x": "3670248.74311",
    "final_y": "538208.997833",
    "longitude": "-90.10337111327594",
    "latitude": "29.974225015194648",
    "geocoded_column": {
      "latitude": "29.974225015194648",
      "longitude": "-90.10337111327594"
    }
  },
  {
    "service_request": "2023-967997",
    "request_type": "Trash/Recycling",
    "request_reason": "Order Recycling Cart",
    "date_created": "2023-01-17T19:27:34.000",
    "date_modified": "2023-01-17T19:27:34.000",
    "request_status": "Pending",
    "responsible_agency": "Department of Sanitation",
    "final_address": "2004 General Taylor St",
    "address_councildis": "B",
    "status": "Pending",
    "rowid": "967997",
    "final_x": "3672248.44174",
    "final_y": "522486.184314",
    "longitude": "-90.0975911096737",
    "latitude": "29.930933299253667",
    "geocoded_column": {
      "latitude": "29.930933299253667",
      "longitude": "-90.0975911096737"
    }
  },
  {
    "service_request": "2023-967996",
    "request_type": "Traffic Signals/Signs/Striping/Streetlights",
    "request_reason": "Street Light Outage/Malfunction",
    "date_created": "2023-01-17T19:11:00.000",
    "date_modified": "2023-01-17T19:11:00.000",
    "request_status": "Pending",
    "responsible_agency": "Department of Public Works",
    "final_address": "7028 Catina St",
    "address_councildis": "A",
    "status": "Assigned to Contractor",
    "contractor": "Legacy Professional Services",
    "rowid": "967996",
    "final_x": "3667063.9074",
    "final_y": "554401.688152",
    "longitude": "-90.11288489929434",
    "latitude": "30.018842964413864",
    "geocoded_column": {
      "latitude": "30.018842964413864",
      "longitude": "-90.11288489929434"
    }
  },
  {
    "service_request": "2023-967994",
    "request_type": "Abandoned Vehicles",
    "request_reason": "Abandoned/Junk Vehicles",
    "date_created": "2023-01-17T18:43:10.000",
    "date_modified": "2023-01-17T18:43:10.000",
    "request_status": "Pending",
    "responsible_agency": "Department of Public Works",
    "final_address": "4759 Bundy Rd",
    "address_councildis": "E",
    "status": "Pending",
    "rowid": "967994",
    "final_x": "3709449.06993",
    "final_y": "555956.057561",
    "longitude": "-89.97890599955467",
    "latitude": "30.02180744770196",
    "geocoded_column": {
      "latitude": "30.02180744770196",
      "longitude": "-89.97890599955467"
    }
  },
  {
    "service_request": "2023-967993",
    "request_type": "Trash/Recycling",
    "request_reason": "Request a Large Item Pick Up",
    "date_created": "2023-01-17T18:35:56.000",
    "date_modified": "2023-01-17T18:35:57.000",
    "request_status": "Pending",
    "responsible_agency": "Department of Sanitation",
    "final_address": "6501 Memphis St",
    "address_councildis": "A",
    "status": "Assigned to Contractor",
    "contractor": "IV Waste",
    "rowid": "967993",
    "final_x": "3669591.56679",
    "final_y": "550687.182356",
    "longitude": "-90.10502418081875",
    "latitude": "30.00855511546219",
    "geocoded_column": {
      "latitude": "30.00855511546219",
      "longitude": "-90.10502418081875"
    }
  },
  {
    "service_request": "2023-967992",
    "request_type": "Roads/Drainage",
    "request_reason": "Pothole",
    "date_created": "2023-01-17T18:26:16.000",
    "date_modified": "2023-01-17T18:26:16.000",
    "request_status": "Pending",
    "responsible_agency": "Department of Public Works",
    "final_address": "7540 Read Blvd",
    "address_councildis": "E",
    "status": "Pending",
    "rowid": "967992",
    "final_x": "3708483.51006",
    "final_y": "564402.980193",
    "longitude": "-89.98164204039053",
    "latitude": "30.045064496109077",
    "geocoded_column": {
      "latitude": "30.045064496109077",
      "longitude": "-89.98164204039053"
    }
  },
  {
    "service_request": "2023-967991",
    "request_type": "Property Maintenance",
    "request_reason": "Property Maintenance",
    "date_created": "2023-01-17T18:23:55.000",
    "date_modified": "2023-01-17T18:23:55.000",
    "request_status": "Pending",
    "responsible_agency": "Department of Code Enforcement",
    "final_address": "10151 Curran Rd",
    "address_councildis": "E",
    "status": "Pending",
    "rowid": "967991",
    "final_x": "3708719.03985",
    "final_y": "565335.506146",
    "longitude": "-89.98086287402072",
    "latitude": "30.047620926854986",
    "geocoded_column": {
      "latitude": "30.047620926854986",
      "longitude": "-89.98086287402072"
    }
  },
  {
    "service_request": "2023-967990",
    "request_type": "Property Maintenance",
    "request_reason": "Property Maintenance",
    "date_created": "2023-01-17T18:23:54.000",
    "date_modified": "2023-01-17T18:23:54.000",
    "request_status": "Pending",
    "responsible_agency": "Department of Code Enforcement",
    "final_address": "10151 Curran Rd",
    "address_councildis": "E",
    "status": "Pending",
    "rowid": "967990",
    "final_x": "3708719.03985",
    "final_y": "565335.506146",
    "longitude": "-89.98086287402072",
    "latitude": "30.047620926854986",
    "geocoded_column": {
      "latitude": "30.047620926854986",
      "longitude": "-89.98086287402072"
    }
  },
  {
    "service_request": "2023-967989",
    "request_type": "Trash/Recycling",
    "request_reason": "Request a Large Item Pick Up",
    "date_created": "2023-01-17T18:21:09.000",
    "date_modified": "2023-01-17T18:21:09.000",
    "request_status": "Pending",
    "responsible_agency": "Department of Sanitation",
    "final_address": "7911 St Charles Ave",
    "address_councildis": "A",
    "status": "Assigned to Contractor",
    "contractor": "Richards Disposal",
    "rowid": "967989",
    "final_x": "3661096.88646",
    "final_y": "526438.00435",
    "longitude": "-90.13266450626347",
    "latitude": "29.94212553721978",
    "geocoded_column": {
      "latitude": "29.94212553721978",
      "longitude": "-90.13266450626347"
    }
  },
  {
    "service_request": "2023-967988",
    "request_type": "Traffic Signals/Signs/Striping/Streetlights",
    "request_reason": "Street Light Outage/Malfunction",
    "date_created": "2023-01-17T18:18:06.000",
    "date_modified": "2023-01-17T18:18:07.000",
    "request_status": "Pending",
    "responsible_agency": "Department of Public Works",
    "final_address": "3513 Mimosa Ct",
    "address_councildis": "C",
    "status": "Assigned to Contractor",
    "contractor": "Legacy Professional Services",
    "rowid": "967988",
    "final_x": "3703618.99876",
    "final_y": "512947.438321",
    "longitude": "-89.99890998295474",
    "latitude": "29.903737488274533",
    "geocoded_column": {
      "latitude": "29.903737488274533",
      "longitude": "-89.99890998295474"
    }
  },
  {
    "service_request": "2023-967987",
    "request_type": "Roads/Drainage",
    "request_reason": "Pothole",
    "date_created": "2023-01-17T18:16:10.000",
    "date_modified": "2023-01-17T18:16:10.000",
    "request_status": "Pending",
    "responsible_agency": "Department of Public Works",
    "final_address": "10151 Boulevard Way",
    "address_councildis": "E",
    "status": "Pending",
    "rowid": "967987",
    "final_x": "3708783.77796",
    "final_y": "564906.222498",
    "longitude": "-89.98067428402193",
    "latitude": "30.046438467905393",
    "geocoded_column": {
      "latitude": "30.046438467905393",
      "longitude": "-89.98067428402193"
    }
  },
  {
    "service_request": "2023-967986",
    "request_type": "Trash/Recycling",
    "request_reason": "Request a Large Item Pick Up",
    "date_created": "2023-01-17T18:14:36.000",
    "date_modified": "2023-01-17T18:14:37.000",
    "request_status": "Pending",
    "responsible_agency": "Department of Sanitation",
    "final_address": "4915 Music St",
    "address_councildis": "D",
    "status": "Assigned to Contractor",
    "contractor": "IV Waste",
    "rowid": "967986",
    "final_x": "3685642.01686",
    "final_y": "551004.630421",
    "longitude": "-90.05430458143798",
    "latitude": "30.008945123270326",
    "geocoded_column": {
      "latitude": "30.008945123270326",
      "longitude": "-90.05430458143798"
    }
  },
  {
    "service_request": "2023-967985",
    "request_type": "Property Maintenance",
    "request_reason": "Property Maintenance",
    "date_created": "2023-01-17T18:14:22.000",
    "date_modified": "2023-01-17T18:14:22.000",
    "request_status": "Pending",
    "responsible_agency": "Department of Code Enforcement",
    "final_address": "10109 Boulevard Way",
    "address_councildis": "E",
    "status": "Pending",
    "rowid": "967985",
    "final_x": "3708542.68548",
    "final_y": "564755.229474",
    "longitude": "-89.98144188492323",
    "latitude": "30.046031121038116",
    "geocoded_column": {
      "latitude": "30.046031121038116",
      "longitude": "-89.98144188492323"
    }
  },
  {
    "service_request": "2023-967984",
    "request_type": "Trash/Recycling",
    "request_reason": "Missed Trash Pick-Up",
    "date_created": "2023-01-17T18:14:08.000",
    "date_modified": "2023-01-17T18:14:08.000",
    "request_status": "Pending",
    "responsible_agency": "Department of Sanitation",
    "final_address": "4025 Pitt St, New Orleans, Louisiana, 70115",
    "address_councildis": "B",
    "status": "Assigned to Contractor",
    "contractor": "Richards Disposal",
    "rowid": "967984",
    "final_x": "3672101.62446",
    "final_y": "520726.724665",
    "longitude": "-90.09811446900822",
    "latitude": "29.92609970342061",
    "geocoded_column": {
      "latitude": "29.92609970342061",
      "longitude": "-90.09811446900822"
    }
  },
  {
    "service_request": "2023-967983",
    "request_type": "Property Maintenance",
    "request_reason": "Property Maintenance",
    "date_created": "2023-01-17T18:12:22.000",
    "date_modified": "2023-01-17T18:12:22.000",
    "request_status": "Pending",
    "responsible_agency": "Department of Code Enforcement",
    "final_address": "4801 Perrault Walk",
    "address_councildis": "E",
    "status": "Pending",
    "rowid": "967983",
    "final_x": "3709822.07358",
    "final_y": "556312.32425",
    "longitude": "-89.97771409855842",
    "latitude": "30.022774913245506",
    "geocoded_column": {
      "latitude": "30.022774913245506",
      "longitude": "-89.97771409855842"
    }
  },
  {
    "service_request": "2023-967982",
    "request_type": "Traffic Signals/Signs/Striping/Streetlights",
    "request_reason": "Street Light Outage/Malfunction",
    "date_created": "2023-01-17T18:10:20.000",
    "date_modified": "2023-01-17T18:10:21.000",
    "request_status": "Pending",
    "responsible_agency": "Department of Public Works",
    "final_address": "4801 Perrault Walk",
    "address_councildis": "E",
    "status": "Assigned to Contractor",
    "contractor": "Legacy Professional Services",
    "rowid": "967982",
    "final_x": "3709822.07358",
    "final_y": "556312.32425",
    "longitude": "-89.97771409855842",
    "latitude": "30.022774913245506",
    "geocoded_column": {
      "latitude": "30.022774913245506",
      "longitude": "-89.97771409855842"
    }
  },
  {
    "service_request": "2023-967981",
    "request_type": "Property Maintenance",
    "request_reason": "Property Maintenance",
    "date_created": "2023-01-17T18:07:59.000",
    "date_modified": "2023-01-17T18:07:59.000",
    "request_status": "Pending",
    "responsible_agency": "Department of Code Enforcement",
    "final_address": "4942 Bundy Rd",
    "address_councildis": "E",
    "status": "Pending",
    "rowid": "967981",
    "final_x": "3709047.57796",
    "final_y": "556892.072794",
    "longitude": "-89.98013967008764",
    "latitude": "30.024394166843155",
    "geocoded_column": {
      "latitude": "30.024394166843155",
      "longitude": "-89.98013967008764"
    }
  },
  {
    "service_request": "2023-967980",
    "request_type": "Trash/Recycling",
    "request_reason": "Missed Trash Pick-Up",
    "date_created": "2023-01-17T18:04:48.000",
    "date_modified": "2023-01-17T18:04:49.000",
    "request_status": "Pending",
    "responsible_agency": "Department of Sanitation",
    "final_address": "834 Webster St, New Orleans, Louisiana, 70118",
    "address_councildis": "A",
    "status": "Assigned to Contractor",
    "contractor": "Richards Disposal",
    "rowid": "967980",
    "final_x": "3664185.13658",
    "final_y": "519700.483064",
    "longitude": "-90.12313885249341",
    "latitude": "29.923510144348008",
    "geocoded_column": {
      "latitude": "29.923510144348008",
      "longitude": "-90.12313885249341"
    }
  },
  {
    "service_request": "2023-967978",
    "request_type": "Trash/Recycling",
    "request_reason": "Replace Trash Cart",
    "date_created": "2023-01-17T17:51:05.000",
    "date_modified": "2023-01-17T17:51:06.000",
    "request_status": "Pending",
    "responsible_agency": "Department of Sanitation",
    "final_address": "1919 Robert St",
    "address_councildis": "B",
    "status": "Assigned to Contractor",
    "contractor": "Richards Disposal",
    "rowid": "967978",
    "final_x": "3668821.78279",
    "final_y": "522682.588602",
    "longitude": "-90.10840200757546",
    "latitude": "29.93157451805284",
    "geocoded_column": {
      "latitude": "29.93157451805284",
      "longitude": "-90.10840200757546"
    }
  },
  {
    "service_request": "2023-967977",
    "request_type": "Property Maintenance",
    "request_reason": "Property Maintenance",
    "date_created": "2023-01-17T17:50:48.000",
    "date_modified": "2023-01-17T17:50:48.000",
    "request_status": "Pending",
    "responsible_agency": "Department of Code Enforcement",
    "final_address": "4659 Clara St",
    "address_councildis": "B",
    "status": "Pending",
    "rowid": "967977",
    "final_x": "3669237.82855",
    "final_y": "525005.648701",
    "longitude": "-90.10701010836664",
    "latitude": "29.93794995102898",
    "geocoded_column": {
      "latitude": "29.93794995102898",
      "longitude": "-90.10701010836664"
    }
  },
  {
    "service_request": "2023-967976",
    "request_type": "Trash/Recycling",
    "request_reason": "Request a Large Item Pick Up",
    "date_created": "2023-01-17T17:46:33.000",
    "date_modified": "2023-01-17T17:46:34.000",
    "request_status": "Pending",
    "responsible_agency": "Department of Sanitation",
    "final_address": "729 Burgundy St",
    "address_councildis": "C",
    "status": "Assigned to Contractor",
    "contractor": "Empire Services",
    "rowid": "967976",
    "final_x": "3681824.31426",
    "final_y": "533341.578948",
    "longitude": "-90.06698268645985",
    "latitude": "29.960494554058187",
    "geocoded_column": {
      "latitude": "29.960494554058187",
      "longitude": "-90.06698268645985"
    }
  },
  {
    "service_request": "2023-967975",
    "request_type": "Abandoned Vehicles",
    "request_reason": "Abandoned/Junk Vehicles",
    "date_created": "2023-01-17T17:45:41.000",
    "date_modified": "2023-01-17T17:45:41.000",
    "request_status": "Pending",
    "responsible_agency": "Department of Public Works",
    "final_address": "3325 St Ann St",
    "address_councildis": "A",
    "status": "Pending",
    "rowid": "967975",
    "final_x": "3674741.19643",
    "final_y": "538918.805322",
    "longitude": "-90.08915854033232",
    "latitude": "29.976043383068074",
    "geocoded_column": {
      "latitude": "29.976043383068074",
      "longitude": "-90.08915854033232"
    }
  },
  {
    "service_request": "2023-967974",
    "request_type": "Trash/Recycling",
    "request_reason": "Repair Trash Cart",
    "date_created": "2023-01-17T17:44:20.000",
    "date_modified": "2023-01-17T17:44:21.000",
    "request_status": "Pending",
    "responsible_agency": "Department of Sanitation",
    "final_address": "6060 Vicksburg St",
    "address_councildis": "A",
    "status": "Assigned to Contractor",
    "contractor": "IV Waste",
    "rowid": "967974",
    "final_x": "3668820.50906",
    "final_y": "547715.460114",
    "longitude": "-90.10756064193338",
    "latitude": "30.000406619416783",
    "geocoded_column": {
      "latitude": "30.000406619416783",
      "longitude": "-90.10756064193338"
    }
  },
  {
    "service_request": "2023-967973",
    "request_type": "Trash/Recycling",
    "request_reason": "Replace Recycling Cart",
    "date_created": "2023-01-17T17:42:43.000",
    "date_modified": "2023-01-17T17:42:43.000",
    "request_status": "Pending",
    "responsible_agency": "Department of Sanitation",
    "final_address": "221 S Solomon St",
    "address_councildis": "A",
    "status": "Pending",
    "rowid": "967973",
    "final_x": "3670188.28474",
    "final_y": "538266.980041",
    "longitude": "-90.10356009003696",
    "latitude": "29.97438623102531",
    "geocoded_column": {
      "latitude": "29.97438623102531",
      "longitude": "-90.10356009003696"
    }
  },
  {
    "service_request": "2023-967972",
    "request_type": "Trash/Recycling",
    "request_reason": "Return Trash Cart",
    "date_created": "2023-01-17T17:33:49.000",
    "date_modified": "2023-01-17T17:33:49.000",
    "request_status": "Pending",
    "responsible_agency": "Department of Sanitation",
    "final_address": "343 28Th St",
    "address_councildis": "A",
    "status": "Assigned to Contractor",
    "contractor": "IV Waste",
    "rowid": "967972",
    "final_x": "3664892.16039",
    "final_y": "550302.045012",
    "longitude": "-90.11988405679762",
    "latitude": "30.007633801195333",
    "geocoded_column": {
      "latitude": "30.007633801195333",
      "longitude": "-90.11988405679762"
    }
  },
  {
    "service_request": "2023-967971",
    "request_type": "Trash/Recycling",
    "request_reason": "Request a Large Item Pick Up",
    "date_created": "2023-01-17T17:33:03.000",
    "date_modified": "2023-01-17T17:33:04.000",
    "request_status": "Pending",
    "responsible_agency": "Department of Sanitation",
    "final_address": "636 Jefferson Ave",
    "address_councildis": "A",
    "status": "Assigned to Contractor",
    "contractor": "Richards Disposal",
    "rowid": "967971",
    "final_x": "3666503.68308",
    "final_y": "517845.480118",
    "longitude": "-90.1158822507084",
    "latitude": "29.91834193203314",
    "geocoded_column": {
      "latitude": "29.91834193203314",
      "longitude": "-90.1158822507084"
    }
  },
  {
    "service_request": "2023-967970",
    "request_type": "Property Maintenance",
    "request_reason": "Property Maintenance",
    "date_created": "2023-01-17T17:32:18.000",
    "date_modified": "2023-01-17T17:32:18.000",
    "request_status": "Pending",
    "responsible_agency": "Department of Code Enforcement",
    "final_address": "7022 Wuerpel St",
    "address_councildis": "A",
    "status": "Pending",
    "rowid": "967970",
    "final_x": "3667315.93978",
    "final_y": "554370.729368",
    "longitude": "-90.11208960603747",
    "latitude": "30.018750455080134",
    "geocoded_column": {
      "latitude": "30.018750455080134",
      "longitude": "-90.11208960603747"
    }
  },
  {
    "service_request": "2023-967969",
    "request_type": "Trash/Recycling",
    "request_reason": "Missed Trash Pick-Up",
    "date_created": "2023-01-17T17:27:19.000",
    "date_modified": "2023-01-17T17:27:20.000",
    "request_status": "Pending",
    "responsible_agency": "Department of Sanitation",
    "final_address": "7670 Dune Dr",
    "address_councildis": "E",
    "status": "Assigned to Contractor",
    "contractor": "Waste Pro",
    "rowid": "967969",
    "final_x": "3715144.08312",
    "final_y": "569229.430822",
    "longitude": "-89.96040892707116",
    "latitude": "30.05811753698532",
    "geocoded_column": {
      "latitude": "30.05811753698532",
      "longitude": "-89.96040892707116"
    }
  },
  {
    "service_request": "2023-967968",
    "request_type": "Trash/Recycling",
    "request_reason": "Repair Trash Cart",
    "date_created": "2023-01-17T17:17:34.000",
    "date_modified": "2023-01-17T17:17:35.000",
    "request_status": "Pending",
    "responsible_agency": "Department of Sanitation",
    "final_address": "118 Sherwood Forest Dr",
    "address_councildis": "A",
    "status": "Assigned to Contractor",
    "contractor": "Richards Disposal",
    "rowid": "967968",
    "final_x": "3673159.32744",
    "final_y": "541112.239628",
    "longitude": "-90.09407962805462",
    "latitude": "29.982121712343066",
    "geocoded_column": {
      "latitude": "29.982121712343066",
      "longitude": "-90.09407962805462"
    }
  },
  {
    "service_request": "2023-967967",
    "request_type": "Trash/Recycling",
    "request_reason": "Request a Large Item Pick Up",
    "date_created": "2023-01-17T17:13:38.000",
    "date_modified": "2023-01-17T17:13:39.000",
    "request_status": "Pending",
    "responsible_agency": "Department of Sanitation",
    "final_address": "5500 Samovar Dr",
    "address_councildis": "E",
    "status": "Assigned to Contractor",
    "contractor": "Waste Pro",
    "rowid": "967967",
    "final_x": "3703738.17066",
    "final_y": "556309.091034",
    "longitude": "-89.99693780526998",
    "latitude": "30.02296253077885",
    "geocoded_column": {
      "latitude": "30.02296253077885",
      "longitude": "-89.99693780526998"
    }
  },
  {
    "service_request": "2023-967966",
    "request_type": "Traffic Signals/Signs/Striping/Streetlights",
    "request_reason": "Traffic Sign Missing/Damaged",
    "date_created": "2023-01-17T16:55:30.000",
    "date_modified": "2023-01-17T16:55:30.000",
    "request_status": "Pending",
    "responsible_agency": "Department of Public Works",
    "final_address": "GALAHAD DR & HAMMOND ST",
    "address_councildis": "E",
    "status": "Pending",
    "rowid": "967966",
    "final_x": "3707172.4",
    "final_y": "555889.48",
    "longitude": "-89.98610209374533",
    "latitude": "30.021698184300472",
    "geocoded_column": {
      "latitude": "30.021698184300472",
      "longitude": "-89.98610209374533"
    }
  },
  {
    "service_request": "2023-967965",
    "request_type": "Traffic Signals/Signs/Striping/Streetlights",
    "request_reason": "Traffic Sign Missing/Damaged",
    "date_created": "2023-01-17T16:54:55.000",
    "date_modified": "2023-01-17T16:54:55.000",
    "request_status": "Pending",
    "responsible_agency": "Department of Public Works",
    "final_address": "GAWAIN DR & HAMMOND ST",
    "address_councildis": "E",
    "status": "Pending",
    "rowid": "967965",
    "final_x": "3706929.6",
    "final_y": "555867.68",
    "longitude": "-89.98687008040783",
    "latitude": "30.02164609000417",
    "geocoded_column": {
      "latitude": "30.02164609000417",
      "longitude": "-89.98687008040783"
    }
  },
  {
    "service_request": "2023-967964",
    "request_type": "Roads/Drainage",
    "request_reason": "Street Flooding / Drainage",
    "date_created": "2023-01-17T16:52:35.000",
    "date_modified": "2023-01-17T16:52:35.000",
    "request_status": "Pending",
    "responsible_agency": "Department of Public Works",
    "final_address": "3802 Constance St",
    "address_councildis": "B",
    "status": "Pending",
    "rowid": "967964",
    "final_x": "3673435.76462",
    "final_y": "518644.581495",
    "longitude": "-90.09397405967486",
    "latitude": "29.920334863537995",
    "geocoded_column": {
      "latitude": "29.920334863537995",
      "longitude": "-90.09397405967486"
    }
  },
  {
    "service_request": "2023-967963",
    "request_type": "Trash/Recycling",
    "request_reason": "Return Recycling Cart",
    "date_created": "2023-01-17T16:49:58.000",
    "date_modified": "2023-01-17T16:49:59.000",
    "request_status": "Pending",
    "responsible_agency": "Department of Sanitation",
    "final_address": "17 S Park Pl",
    "address_councildis": "A",
    "status": "Pending",
    "rowid": "967963",
    "final_x": "3670184.76116",
    "final_y": "543890.941838",
    "longitude": "-90.10338056176622",
    "latitude": "29.98985031638973",
    "geocoded_column": {
      "latitude": "29.98985031638973",
      "longitude": "-90.10338056176622"
    }
  },
  {
    "service_request": "2023-967962",
    "request_type": "Trash/Recycling",
    "request_reason": "Order Recycling Cart",
    "date_created": "2023-01-17T16:48:44.000",
    "date_modified": "2023-01-17T16:48:45.000",
    "request_status": "Pending",
    "responsible_agency": "Department of Sanitation",
    "final_address": "7934 Walmsley Ave",
    "address_councildis": "A",
    "status": "Pending",
    "rowid": "967962",
    "final_x": "3666159.44807",
    "final_y": "532255.054275",
    "longitude": "-90.11648580107736",
    "latitude": "29.957973701838647",
    "geocoded_column": {
      "latitude": "29.957973701838647",
      "longitude": "-90.11648580107736"
    }
  },
  {
    "service_request": "2023-967961",
    "request_type": "Traffic Signals/Signs/Striping/Streetlights",
    "request_reason": "Traffic Signal Malfunctioning/Damaged",
    "date_created": "2023-01-17T16:47:26.000",
    "date_modified": "2023-01-17T16:47:26.000",
    "request_status": "Pending",
    "responsible_agency": "Department of Public Works",
    "final_address": "Freret St & Napoleon Ave",
    "address_councildis": "B",
    "status": "Pending",
    "rowid": "967961",
    "final_x": "3670492.0",
    "final_y": "524033.18",
    "longitude": "-90.10308353572401",
    "latitude": "29.935239008691006",
    "geocoded_column": {
      "latitude": "29.935239008691006",
      "longitude": "-90.10308353572401"
    }
  },
  {
    "service_request": "2023-967960",
    "request_type": "Trash/Recycling",
    "request_reason": "Replace Trash Cart",
    "date_created": "2023-01-17T16:43:35.000",
    "date_modified": "2023-01-17T16:43:36.000",
    "request_status": "Pending",
    "responsible_agency": "Department of Sanitation",
    "final_address": "7934 Walmsley Ave",
    "address_councildis": "A",
    "status": "Assigned to Contractor",
    "contractor": "Richards Disposal",
    "rowid": "967960",
    "final_x": "3666159.44807",
    "final_y": "532255.054275",
    "longitude": "-90.11648580107736",
    "latitude": "29.957973701838647",
    "geocoded_column": {
      "latitude": "29.957973701838647",
      "longitude": "-90.11648580107736"
    }
  },
  {
    "service_request": "2023-967959",
    "request_type": "Trash/Recycling",
    "request_reason": "Replace Trash Cart",
    "date_created": "2023-01-17T16:43:00.000",
    "date_modified": "2023-01-17T16:43:01.000",
    "request_status": "Pending",
    "responsible_agency": "Department of Sanitation",
    "final_address": "7934 Walmsley Ave",
    "address_councildis": "A",
    "status": "Assigned to Contractor",
    "contractor": "Richards Disposal",
    "rowid": "967959",
    "final_x": "3666159.44807",
    "final_y": "532255.054275",
    "longitude": "-90.11648580107736",
    "latitude": "29.957973701838647",
    "geocoded_column": {
      "latitude": "29.957973701838647",
      "longitude": "-90.11648580107736"
    }
  },
  {
    "service_request": "2023-967958",
    "request_type": "Trash/Recycling",
    "request_reason": "Order Recycling Cart",
    "date_created": "2023-01-17T16:36:44.000",
    "date_modified": "2023-01-17T16:36:44.000",
    "request_status": "Pending",
    "responsible_agency": "Department of Sanitation",
    "final_address": "5950 Canal Blvd",
    "address_councildis": "A",
    "status": "Pending",
    "rowid": "967958",
    "final_x": "3668293.45466",
    "final_y": "547063.742289",
    "longitude": "-90.10924763875028",
    "latitude": "29.998630113384607",
    "geocoded_column": {
      "latitude": "29.998630113384607",
      "longitude": "-90.10924763875028"
    }
  },
  {
    "service_request": "2023-967957",
    "request_type": "Traffic Signals/Signs/Striping/Streetlights",
    "request_reason": "Traffic Sign Missing/Damaged",
    "date_created": "2023-01-17T16:36:25.000",
    "date_modified": "2023-01-17T16:36:25.000",
    "request_status": "Pending",
    "responsible_agency": "Department of Public Works",
    "final_address": "HAMMOND ST & LANCELOT DR",
    "address_councildis": "E",
    "status": "Pending",
    "rowid": "967957",
    "final_x": "3707406.6",
    "final_y": "555915.88",
    "longitude": "-89.98536110879651",
    "latitude": "30.0217632005139",
    "geocoded_column": {
      "latitude": "30.0217632005139",
      "longitude": "-89.98536110879651"
    }
  },
  {
    "service_request": "2023-967956",
    "request_type": "Property Maintenance",
    "request_reason": "Property Maintenance",
    "date_created": "2023-01-17T16:36:16.000",
    "date_modified": "2023-01-17T16:36:16.000",
    "request_status": "Pending",
    "responsible_agency": "Department of Code Enforcement",
    "final_address": "1013 Congress St",
    "address_councildis": "C",
    "status": "Pending",
    "rowid": "967956",
    "final_x": "3690674.372",
    "final_y": "535249.976966",
    "longitude": "-90.03896801475108",
    "latitude": "29.965470074096118",
    "geocoded_column": {
      "latitude": "29.965470074096118",
      "longitude": "-90.03896801475108"
    }
  },
  {
    "service_request": "2023-967955",
    "request_type": "Traffic Signals/Signs/Striping/Streetlights",
    "request_reason": "Street Light Outage/Malfunction",
    "date_created": "2023-01-17T16:35:06.000",
    "date_modified": "2023-01-17T16:35:07.000",
    "request_status": "Pending",
    "responsible_agency": "Department of Public Works",
    "final_address": "4400 Mithra St",
    "address_councildis": "D",
    "status": "Assigned to Contractor",
    "contractor": "Legacy Professional Services",
    "rowid": "967955",
    "final_x": "3690080.43004",
    "final_y": "553163.419223",
    "longitude": "-90.0402052373244",
    "latitude": "30.014744022748314",
    "geocoded_column": {
      "latitude": "30.014744022748314",
      "longitude": "-90.0402052373244"
    }
  },
  {
    "service_request": "2023-967953",
    "request_type": "Traffic Signals/Signs/Striping/Streetlights",
    "request_reason": "Traffic Sign Missing/Damaged",
    "date_created": "2023-01-17T16:33:16.000",
    "date_modified": "2023-01-17T16:33:17.000",
    "request_status": "Pending",
    "responsible_agency": "Department of Public Works",
    "final_address": "HAMMOND ST & LANCELOT DR",
    "address_councildis": "E",
    "status": "Pending",
    "rowid": "967953",
    "final_x": "3707406.6",
    "final_y": "555915.88",
    "longitude": "-89.98536110879651",
    "latitude": "30.0217632005139",
    "geocoded_column": {
      "latitude": "30.0217632005139",
      "longitude": "-89.98536110879651"
    }
  },
  {
    "service_request": "2023-967952",
    "request_type": "Abandoned Vehicles",
    "request_reason": "Abandoned/Junk Vehicles",
    "date_created": "2023-01-17T16:32:30.000",
    "date_modified": "2023-01-17T16:32:30.000",
    "request_status": "Pending",
    "responsible_agency": "Department of Public Works",
    "final_address": "1641 Crete St",
    "address_councildis": "A",
    "status": "Pending",
    "rowid": "967952",
    "final_x": "3678237.65557",
    "final_y": "540866.991243",
    "longitude": "-90.07804829822994",
    "latitude": "29.981295366857935",
    "geocoded_column": {
      "latitude": "29.981295366857935",
      "longitude": "-90.07804829822994"
    }
  },
  {
    "service_request": "2023-967950",
    "request_type": "Trash/Recycling",
    "request_reason": "Missed Trash Pick-Up",
    "date_created": "2023-01-17T16:31:12.000",
    "date_modified": "2023-01-17T16:31:13.000",
    "request_status": "Pending",
    "responsible_agency": "Department of Sanitation",
    "final_address": "20295 Old Spanish Trl",
    "address_councildis": "E",
    "status": "Assigned to Contractor",
    "contractor": "Waste Pro",
    "rowid": "967950",
    "final_x": "3760296.86806",
    "final_y": "572652.290153",
    "longitude": "-89.81754663399128",
    "latitude": "30.06596394941966",
    "geocoded_column": {
      "latitude": "30.06596394941966",
      "longitude": "-89.81754663399128"
    }
  },
  {
    "service_request": "2023-967949",
    "request_type": "Traffic Signals/Signs/Striping/Streetlights",
    "request_reason": "Street Light Outage/Malfunction",
    "date_created": "2023-01-17T16:30:42.000",
    "date_modified": "2023-01-17T16:30:43.000",
    "request_status": "Pending",
    "responsible_agency": "Department of Public Works",
    "final_address": "3619 Blair St",
    "address_councildis": "C",
    "status": "Assigned to Contractor",
    "contractor": "Legacy Professional Services",
    "rowid": "967949",
    "final_x": "3709268.39115",
    "final_y": "517473.517686",
    "longitude": "-89.98091205607555",
    "latitude": "29.916000524105154",
    "geocoded_column": {
      "latitude": "29.916000524105154",
      "longitude": "-89.98091205607555"
    }
  },
  {
    "service_request": "2023-967948",
    "request_type": "Traffic Signals/Signs/Striping/Streetlights",
    "request_reason": "Street Light Outage/Malfunction",
    "date_created": "2023-01-17T16:30:03.000",
    "date_modified": "2023-01-17T16:30:04.000",
    "request_status": "Pending",
    "responsible_agency": "Department of Public Works",
    "final_address": "3619 Blair St",
    "address_councildis": "C",
    "status": "Assigned to Contractor",
    "contractor": "Legacy Professional Services",
    "rowid": "967948",
    "final_x": "3709268.39115",
    "final_y": "517473.517686",
    "longitude": "-89.98091205607555",
    "latitude": "29.916000524105154",
    "geocoded_column": {
      "latitude": "29.916000524105154",
      "longitude": "-89.98091205607555"
    }
  },
  {
    "service_request": "2023-967947",
    "request_type": "Trash/Recycling",
    "request_reason": "Illegal Dumping",
    "date_created": "2023-01-17T16:27:50.000",
    "date_modified": "2023-01-17T16:27:50.000",
    "request_status": "Pending",
    "responsible_agency": "Department of Sanitation",
    "final_address": "2549 St Peter St",
    "address_councildis": "D",
    "status": "Pending",
    "rowid": "967947",
    "final_x": "3677167.19099",
    "final_y": "536522.722375",
    "longitude": "-90.08157921090896",
    "latitude": "29.969382320688236",
    "geocoded_column": {
      "latitude": "29.969382320688236",
      "longitude": "-90.08157921090896"
    }
  },
  {
    "service_request": "2023-967946",
    "request_type": "Trash/Recycling",
    "request_reason": "MIssed Recycling Pick-Up",
    "date_created": "2023-01-17T16:25:17.000",
    "date_modified": "2023-01-17T16:26:07.000",
    "request_status": "Pending",
    "responsible_agency": "Department of Sanitation",
    "final_address": "2804 Cherry St",
    "address_councildis": "A",
    "status": "Assigned to Contractor",
    "contractor": "Richards Disposal",
    "rowid": "967946",
    "final_x": "3662731.36973",
    "final_y": "535563.063174",
    "longitude": "-90.12720080541938",
    "latitude": "29.967169302988236",
    "geocoded_column": {
      "latitude": "29.967169302988236",
      "longitude": "-90.12720080541938"
    }
  },
  {
    "service_request": "2023-967945",
    "request_type": "Trash/Recycling",
    "request_reason": "Missed Trash Pick-Up",
    "date_created": "2023-01-17T16:24:31.000",
    "date_modified": "2023-01-17T16:24:32.000",
    "request_status": "Pending",
    "responsible_agency": "Department of Sanitation",
    "final_address": "2314 Delery St",
    "address_councildis": "E",
    "status": "Assigned to Contractor",
    "contractor": "Waste Pro",
    "rowid": "967945",
    "final_x": "3702208.70065",
    "final_y": "537434.866696",
    "longitude": "-90.00246323893724",
    "latitude": "29.971114425544155",
    "geocoded_column": {
      "latitude": "29.971114425544155",
      "longitude": "-90.00246323893724"
    }
  },
  {
    "service_request": "2023-967944",
    "request_type": "Trash/Recycling",
    "request_reason": "Illegal Dumping",
    "date_created": "2023-01-17T16:24:08.000",
    "date_modified": "2023-01-17T16:24:09.000",
    "request_status": "Pending",
    "responsible_agency": "Department of Sanitation",
    "final_address": "701 Thayer St",
    "address_councildis": "C",
    "status": "Pending",
    "rowid": "967944",
    "final_x": "3689309.82582",
    "final_y": "528809.701952",
    "longitude": "-90.04350611538918",
    "latitude": "29.947803860218453",
    "geocoded_column": {
      "latitude": "29.947803860218453",
      "longitude": "-90.04350611538918"
    }
  },
  {
    "service_request": "2023-967943",
    "request_type": "Trash/Recycling",
    "request_reason": "Request a Large Item Pick Up",
    "date_created": "2023-01-17T16:24:03.000",
    "date_modified": "2023-01-17T16:24:04.000",
    "request_status": "Pending",
    "responsible_agency": "Department of Sanitation",
    "final_address": "1728 Spain St",
    "address_councildis": "D",
    "status": "Assigned to Contractor",
    "contractor": "IV Waste",
    "rowid": "967943",
    "final_x": "3685900.91945",
    "final_y": "538834.504201",
    "longitude": "-90.05391594092089",
    "latitude": "29.97547367761971",
    "geocoded_column": {
      "latitude": "29.97547367761971",
      "longitude": "-90.05391594092089"
    }
  },
  {
    "service_request": "2023-967942",
    "request_type": "Trash/Recycling",
    "request_reason": "Request a Large Item Pick Up",
    "date_created": "2023-01-17T16:23:50.000",
    "date_modified": "2023-01-17T16:23:51.000",
    "request_status": "Pending",
    "responsible_agency": "Department of Sanitation",
    "final_address": "215 Fairfax Pl",
    "address_councildis": "C",
    "status": "Assigned to Contractor",
    "contractor": "Richards Disposal",
    "rowid": "967942",
    "final_x": "3706591.88113",
    "final_y": "517362.233013",
    "longitude": "-89.98936421507268",
    "latitude": "29.91578112194171",
    "geocoded_column": {
      "latitude": "29.91578112194171",
      "longitude": "-89.98936421507268"
    }
  },
  {
    "service_request": "2023-967941",
    "request_type": "Trash/Recycling",
    "request_reason": "Request a Large Item Pick Up",
    "date_created": "2023-01-17T16:22:13.000",
    "date_modified": "2023-01-17T16:22:13.000",
    "request_status": "Pending",
    "responsible_agency": "Department of Sanitation",
    "final_address": "1531 Leda St",
    "address_councildis": "A",
    "status": "Assigned to Contractor",
    "contractor": "IV Waste",
    "rowid": "967941",
    "final_x": "3675670.49941",
    "final_y": "541760.790284",
    "longitude": "-90.08612583010763",
    "latitude": "29.98383008624422",
    "geocoded_column": {
      "latitude": "29.98383008624422",
      "longitude": "-90.08612583010763"
    }
  },
  {
    "service_request": "2023-967940",
    "request_type": "Trash/Recycling",
    "request_reason": "Repair Trash Cart",
    "date_created": "2023-01-17T16:21:47.000",
    "date_modified": "2023-01-17T16:21:48.000",
    "request_status": "Pending",
    "responsible_agency": "Department of Sanitation",
    "final_address": "4942 Hauck Dr",
    "address_councildis": "E",
    "status": "Assigned to Contractor",
    "contractor": "Waste Pro",
    "rowid": "967940",
    "final_x": "3714398.63557",
    "final_y": "557655.842971",
    "longitude": "-89.96320261407375",
    "latitude": "30.026319386727298",
    "geocoded_column": {
      "latitude": "30.026319386727298",
      "longitude": "-89.96320261407375"
    }
  },
  {
    "service_request": "2023-967939",
    "request_type": "Trash/Recycling",
    "request_reason": "Request a Large Item Pick Up",
    "date_created": "2023-01-17T16:20:10.000",
    "date_modified": "2023-01-17T16:20:11.000",
    "request_status": "Pending",
    "responsible_agency": "Department of Sanitation",
    "final_address": "4420 Mithra St",
    "address_councildis": "D",
    "status": "Assigned to Contractor",
    "contractor": "IV Waste",
    "rowid": "967939",
    "final_x": "3690229.16252",
    "final_y": "553204.916823",
    "longitude": "-90.03973383611464",
    "latitude": "30.014853509644038",
    "geocoded_column": {
      "latitude": "30.014853509644038",
      "longitude": "-90.03973383611464"
    }
  },
  {
    "service_request": "2023-967938",
    "request_type": "Trash/Recycling",
    "request_reason": "Missed Trash Pick-Up",
    "date_created": "2023-01-17T16:18:38.000",
    "date_modified": "2023-01-17T16:20:06.000",
    "request_status": "Pending",
    "responsible_agency": "Department of Sanitation",
    "final_address": "1600 BLK Pratt Dr",
    "address_councildis": "D",
    "status": "Assigned to Contractor",
    "contractor": "IV Waste",
    "rowid": "967938",
    "final_x": "3680159.22363",
    "final_y": "549106.442257",
    "longitude": "-90.0716925715016",
    "latitude": "30.00389292753703",
    "geocoded_column": {
      "latitude": "30.00389292753703",
      "longitude": "-90.0716925715016"
    }
  },
  {
    "service_request": "2023-967937",
    "request_type": "Trash/Recycling",
    "request_reason": "Missed Trash Pick-Up",
    "date_created": "2023-01-17T16:17:30.000",
    "date_modified": "2023-01-17T16:17:31.000",
    "request_status": "Pending",
    "responsible_agency": "Department of Sanitation",
    "final_address": "4534 Annunciation St",
    "address_councildis": "B",
    "status": "Assigned to Contractor",
    "contractor": "Richards Disposal",
    "rowid": "967937",
    "final_x": "3670477.9282",
    "final_y": "517644.318134",
    "longitude": "-90.10334446919987",
    "latitude": "29.917672093479595",
    "geocoded_column": {
      "latitude": "29.917672093479595",
      "longitude": "-90.10334446919987"
    }
  },
  {
    "service_request": "2023-967936",
    "request_type": "Roads/Drainage",
    "request_reason": "Catch Basin - Clogged",
    "date_created": "2023-01-17T16:17:24.000",
    "date_modified": "2023-01-17T16:17:24.000",
    "request_status": "Pending",
    "responsible_agency": "Department of Public Works",
    "final_address": "1941 Magazine St",
    "address_councildis": "B",
    "status": "Pending",
    "rowid": "967936",
    "final_x": "3679583.87746",
    "final_y": "522706.84665",
    "longitude": "-90.07442649382664",
    "latitude": "29.931320484329103",
    "geocoded_column": {
      "latitude": "29.931320484329103",
      "longitude": "-90.07442649382664"
    }
  },
  {
    "service_request": "2023-967935",
    "request_type": "Roads/Drainage",
    "request_reason": "Catch Basin - Clogged",
    "date_created": "2023-01-17T16:15:46.000",
    "date_modified": "2023-01-17T16:15:46.000",
    "request_status": "Pending",
    "responsible_agency": "Department of Public Works",
    "final_address": "907 S Carrollton Ave",
    "address_councildis": "A",
    "status": "Pending",
    "rowid": "967935",
    "final_x": "3661433.98016",
    "final_y": "527546.282559",
    "longitude": "-90.13156352400713",
    "latitude": "29.945163232808884",
    "geocoded_column": {
      "latitude": "29.945163232808884",
      "longitude": "-90.13156352400713"
    }
  },
  {
    "service_request": "2023-967934",
    "request_type": "Property Maintenance",
    "request_reason": "Property Maintenance",
    "date_created": "2023-01-17T16:15:41.000",
    "date_modified": "2023-01-17T16:15:41.000",
    "request_status": "Pending",
    "responsible_agency": "Department of Code Enforcement",
    "final_address": "2720 Onzaga St",
    "address_councildis": "D",
    "status": "Pending",
    "rowid": "967934",
    "final_x": "3678851.15176",
    "final_y": "540774.331531",
    "longitude": "-90.07611380811906",
    "latitude": "29.981022090283403",
    "geocoded_column": {
      "latitude": "29.981022090283403",
      "longitude": "-90.07611380811906"
    }
  },
  {
    "service_request": "2023-967933",
    "request_type": "Trash/Recycling",
    "request_reason": "Missed Trash Pick-Up",
    "date_created": "2023-01-17T16:12:08.000",
    "date_modified": "2023-01-17T16:12:09.000",
    "request_status": "Pending",
    "responsible_agency": "Department of Sanitation",
    "final_address": "2304 Valmont St",
    "address_councildis": "B",
    "status": "Assigned to Contractor",
    "contractor": "Richards Disposal",
    "rowid": "967933",
    "final_x": "3668139.58727",
    "final_y": "524034.442044",
    "longitude": "-90.11051008256361",
    "latitude": "29.935311717925888",
    "geocoded_column": {
      "latitude": "29.935311717925888",
      "longitude": "-90.11051008256361"
    }
  },
  {
    "service_request": "2023-967931",
    "request_type": "Traffic Signals/Signs/Striping/Streetlights",
    "request_reason": "Street Light Outage/Malfunction",
    "date_created": "2023-01-17T16:03:04.000",
    "date_modified": "2023-01-17T16:03:05.000",
    "request_status": "Pending",
    "responsible_agency": "Department of Public Works",
    "final_address": "3601 River Oaks Dr",
    "address_councildis": "C",
    "status": "Assigned to Contractor",
    "contractor": "Legacy Professional Services",
    "rowid": "967931",
    "final_x": "3701289.71863",
    "final_y": "517762.725174",
    "longitude": "-90.00608511768648",
    "latitude": "29.917052274891784",
    "geocoded_column": {
      "latitude": "29.917052274891784",
      "longitude": "-90.00608511768648"
    }
  },
  {
    "service_request": "2023-967930",
    "request_type": "Trash/Recycling",
    "request_reason": "Request a Large Item Pick Up",
    "date_created": "2023-01-17T16:01:44.000",
    "date_modified": "2023-01-17T16:01:45.000",
    "request_status": "Pending",
    "responsible_agency": "Department of Sanitation",
    "final_address": "8910 Lake Forest Blvd",
    "address_councildis": "E",
    "status": "Assigned to Contractor",
    "contractor": "Waste Pro",
    "rowid": "967930",
    "final_x": "3707235.28331",
    "final_y": "558268.572252",
    "longitude": "-89.98581499694734",
    "latitude": "30.02823772705595",
    "geocoded_column": {
      "latitude": "30.02823772705595",
      "longitude": "-89.98581499694734"
    }
  },
  {
    "service_request": "2023-967929",
    "request_type": "Abandoned Vehicles",
    "request_reason": "Abandoned/Junk Vehicles",
    "date_created": "2023-01-17T15:57:36.000",
    "date_modified": "2023-01-17T15:59:13.000",
    "request_status": "Pending",
    "responsible_agency": "Department of Public Works",
    "final_address": "2539 Lapeyrouse St",
    "address_councildis": "D",
    "status": "Pending",
    "rowid": "967929",
    "final_x": "3679287.76687",
    "final_y": "540048.909963",
    "longitude": "-90.0747599483724",
    "latitude": "29.979014253023454",
    "geocoded_column": {
      "latitude": "29.979014253023454",
      "longitude": "-90.0747599483724"
    }
  },
  {
    "service_request": "2023-967926",
    "request_type": "Trash/Recycling",
    "request_reason": "Missed Trash Pick-Up",
    "date_created": "2023-01-17T15:55:13.000",
    "date_modified": "2023-01-17T15:55:14.000",
    "request_status": "Pending",
    "responsible_agency": "Department of Sanitation",
    "final_address": "4764 Perelli Dr",
    "address_councildis": "E",
    "status": "Assigned to Contractor",
    "contractor": "Waste Pro",
    "rowid": "967926",
    "final_x": "3711609.73451",
    "final_y": "556222.159386",
    "longitude": "-89.97206894326324",
    "latitude": "30.02246872110414",
    "geocoded_column": {
      "latitude": "30.02246872110414",
      "longitude": "-89.97206894326324"
    }
  },
  {
    "service_request": "2023-967924",
    "request_type": "Trash/Recycling",
    "request_reason": "Request a Large Item Pick Up",
    "date_created": "2023-01-17T15:55:00.000",
    "date_modified": "2023-01-17T15:55:00.000",
    "request_status": "Pending",
    "responsible_agency": "Department of Sanitation",
    "final_address": "1405 Pine St",
    "address_councildis": "A",
    "status": "Assigned to Contractor",
    "contractor": "Richards Disposal",
    "rowid": "967924",
    "final_x": "3664379.5984",
    "final_y": "527283.341439",
    "longitude": "-90.12227201870313",
    "latitude": "29.94435495219521",
    "geocoded_column": {
      "latitude": "29.94435495219521",
      "longitude": "-90.12227201870313"
    }
  },
  {
    "service_request": "2023-967925",
    "request_type": "Trash/Recycling",
    "request_reason": "MIssed Recycling Pick-Up",
    "date_created": "2023-01-17T15:55:00.000",
    "date_modified": "2023-01-17T15:55:02.000",
    "request_status": "Pending",
    "responsible_agency": "Department of Sanitation",
    "final_address": "704 Opelousas Ave",
    "address_councildis": "C",
    "status": "Assigned to Contractor",
    "contractor": "Richards Disposal",
    "rowid": "967925",
    "final_x": "3687566.98524",
    "final_y": "529193.381824",
    "longitude": "-90.04899536160246",
    "latitude": "29.948912677943543",
    "geocoded_column": {
      "latitude": "29.948912677943543",
      "longitude": "-90.04899536160246"
    }
  },
  {
    "service_request": "2023-967923",
    "request_type": "Trash/Recycling",
    "request_reason": "Order Recycling Cart",
    "date_created": "2023-01-17T15:54:49.000",
    "date_modified": "2023-01-17T15:54:49.000",
    "request_status": "Pending",
    "responsible_agency": "Department of Sanitation",
    "final_address": "2425 Independence St",
    "address_councildis": "D",
    "status": "Pending",
    "rowid": "967923",
    "final_x": "3692291.60464",
    "final_y": "540614.608587",
    "longitude": "-90.03366873129565",
    "latitude": "29.98017057516085",
    "geocoded_column": {
      "latitude": "29.98017057516085",
      "longitude": "-90.03366873129565"
    }
  },
  {
    "service_request": "2023-967922",
    "request_type": "Trash/Recycling",
    "request_reason": "Repair Trash Cart",
    "date_created": "2023-01-17T15:54:00.000",
    "date_modified": "2023-01-17T15:54:01.000",
    "request_status": "Pending",
    "responsible_agency": "Department of Sanitation",
    "final_address": "9220 Tilford Rd",
    "address_councildis": "E",
    "status": "Assigned to Contractor",
    "contractor": "Waste Pro",
    "rowid": "967922",
    "final_x": "3708752.05809",
    "final_y": "557253.906843",
    "longitude": "-89.98105995836175",
    "latitude": "30.025398661703967",
    "geocoded_column": {
      "latitude": "30.025398661703967",
      "longitude": "-89.98105995836175"
    }
  },
  {
    "service_request": "2023-967921",
    "request_type": "Trash/Recycling",
    "request_reason": "Order Trash Cart",
    "date_created": "2023-01-17T15:53:49.000",
    "date_modified": "2023-01-17T15:53:51.000",
    "request_status": "Pending",
    "responsible_agency": "Department of Sanitation",
    "final_address": "2425 Independence St",
    "address_councildis": "D",
    "status": "Assigned to Contractor",
    "contractor": "IV Waste",
    "rowid": "967921",
    "final_x": "3692291.60464",
    "final_y": "540614.608587",
    "longitude": "-90.03366873129565",
    "latitude": "29.98017057516085",
    "geocoded_column": {
      "latitude": "29.98017057516085",
      "longitude": "-90.03366873129565"
    }
  },
  {
    "service_request": "2023-967919",
    "request_type": "Traffic Signals/Signs/Striping/Streetlights",
    "request_reason": "Street Light Outage/Malfunction",
    "date_created": "2023-01-17T15:51:11.000",
    "date_modified": "2023-01-17T15:51:12.000",
    "request_status": "Pending",
    "responsible_agency": "Department of Public Works",
    "final_address": "13962 Linden St",
    "address_councildis": "E",
    "status": "Assigned to Contractor",
    "contractor": "Legacy Professional Services",
    "rowid": "967919",
    "final_x": "3718314.53727",
    "final_y": "572322.599977",
    "longitude": "-89.95026958108684",
    "latitude": "30.066517629295255",
    "geocoded_column": {
      "latitude": "30.066517629295255",
      "longitude": "-89.95026958108684"
    }
  },
  {
    "service_request": "2023-967917",
    "request_type": "Trash/Recycling",
    "request_reason": "Request a Large Item Pick Up",
    "date_created": "2023-01-17T15:43:56.000",
    "date_modified": "2023-01-17T15:43:59.000",
    "request_status": "Pending",
    "responsible_agency": "Department of Sanitation",
    "final_address": "6003 Mandeville St",
    "address_councildis": "D",
    "status": "Assigned to Contractor",
    "contractor": "IV Waste",
    "rowid": "967917",
    "final_x": "3684320.27189",
    "final_y": "555078.707225",
    "longitude": "-90.05833718431359",
    "latitude": "30.020187846514442",
    "geocoded_column": {
      "latitude": "30.020187846514442",
      "longitude": "-90.05833718431359"
    }
  },
  {
    "service_request": "2023-967915",
    "request_type": "Abandoned Vehicles",
    "request_reason": "Abandoned/Junk Vehicles",
    "date_created": "2023-01-17T15:42:09.000",
    "date_modified": "2023-01-17T15:42:09.000",
    "request_status": "Pending",
    "responsible_agency": "Department of Public Works",
    "final_address": "5750 Pasteur Blvd",
    "address_councildis": "D",
    "status": "Pending",
    "rowid": "967915",
    "final_x": "3682675.00437",
    "final_y": "554416.740184",
    "longitude": "-90.06355888952862",
    "latitude": "30.01841791501495",
    "geocoded_column": {
      "latitude": "30.01841791501495",
      "longitude": "-90.06355888952862"
    }
  },
  {
    "service_request": "2023-967914",
    "request_type": "Traffic Signals/Signs/Striping/Streetlights",
    "request_reason": "Street Light Outage/Malfunction",
    "date_created": "2023-01-17T15:40:53.000",
    "date_modified": "2023-01-17T15:40:54.000",
    "request_status": "Pending",
    "responsible_agency": "Department of Public Works",
    "final_address": "970 Picheloup Pl",
    "address_councildis": "A",
    "status": "Assigned to Contractor",
    "contractor": "Legacy Professional Services",
    "rowid": "967914",
    "final_x": "3673685.70024",
    "final_y": "540787.730379",
    "longitude": "-90.09242818589162",
    "latitude": "29.981213759329115",
    "geocoded_column": {
      "latitude": "29.981213759329115",
      "longitude": "-90.09242818589162"
    }
  },
  {
    "service_request": "2023-967913",
    "request_type": "Roads/Drainage",
    "request_reason": "Debris in Roadway",
    "date_created": "2023-01-17T15:40:12.000",
    "date_modified": "2023-01-17T15:40:13.000",
    "request_status": "Pending",
    "responsible_agency": "Department of Public Works",
    "final_address": "7120 Read Blvd",
    "address_councildis": "E",
    "status": "Pending",
    "rowid": "967913",
    "final_x": "3709443.74469",
    "final_y": "562549.174752",
    "longitude": "-89.97867653629854",
    "latitude": "30.039936091373203",
    "geocoded_column": {
      "latitude": "30.039936091373203",
      "longitude": "-89.97867653629854"
    }
  },
  {
    "service_request": "2023-967912",
    "request_type": "Abandoned Vehicles",
    "request_reason": "Abandoned/Junk Vehicles",
    "date_created": "2023-01-17T15:39:41.000",
    "date_modified": "2023-01-17T15:39:41.000",
    "request_status": "Pending",
    "responsible_agency": "Department of Public Works",
    "final_address": "8219 Neron Pl",
    "address_councildis": "A",
    "status": "Pending",
    "rowid": "967912",
    "final_x": "3664114.4624",
    "final_y": "531694.467715",
    "longitude": "-90.122962017405",
    "latitude": "29.95649182766521",
    "geocoded_column": {
      "latitude": "29.95649182766521",
      "longitude": "-90.122962017405"
    }
  },
  {
    "service_request": "2023-967911",
    "request_type": "Traffic Signals/Signs/Striping/Streetlights",
    "request_reason": "Street Light Outage/Malfunction",
    "date_created": "2023-01-17T15:39:30.000",
    "date_modified": "2023-01-17T15:39:31.000",
    "request_status": "Pending",
    "responsible_agency": "Department of Public Works",
    "final_address": "970 Picheloup Pl",
    "address_councildis": "A",
    "status": "Assigned to Contractor",
    "contractor": "Legacy Professional Services",
    "rowid": "967911",
    "final_x": "3673685.70024",
    "final_y": "540787.730379",
    "longitude": "-90.09242818589162",
    "latitude": "29.981213759329115",
    "geocoded_column": {
      "latitude": "29.981213759329115",
      "longitude": "-90.09242818589162"
    }
  },
  {
    "service_request": "2023-967910",
    "request_type": "Roads/Drainage",
    "request_reason": "Street Subsidence (Sinking)",
    "date_created": "2023-01-17T15:38:53.000",
    "date_modified": "2023-01-17T15:38:54.000",
    "request_status": "Pending",
    "responsible_agency": "Department of Public Works",
    "final_address": "3346 Trafalgar St",
    "address_councildis": "A",
    "status": "Pending",
    "rowid": "967910",
    "final_x": "3677751.58779",
    "final_y": "543145.697741",
    "longitude": "-90.07950476794628",
    "latitude": "29.987575650887152",
    "geocoded_column": {
      "latitude": "29.987575650887152",
      "longitude": "-90.07950476794628"
    }
  },
  {
    "service_request": "2023-967909",
    "request_type": "Trash/Recycling",
    "request_reason": "Order Trash Cart",
    "date_created": "2023-01-17T15:38:41.000",
    "date_modified": "2023-01-17T15:38:41.000",
    "request_status": "Pending",
    "responsible_agency": "Department of Sanitation",
    "final_address": "3121 Bennett St",
    "address_councildis": "C",
    "status": "Assigned to Contractor",
    "contractor": "Richards Disposal",
    "rowid": "967909",
    "final_x": "3710404.01963",
    "final_y": "518472.395254",
    "longitude": "-89.97729029181485",
    "latitude": "29.91871018317837",
    "geocoded_column": {
      "latitude": "29.91871018317837",
      "longitude": "-89.97729029181485"
    }
  },
  {
    "service_request": "2023-967907",
    "request_type": "Traffic Signals/Signs/Striping/Streetlights",
    "request_reason": "Street Light Outage/Malfunction",
    "date_created": "2023-01-17T15:37:43.000",
    "date_modified": "2023-01-17T15:37:43.000",
    "request_status": "Pending",
    "responsible_agency": "Department of Public Works",
    "final_address": "970 Picheloup Pl",
    "address_councildis": "A",
    "status": "Assigned to Contractor",
    "contractor": "Legacy Professional Services",
    "rowid": "967907",
    "final_x": "3673685.70024",
    "final_y": "540787.730379",
    "longitude": "-90.09242818589162",
    "latitude": "29.981213759329115",
    "geocoded_column": {
      "latitude": "29.981213759329115",
      "longitude": "-90.09242818589162"
    }
  },
  {
    "service_request": "2023-967906",
    "request_type": "Traffic Signals/Signs/Striping/Streetlights",
    "request_reason": "Traffic Sign Missing/Damaged",
    "date_created": "2023-01-17T15:35:45.000",
    "date_modified": "2023-01-17T15:35:45.000",
    "request_status": "Pending",
    "responsible_agency": "Department of Public Works",
    "final_address": "1800 St Bernard Ave",
    "address_councildis": "D",
    "status": "Pending",
    "rowid": "967906",
    "final_x": "3681766.26364",
    "final_y": "538494.435209",
    "longitude": "-90.06698616896747",
    "latitude": "29.97466490011377",
    "geocoded_column": {
      "latitude": "29.97466490011377",
      "longitude": "-90.06698616896747"
    }
  },
  {
    "service_request": "2023-967905",
    "request_type": "Trash/Recycling",
    "request_reason": "Request a Large Item Pick Up",
    "date_created": "2023-01-17T15:33:15.000",
    "date_modified": "2023-01-17T15:33:16.000",
    "request_status": "Pending",
    "responsible_agency": "Department of Sanitation",
    "final_address": "1531 Dublin St",
    "address_councildis": "A",
    "status": "Assigned to Contractor",
    "contractor": "Richards Disposal",
    "rowid": "967905",
    "final_x": "3662610.30983",
    "final_y": "529546.243649",
    "longitude": "-90.12778302917465",
    "latitude": "29.950628507891388",
    "geocoded_column": {
      "latitude": "29.950628507891388",
      "longitude": "-90.12778302917465"
    }
  },
  {
    "service_request": "2023-967904",
    "request_type": "Trash/Recycling",
    "request_reason": "Request a Large Item Pick Up",
    "date_created": "2023-01-17T15:32:43.000",
    "date_modified": "2023-01-17T15:32:44.000",
    "request_status": "Pending",
    "responsible_agency": "Department of Sanitation",
    "final_address": "1502 Conery St",
    "address_councildis": "B",
    "status": "Assigned to Contractor",
    "contractor": "Richards Disposal",
    "rowid": "967904",
    "final_x": "3675938.78056",
    "final_y": "521977.203322",
    "longitude": "-90.08595869604144",
    "latitude": "29.92942381741005",
    "geocoded_column": {
      "latitude": "29.92942381741005",
      "longitude": "-90.08595869604144"
    }
  },
  {
    "service_request": "2023-967903",
    "request_type": "Trash/Recycling",
    "request_reason": "Request a Large Item Pick Up",
    "date_created": "2023-01-17T15:32:42.000",
    "date_modified": "2023-01-17T15:32:43.000",
    "request_status": "Pending",
    "responsible_agency": "Department of Sanitation",
    "final_address": "1502 Conery St",
    "address_councildis": "B",
    "status": "Assigned to Contractor",
    "contractor": "Richards Disposal",
    "rowid": "967903",
    "final_x": "3675938.78056",
    "final_y": "521977.203322",
    "longitude": "-90.08595869604144",
    "latitude": "29.92942381741005",
    "geocoded_column": {
      "latitude": "29.92942381741005",
      "longitude": "-90.08595869604144"
    }
  },
  {
    "service_request": "2023-967902",
    "request_type": "Roads/Drainage",
    "request_reason": "Catch Basin - Clogged",
    "date_created": "2023-01-17T15:29:34.000",
    "date_modified": "2023-01-17T15:29:34.000",
    "request_status": "Pending",
    "responsible_agency": "Department of Public Works",
    "final_address": "127 Elk Pl",
    "address_councildis": "B",
    "status": "Pending",
    "rowid": "967902",
    "final_x": "3679578.0884",
    "final_y": "531587.434243",
    "longitude": "-90.07413668563346",
    "latitude": "29.955739318102275",
    "geocoded_column": {
      "latitude": "29.955739318102275",
      "longitude": "-90.07413668563346"
    }
  },
  {
    "service_request": "2023-967901",
    "request_type": "Trash/Recycling",
    "request_reason": "Change Size of Trash Cart",
    "date_created": "2023-01-17T15:27:38.000",
    "date_modified": "2023-01-17T15:27:39.000",
    "request_status": "Pending",
    "responsible_agency": "Department of Sanitation",
    "final_address": "1200 Moss St",
    "address_councildis": "A",
    "status": "Assigned to Contractor",
    "contractor": "Richards Disposal",
    "rowid": "967901",
    "final_x": "3675195.91381",
    "final_y": "539816.01153",
    "longitude": "-90.08769160471157",
    "latitude": "29.978496808946094",
    "geocoded_column": {
      "latitude": "29.978496808946094",
      "longitude": "-90.08769160471157"
    }
  },
  {
    "service_request": "2023-967900",
    "request_type": "Abandoned Vehicles",
    "request_reason": "Abandoned/Junk Vehicles",
    "date_created": "2023-01-17T15:27:07.000",
    "date_modified": "2023-01-17T15:27:07.000",
    "request_status": "Pending",
    "responsible_agency": "Department of Public Works",
    "final_address": "Columbus St & N Dorgenois St, New Orleans, Louisiana, 70119",
    "address_councildis": "D",
    "status": "Pending",
    "rowid": "967900",
    "final_x": "3679111.0",
    "final_y": "539211.38",
    "longitude": "-90.07534728744776",
    "latitude": "29.97671667279157",
    "geocoded_column": {
      "latitude": "29.97671667279157",
      "longitude": "-90.07534728744776"
    }
  },
  {
    "service_request": "2023-967899",
    "request_type": "Trash/Recycling",
    "request_reason": "Return Recycling Cart",
    "date_created": "2023-01-17T15:26:18.000",
    "date_modified": "2023-01-17T15:26:19.000",
    "request_status": "Pending",
    "responsible_agency": "Department of Sanitation",
    "final_address": "1200 Moss St",
    "address_councildis": "A",
    "status": "Pending",
    "rowid": "967899",
    "final_x": "3675195.91381",
    "final_y": "539816.01153",
    "longitude": "-90.08769160471157",
    "latitude": "29.978496808946094",
    "geocoded_column": {
      "latitude": "29.978496808946094",
      "longitude": "-90.08769160471157"
    }
  },
  {
    "service_request": "2023-967898",
    "request_type": "Abandoned Vehicles",
    "request_reason": "Abandoned/Junk Vehicles",
    "date_created": "2023-01-17T15:24:10.000",
    "date_modified": "2023-01-17T15:24:11.000",
    "request_status": "Pending",
    "responsible_agency": "Department of Public Works",
    "final_address": "2511 St Charles Ave",
    "address_councildis": "B",
    "status": "Pending",
    "rowid": "967898",
    "final_x": "3676558.21499",
    "final_y": "523048.991675",
    "longitude": "-90.08396636316249",
    "latitude": "29.932352329979796",
    "geocoded_column": {
      "latitude": "29.932352329979796",
      "longitude": "-90.08396636316249"
    }
  },
  {
    "service_request": "2023-967897",
    "request_type": "Roads/Drainage",
    "request_reason": "Catch Basin - Clogged",
    "date_created": "2023-01-17T15:21:46.000",
    "date_modified": "2023-01-17T15:21:46.000",
    "request_status": "Pending",
    "responsible_agency": "Department of Public Works",
    "final_address": "212 Loyola Ave",
    "address_councildis": "B",
    "status": "Pending",
    "rowid": "967897",
    "final_x": "3679374.08296",
    "final_y": "531003.245378",
    "longitude": "-90.074801123716",
    "latitude": "29.954139158470564",
    "geocoded_column": {
      "latitude": "29.954139158470564",
      "longitude": "-90.074801123716"
    }
  },
  {
    "service_request": "2023-967896",
    "request_type": "Roads/Drainage",
    "request_reason": "Street Subsidence (Sinking)",
    "date_created": "2023-01-17T15:19:46.000",
    "date_modified": "2023-01-17T15:19:46.000",
    "request_status": "Pending",
    "responsible_agency": "Department of Public Works",
    "final_address": "8505 Cohn St",
    "address_councildis": "A",
    "status": "Pending",
    "rowid": "967896",
    "final_x": "3662539.51853",
    "final_y": "531223.775042",
    "longitude": "-90.12795083250026",
    "latitude": "29.955243225796178",
    "geocoded_column": {
      "latitude": "29.955243225796178",
      "longitude": "-90.12795083250026"
    }
  },
  {
    "service_request": "2023-967895",
    "request_type": "Traffic Signals/Signs/Striping/Streetlights",
    "request_reason": "Traffic Signal Malfunctioning/Damaged",
    "date_created": "2023-01-17T15:18:52.000",
    "date_modified": "2023-01-17T15:18:52.000",
    "request_status": "Pending",
    "responsible_agency": "Department of Public Works",
    "final_address": "Napoleon Ave & Freret St, New Orleans, Louisiana, 70115",
    "status": "Pending",
    "rowid": "967895",
    "longitude": "0.0",
    "latitude": "0.0",
    "geocoded_column": {
      "latitude": "0.0",
      "longitude": "0.0"
    }
  },
  {
    "service_request": "2023-967894",
    "request_type": "Abandoned Vehicles",
    "request_reason": "Abandoned/Junk Vehicles",
    "date_created": "2023-01-17T15:18:31.000",
    "date_modified": "2023-01-17T15:18:31.000",
    "request_status": "Pending",
    "responsible_agency": "Department of Public Works",
    "final_address": "1629 N Roman St",
    "address_councildis": "D",
    "status": "Pending",
    "rowid": "967894",
    "final_x": "3681734.01058",
    "final_y": "538450.041161",
    "longitude": "-90.06708958140588",
    "latitude": "29.974543811952678",
    "geocoded_column": {
      "latitude": "29.974543811952678",
      "longitude": "-90.06708958140588"
    }
  },
  {
    "service_request": "2023-967893",
    "request_type": "Traffic Signals/Signs/Striping/Streetlights",
    "request_reason": "Street Light Outage/Malfunction",
    "date_created": "2023-01-17T15:17:16.000",
    "date_modified": "2023-01-17T15:17:16.000",
    "request_status": "Pending",
    "responsible_agency": "Department of Public Works",
    "final_address": "5770 Read Blvd",
    "address_councildis": "E",
    "status": "Assigned to Contractor",
    "contractor": "Legacy Professional Services",
    "rowid": "967893",
    "final_x": "3709890.23992",
    "final_y": "560445.443294",
    "longitude": "-89.97734416242591",
    "latitude": "30.03413714485106",
    "geocoded_column": {
      "latitude": "30.03413714485106",
      "longitude": "-89.97734416242591"
    }
  },
  {
    "service_request": "2023-967892",
    "request_type": "Trash/Recycling",
    "request_reason": "Request a Large Item Pick Up",
    "date_created": "2023-01-17T15:16:06.000",
    "date_modified": "2023-01-17T15:16:06.000",
    "request_status": "Pending",
    "responsible_agency": "Department of Sanitation",
    "final_address": "9970 Morrison Rd",
    "address_councildis": "E",
    "status": "Assigned to Contractor",
    "contractor": "Waste Pro",
    "rowid": "967892",
    "final_x": "3708644.44676",
    "final_y": "563346.352032",
    "longitude": "-89.98117281581064",
    "latitude": "30.042153969834775",
    "geocoded_column": {
      "latitude": "30.042153969834775",
      "longitude": "-89.98117281581064"
    }
  },
  {
    "service_request": "2023-967891",
    "request_type": "Trash/Recycling",
    "request_reason": "Request a Large Item Pick Up",
    "date_created": "2023-01-17T15:15:05.000",
    "date_modified": "2023-01-17T15:15:06.000",
    "request_status": "Pending",
    "responsible_agency": "Department of Sanitation",
    "final_address": "125 Elmira Ave",
    "address_councildis": "C",
    "status": "Assigned to Contractor",
    "contractor": "Richards Disposal",
    "rowid": "967891",
    "final_x": "3688223.13417",
    "final_y": "531187.79725",
    "longitude": "-90.04685292052304",
    "latitude": "29.95437639680666",
    "geocoded_column": {
      "latitude": "29.95437639680666",
      "longitude": "-90.04685292052304"
    }
  },
  {
    "service_request": "2023-967890",
    "request_type": "Trash/Recycling",
    "request_reason": "Order Trash Cart",
    "date_created": "2023-01-17T15:14:17.000",
    "date_modified": "2023-01-17T15:14:18.000",
    "request_status": "Pending",
    "responsible_agency": "Department of Sanitation",
    "final_address": "703 State St",
    "address_councildis": "A",
    "status": "Assigned to Contractor",
    "contractor": "Richards Disposal",
    "rowid": "967890",
    "final_x": "3664668.43053",
    "final_y": "518921.827511",
    "longitude": "-90.1216392585229",
    "latitude": "29.921355041134543",
    "geocoded_column": {
      "latitude": "29.921355041134543",
      "longitude": "-90.1216392585229"
    }
  },
  {
    "service_request": "2023-967889",
    "request_type": "Trash/Recycling",
    "request_reason": "Replace Recycling Cart",
    "date_created": "2023-01-17T15:13:46.000",
    "date_modified": "2023-01-17T15:13:47.000",
    "request_status": "Pending",
    "responsible_agency": "Department of Sanitation",
    "final_address": "703 State St",
    "address_councildis": "A",
    "status": "Pending",
    "rowid": "967889",
    "final_x": "3664668.43053",
    "final_y": "518921.827511",
    "longitude": "-90.1216392585229",
    "latitude": "29.921355041134543",
    "geocoded_column": {
      "latitude": "29.921355041134543",
      "longitude": "-90.1216392585229"
    }
  },
  {
    "service_request": "2023-967888",
    "request_type": "Traffic Signals/Signs/Striping/Streetlights",
    "request_reason": "Additional signage",
    "date_created": "2023-01-17T15:12:00.000",
    "date_modified": "2023-01-17T15:12:00.000",
    "request_status": "Pending",
    "responsible_agency": "Department of Public Works",
    "final_address": "6318 Freret St",
    "address_councildis": "A",
    "status": "Pending",
    "rowid": "967888",
    "final_x": "3665395.59053",
    "final_y": "524744.740796",
    "longitude": "-90.11914915796211",
    "latitude": "29.93734504800054",
    "geocoded_column": {
      "latitude": "29.93734504800054",
      "longitude": "-90.11914915796211"
    }
  },
  {
    "service_request": "2023-967887",
    "request_type": "Trash/Recycling",
    "request_reason": "MIssed Recycling Pick-Up",
    "date_created": "2023-01-17T15:09:47.000",
    "date_modified": "2023-01-17T17:19:44.000",
    "request_status": "Pending",
    "responsible_agency": "Department of Sanitation",
    "final_address": "6501 Peony St.",
    "address_councildis": "C",
    "status": "Assigned to Contractor",
    "contractor": "Richards Disposal",
    "rowid": "967887",
    "final_x": "3707858.54328",
    "final_y": "516387.512629",
    "longitude": "-89.98540237101216",
    "latitude": "29.913060066814687",
    "geocoded_column": {
      "latitude": "29.913060066814687",
      "longitude": "-89.98540237101216"
    }
  },
  {
    "service_request": "2023-967886",
    "request_type": "Health Related Request",
    "request_reason": "Noise Ordinance Complaint",
    "date_created": "2023-01-17T15:07:33.000",
    "date_modified": "2023-01-17T15:07:33.000",
    "request_status": "Pending",
    "responsible_agency": "Health Department",
    "final_address": "5723 Eads St 70122",
    "status": "Pending",
    "rowid": "967886",
    "longitude": "0.0",
    "latitude": "0.0",
    "geocoded_column": {
      "latitude": "0.0",
      "longitude": "0.0"
    }
  },
  {
    "service_request": "2023-967885",
    "request_type": "Trash/Recycling",
    "request_reason": "MIssed Recycling Pick-Up",
    "date_created": "2023-01-17T15:06:00.000",
    "date_modified": "2023-01-17T15:06:00.000",
    "request_status": "Pending",
    "responsible_agency": "Department of Sanitation",
    "final_address": "1400 BLK Euterpe St",
    "address_councildis": "B",
    "status": "Assigned to Contractor",
    "contractor": "Richards Disposal",
    "rowid": "967885",
    "final_x": "3679524.03429",
    "final_y": "524608.921042",
    "longitude": "-90.07454944647704",
    "latitude": "29.93655237015102",
    "geocoded_column": {
      "latitude": "29.93655237015102",
      "longitude": "-90.07454944647704"
    }
  },
  {
    "service_request": "2023-967884",
    "request_type": "Traffic Signals/Signs/Striping/Streetlights",
    "request_reason": "Street Light Outage/Malfunction",
    "date_created": "2023-01-17T15:05:15.000",
    "date_modified": "2023-01-17T15:05:16.000",
    "request_status": "Pending",
    "responsible_agency": "Department of Public Works",
    "final_address": "15000 Paris Rd",
    "address_councildis": "E",
    "status": "Assigned to Contractor",
    "contractor": "Legacy Professional Services",
    "rowid": "967884",
    "final_x": "3721385.43679",
    "final_y": "568716.128613",
    "longitude": "-89.94070067744809",
    "latitude": "30.056499069729615",
    "geocoded_column": {
      "latitude": "30.056499069729615",
      "longitude": "-89.94070067744809"
    }
  },
  {
    "service_request": "2023-967883",
    "request_type": "Trash/Recycling",
    "request_reason": "Start Trash Service",
    "date_created": "2023-01-17T15:03:51.000",
    "date_modified": "2023-01-17T15:03:52.000",
    "request_status": "Pending",
    "responsible_agency": "Department of Sanitation",
    "final_address": "5504 Wilton Dr",
    "address_councildis": "D",
    "status": "Assigned to Contractor",
    "contractor": "IV Waste",
    "rowid": "967883",
    "final_x": "3681842.57327",
    "final_y": "552996.457943",
    "longitude": "-90.0662386879353",
    "latitude": "30.01453799448724",
    "geocoded_column": {
      "latitude": "30.01453799448724",
      "longitude": "-90.0662386879353"
    }
  },
  {
    "service_request": "2023-967882",
    "request_type": "Traffic Signals/Signs/Striping/Streetlights",
    "request_reason": "Street Light Outage/Malfunction",
    "date_created": "2023-01-17T15:03:38.000",
    "date_modified": "2023-01-17T15:03:39.000",
    "request_status": "Pending",
    "responsible_agency": "Department of Public Works",
    "final_address": "15000 Paris Rd",
    "address_councildis": "E",
    "status": "Assigned to Contractor",
    "contractor": "Legacy Professional Services",
    "rowid": "967882",
    "final_x": "3721385.43679",
    "final_y": "568716.128613",
    "longitude": "-89.94070067744809",
    "latitude": "30.056499069729615",
    "geocoded_column": {
      "latitude": "30.056499069729615",
      "longitude": "-89.94070067744809"
    }
  },
  {
    "service_request": "2023-967881",
    "request_type": "Abandoned Vehicles",
    "request_reason": "Abandoned/Junk Vehicles",
    "date_created": "2023-01-17T15:03:17.000",
    "date_modified": "2023-01-17T15:03:18.000",
    "request_status": "Pending",
    "responsible_agency": "Department of Public Works",
    "final_address": "LUCERNE ST & ZENITH ST",
    "address_councildis": "E",
    "status": "Pending",
    "rowid": "967881",
    "final_x": "3710958.5",
    "final_y": "565675.58",
    "longitude": "-89.97377224922869",
    "latitude": "30.04848312180249",
    "geocoded_column": {
      "latitude": "30.04848312180249",
      "longitude": "-89.97377224922869"
    }
  },
  {
    "service_request": "2023-967880",
    "request_type": "Traffic Signals/Signs/Striping/Streetlights",
    "request_reason": "Street Light Outage/Malfunction",
    "date_created": "2023-01-17T15:01:50.000",
    "date_modified": "2023-01-17T15:01:51.000",
    "request_status": "Pending",
    "responsible_agency": "Department of Public Works",
    "final_address": "15000 Paris Rd",
    "address_councildis": "E",
    "status": "Assigned to Contractor",
    "contractor": "Legacy Professional Services",
    "rowid": "967880",
    "final_x": "3721385.43679",
    "final_y": "568716.128613",
    "longitude": "-89.94070067744809",
    "latitude": "30.056499069729615",
    "geocoded_column": {
      "latitude": "30.056499069729615",
      "longitude": "-89.94070067744809"
    }
  },
  {
    "service_request": "2023-967879",
    "request_type": "Traffic Signals/Signs/Striping/Streetlights",
    "request_reason": "Street Light Outage/Malfunction",
    "date_created": "2023-01-17T14:59:57.000",
    "date_modified": "2023-01-17T14:59:58.000",
    "request_status": "Pending",
    "responsible_agency": "Department of Public Works",
    "final_address": "15000 Paris Rd",
    "address_councildis": "E",
    "status": "Assigned to Contractor",
    "contractor": "Legacy Professional Services",
    "rowid": "967879",
    "final_x": "3721385.43679",
    "final_y": "568716.128613",
    "longitude": "-89.94070067744809",
    "latitude": "30.056499069729615",
    "geocoded_column": {
      "latitude": "30.056499069729615",
      "longitude": "-89.94070067744809"
    }
  },
  {
    "service_request": "2023-967878",
    "request_type": "Traffic Signals/Signs/Striping/Streetlights",
    "request_reason": "Street Light Outage/Malfunction",
    "date_created": "2023-01-17T14:55:57.000",
    "date_modified": "2023-01-17T14:55:57.000",
    "request_status": "Pending",
    "responsible_agency": "Department of Public Works",
    "final_address": "17400 Paris Rd",
    "address_councildis": "E",
    "status": "Assigned to Contractor",
    "contractor": "Legacy Professional Services",
    "rowid": "967878",
    "final_x": "3721480.90322",
    "final_y": "571641.405672",
    "longitude": "-89.9402865164538",
    "latitude": "30.064539164783223",
    "geocoded_column": {
      "latitude": "30.064539164783223",
      "longitude": "-89.9402865164538"
    }
  },
  {
    "service_request": "2023-967877",
    "request_type": "Trash/Recycling",
    "request_reason": "MIssed Recycling Pick-Up",
    "date_created": "2023-01-17T14:53:01.000",
    "date_modified": "2023-01-17T14:53:01.000",
    "request_status": "Pending",
    "responsible_agency": "Department of Sanitation",
    "final_address": "2409 Memorial Park Dr",
    "address_councildis": "C",
    "status": "Assigned to Contractor",
    "contractor": "Richards Disposal",
    "rowid": "967877",
    "final_x": "3692251.03139",
    "final_y": "521534.625849",
    "longitude": "-90.03447997675566",
    "latitude": "29.92770852205644",
    "geocoded_column": {
      "latitude": "29.92770852205644",
      "longitude": "-90.03447997675566"
    }
  },
  {
    "service_request": "2023-967876",
    "request_type": "Traffic Signals/Signs/Striping/Streetlights",
    "request_reason": "Street Light Outage/Malfunction",
    "date_created": "2023-01-17T14:52:36.000",
    "date_modified": "2023-01-17T14:52:36.000",
    "request_status": "Pending",
    "responsible_agency": "Department of Public Works",
    "final_address": "17400 Paris Rd",
    "address_councildis": "E",
    "status": "Assigned to Contractor",
    "contractor": "Legacy Professional Services",
    "rowid": "967876",
    "final_x": "3721480.90322",
    "final_y": "571641.405672",
    "longitude": "-89.9402865164538",
    "latitude": "30.064539164783223",
    "geocoded_column": {
      "latitude": "30.064539164783223",
      "longitude": "-89.9402865164538"
    }
  },