[
  {
    "service_request": "2025-1229562",
    "request_type": "Trash/Recycling",
    "request_reason": "Request a Large Item Pick Up",
    "date_created": "2025-09-28T21:19:15.000",
    "date_modified": "2025-09-28T21:19:17.000",
    "request_status": "Pending",
    "responsible_agency": "Department of Sanitation",
    "final_address": "1506 Treasure St",
    "address_councildis": "D",
    "status": "Assigned to Contractor",
    "contractor": "IV Waste",
    "rowid": "1229562",
    "final_x": "3679739.69365",
    "final_y": "543625.05531",
    "longitude": "-90.07320837648611",
    "latitude": "29.98883374847517",
    "geocoded_column": {
      "latitude": "29.98883374847517",
      "longitude": "-90.07320837648611"
    }
  },
  {
    "service_request": "2025-1229561",
    "request_type": "Property Maintenance",
    "request_reason": "Property Maintenance",
    "date_created": "2025-09-28T21:09:01.000",
    "date_modified": "2025-09-28T21:09:13.000",
    "request_status": "Pending",
    "responsible_agency": "Department of Code Enforcement",
    "final_address": "1301 Granada Dr",
    "address_councildis": "D",
    "status": "Pending",
    "rowid": "1229561",
    "final_x": "3677269.51893",
    "final_y": "550611.563668",
    "longitude": "-90.08076967283999",
    "latitude": "30.00811864563734",
    "geocoded_column": {
      "latitude": "30.00811864563734",
      "longitude": "-90.08076967283999"
    }
  },
  {
    "service_request": "2025-1229560",
    "request_type": "Abandoned Vehicles",
    "request_reason": "Abandoned/Junk Vehicles",
    "date_created": "2025-09-28T21:04:29.000",
    "date_modified": "2025-09-28T21:04:31.000",
    "request_status": "Pending",
    "responsible_agency": "Department of Public Works",
    "final_address": "1310 Granada Dr",
    "address_councildis": "D",
    "status": "Pending",
    "rowid": "1229560",
    "final_x": "3677343.58338",
    "final_y": "550441.00706",
    "longitude": "-90.08054157181223",
    "latitude": "30.00764744943347",
    "geocoded_column": {
      "latitude": "30.00764744943347",
      "longitude": "-90.08054157181223"
    }
  },
  {
    "service_request": "2025-1229559",
    "request_type": "Abandoned Vehicles",
    "request_reason": "Abandoned/Junk Vehicles",
    "date_created": "2025-09-28T20:26:14.000",
    "date_modified": "2025-09-28T20:26:16.000",
    "request_status": "Pending",
    "responsible_agency": "Department of Public Works",
    "final_address": "3631 Iberville St",
    "address_councildis": "B",
    "status": "Pending",
    "rowid": "1229559",
    "final_x": "3672679.40513",
    "final_y": "537722.5298",
    "longitude": "-90.09571109655566",
    "latitude": "29.972815427481287",
    "geocoded_column": {
      "latitude": "29.972815427481287",
      "longitude": "-90.09571109655566"
    }
  },
  {
    "service_request": "2025-1229558",
    "request_type": "Parks & Parkways",
    "request_reason": "Request Tree Service (Right of Way/Public Property)",
    "date_created": "2025-09-28T20:06:53.000",
    "date_modified": "2025-09-28T20:06:59.000",
    "request_status": "Pending",
    "responsible_agency": "Department of Parks & Parkway",
    "final_address": "6000 BLK Press Dr",
    "address_councildis": "D",
    "status": "Pending",
    "rowid": "1229558",
    "final_x": "3688962.12073",
    "final_y": "555590.211442",
    "longitude": "-90.0436522425376",
    "latitude": "30.02145145550131",
    "geocoded_column": {
      "latitude": "30.02145145550131",
      "longitude": "-90.0436522425376"
    }
  },
  {
    "service_request": "2025-1229557",
    "request_type": "Trash/Recycling",
    "request_reason": "Replace Trash Cart",
    "date_created": "2025-09-28T19:49:36.000",
    "date_modified": "2025-09-28T19:49:38.000",
    "request_status": "Pending",
    "responsible_agency": "Department of Sanitation",
    "final_address": "912 Marigny St",
    "address_councildis": "C",
    "status": "Assigned to Contractor",
    "contractor": "IV Waste",
    "rowid": "1229557",
    "final_x": "3685441.69839",
    "final_y": "535736.611015",
    "longitude": "-90.05547539567196",
    "latitude": "29.966969642069405",
    "geocoded_column": {
      "latitude": "29.966969642069405",
      "longitude": "-90.05547539567196"
    }
  },
  {
    "service_request": "2025-1229556",
    "request_type": "Trash/Recycling",
    "request_reason": "Missed Trash Pick-Up",
    "date_created": "2025-09-28T19:47:19.000",
    "date_modified": "2025-09-28T19:47:22.000",
    "request_status": "Pending",
    "responsible_agency": "Department of Sanitation",
    "final_address": "709 Jackson Ave",
    "address_councildis": "B",
    "status": "Assigned to Contractor",
    "contractor": "IV Waste",
    "rowid": "1229556",
    "final_x": "3679727.94402",
    "final_y": "521028.216953",
    "longitude": "-90.07402993336704",
    "latitude": "29.9267004497965",
    "geocoded_column": {
      "latitude": "29.9267004497965",
      "longitude": "-90.07402993336704"
    }
  },
  {
    "service_request": "2025-1229555",
    "request_type": "Streetlights",
    "request_reason": "Streetlight Outage/Malfunction",
    "date_created": "2025-09-28T19:46:48.000",
    "date_modified": "2025-09-28T19:46:49.000",
    "request_status": "Pending",
    "responsible_agency": "Department of Public Works",
    "final_address": "1908 Alabo St",
    "address_councildis": "E",
    "status": "Pending",
    "rowid": "1229555",
    "final_x": "3699693.2506",
    "final_y": "536630.728519",
    "longitude": "-90.01043663707692",
    "latitude": "29.968983430539822",
    "geocoded_column": {
      "latitude": "29.968983430539822",
      "longitude": "-90.01043663707692"
    }
  },
  {
    "service_request": "2025-1229554",
    "request_type": "Streetlights",
    "request_reason": "Streetlight Outage/Malfunction",
    "date_created": "2025-09-28T19:46:47.000",
    "date_modified": "2025-09-28T19:46:49.000",
    "request_status": "Pending",
    "responsible_agency": "Department of Public Works",
    "final_address": "1908 Alabo St",
    "address_councildis": "E",
    "status": "Pending",
    "rowid": "1229554",
    "final_x": "3699693.2506",
    "final_y": "536630.728519",
    "longitude": "-90.01043663707692",
    "latitude": "29.968983430539822",
    "geocoded_column": {
      "latitude": "29.968983430539822",
      "longitude": "-90.01043663707692"
    }
  },
  {
    "service_request": "2025-1229553",
    "request_type": "Roads and Streets",
    "request_reason": "Pothole",
    "date_created": "2025-09-28T19:11:30.000",
    "date_modified": "2025-09-28T19:11:33.000",
    "request_status": "Pending",
    "responsible_agency": "Department of Public Works",
    "final_address": "530 Harrison Ave",
    "address_councildis": "A",
    "status": "Pending",
    "rowid": "1229553",
    "final_x": "3668197.98324",
    "final_y": "549190.083603",
    "longitude": "-90.10947748974516",
    "latitude": "30.00447961889947",
    "geocoded_column": {
      "latitude": "30.00447961889947",
      "longitude": "-90.10947748974516"
    }
  },
  {
    "service_request": "2025-1229552",
    "request_type": "Trash/Recycling",
    "request_reason": "Return Trash Cart",
    "date_created": "2025-09-28T18:56:46.000",
    "date_modified": "2025-09-28T18:56:49.000",
    "request_status": "Pending",
    "responsible_agency": "Department of Sanitation",
    "final_address": "2912 Ursulines Ave",
    "address_councildis": "A",
    "status": "Assigned to Contractor",
    "contractor": "IV Waste",
    "rowid": "1229552",
    "final_x": "3676706.50536",
    "final_y": "538784.921481",
    "longitude": "-90.08295613394384",
    "latitude": "29.975616425271227",
    "geocoded_column": {
      "latitude": "29.975616425271227",
      "longitude": "-90.08295613394384"
    }
  },
  {
    "service_request": "2025-1229551",
    "request_type": "Streetlights",
    "request_reason": "Streetlight Outage/Malfunction",
    "date_created": "2025-09-28T18:30:47.000",
    "date_modified": "2025-09-28T18:30:48.000",
    "request_status": "Pending",
    "responsible_agency": "Department of Public Works",
    "final_address": "3301 Timber Ridge Ct",
    "address_councildis": "C",
    "status": "Pending",
    "rowid": "1229551",
    "final_x": "3704107.92535",
    "final_y": "511742.657264",
    "longitude": "-89.99741127147867",
    "latitude": "29.90040908353209",
    "geocoded_column": {
      "latitude": "29.90040908353209",
      "longitude": "-89.99741127147867"
    }
  },
  {
    "service_request": "2025-1229550",
    "request_type": "Trash/Recycling",
    "request_reason": "Request a Large Item Pick Up",
    "date_created": "2025-09-28T18:30:28.000",
    "date_modified": "2025-09-28T18:30:30.000",
    "request_status": "Pending",
    "responsible_agency": "Department of Sanitation",
    "final_address": "2124 Music St",
    "address_councildis": "D",
    "status": "Assigned to Contractor",
    "contractor": "IV Waste",
    "rowid": "1229550",
    "final_x": "3686496.7078",
    "final_y": "540330.075467",
    "longitude": "-90.05198146309792",
    "latitude": "29.979567666944593",
    "geocoded_column": {
      "latitude": "29.979567666944593",
      "longitude": "-90.05198146309792"
    }
  },
  {
    "service_request": "2025-1229549",
    "request_type": "Trash/Recycling",
    "request_reason": "Order Recycling Cart",
    "date_created": "2025-09-28T18:24:09.000",
    "date_modified": "2025-09-28T18:24:10.000",
    "request_status": "Pending",
    "responsible_agency": "Department of Sanitation",
    "final_address": "506 S Murat St",
    "address_councildis": "A",
    "status": "Pending",
    "rowid": "1229549",
    "final_x": "3668716.62228",
    "final_y": "538035.744393",
    "longitude": "-90.10821577276434",
    "latitude": "29.973793758375876",
    "geocoded_column": {
      "latitude": "29.973793758375876",
      "longitude": "-90.10821577276434"
    }
  },
  {
    "service_request": "2025-1229548",
    "request_type": "Trash/Recycling",
    "request_reason": "Request a Large Item Pick Up",
    "date_created": "2025-09-28T18:23:28.000",
    "date_modified": "2025-09-28T18:23:30.000",
    "request_status": "Pending",
    "responsible_agency": "Department of Sanitation",
    "final_address": "2014 N Dorgenois St",
    "address_councildis": "D",
    "status": "Assigned to Contractor",
    "contractor": "IV Waste",
    "rowid": "1229548",
    "final_x": "3682527.21256",
    "final_y": "541263.869644",
    "longitude": "-90.06448605208327",
    "latitude": "29.982256732475033",
    "geocoded_column": {
      "latitude": "29.982256732475033",
      "longitude": "-90.06448605208327"
    }
  },
  {
    "service_request": "2025-1229547",
    "request_type": "Roads and Streets",
    "request_reason": "Pothole",
    "date_created": "2025-09-28T18:13:24.000",
    "date_modified": "2025-09-28T18:13:25.000",
    "request_status": "Pending",
    "responsible_agency": "Department of Public Works",
    "final_address": "5145 Arts St",
    "address_councildis": "D",
    "status": "Pending",
    "rowid": "1229547",
    "final_x": "3685852.72278",
    "final_y": "552013.745878",
    "longitude": "-90.05360328626975",
    "latitude": "30.011713353654727",
    "geocoded_column": {
      "latitude": "30.011713353654727",
      "longitude": "-90.05360328626975"
    }
  },
  {
    "service_request": "2025-1229546",
    "request_type": "Trash/Recycling",
    "request_reason": "Order Trash Cart",
    "date_created": "2025-09-28T17:46:53.000",
    "date_modified": "2025-09-28T17:46:55.000",
    "request_status": "Pending",
    "responsible_agency": "Department of Sanitation",
    "final_address": "1015 Congress St",
    "address_councildis": "C",
    "status": "Assigned to Contractor",
    "contractor": "IV Waste",
    "rowid": "1229546",
    "final_x": "3690675.85564",
    "final_y": "535267.89927",
    "longitude": "-90.03896269015554",
    "latitude": "29.965519308063396",
    "geocoded_column": {
      "latitude": "29.965519308063396",
      "longitude": "-90.03896269015554"
    }
  },
  {
    "service_request": "2025-1229545",
    "request_type": "Trash/Recycling",
    "request_reason": "Order Recycling Cart",
    "date_created": "2025-09-28T17:44:43.000",
    "date_modified": "2025-09-28T17:44:45.000",
    "request_status": "Pending",
    "responsible_agency": "Department of Sanitation",
    "final_address": "1523 Nashville Ave, New Orleans, Louisiana, 70115",
    "address_councildis": "A",
    "status": "Pending",
    "rowid": "1229545",
    "final_x": "3666228.28653",
    "final_y": "521830.005434",
    "longitude": "-90.11661798385923",
    "latitude": "29.92930616505468",
    "geocoded_column": {
      "latitude": "29.92930616505468",
      "longitude": "-90.11661798385923"
    }
  },
  {
    "service_request": "2025-1229544",
    "request_type": "General Services",
    "request_reason": "General Service Request",
    "date_created": "2025-09-28T17:44:29.000",
    "date_modified": "2025-09-28T17:44:31.000",
    "request_status": "Pending",
    "responsible_agency": "Orleans Parish Communication District",
    "final_address": "6730 Vicksburg St",
    "address_councildis": "A",
    "status": "Pending",
    "rowid": "1229544",
    "final_x": "3669236.79841",
    "final_y": "552252.719318",
    "longitude": "-90.10609203682641",
    "latitude": "30.012870244133886",
    "geocoded_column": {
      "latitude": "30.012870244133886",
      "longitude": "-90.10609203682641"
    }
  },
  {
    "service_request": "2025-1229543",
    "request_type": "Trash/Recycling",
    "request_reason": "Request a Large Item Pick Up",
    "date_created": "2025-09-28T17:25:04.000",
    "date_modified": "2025-09-28T17:25:06.000",
    "request_status": "Pending",
    "responsible_agency": "Department of Sanitation",
    "final_address": "7814 Lady Gray St",
    "address_councildis": "E",
    "status": "Assigned to Contractor",
    "contractor": "Waste Pro",
    "rowid": "1229543",
    "final_x": "3709482.88632",
    "final_y": "566004.408739",
    "longitude": "-89.97842371793797",
    "latitude": "30.049435327232203",
    "geocoded_column": {
      "latitude": "30.049435327232203",
      "longitude": "-89.97842371793797"
    }
  },
  {
    "service_request": "2025-1229542",
    "request_type": "Trash/Recycling",
    "request_reason": "Request a Large Item Pick Up",
    "date_created": "2025-09-28T17:23:52.000",
    "date_modified": "2025-09-28T17:23:53.000",
    "request_status": "Pending",
    "responsible_agency": "Department of Sanitation",
    "final_address": "532 Seguin St",
    "address_councildis": "C",
    "status": "Assigned to Contractor",
    "contractor": "Richards Disposal",
    "rowid": "1229542",
    "final_x": "3686609.64918",
    "final_y": "529762.961601",
    "longitude": "-90.05199796722688",
    "latitude": "29.950508298511348",
    "geocoded_column": {
      "latitude": "29.950508298511348",
      "longitude": "-90.05199796722688"
    }
  },
  {
    "service_request": "2025-1229541",
    "request_type": "Trash/Recycling",
    "request_reason": "Request a Large Item Pick Up",
    "date_created": "2025-09-28T17:01:03.000",
    "date_modified": "2025-09-28T17:01:04.000",
    "request_status": "Pending",
    "responsible_agency": "Department of Sanitation",
    "final_address": "145 12Th St",
    "address_councildis": "A",
    "status": "Assigned to Contractor",
    "contractor": "IV Waste",
    "rowid": "1229541",
    "final_x": "3665747.01696",
    "final_y": "547843.957394",
    "longitude": "-90.1172657235437",
    "latitude": "30.00084999017152",
    "geocoded_column": {
      "latitude": "30.00084999017152",
      "longitude": "-90.1172657235437"
    }
  },
  {
    "service_request": "2025-1229539",
    "request_type": "Street and Traffic Signs",
    "request_reason": "Stop Sign Missing or Damaged",
    "date_created": "2025-09-28T16:32:11.000",
    "date_modified": "2025-09-28T16:32:13.000",
    "request_status": "Pending",
    "responsible_agency": "Department of Public Works",
    "final_address": "6348 Pratt Dr",
    "address_councildis": "D",
    "status": "Pending",
    "rowid": "1229539",
    "final_x": "3679339.56648",
    "final_y": "557301.590491",
    "longitude": "-90.07399746649924",
    "latitude": "30.02645141112103",
    "geocoded_column": {
      "latitude": "30.02645141112103",
      "longitude": "-90.07399746649924"
    }
  },
  {
    "service_request": "2025-1229538",
    "request_type": "Property Maintenance",
    "request_reason": "Property Maintenance",
    "date_created": "2025-09-28T16:23:57.000",
    "date_modified": "2025-09-28T16:24:00.000",
    "request_status": "Pending",
    "responsible_agency": "Department of Code Enforcement",
    "final_address": "1429 Governor Nicholls St",
    "address_councildis": "C",
    "status": "Pending",
    "rowid": "1229538",
    "final_x": "3681540.46056",
    "final_y": "535704.902087",
    "longitude": "-90.06779661367608",
    "latitude": "29.96700150652933",
    "geocoded_column": {
      "latitude": "29.96700150652933",
      "longitude": "-90.06779661367608"
    }
  },
  {
    "service_request": "2025-1229537",
    "request_type": "Trash/Recycling",
    "request_reason": "Order Trash Cart",
    "date_created": "2025-09-28T16:14:22.000",
    "date_modified": "2025-09-28T16:14:24.000",
    "request_status": "Pending",
    "responsible_agency": "Department of Sanitation",
    "final_address": "6114 General Diaz St",
    "address_councildis": "A",
    "status": "Assigned to Contractor",
    "contractor": "IV Waste",
    "rowid": "1229537",
    "final_x": "3669486.10196",
    "final_y": "547978.307346",
    "longitude": "-90.10544908880718",
    "latitude": "30.001109763062928",
    "geocoded_column": {
      "latitude": "30.001109763062928",
      "longitude": "-90.10544908880718"
    }
  },
  {
    "service_request": "2025-1229536",
    "request_type": "Trash/Recycling",
    "request_reason": "Request a Large Item Pick Up",
    "date_created": "2025-09-28T15:04:38.000",
    "date_modified": "2025-09-28T15:04:40.000",
    "request_status": "Pending",
    "responsible_agency": "Department of Sanitation",
    "final_address": "2213 Short St",
    "address_councildis": "A",
    "status": "Assigned to Contractor",
    "contractor": "IV Waste",
    "rowid": "1229536",
    "final_x": "3664754.18887",
    "final_y": "530709.832642",
    "longitude": "-90.12097485923927",
    "latitude": "29.953765804941913",
    "geocoded_column": {
      "latitude": "29.953765804941913",
      "longitude": "-90.12097485923927"
    }
  },
  {
    "service_request": "2025-1229535",
    "request_type": "Trash/Recycling",
    "request_reason": "Request a Large Item Pick Up",
    "date_created": "2025-09-28T15:01:22.000",
    "date_modified": "2025-09-28T15:01:23.000",
    "request_status": "Pending",
    "responsible_agency": "Department of Sanitation",
    "final_address": "2312 Audubon St",
    "address_councildis": "A",
    "status": "Assigned to Contractor",
    "contractor": "IV Waste",
    "rowid": "1229535",
    "final_x": "3666663.74497",
    "final_y": "529728.874945",
    "longitude": "-90.1149781855271",
    "latitude": "29.951012798098585",
    "geocoded_column": {
      "latitude": "29.951012798098585",
      "longitude": "-90.1149781855271"
    }
  },
  {
    "service_request": "2025-1229534",
    "request_type": "Streetlights",
    "request_reason": "Streetlight Outage/Malfunction",
    "date_created": "2025-09-28T14:45:20.000",
    "date_modified": "2025-09-28T14:45:23.000",
    "request_status": "Pending",
    "responsible_agency": "Department of Public Works",
    "final_address": "422 Lowerline St",
    "address_councildis": "A",
    "status": "Pending",
    "rowid": "1229534",
    "final_x": "3661738.88851",
    "final_y": "524097.462332",
    "longitude": "-90.1307151137995",
    "latitude": "29.935671274687156",
    "geocoded_column": {
      "latitude": "29.935671274687156",
      "longitude": "-90.1307151137995"
    }
  },
  {
    "service_request": "2025-1229533",
    "request_type": "Trash/Recycling",
    "request_reason": "Request a Large Item Pick Up",
    "date_created": "2025-09-28T14:32:43.000",
    "date_modified": "2025-09-28T14:32:46.000",
    "request_status": "Pending",
    "responsible_agency": "Department of Sanitation",
    "final_address": "1415 Socrates St",
    "address_councildis": "C",
    "status": "Assigned to Contractor",
    "contractor": "Richards Disposal",
    "rowid": "1229533",
    "final_x": "3689786.8918",
    "final_y": "526308.046398",
    "longitude": "-90.04208884413336",
    "latitude": "29.940910387977283",
    "geocoded_column": {
      "latitude": "29.940910387977283",
      "longitude": "-90.04208884413336"
    }
  },
  {
    "service_request": "2025-1229532",
    "request_type": "Trash/Recycling",
    "request_reason": "Request a Large Item Pick Up",
    "date_created": "2025-09-28T14:14:48.000",
    "date_modified": "2025-09-28T14:14:49.000",
    "request_status": "Pending",
    "responsible_agency": "Department of Sanitation",
    "final_address": "5422 Laurel St",
    "address_councildis": "A",
    "status": "Assigned to Contractor",
    "contractor": "IV Waste",
    "rowid": "1229532",
    "final_x": "3666358.04679",
    "final_y": "517835.070902",
    "longitude": "-90.11634229724744",
    "latitude": "29.918317563943496",
    "geocoded_column": {
      "latitude": "29.918317563943496",
      "longitude": "-90.11634229724744"
    }
  },
  {
    "service_request": "2025-1229531",
    "request_type": "Street and Traffic Signs",
    "request_reason": "Stop Sign Missing or Damaged",
    "date_created": "2025-09-28T14:10:04.000",
    "date_modified": "2025-09-28T14:10:10.000",
    "request_status": "Pending",
    "responsible_agency": "Department of Public Works",
    "final_address": "1817 Short St",
    "address_councildis": "A",
    "status": "Pending",
    "rowid": "1229531",
    "final_x": "3663843.43117",
    "final_y": "529707.157505",
    "longitude": "-90.12388408528567",
    "latitude": "29.951035237797623",
    "geocoded_column": {
      "latitude": "29.951035237797623",
      "longitude": "-90.12388408528567"
    }
  },
  {
    "service_request": "2025-1229530",
    "request_type": "Trash/Recycling",
    "request_reason": "Return Trash Cart",
    "date_created": "2025-09-28T13:53:55.000",
    "date_modified": "2025-09-28T13:53:57.000",
    "request_status": "Pending",
    "responsible_agency": "Department of Sanitation",
    "final_address": "3631 Post Oak Ave",
    "address_councildis": "C",
    "status": "Assigned to Contractor",
    "contractor": "Richards Disposal",
    "rowid": "1229530",
    "final_x": "3703762.7091",
    "final_y": "514476.367731",
    "longitude": "-89.9984002202659",
    "latitude": "29.90793692128833",
    "geocoded_column": {
      "latitude": "29.90793692128833",
      "longitude": "-89.9984002202659"
    }
  },
  {
    "service_request": "2025-1229529",
    "request_type": "Abandoned Vehicles",
    "request_reason": "Abandoned/Junk Vehicles",
    "date_created": "2025-09-28T13:53:42.000",
    "date_modified": "2025-09-28T13:53:44.000",
    "request_status": "Pending",
    "responsible_agency": "Department of Public Works",
    "final_address": "1019 General Taylor St",
    "address_councildis": "B",
    "status": "Pending",
    "rowid": "1229529",
    "final_x": "3673034.4242",
    "final_y": "519507.740983",
    "longitude": "-90.09521146403766",
    "latitude": "29.922720206453953",
    "geocoded_column": {
      "latitude": "29.922720206453953",
      "longitude": "-90.09521146403766"
    }
  },
  {
    "service_request": "2025-1229528",
    "request_type": "Streetlights",
    "request_reason": "Streetlight Outage/Malfunction",
    "date_created": "2025-09-28T13:29:38.000",
    "date_modified": "2025-09-28T13:29:39.000",
    "request_status": "Pending",
    "responsible_agency": "Department of Public Works",
    "final_address": "2433 Constance St",
    "address_councildis": "B",
    "status": "Pending",
    "rowid": "1229528",
    "final_x": "3678040.80827",
    "final_y": "521064.926905",
    "longitude": "-90.07935449747976",
    "latitude": "29.92685226681012",
    "geocoded_column": {
      "latitude": "29.92685226681012",
      "longitude": "-90.07935449747976"
    }
  },
  {
    "service_request": "2025-1229527",
    "request_type": "Roads and Streets",
    "request_reason": "Sidewalk Damaged or Missing",
    "date_created": "2025-09-28T13:28:04.000",
    "date_modified": "2025-09-28T13:28:06.000",
    "request_status": "Pending",
    "responsible_agency": "Department of Public Works",
    "final_address": "1200 N Derbigny St",
    "address_councildis": "D",
    "status": "Pending",
    "rowid": "1229527",
    "final_x": "3680631.01365",
    "final_y": "536295.941895",
    "longitude": "-90.07064808101914",
    "latitude": "29.968654250760657",
    "geocoded_column": {
      "latitude": "29.968654250760657",
      "longitude": "-90.07064808101914"
    }
  },
  {
    "service_request": "2025-1229526",
    "request_type": "General Services",
    "request_reason": "General Service Request",
    "date_created": "2025-09-28T13:16:42.000",
    "date_modified": "2025-09-28T13:16:45.000",
    "request_status": "Pending",
    "responsible_agency": "Orleans Parish Communication District",
    "final_address": "2521 Bell St",
    "address_councildis": "D",
    "status": "Pending",
    "rowid": "1229526",
    "final_x": "3678504.97019",
    "final_y": "538984.944906",
    "longitude": "-90.07726915823811",
    "latitude": "29.976112335074973",
    "geocoded_column": {
      "latitude": "29.976112335074973",
      "longitude": "-90.07726915823811"
    }
  },
  {
    "service_request": "2025-1229525",
    "request_type": "Property Maintenance",
    "request_reason": "Property Maintenance",
    "date_created": "2025-09-28T13:07:43.000",
    "date_modified": "2025-09-28T13:07:46.000",
    "request_status": "Pending",
    "responsible_agency": "Department of Code Enforcement",
    "final_address": "6930 Ridgefield Dr",
    "address_councildis": "E",
    "status": "Pending",
    "rowid": "1229525",
    "final_x": "3719729.69202",
    "final_y": "569017.83959",
    "longitude": "-89.94592260546054",
    "latitude": "30.057383877497983",
    "geocoded_column": {
      "latitude": "30.057383877497983",
      "longitude": "-89.94592260546054"
    }
  },
  {
    "service_request": "2025-1229524",
    "request_type": "Streetlights",
    "request_reason": "Streetlight Knocked Down/Leaning",
    "date_created": "2025-09-28T12:56:29.000",
    "date_modified": "2025-09-28T12:56:30.000",
    "request_status": "Pending",
    "responsible_agency": "Department of Public Works",
    "final_address": "700 Canal St",
    "address_councildis": "B",
    "status": "Pending",
    "rowid": "1229524",
    "final_x": "3681088.32981",
    "final_y": "530625.904002",
    "longitude": "-90.06940136900302",
    "latitude": "29.95304971412305",
    "geocoded_column": {
      "latitude": "29.95304971412305",
      "longitude": "-90.06940136900302"
    }
  },
  {
    "service_request": "2025-1229523",
    "request_type": "Healthy Homes",
    "request_reason": "Healthy Homes",
    "date_created": "2025-09-28T12:50:58.000",
    "date_modified": "2025-09-28T12:51:00.000",
    "request_status": "Pending",
    "responsible_agency": "Department of Code Enforcement",
    "final_address": "2230 Burgundy St",
    "address_councildis": "C",
    "status": "Pending",
    "rowid": "1229523",
    "final_x": "3685378.87849",
    "final_y": "535577.252678",
    "longitude": "-90.05567939219415",
    "latitude": "29.966533388089655",
    "geocoded_column": {
      "latitude": "29.966533388089655",
      "longitude": "-90.05567939219415"
    }
  },
  {
    "service_request": "2025-1229522",
    "request_type": "Trash/Recycling",
    "request_reason": "Request a Large Item Pick Up",
    "date_created": "2025-09-28T12:35:17.000",
    "date_modified": "2025-09-28T12:35:19.000",
    "request_status": "Pending",
    "responsible_agency": "Department of Sanitation",
    "final_address": "3800 Vincennes Pl",
    "address_councildis": "A",
    "status": "Assigned to Contractor",
    "contractor": "IV Waste",
    "rowid": "1229522",
    "final_x": "3668229.87309",
    "final_y": "529561.820289",
    "longitude": "-90.11003875412617",
    "latitude": "29.950507570800905",
    "geocoded_column": {
      "latitude": "29.950507570800905",
      "longitude": "-90.11003875412617"
    }
  },
  {
    "service_request": "2025-1229521",
    "request_type": "Trash/Recycling",
    "request_reason": "Request a Large Item Pick Up",
    "date_created": "2025-09-28T12:33:35.000",
    "date_modified": "2025-09-28T12:33:37.000",
    "request_status": "Pending",
    "responsible_agency": "Department of Sanitation",
    "final_address": "6959 Louis Xiv St",
    "address_councildis": "A",
    "status": "Assigned to Contractor",
    "contractor": "IV Waste",
    "rowid": "1229521",
    "final_x": "3668764.27022",
    "final_y": "553811.781591",
    "longitude": "-90.10753227833895",
    "latitude": "30.017171022595196",
    "geocoded_column": {
      "latitude": "30.017171022595196",
      "longitude": "-90.10753227833895"
    }
  },
  {
    "service_request": "2025-1229520",
    "request_type": "Abandoned Vehicles",
    "request_reason": "Abandoned/Junk Vehicles",
    "date_created": "2025-09-28T12:15:49.000",
    "date_modified": "2025-09-28T12:15:51.000",
    "request_status": "Pending",
    "responsible_agency": "Department of Public Works",
    "final_address": "4023 Tchoupitoulas St",
    "address_councildis": "B",
    "status": "Pending",
    "rowid": "1229520",
    "final_x": "3672456.92334",
    "final_y": "517628.933814",
    "longitude": "-90.09709839396619",
    "latitude": "29.917571230941423",
    "geocoded_column": {
      "latitude": "29.917571230941423",
      "longitude": "-90.09709839396619"
    }
  },
  {
    "service_request": "2025-1229519",
    "request_type": "Trash/Recycling",
    "request_reason": "Order Recycling Cart",
    "date_created": "2025-09-28T11:43:49.000",
    "date_modified": "2025-09-28T11:43:52.000",
    "request_status": "Pending",
    "responsible_agency": "Department of Sanitation",
    "final_address": "3334 State Street Dr",
    "address_councildis": "A",
    "status": "Pending",
    "rowid": "1229519",
    "final_x": "3667712.26893",
    "final_y": "528667.07136",
    "longitude": "-90.11170320581219",
    "latitude": "29.948062486678708",
    "geocoded_column": {
      "latitude": "29.948062486678708",
      "longitude": "-90.11170320581219"
    }
  },
  {
    "service_request": "2025-1229518",
    "request_type": "Trash/Recycling",
    "request_reason": "Request a Large Item Pick Up",
    "date_created": "2025-09-28T11:25:34.000",
    "date_modified": "2025-09-28T11:25:37.000",
    "request_status": "Pending",
    "responsible_agency": "Department of Sanitation",
    "final_address": "5720 Waterford Blvd",
    "address_councildis": "E",
    "status": "Assigned to Contractor",
    "contractor": "Waste Pro",
    "rowid": "1229518",
    "final_x": "3713939.32216",
    "final_y": "560666.53987",
    "longitude": "-89.96454032957996",
    "latitude": "30.034612697033477",
    "geocoded_column": {
      "latitude": "30.034612697033477",
      "longitude": "-89.96454032957996"
    }
  },
  {
    "service_request": "2025-1229517",
    "request_type": "Trash/Recycling",
    "request_reason": "Repair Recycling Cart",
    "date_created": "2025-09-28T10:55:26.000",
    "date_modified": "2025-09-28T10:55:29.000",
    "request_status": "Pending",
    "responsible_agency": "Department of Sanitation",
    "final_address": "2816 Orleans Ave",
    "address_councildis": "A",
    "status": "Pending",
    "rowid": "1229517",
    "final_x": "3676159.07048",
    "final_y": "537405.583624",
    "longitude": "-90.08473255648053",
    "latitude": "29.97184013206989",
    "geocoded_column": {
      "latitude": "29.97184013206989",
      "longitude": "-90.08473255648053"
    }
  },
  {
    "service_request": "2025-1229516",
    "request_type": "General Services",
    "request_reason": "General Service Request",
    "date_created": "2025-09-28T09:48:39.000",
    "date_modified": "2025-09-28T09:48:41.000",
    "request_status": "Pending",
    "responsible_agency": "Orleans Parish Communication District",
    "final_address": "3236 Sabine St",
    "address_councildis": "C",
    "status": "Pending",
    "rowid": "1229516",
    "final_x": "3695079.22742",
    "final_y": "517872.247158",
    "longitude": "-90.02568402005211",
    "latitude": "29.917549766596093",
    "geocoded_column": {
      "latitude": "29.917549766596093",
      "longitude": "-90.02568402005211"
    }
  },
  {
    "service_request": "2025-1229515",
    "request_type": "Trash/Recycling",
    "request_reason": "Return Trash Cart",
    "date_created": "2025-09-28T09:15:14.000",
    "date_modified": "2025-09-28T09:15:16.000",
    "request_status": "Pending",
    "responsible_agency": "Department of Sanitation",
    "final_address": "1214 Feliciana St",
    "address_councildis": "C",
    "status": "Assigned to Contractor",
    "contractor": "IV Waste",
    "rowid": "1229515",
    "final_x": "3688823.27343",
    "final_y": "536600.547591",
    "longitude": "-90.04476572152177",
    "latitude": "29.96924103733542",
    "geocoded_column": {
      "latitude": "29.96924103733542",
      "longitude": "-90.04476572152177"
    }
  },
  {
    "service_request": "2025-1229514",
    "request_type": "Parks & Parkways",
    "request_reason": "Request Tree Service (Right of Way/Public Property)",
    "date_created": "2025-09-28T09:11:55.000",
    "date_modified": "2025-09-28T09:11:58.000",
    "request_status": "Pending",
    "responsible_agency": "Department of Parks & Parkway",
    "final_address": "1815 S White St",
    "address_councildis": "B",
    "status": "Pending",
    "rowid": "1229514",
    "final_x": "3670777.07188",
    "final_y": "529606.818625",
    "longitude": "-90.10199447246403",
    "latitude": "29.950556281767483",
    "geocoded_column": {
      "latitude": "29.950556281767483",
      "longitude": "-90.10199447246403"
    }
  },
  {
    "service_request": "2025-1229513",
    "request_type": "Property Maintenance",
    "request_reason": "Property Maintenance",
    "date_created": "2025-09-28T08:56:05.000",
    "date_modified": "2025-09-28T08:56:07.000",
    "request_status": "Pending",
    "responsible_agency": "Department of Code Enforcement",
    "final_address": "3720 Buchanan St",
    "address_councildis": "D",
    "status": "Pending",
    "rowid": "1229513",
    "final_x": "3677351.75227",
    "final_y": "545895.31016",
    "longitude": "-90.08067276382195",
    "latitude": "29.99514814704599",
    "geocoded_column": {
      "latitude": "29.99514814704599",
      "longitude": "-90.08067276382195"
    }
  },
  {
    "service_request": "2025-1229512",
    "request_type": "Trash/Recycling",
    "request_reason": "Request a Large Item Pick Up",
    "date_created": "2025-09-28T08:53:35.000",
    "date_modified": "2025-09-28T08:53:36.000",
    "request_status": "Pending",
    "responsible_agency": "Department of Sanitation",
    "final_address": "2401 Ruck St",
    "address_councildis": "C",
    "status": "Assigned to Contractor",
    "contractor": "Richards Disposal",
    "rowid": "1229512",
    "final_x": "3692536.1768",
    "final_y": "523397.253371",
    "longitude": "-90.03351314450107",
    "latitude": "29.932821225598236",
    "geocoded_column": {
      "latitude": "29.932821225598236",
      "longitude": "-90.03351314450107"
    }
  },
  {
    "service_request": "2025-1229510",
    "request_type": "Property Maintenance",
    "request_reason": "Property Maintenance",
    "date_created": "2025-09-28T08:53:08.000",
    "date_modified": "2025-09-28T08:53:10.000",
    "request_status": "Pending",
    "responsible_agency": "Department of Code Enforcement",
    "final_address": "9226 Forshey St",
    "address_councildis": "A",
    "status": "Pending",
    "rowid": "1229510",
    "final_x": "3663969.33843",
    "final_y": "536642.126791",
    "longitude": "-90.12325528367833",
    "latitude": "29.970100482871334",
    "geocoded_column": {
      "latitude": "29.970100482871334",
      "longitude": "-90.12325528367833"
    }
  },
  {
    "service_request": "2025-1229511",
    "request_type": "Property Maintenance",
    "request_reason": "Property Maintenance",
    "date_created": "2025-09-28T08:53:08.000",
    "date_modified": "2025-09-28T08:53:10.000",
    "request_status": "Pending",
    "responsible_agency": "Department of Code Enforcement",
    "final_address": "3720 Buchanan St",
    "address_councildis": "D",
    "status": "Pending",
    "rowid": "1229511",
    "final_x": "3677351.75227",
    "final_y": "545895.31016",
    "longitude": "-90.08067276382195",
    "latitude": "29.99514814704599",
    "geocoded_column": {
      "latitude": "29.99514814704599",
      "longitude": "-90.08067276382195"
    }
  },
  {
    "service_request": "2025-1229509",
    "request_type": "Trash/Recycling",
    "request_reason": "Request a Large Item Pick Up",
    "date_created": "2025-09-28T08:24:52.000",
    "date_modified": "2025-09-28T08:24:54.000",
    "request_status": "Pending",
    "responsible_agency": "Department of Sanitation",
    "final_address": "4747 Deanne St",
    "address_councildis": "D",
    "status": "Assigned to Contractor",
    "contractor": "Waste Pro",
    "rowid": "1229509",
    "final_x": "3696429.85258",
    "final_y": "554240.951512",
    "longitude": "-90.0201052258973",
    "latitude": "30.01750827507943",
    "geocoded_column": {
      "latitude": "30.01750827507943",
      "longitude": "-90.0201052258973"
    }
  },
  {
    "service_request": "2025-1229508",
    "request_type": "Trash/Recycling",
    "request_reason": "Order Recycling Cart",
    "date_created": "2025-09-28T07:34:17.000",
    "date_modified": "2025-09-28T07:34:19.000",
    "request_status": "Pending",
    "responsible_agency": "Department of Sanitation",
    "final_address": "1989 Law St",
    "address_councildis": "D",
    "status": "Pending",
    "rowid": "1229508",
    "final_x": "3682176.61564",
    "final_y": "541675.958732",
    "longitude": "-90.06557900623953",
    "latitude": "29.98340050347145",
    "geocoded_column": {
      "latitude": "29.98340050347145",
      "longitude": "-90.06557900623953"
    }
  },
  {
    "service_request": "2025-1229507",
    "request_type": "Trash/Recycling",
    "request_reason": "Request a Large Item Pick Up",
    "date_created": "2025-09-28T06:16:08.000",
    "date_modified": "2025-09-28T06:16:10.000",
    "request_status": "Pending",
    "responsible_agency": "Department of Sanitation",
    "final_address": "1417 Melpomene St",
    "address_councildis": "B",
    "status": "Assigned to Contractor",
    "contractor": "IV Waste",
    "rowid": "1229507",
    "final_x": "3679879.34683",
    "final_y": "525157.513149",
    "longitude": "-90.07340866693698",
    "latitude": "29.938050079212893",
    "geocoded_column": {
      "latitude": "29.938050079212893",
      "longitude": "-90.07340866693698"
    }
  },
  {
    "service_request": "2025-1229506",
    "request_type": "Property Maintenance",
    "request_reason": "Property Maintenance",
    "date_created": "2025-09-27T23:34:05.000",
    "date_modified": "2025-09-27T23:34:11.000",
    "request_status": "Pending",
    "responsible_agency": "Department of Code Enforcement",
    "final_address": "7531 Stonewood St",
    "address_councildis": "E",
    "status": "Pending",
    "rowid": "1229506",
    "final_x": "3719999.61766",
    "final_y": "572243.951529",
    "longitude": "-89.94494585964537",
    "latitude": "30.066245346087886",
    "geocoded_column": {
      "latitude": "30.066245346087886",
      "longitude": "-89.94494585964537"
    }
  },
  {
    "service_request": "2025-1229505",
    "request_type": "Trash/Recycling",
    "request_reason": "Missed Trash Pick-Up",
    "date_created": "2025-09-27T20:30:16.000",
    "date_modified": "2025-09-28T05:42:02.000",
    "case_close_date": "2025-09-28T00:42:00.000",
    "request_status": "Closed",
    "responsible_agency": "Department of Sanitation",
    "final_address": "2339 Dabadie St, New Orleans, Louisiana, 70119",
    "address_councildis": "D",
    "status": "Invalid Request",
    "contractor": "IV Waste",
    "contractor_action": "Invalid Request",
    "rowid": "1229505",
    "final_x": "3680435.39759",
    "final_y": "540090.059595",
    "longitude": "-90.07113385931119",
    "latitude": "29.979092689828207",
    "geocoded_column": {
      "latitude": "29.979092689828207",
      "longitude": "-90.07113385931119"
    }
  },
  {
    "service_request": "2025-1229504",
    "request_type": "Parks & Parkways",
    "request_reason": "Request Tree Service (Right of Way/Public Property)",
    "date_created": "2025-09-27T20:15:32.000",
    "date_modified": "2025-09-27T20:15:34.000",
    "request_status": "Pending",
    "responsible_agency": "Department of Parks & Parkway",
    "final_address": "8015 Plum St",
    "address_councildis": "A",
    "status": "Pending",
    "rowid": "1229504",
    "final_x": "3662458.64474",
    "final_y": "528448.2464",
    "longitude": "-90.1282983721216",
    "latitude": "29.947613754758624",
    "geocoded_column": {
      "latitude": "29.947613754758624",
      "longitude": "-90.1282983721216"
    }
  },
  {
    "service_request": "2025-1229503",
    "request_type": "Trash/Recycling",
    "request_reason": "Repair Trash Cart",
    "date_created": "2025-09-27T19:54:52.000",
    "date_modified": "2025-09-27T19:54:55.000",
    "request_status": "Pending",
    "responsible_agency": "Department of Sanitation",
    "final_address": "5425 Franklin Ave",
    "address_councildis": "D",
    "status": "Assigned to Contractor",
    "contractor": "IV Waste",
    "rowid": "1229503",
    "final_x": "3686677.74358",
    "final_y": "553114.630487",
    "longitude": "-90.05095777925624",
    "latitude": "30.014715020740915",
    "geocoded_column": {
      "latitude": "30.014715020740915",
      "longitude": "-90.05095777925624"
    }
  },
  {
    "service_request": "2025-1229502",
    "request_type": "Property Maintenance",
    "request_reason": "Property Maintenance",
    "date_created": "2025-09-27T19:50:17.000",
    "date_modified": "2025-09-27T19:50:18.000",
    "request_status": "Pending",
    "responsible_agency": "Department of Code Enforcement",
    "final_address": "710 N Carrollton Ave",
    "address_councildis": "A",
    "status": "Pending",
    "rowid": "1229502",
    "final_x": "3672733.29659",
    "final_y": "539957.811658",
    "longitude": "-90.09546463261647",
    "latitude": "29.978960092375473",
    "geocoded_column": {
      "latitude": "29.978960092375473",
      "longitude": "-90.09546463261647"
    }
  },
  {
    "service_request": "2025-1229500",
    "request_type": "Safety & Permits",
    "request_reason": "Licenses & Permits",
    "date_created": "2025-09-27T19:40:12.000",
    "date_modified": "2025-09-27T19:40:13.000",
    "request_status": "Pending",
    "responsible_agency": "Safety and Permits",
    "final_address": "1040 Robert St",
    "address_councildis": "B",
    "status": "Pending",
    "rowid": "1229500",
    "final_x": "3668620.1401",
    "final_y": "519289.711479",
    "longitude": "-90.10915300423454",
    "latitude": "29.922251110165536",
    "geocoded_column": {
      "latitude": "29.922251110165536",
      "longitude": "-90.10915300423454"
    }
  },
  {
    "service_request": "2025-1229499",
    "request_type": "Road Striping",
    "request_reason": "Crosswalks",
    "date_created": "2025-09-27T19:37:34.000",
    "date_modified": "2025-09-27T19:37:35.000",
    "request_status": "Pending",
    "responsible_agency": "Department of Public Works",
    "final_address": "400 BLK N Norman C Francis Pkwy",
    "address_councildis": "A",
    "status": "Pending",
    "rowid": "1229499",
    "final_x": "3673919.1869",
    "final_y": "537813.97042",
    "longitude": "-90.09179249734541",
    "latitude": "29.97302997954601",
    "geocoded_column": {
      "latitude": "29.97302997954601",
      "longitude": "-90.09179249734541"
    }
  },
  {
    "service_request": "2025-1229498",
    "request_type": "Parks & Parkways",
    "request_reason": "Park Maintenance/Clean Up",
    "date_created": "2025-09-27T19:34:51.000",
    "date_modified": "2025-09-27T19:34:53.000",
    "request_status": "Pending",
    "responsible_agency": "Department of Parks & Parkway",
    "final_address": "2300 N Peters St",
    "address_councildis": "C",
    "status": "Pending",
    "rowid": "1229498",
    "final_x": "3685783.80777",
    "final_y": "533697.841349",
    "longitude": "-90.0544668744347",
    "latitude": "29.961353235906742",
    "geocoded_column": {
      "latitude": "29.961353235906742",
      "longitude": "-90.0544668744347"
    }
  },
  {
    "service_request": "2025-1229497",
    "request_type": "Street and Traffic Signs",
    "request_reason": "Additional Signage Request",
    "date_created": "2025-09-27T19:30:59.000",
    "date_modified": "2025-09-27T19:31:01.000",
    "request_status": "Pending",
    "responsible_agency": "Department of Public Works",
    "final_address": "1111 Poland Ave",
    "address_councildis": "D",
    "status": "Pending",
    "rowid": "1229497",
    "final_x": "3693198.2847",
    "final_y": "535193.421126",
    "longitude": "-90.03099967493971",
    "latitude": "29.965235929674588",
    "geocoded_column": {
      "latitude": "29.965235929674588",
      "longitude": "-90.03099967493971"
    }
  },
  {
    "service_request": "2025-1229496",
    "request_type": "Property Maintenance",
    "request_reason": "Property Maintenance",
    "date_created": "2025-09-27T18:02:25.000",
    "date_modified": "2025-09-27T18:02:27.000",
    "request_status": "Pending",
    "responsible_agency": "Department of Code Enforcement",
    "final_address": "3570 Bacchus Dr",
    "address_councildis": "C",
    "status": "Pending",
    "rowid": "1229496",
    "final_x": "3710173.78264",
    "final_y": "517433.15647",
    "longitude": "-89.97805582137482",
    "latitude": "29.915860130247886",
    "geocoded_column": {
      "latitude": "29.915860130247886",
      "longitude": "-89.97805582137482"
    }
  },
  {
    "service_request": "2025-1229495",
    "request_type": "Roads and Streets",
    "request_reason": "Street Subsidence (Sinking)",
    "date_created": "2025-09-27T17:55:56.000",
    "date_modified": "2025-09-27T17:55:58.000",
    "request_status": "Pending",
    "responsible_agency": "Sewerage & Water Board",
    "final_address": "990 Harrison Ave",
    "address_councildis": "A",
    "status": "Pending",
    "rowid": "1229495",
    "final_x": "3670687.81134",
    "final_y": "548861.697171",
    "longitude": "-90.10162278001488",
    "latitude": "30.003503313364025",
    "geocoded_column": {
      "latitude": "30.003503313364025",
      "longitude": "-90.10162278001488"
    }
  },
  {
    "service_request": "2025-1229494",
    "request_type": "Trash/Recycling",
    "request_reason": "Order Trash Cart",
    "date_created": "2025-09-27T17:42:32.000",
    "date_modified": "2025-09-27T17:42:34.000",
    "request_status": "Pending",
    "responsible_agency": "Department of Sanitation",
    "final_address": "5651 Pembrook Dr",
    "address_councildis": "C",
    "status": "Assigned to Contractor",
    "contractor": "Richards Disposal",
    "rowid": "1229494",
    "final_x": "3704583.97425",
    "final_y": "520833.765625",
    "longitude": "-89.99557396209727",
    "latitude": "29.92539123985479",
    "geocoded_column": {
      "latitude": "29.92539123985479",
      "longitude": "-89.99557396209727"
    }
  },
  {
    "service_request": "2025-1229493",
    "request_type": "Streetlights",
    "request_reason": "Streetlight Outage/Malfunction",
    "date_created": "2025-09-27T17:29:59.000",
    "date_modified": "2025-09-27T17:30:02.000",
    "request_status": "Pending",
    "responsible_agency": "Department of Public Works",
    "final_address": "1503 De Battista Pl",
    "address_councildis": "C",
    "status": "Pending",
    "rowid": "1229493",
    "final_x": "3699717.75818",
    "final_y": "525657.375997",
    "longitude": "-90.01075923692801",
    "latitude": "29.93880981865351",
    "geocoded_column": {
      "latitude": "29.93880981865351",
      "longitude": "-90.01075923692801"
    }
  },
  {
    "service_request": "2025-1229492",
    "request_type": "Utility Poles",
    "request_reason": "Utility Pole Down",
    "date_created": "2025-09-27T17:19:05.000",
    "date_modified": "2025-09-27T17:19:08.000",
    "request_status": "Pending",
    "responsible_agency": "Utility Company Collective",
    "final_address": "2846 Allen St",
    "address_councildis": "D",
    "status": "Pending",
    "rowid": "1229492",
    "final_x": "3682197.06645",
    "final_y": "542790.168141",
    "longitude": "-90.06547547183365",
    "latitude": "29.98646356574015",
    "geocoded_column": {
      "latitude": "29.98646356574015",
      "longitude": "-90.06547547183365"
    }
  },
  {
    "service_request": "2025-1229491",
    "request_type": "Trash/Recycling",
    "request_reason": "Dead Animal Pick Up",
    "date_created": "2025-09-27T16:46:45.000",
    "date_modified": "2025-09-28T06:45:25.000",
    "case_close_date": "2025-09-28T01:45:23.000",
    "request_status": "Closed",
    "responsible_agency": "Department of Sanitation",
    "final_address": "921 Saint Roch Ave, New Orleans, Louisiana, 70117",
    "address_councildis": "C",
    "status": "Invalid Request",
    "contractor": "IV Waste",
    "contractor_action": "Invalid Request",
    "rowid": "1229491",
    "final_x": "3686566.54562",
    "final_y": "535902.209287",
    "longitude": "-90.05191728438338",
    "latitude": "29.967390438811478",
    "geocoded_column": {
      "latitude": "29.967390438811478",
      "longitude": "-90.05191728438338"
    }
  },
  {
    "service_request": "2025-1229490",
    "request_type": "Trash/Recycling",
    "request_reason": "Request a Large Item Pick Up",
    "date_created": "2025-09-27T15:55:12.000",
    "date_modified": "2025-09-27T15:55:14.000",
    "request_status": "Pending",
    "responsible_agency": "Department of Sanitation",
    "final_address": "831 St Philip St",
    "address_councildis": "C",
    "status": "Assigned to Contractor",
    "contractor": "IV Waste",
    "rowid": "1229490",
    "final_x": "3682754.39765",
    "final_y": "533741.835653",
    "longitude": "-90.0640316729459",
    "latitude": "29.961566826418196",
    "geocoded_column": {
      "latitude": "29.961566826418196",
      "longitude": "-90.0640316729459"
    }
  },
  {
    "service_request": "2025-1229489",
    "request_type": "Trash/Recycling",
    "request_reason": "Replace Trash Cart",
    "date_created": "2025-09-27T15:51:53.000",
    "date_modified": "2025-09-27T15:51:55.000",
    "request_status": "Pending",
    "responsible_agency": "Department of Sanitation",
    "final_address": "2035 Joseph St",
    "address_councildis": "A",
    "status": "Assigned to Contractor",
    "contractor": "IV Waste",
    "rowid": "1229489",
    "final_x": "3667266.17447",
    "final_y": "523732.355643",
    "longitude": "-90.11327761237604",
    "latitude": "29.934506677502434",
    "geocoded_column": {
      "latitude": "29.934506677502434",
      "longitude": "-90.11327761237604"
    }
  },
  {
    "service_request": "2025-1229488",
    "request_type": "Trash/Recycling",
    "request_reason": "Replace Trash Cart",
    "date_created": "2025-09-27T15:49:59.000",
    "date_modified": "2025-09-27T15:50:02.000",
    "request_status": "Pending",
    "responsible_agency": "Department of Sanitation",
    "final_address": "2244 N Miro St",
    "address_councildis": "D",
    "status": "Assigned to Contractor",
    "contractor": "IV Waste",
    "rowid": "1229488",
    "final_x": "3685179.87663",
    "final_y": "540359.992779",
    "longitude": "-90.05613948416435",
    "latitude": "29.979690353713124",
    "geocoded_column": {
      "latitude": "29.979690353713124",
      "longitude": "-90.05613948416435"
    }
  },
  {
    "service_request": "2025-1229487",
    "request_type": "Mosquito, Termite & Rodent Control",
    "request_reason": "Non-Rodent Complaint (Possums & Snakes)",
    "date_created": "2025-09-27T15:38:19.000",
    "date_modified": "2025-09-27T15:38:23.000",
    "request_status": "Pending",
    "responsible_agency": "Mosquito, Termite & Rodent Control Board",
    "final_address": "4600 Stephen Girard Ave",
    "address_councildis": "D",
    "status": "Pending",
    "rowid": "1229487",
    "final_x": "3691162.41852",
    "final_y": "550353.79394",
    "longitude": "-90.0368871284233",
    "latitude": "30.00698497284341",
    "geocoded_column": {
      "latitude": "30.00698497284341",
      "longitude": "-90.0368871284233"
    }
  },
  {
    "service_request": "2025-1229486",
    "request_type": "Streetlights",
    "request_reason": "Streetlight Outage/Malfunction",
    "date_created": "2025-09-27T15:32:02.000",
    "date_modified": "2025-09-27T15:32:04.000",
    "request_status": "Pending",
    "responsible_agency": "Department of Public Works",
    "final_address": "4922 Wright Rd",
    "address_councildis": "E",
    "status": "Pending",
    "rowid": "1229486",
    "final_x": "3716536.65605",
    "final_y": "557685.161307",
    "longitude": "-89.95644568746418",
    "latitude": "30.026329532399615",
    "geocoded_column": {
      "latitude": "30.026329532399615",
      "longitude": "-89.95644568746418"
    }
  },
  {
    "service_request": "2025-1229485",
    "request_type": "Trash/Recycling",
    "request_reason": "Request a Large Item Pick Up",
    "date_created": "2025-09-27T15:07:44.000",
    "date_modified": "2025-09-27T15:07:46.000",
    "request_status": "Pending",
    "responsible_agency": "Department of Sanitation",
    "final_address": "1520 Sixth St",
    "address_councildis": "B",
    "status": "Assigned to Contractor",
    "contractor": "IV Waste",
    "rowid": "1229485",
    "final_x": "3675645.86613",
    "final_y": "521943.643258",
    "longitude": "-90.08688452620085",
    "latitude": "29.929340302755303",
    "geocoded_column": {
      "latitude": "29.929340302755303",
      "longitude": "-90.08688452620085"
    }
  },
  {
    "service_request": "2025-1229484",
    "request_type": "Trash/Recycling",
    "request_reason": "Damaged Caused By Contractor",
    "date_created": "2025-09-27T15:05:40.000",
    "date_modified": "2025-09-27T15:05:42.000",
    "request_status": "Pending",
    "responsible_agency": "Department of Sanitation",
    "final_address": "928 Independence St",
    "address_councildis": "C",
    "status": "Assigned to Contractor",
    "contractor": "IV Waste",
    "rowid": "1229484",
    "final_x": "3690786.50275",
    "final_y": "534971.233222",
    "longitude": "-90.03862385832427",
    "latitude": "29.96470014320912",
    "geocoded_column": {
      "latitude": "29.96470014320912",
      "longitude": "-90.03862385832427"
    }
  },
  {
    "service_request": "2025-1229483",
    "request_type": "Trash/Recycling",
    "request_reason": "Request a Large Item Pick Up",
    "date_created": "2025-09-27T14:56:56.000",
    "date_modified": "2025-09-27T14:56:58.000",
    "request_status": "Pending",
    "responsible_agency": "Department of Sanitation",
    "final_address": "2018 Shalett St",
    "address_councildis": "C",
    "status": "Assigned to Contractor",
    "contractor": "Richards Disposal",
    "rowid": "1229483",
    "final_x": "3694255.69603",
    "final_y": "523034.714683",
    "longitude": "-90.02809781765497",
    "latitude": "29.931770621170113",
    "geocoded_column": {
      "latitude": "29.931770621170113",
      "longitude": "-90.02809781765497"
    }
  },
  {
    "service_request": "2025-1229482",
    "request_type": "Roads and Streets",
    "request_reason": "Abandoned Service Cut",
    "date_created": "2025-09-27T14:47:40.000",
    "date_modified": "2025-09-27T14:47:41.000",
    "request_status": "Pending",
    "responsible_agency": "Department of Public Works",
    "final_address": "5017 Chestnut St",
    "address_councildis": "B",
    "status": "Pending",
    "rowid": "1229482",
    "final_x": "3668517.54702",
    "final_y": "519370.501623",
    "longitude": "-90.10947412553334",
    "latitude": "29.922476270966378",
    "geocoded_column": {
      "latitude": "29.922476270966378",
      "longitude": "-90.10947412553334"
    }
  },
  {
    "service_request": "2025-1229481",
    "request_type": "Drainage",
    "request_reason": "Catch Basin Frame and Cover Missing or Damaged",
    "date_created": "2025-09-27T14:37:49.000",
    "date_modified": "2025-09-27T14:37:51.000",
    "request_status": "Pending",
    "responsible_agency": "Sewerage & Water Board",
    "final_address": "6036 Constance St",
    "address_councildis": "A",
    "status": "Pending",
    "rowid": "1229481",
    "final_x": "3664284.25376",
    "final_y": "518946.657015",
    "longitude": "-90.12285111295175",
    "latitude": "29.921434479664406",
    "geocoded_column": {
      "latitude": "29.921434479664406",
      "longitude": "-90.12285111295175"
    }
  },
  {
    "service_request": "2025-1229480",
    "request_type": "Street and Traffic Signs",
    "request_reason": "Street Name Sign Damaged or Missing",
    "date_created": "2025-09-27T14:32:22.000",
    "date_modified": "2025-09-27T14:32:23.000",
    "request_status": "Pending",
    "responsible_agency": "Department of Public Works",
    "final_address": "705 Pine St",
    "address_councildis": "A",
    "status": "Pending",
    "rowid": "1229480",
    "final_x": "3663040.27987",
    "final_y": "525276.135741",
    "longitude": "-90.1265673955334",
    "latitude": "29.938874631426202",
    "geocoded_column": {
      "latitude": "29.938874631426202",
      "longitude": "-90.1265673955334"
    }
  },
  {
    "service_request": "2025-1229479",
    "request_type": "Street and Traffic Signs",
    "request_reason": "Traffic or Parking Sign Damaged or Missing",
    "date_created": "2025-09-27T14:30:00.000",
    "date_modified": "2025-09-27T14:30:02.000",
    "request_status": "Pending",
    "responsible_agency": "Department of Public Works",
    "final_address": "705 Pine St",
    "address_councildis": "A",
    "status": "Pending",
    "rowid": "1229479",
    "final_x": "3663040.27987",
    "final_y": "525276.135741",
    "longitude": "-90.1265673955334",
    "latitude": "29.938874631426202",
    "geocoded_column": {
      "latitude": "29.938874631426202",
      "longitude": "-90.1265673955334"
    }
  },
  {
    "service_request": "2025-1229478",
    "request_type": "Property Maintenance",
    "request_reason": "Property Maintenance",
    "date_created": "2025-09-27T14:14:05.000",
    "date_modified": "2025-09-27T14:14:06.000",
    "request_status": "Pending",
    "responsible_agency": "Department of Code Enforcement",
    "final_address": "2432 Delachaise St",
    "address_councildis": "B",
    "status": "Pending",
    "rowid": "1229478",
    "final_x": "3672559.0722",
    "final_y": "524225.258812",
    "longitude": "-90.09655123245986",
    "latitude": "29.935705976592367",
    "geocoded_column": {
      "latitude": "29.935705976592367",
      "longitude": "-90.09655123245986"
    }
  },
  {
    "service_request": "2025-1229477",
    "request_type": "Property Maintenance",
    "request_reason": "Property Maintenance",
    "date_created": "2025-09-27T14:09:15.000",
    "date_modified": "2025-09-27T14:09:18.000",
    "request_status": "Pending",
    "responsible_agency": "Department of Code Enforcement",
    "final_address": "2121 Chartres St",
    "address_councildis": "C",
    "status": "Pending",
    "rowid": "1229477",
    "final_x": "3684978.41941",
    "final_y": "534526.877573",
    "longitude": "-90.05698098429305",
    "latitude": "29.963657491562515",
    "geocoded_column": {
      "latitude": "29.963657491562515",
      "longitude": "-90.05698098429305"
    }
  },
  {
    "service_request": "2025-1229476",
    "request_type": "Utility Poles",
    "request_reason": "Utility Pole Leaning",
    "date_created": "2025-09-27T13:52:15.000",
    "date_modified": "2025-09-27T13:52:18.000",
    "request_status": "Pending",
    "responsible_agency": "Utility Company Collective",
    "final_address": "7525 Woodbine Dr",
    "address_councildis": "E",
    "status": "Pending",
    "rowid": "1229476",
    "final_x": "3702114.9434",
    "final_y": "561117.848158",
    "longitude": "-90.00189024555596",
    "latitude": "30.036236704649273",
    "geocoded_column": {
      "latitude": "30.036236704649273",
      "longitude": "-90.00189024555596"
    }
  },
  {
    "service_request": "2025-1229475",
    "request_type": "Trash/Recycling",
    "request_reason": "Missed Trash Pick-Up",
    "date_created": "2025-09-27T12:54:21.000",
    "date_modified": "2025-09-27T13:08:49.000",
    "case_close_date": "2025-09-27T08:08:47.000",
    "request_status": "Closed",
    "responsible_agency": "Department of Sanitation",
    "final_address": "4708 Lafon Dr",
    "address_councildis": "E",
    "status": "Assigned to Contractor",
    "contractor": "Waste Pro",
    "contractor_action": "Invalid Pick-Up",
    "rowid": "1229475",
    "final_x": "3701097.90634",
    "final_y": "553967.754456",
    "longitude": "-90.00536613232342",
    "latitude": "30.016609156535495",
    "geocoded_column": {
      "latitude": "30.016609156535495",
      "longitude": "-90.00536613232342"
    }
  },
  {
    "service_request": "2025-1229474",
    "request_type": "Parks & Parkways",
    "request_reason": "Request Tree Service (Right of Way/Public Property)",
    "date_created": "2025-09-27T12:42:43.000",
    "date_modified": "2025-09-27T12:42:45.000",
    "request_status": "Pending",
    "responsible_agency": "Department of Parks & Parkway",
    "final_address": "1508 Pine St",
    "address_councildis": "A",
    "status": "Pending",
    "rowid": "1229474",
    "final_x": "3664526.94906",
    "final_y": "527665.594047",
    "longitude": "-90.12179402746928",
    "latitude": "29.945401741002946",
    "geocoded_column": {
      "latitude": "29.945401741002946",
      "longitude": "-90.12179402746928"
    }
  },
  {
    "service_request": "2025-1229473",
    "request_type": "Trash/Recycling",
    "request_reason": "Request a Large Item Pick Up",
    "date_created": "2025-09-27T12:00:29.000",
    "date_modified": "2025-09-27T12:00:31.000",
    "request_status": "Pending",
    "responsible_agency": "Department of Sanitation",
    "final_address": "1622 Foy St",
    "address_councildis": "D",
    "status": "Assigned to Contractor",
    "contractor": "IV Waste",
    "rowid": "1229473",
    "final_x": "3679840.13346",
    "final_y": "546595.652945",
    "longitude": "-90.07278789258105",
    "latitude": "29.99699880688323",
    "geocoded_column": {
      "latitude": "29.99699880688323",
      "longitude": "-90.07278789258105"
    }
  },
  {
    "service_request": "2025-1229472",
    "request_type": "New Orleans Recreation Development Commission (NORDC)",
    "request_reason": "Facilities and Parks Maintenance/Clean Up",
    "date_created": "2025-09-27T11:39:58.000",
    "date_modified": "2025-09-27T11:40:01.000",
    "request_status": "Pending",
    "responsible_agency": "New Orleans Recreation Development Commission",
    "final_address": "3301 Royal St",
    "address_councildis": "C",
    "status": "Pending",
    "rowid": "1229472",
    "final_x": "3689507.60585",
    "final_y": "534299.647045",
    "longitude": "-90.04268640237082",
    "latitude": "29.962893187662416",
    "geocoded_column": {
      "latitude": "29.962893187662416",
      "longitude": "-90.04268640237082"
    }
  },
  {
    "service_request": "2025-1229471",
    "request_type": "General Services",
    "request_reason": "General Service Request",
    "date_created": "2025-09-27T11:36:00.000",
    "date_modified": "2025-09-27T11:36:02.000",
    "request_status": "Pending",
    "responsible_agency": "Orleans Parish Communication District",
    "final_address": "2001 Magazine St",
    "address_councildis": "B",
    "status": "Pending",
    "rowid": "1229471",
    "final_x": "3679455.35938",
    "final_y": "522592.635514",
    "longitude": "-90.07483616931862",
    "latitude": "29.931010323102342",
    "geocoded_column": {
      "latitude": "29.931010323102342",
      "longitude": "-90.07483616931862"
    }
  },
  {
    "service_request": "2025-1229470",
    "request_type": "Trash/Recycling",
    "request_reason": "Order Trash Cart",
    "date_created": "2025-09-27T11:22:44.000",
    "date_modified": "2025-09-27T11:22:46.000",
    "request_status": "Pending",
    "responsible_agency": "Department of Sanitation",
    "final_address": "6531 Dorchester St",
    "address_councildis": "E",
    "status": "Assigned to Contractor",
    "contractor": "Waste Pro",
    "rowid": "1229470",
    "final_x": "3697611.36599",
    "final_y": "558913.830556",
    "longitude": "-90.01620241828387",
    "latitude": "30.03031962585958",
    "geocoded_column": {
      "latitude": "30.03031962585958",
      "longitude": "-90.01620241828387"
    }
  },
  {
    "service_request": "2025-1229469",
    "request_type": "Abandoned Vehicles",
    "request_reason": "Abandoned/Junk Vehicles",
    "date_created": "2025-09-27T11:20:03.000",
    "date_modified": "2025-09-27T11:21:29.000",
    "request_status": "Pending",
    "responsible_agency": "Department of Public Works",
    "final_address": "4749 Conti St",
    "address_councildis": "A",
    "status": "Inspected",
    "rowid": "1229469",
    "final_x": "3669725.87015",
    "final_y": "541055.877388",
    "longitude": "-90.10492608241798",
    "latitude": "29.982068393313487",
    "geocoded_column": {
      "latitude": "29.982068393313487",
      "longitude": "-90.10492608241798"
    }
  },
  {
    "service_request": "2025-1229468",
    "request_type": "Abandoned Vehicles",
    "request_reason": "Abandoned/Junk Vehicles",
    "date_created": "2025-09-27T11:07:21.000",
    "date_modified": "2025-09-27T11:08:10.000",
    "request_status": "Pending",
    "responsible_agency": "Department of Public Works",
    "final_address": "2207 S Robertson St",
    "address_councildis": "B",
    "status": "Inspected",
    "rowid": "1229468",
    "final_x": "3675331.78888",
    "final_y": "526528.644542",
    "longitude": "-90.08771866714545",
    "latitude": "29.941956949791674",
    "geocoded_column": {
      "latitude": "29.941956949791674",
      "longitude": "-90.08771866714545"
    }
  },
  {
    "service_request": "2025-1229467",
    "request_type": "Streetlights",
    "request_reason": "Streetlight Outage/Malfunction",
    "date_created": "2025-09-27T10:58:46.000",
    "date_modified": "2025-09-27T10:58:48.000",
    "request_status": "Pending",
    "responsible_agency": "Department of Public Works",
    "final_address": "15 Neron Pl",
    "address_councildis": "A",
    "status": "Pending",
    "rowid": "1229467",
    "final_x": "3664971.9529",
    "final_y": "530921.682178",
    "longitude": "-90.12028016613827",
    "latitude": "29.954341985133834",
    "geocoded_column": {
      "latitude": "29.954341985133834",
      "longitude": "-90.12028016613827"
    }
  },
  {
    "service_request": "2025-1229466",
    "request_type": "Trash/Recycling",
    "request_reason": "Order Recycling Cart",
    "date_created": "2025-09-27T10:51:25.000",
    "date_modified": "2025-09-27T10:51:27.000",
    "request_status": "Pending",
    "responsible_agency": "Department of Sanitation",
    "final_address": "6114 General Diaz St",
    "address_councildis": "A",
    "status": "Pending",
    "rowid": "1229466",
    "final_x": "3669486.10196",
    "final_y": "547978.307346",
    "longitude": "-90.10544908880718",
    "latitude": "30.001109763062928",
    "geocoded_column": {
      "latitude": "30.001109763062928",
      "longitude": "-90.10544908880718"
    }
  },
  {
    "service_request": "2025-1229465",
    "request_type": "Streetlights",
    "request_reason": "Streetlight Outage/Malfunction",
    "date_created": "2025-09-27T10:45:40.000",
    "date_modified": "2025-09-27T10:45:42.000",
    "request_status": "Pending",
    "responsible_agency": "Department of Public Works",
    "final_address": "1612 Gentilly Blvd",
    "address_councildis": "D",
    "status": "Pending",
    "rowid": "1229465",
    "final_x": "3678506.73026",
    "final_y": "540752.866443",
    "longitude": "-90.07720238889529",
    "latitude": "29.980973455182728",
    "geocoded_column": {
      "latitude": "29.980973455182728",
      "longitude": "-90.07720238889529"
    }
  },
  {
    "service_request": "2025-1229464",
    "request_type": "Trash/Recycling",
    "request_reason": "Request a Large Item Pick Up",
    "date_created": "2025-09-27T10:39:17.000",
    "date_modified": "2025-09-27T10:39:19.000",
    "request_status": "Pending",
    "responsible_agency": "Department of Sanitation",
    "final_address": "1511 Charbonnet St",
    "address_councildis": "E",
    "status": "Assigned to Contractor",
    "contractor": "Waste Pro",
    "rowid": "1229464",
    "final_x": "3699079.28868",
    "final_y": "535179.338886",
    "longitude": "-90.01242839650976",
    "latitude": "29.96501210562088",
    "geocoded_column": {
      "latitude": "29.96501210562088",
      "longitude": "-90.01242839650976"
    }
  },
  {
    "service_request": "2025-1229463",
    "request_type": "General Services",
    "request_reason": "General Service Request",
    "date_created": "2025-09-27T09:59:19.000",
    "date_modified": "2025-09-27T09:59:22.000",
    "request_status": "Pending",
    "responsible_agency": "Orleans Parish Communication District",
    "final_address": "135 S Pierce St",
    "address_councildis": "A",
    "status": "Pending",
    "rowid": "1229463",
    "final_x": "3671211.61729",
    "final_y": "537795.03092",
    "longitude": "-90.100344193749",
    "latitude": "29.97305829137467",
    "geocoded_column": {
      "latitude": "29.97305829137467",
      "longitude": "-90.100344193749"
    }
  },
  {
    "service_request": "2025-1229462",
    "request_type": "Abandoned Vehicles",
    "request_reason": "Abandoned/Junk Vehicles",
    "date_created": "2025-09-27T09:46:18.000",
    "date_modified": "2025-09-27T09:46:55.000",
    "request_status": "Pending",
    "responsible_agency": "Department of Public Works",
    "final_address": "500 N Lopez St",
    "address_councildis": "A",
    "status": "Inspected",
    "rowid": "1229462",
    "final_x": "3674837.21845",
    "final_y": "537452.584968",
    "longitude": "-90.08890556630871",
    "latitude": "29.97200890956814",
    "geocoded_column": {
      "latitude": "29.97200890956814",
      "longitude": "-90.08890556630871"
    }
  },
  {
    "service_request": "2025-1229461",
    "request_type": "Property Maintenance",
    "request_reason": "Property Maintenance",
    "date_created": "2025-09-27T09:42:17.000",
    "date_modified": "2025-09-27T09:42:19.000",
    "request_status": "Pending",
    "responsible_agency": "Department of Code Enforcement",
    "final_address": "5101 Perlita St",
    "address_councildis": "D",
    "status": "Pending",
    "rowid": "1229461",
    "final_x": "3678658.38222",
    "final_y": "551023.448917",
    "longitude": "-90.0763675535134",
    "latitude": "30.00920936373124",
    "geocoded_column": {
      "latitude": "30.00920936373124",
      "longitude": "-90.0763675535134"
    }
  },
  {
    "service_request": "2025-1229460",
    "request_type": "Abandoned Vehicles",
    "request_reason": "Abandoned/Junk Vehicles",
    "date_created": "2025-09-27T09:36:25.000",
    "date_modified": "2025-09-27T09:37:03.000",
    "request_status": "Pending",
    "responsible_agency": "Department of Public Works",
    "final_address": "2200 BLK Brainard St",
    "address_councildis": "B",
    "status": "Inspected",
    "rowid": "1229460",
    "final_x": "3676980.84646",
    "final_y": "524079.728531",
    "longitude": "-90.08259663544442",
    "latitude": "29.935173841387464",
    "geocoded_column": {
      "latitude": "29.935173841387464",
      "longitude": "-90.08259663544442"
    }
  },
  {
    "service_request": "2025-1229459",
    "request_type": "Abandoned Vehicles",
    "request_reason": "Abandoned/Junk Vehicles",
    "date_created": "2025-09-27T09:23:08.000",
    "date_modified": "2025-09-27T09:23:45.000",
    "request_status": "Pending",
    "responsible_agency": "Department of Public Works",
    "final_address": "1900 BLK Felicity St",
    "address_councildis": "B",
    "status": "Inspected",
    "rowid": "1229459",
    "final_x": "3677427.13559",
    "final_y": "525627.395711",
    "longitude": "-90.08113430618594",
    "latitude": "29.93941601475298",
    "geocoded_column": {
      "latitude": "29.93941601475298",
      "longitude": "-90.08113430618594"
    }
  },
  {
    "service_request": "2025-1229458",
    "request_type": "Trash/Recycling",
    "request_reason": "Order Recycling Cart",
    "date_created": "2025-09-27T09:16:35.000",
    "date_modified": "2025-09-27T09:16:39.000",
    "request_status": "Pending",
    "responsible_agency": "Department of Sanitation",
    "final_address": "1032 Independence St",
    "address_councildis": "C",
    "status": "Pending",
    "rowid": "1229458",
    "final_x": "3690877.17961",
    "final_y": "535343.50567",
    "longitude": "-90.03832422153448",
    "latitude": "29.965720944307936",
    "geocoded_column": {
      "latitude": "29.965720944307936",
      "longitude": "-90.03832422153448"
    }
  },
  {
    "service_request": "2025-1229457",
    "request_type": "Trash/Recycling",
    "request_reason": "Request a Large Item Pick Up",
    "date_created": "2025-09-27T08:51:42.000",
    "date_modified": "2025-09-27T08:51:43.000",
    "request_status": "Pending",
    "responsible_agency": "Department of Sanitation",
    "final_address": "246 West Robert E Lee Blvd",
    "address_councildis": "A",
    "status": "Assigned to Contractor",
    "contractor": "IV Waste",
    "rowid": "1229457",
    "final_x": "3665796.91277",
    "final_y": "554857.013144",
    "longitude": "-90.11687289588826",
    "latitude": "30.020131992966803",
    "geocoded_column": {
      "latitude": "30.020131992966803",
      "longitude": "-90.11687289588826"
    }
  },
  {
    "service_request": "2025-1229456",
    "request_type": "Abandoned Vehicles",
    "request_reason": "Abandoned/Junk Vehicles",
    "date_created": "2025-09-27T08:26:23.000",
    "date_modified": "2025-09-27T08:29:16.000",
    "request_status": "Pending",
    "responsible_agency": "Department of Public Works",
    "final_address": "3310 Marigny St",
    "address_councildis": "D",
    "status": "Inspected",
    "rowid": "1229456",
    "final_x": "3684685.80572",
    "final_y": "544949.418511",
    "longitude": "-90.0575385656293",
    "latitude": "29.992324783814325",
    "geocoded_column": {
      "latitude": "29.992324783814325",
      "longitude": "-90.0575385656293"
    }
  },
  {
    "service_request": "2025-1229455",
    "request_type": "Streetlights",
    "request_reason": "Streetlight Outage/Malfunction",
    "date_created": "2025-09-27T07:42:51.000",
    "date_modified": "2025-09-27T07:42:52.000",
    "request_status": "Pending",
    "responsible_agency": "Department of Public Works",
    "final_address": "7605 S Claiborne Ave",
    "address_councildis": "A",
    "status": "Pending",
    "rowid": "1229455",
    "final_x": "3666098.4201",
    "final_y": "530536.01325",
    "longitude": "-90.1167361455101",
    "latitude": "29.953248682176564",
    "geocoded_column": {
      "latitude": "29.953248682176564",
      "longitude": "-90.1167361455101"
    }
  },
  {
    "service_request": "2025-1229454",
    "request_type": "Abandoned Vehicles",
    "request_reason": "Abandoned/Junk Vehicles",
    "date_created": "2025-09-27T07:37:14.000",
    "date_modified": "2025-09-27T07:37:15.000",
    "request_status": "Pending",
    "responsible_agency": "Department of Public Works",
    "final_address": "2400 Lowerline St",
    "address_councildis": "A",
    "status": "Pending",
    "rowid": "1229454",
    "final_x": "3666135.90849",
    "final_y": "530555.308674",
    "longitude": "-90.11661712592573",
    "latitude": "29.95330064379708",
    "geocoded_column": {
      "latitude": "29.95330064379708",
      "longitude": "-90.11661712592573"
    }
  },
  {
    "service_request": "2025-1229453",
    "request_type": "Safety & Permits",
    "request_reason": "Zoning Enforcement",
    "date_created": "2025-09-27T07:16:57.000",
    "date_modified": "2025-09-27T07:16:59.000",
    "request_status": "Pending",
    "responsible_agency": "Safety and Permits",
    "final_address": "7901 Crowder Blvd Ste C",
    "address_councildis": "E",
    "status": "Pending",
    "rowid": "1229453",
    "final_x": "3703309.10666",
    "final_y": "562725.421024",
    "longitude": "-89.99805728194538",
    "latitude": "30.04061869136753",
    "geocoded_column": {
      "latitude": "30.04061869136753",
      "longitude": "-89.99805728194538"
    }
  },
  {
    "service_request": "2025-1229452",
    "request_type": "Streetlights",
    "request_reason": "Streetlight Outage/Malfunction",
    "date_created": "2025-09-27T06:49:54.000",
    "date_modified": "2025-09-27T06:49:56.000",
    "request_status": "Pending",
    "responsible_agency": "Department of Public Works",
    "final_address": "1309 Octavia St",
    "address_councildis": "A",
    "status": "Pending",
    "rowid": "1229452",
    "final_x": "3666892.33178",
    "final_y": "520700.564921",
    "longitude": "-90.1145596342798",
    "latitude": "29.92618115622597",
    "geocoded_column": {
      "latitude": "29.92618115622597",
      "longitude": "-90.1145596342798"
    }
  },
  {
    "service_request": "2025-1229451",
    "request_type": "Streetlights",
    "request_reason": "Streetlight Knocked Down/Leaning",
    "date_created": "2025-09-27T06:16:11.000",
    "date_modified": "2025-09-27T06:16:13.000",
    "request_status": "Pending",
    "responsible_agency": "Department of Public Works",
    "final_address": "0 BLK Flowerdale Ct",
    "address_councildis": "A",
    "status": "Pending",
    "rowid": "1229451",
    "final_x": "3673508.34159",
    "final_y": "541187.883947",
    "longitude": "-90.09297468474985",
    "latitude": "29.982319324619002",
    "geocoded_column": {
      "latitude": "29.982319324619002",
      "longitude": "-90.09297468474985"
    }
  },
  {
    "service_request": "2025-1229450",
    "request_type": "General Services",
    "request_reason": "General Service Request",
    "date_created": "2025-09-27T02:52:00.000",
    "date_modified": "2025-09-27T02:52:02.000",
    "request_status": "Pending",
    "responsible_agency": "Orleans Parish Communication District",
    "final_address": "0 BLK Acadiana Pl",
    "address_councildis": "E",
    "status": "Pending",
    "rowid": "1229450",
    "final_x": "3725131.4083",
    "final_y": "564393.680055",
    "longitude": "-89.92902788187175",
    "latitude": "30.04448842646984",
    "geocoded_column": {
      "latitude": "30.04448842646984",
      "longitude": "-89.92902788187175"
    }
  },
  {
    "service_request": "2025-1229449",
    "request_type": "Trash/Recycling",
    "request_reason": "Order Trash Cart",
    "date_created": "2025-09-27T02:10:05.000",
    "date_modified": "2025-09-27T02:10:08.000",
    "request_status": "Pending",
    "responsible_agency": "Department of Sanitation",
    "final_address": "3637 Third St",
    "address_councildis": "B",
    "status": "Assigned to Contractor",
    "contractor": "IV Waste",
    "rowid": "1229449",
    "final_x": "3672419.59867",
    "final_y": "529010.497536",
    "longitude": "-90.09682852903292",
    "latitude": "29.94886795898023",
    "geocoded_column": {
      "latitude": "29.94886795898023",
      "longitude": "-90.09682852903292"
    }
  },
  {
    "service_request": "2025-1229448",
    "request_type": "Street and Traffic Signs",
    "request_reason": "Street Name Sign Damaged or Missing",
    "date_created": "2025-09-27T01:37:56.000",
    "date_modified": "2025-09-27T01:37:58.000",
    "request_status": "Pending",
    "responsible_agency": "Department of Public Works",
    "final_address": "7511 Fieldston Rd",
    "address_councildis": "E",
    "status": "Pending",
    "rowid": "1229448",
    "final_x": "3700682.84522",
    "final_y": "560370.615646",
    "longitude": "-90.00644327240218",
    "latitude": "30.034227783607353",
    "geocoded_column": {
      "latitude": "30.034227783607353",
      "longitude": "-90.00644327240218"
    }
  },
  {
    "service_request": "2025-1229447",
    "request_type": "Streetlights",
    "request_reason": "Streetlight Outage/Malfunction",
    "date_created": "2025-09-26T22:40:02.000",
    "date_modified": "2025-09-26T22:40:05.000",
    "request_status": "Pending",
    "responsible_agency": "Department of Public Works",
    "final_address": "4130 N Rampart St",
    "address_councildis": "C",
    "status": "Pending",
    "rowid": "1229447",
    "final_x": "3692248.0255",
    "final_y": "534694.517062",
    "longitude": "-90.03401839752232",
    "latitude": "29.963893782155917",
    "geocoded_column": {
      "latitude": "29.963893782155917",
      "longitude": "-90.03401839752232"
    }
  },
  {
    "service_request": "2025-1229446",
    "request_type": "Trash/Recycling",
    "request_reason": "Illegal Dumping",
    "date_created": "2025-09-26T22:31:55.000",
    "date_modified": "2025-09-26T22:31:57.000",
    "request_status": "Pending",
    "responsible_agency": "Department of Sanitation",
    "final_address": "7300 BLK Shubrick Ave",
    "address_councildis": "E",
    "status": "Pending",
    "rowid": "1229446",
    "final_x": "3707163.71392",
    "final_y": "563022.982009",
    "longitude": "-89.9858644775611",
    "latitude": "30.041312793218925",
    "geocoded_column": {
      "latitude": "30.041312793218925",
      "longitude": "-89.9858644775611"
    }
  },
  {
    "service_request": "2025-1229445",
    "request_type": "Street and Traffic Signs",
    "request_reason": "Crosswalk Signage Damaged or Missing",
    "date_created": "2025-09-26T22:27:40.000",
    "date_modified": "2025-09-26T22:27:43.000",
    "request_status": "Pending",
    "responsible_agency": "Department of Public Works",
    "final_address": "7600 BLK Read Blvd",
    "address_councildis": "E",
    "status": "Pending",
    "rowid": "1229445",
    "final_x": "3708386.86173",
    "final_y": "564678.45278",
    "longitude": "-89.98193722431273",
    "latitude": "30.045825069982655",
    "geocoded_column": {
      "latitude": "30.045825069982655",
      "longitude": "-89.98193722431273"
    }
  },
  {
    "service_request": "2025-1229444",
    "request_type": "Street and Traffic Signs",
    "request_reason": "Street Name Sign Damaged or Missing",
    "date_created": "2025-09-26T22:19:53.000",
    "date_modified": "2025-09-26T22:19:55.000",
    "request_status": "Pending",
    "responsible_agency": "Department of Public Works",
    "final_address": "N JOHNSON ST & A P TUREAUD AVE",
    "address_councildis": "D",
    "status": "Pending",
    "rowid": "1229444",
    "final_x": "3681695.2",
    "final_y": "539451.38",
    "longitude": "-90.0671772091809",
    "latitude": "29.977298325281545",
    "geocoded_column": {
      "latitude": "29.977298325281545",
      "longitude": "-90.0671772091809"
    }
  },
  {
    "service_request": "2025-1229443",
    "request_type": "Street and Traffic Signs",
    "request_reason": "Street Name Sign Damaged or Missing",
    "date_created": "2025-09-26T22:17:47.000",
    "date_modified": "2025-09-26T22:17:49.000",
    "request_status": "Pending",
    "responsible_agency": "Department of Public Works",
    "final_address": "A P TUREAUD AVE & N TONTI ST",
    "address_councildis": "D",
    "status": "Pending",
    "rowid": "1229443",
    "final_x": "3681616.7",
    "final_y": "540479.08",
    "longitude": "-90.06738927758106",
    "latitude": "29.980126527218612",
    "geocoded_column": {
      "latitude": "29.980126527218612",
      "longitude": "-90.06738927758106"
    }
  },
  {
    "service_request": "2025-1229442",
    "request_type": "Street and Traffic Signs",
    "request_reason": "Street Name Sign Damaged or Missing",
    "date_created": "2025-09-26T22:15:58.000",
    "date_modified": "2025-09-26T22:15:59.000",
    "request_status": "Pending",
    "responsible_agency": "Department of Public Works",
    "final_address": "LAW ST & A P TUREAUD AVE",
    "address_councildis": "D",
    "status": "Pending",
    "rowid": "1229442",
    "final_x": "3681528.7",
    "final_y": "541583.58",
    "longitude": "-90.06762868433434",
    "latitude": "29.983166189314584",
    "geocoded_column": {
      "latitude": "29.983166189314584",
      "longitude": "-90.06762868433434"
    }
  },
  {
    "service_request": "2025-1229441",
    "request_type": "Street and Traffic Signs",
    "request_reason": "Street Name Sign Damaged or Missing",
    "date_created": "2025-09-26T22:15:08.000",
    "date_modified": "2025-09-26T22:15:10.000",
    "request_status": "Pending",
    "responsible_agency": "Department of Public Works",
    "final_address": "HOPE ST & A P TUREAUD AVE",
    "address_councildis": "D",
    "status": "Pending",
    "rowid": "1229441",
    "final_x": "3681499.5",
    "final_y": "541954.88",
    "longitude": "-90.06770795937447",
    "latitude": "29.98418802113504",
    "geocoded_column": {
      "latitude": "29.98418802113504",
      "longitude": "-90.06770795937447"
    }
  },
  {
    "service_request": "2025-1229440",
    "request_type": "Street and Traffic Signs",
    "request_reason": "Street Name Sign Damaged or Missing",
    "date_created": "2025-09-26T22:13:48.000",
    "date_modified": "2025-09-26T22:13:49.000",
    "request_status": "Pending",
    "responsible_agency": "Department of Public Works",
    "final_address": "INDUSTRY ST & N BROAD ST",
    "address_councildis": "D",
    "status": "Pending",
    "rowid": "1229440",
    "final_x": "3680950.9",
    "final_y": "542647.98",
    "longitude": "-90.06941659009438",
    "latitude": "29.98611045340619",
    "geocoded_column": {
      "latitude": "29.98611045340619",
      "longitude": "-90.06941659009438"
    }
  },
  {
    "service_request": "2025-1229439",
    "request_type": "Street and Traffic Signs",
    "request_reason": "Street Name Sign Damaged or Missing",
    "date_created": "2025-09-26T22:12:52.000",
    "date_modified": "2025-09-26T22:12:54.000",
    "request_status": "Pending",
    "responsible_agency": "Department of Public Works",
    "final_address": "PARIS AVE & DUELS ST & ST BERNARD AVE",
    "address_councildis": "D",
    "status": "Pending",
    "rowid": "1229439",
    "final_x": "3679971.2",
    "final_y": "542198.98",
    "longitude": "-90.07252668360488",
    "latitude": "29.984905538300925",
    "geocoded_column": {
      "latitude": "29.984905538300925",
      "longitude": "-90.07252668360488"
    }
  },
  {
    "service_request": "2025-1229438",
    "request_type": "Street and Traffic Signs",
    "request_reason": "Street Name Sign Damaged or Missing",
    "date_created": "2025-09-26T22:09:01.000",
    "date_modified": "2025-09-26T22:09:03.000",
    "request_status": "Pending",
    "responsible_agency": "Department of Public Works",
    "final_address": "PLEASURE ST & PARIS AVE",
    "address_councildis": "D",
    "status": "Pending",
    "rowid": "1229438",
    "final_x": "3679706.7",
    "final_y": "544771.08",
    "longitude": "-90.07327278548192",
    "latitude": "29.991985911223512",
    "geocoded_column": {
      "latitude": "29.991985911223512",
      "longitude": "-90.07327278548192"
    }
  },
  {
    "service_request": "2025-1229437",
    "request_type": "Street and Traffic Signs",
    "request_reason": "Street Name Sign Damaged or Missing",
    "date_created": "2025-09-26T22:07:06.000",
    "date_modified": "2025-09-26T22:07:07.000",
    "request_status": "Pending",
    "responsible_agency": "Department of Public Works",
    "final_address": "FOY ST & PARIS AVE",
    "address_councildis": "D",
    "status": "Pending",
    "rowid": "1229437",
    "final_x": "3679555.4",
    "final_y": "546609.68",
    "longitude": "-90.07368686517212",
    "latitude": "29.997045986149793",
    "geocoded_column": {
      "latitude": "29.997045986149793",
      "longitude": "-90.07368686517212"
    }
  },
  {
    "service_request": "2025-1229436",
    "request_type": "Street and Traffic Signs",
    "request_reason": "Street Name Sign Damaged or Missing",
    "date_created": "2025-09-26T22:04:47.000",
    "date_modified": "2025-09-26T22:04:50.000",
    "request_status": "Pending",
    "responsible_agency": "Department of Public Works",
    "final_address": "PAULA ST & PARIS AVE",
    "address_councildis": "D",
    "status": "Pending",
    "rowid": "1229436",
    "final_x": "3679340.4",
    "final_y": "549314.68",
    "longitude": "-90.07427214745245",
    "latitude": "30.004490271686795",
    "geocoded_column": {
      "latitude": "30.004490271686795",
      "longitude": "-90.07427214745245"
    }
  },
  {
    "service_request": "2025-1229435",
    "request_type": "Street and Traffic Signs",
    "request_reason": "Street Name Sign Damaged or Missing",
    "date_created": "2025-09-26T22:02:36.000",
    "date_modified": "2025-09-26T22:02:38.000",
    "request_status": "Pending",
    "responsible_agency": "Department of Public Works",
    "final_address": "MITHRA ST & PARIS AVE",
    "address_councildis": "D",
    "status": "Pending",
    "rowid": "1229435",
    "final_x": "3679101.7",
    "final_y": "552218.18",
    "longitude": "-90.07492550795656",
    "latitude": "30.01248106534277",
    "geocoded_column": {
      "latitude": "30.01248106534277",
      "longitude": "-90.07492550795656"
    }
  },
  {
    "service_request": "2025-1229434",
    "request_type": "Street and Traffic Signs",
    "request_reason": "Street Name Sign Damaged or Missing",
    "date_created": "2025-09-26T22:01:30.000",
    "date_modified": "2025-09-26T22:01:31.000",
    "request_status": "Pending",
    "responsible_agency": "Department of Public Works",
    "final_address": "ATHIS ST & PARIS AVE",
    "address_councildis": "D",
    "status": "Pending",
    "rowid": "1229434",
    "final_x": "3678980.5",
    "final_y": "553764.28",
    "longitude": "-90.07525479962321",
    "latitude": "30.016735941438007",
    "geocoded_column": {
      "latitude": "30.016735941438007",
      "longitude": "-90.07525479962321"
    }
  },
  {
    "service_request": "2025-1229433",
    "request_type": "Street and Traffic Signs",
    "request_reason": "Street Name Sign Damaged or Missing",
    "date_created": "2025-09-26T22:00:38.000",
    "date_modified": "2025-09-26T22:00:40.000",
    "request_status": "Pending",
    "responsible_agency": "Department of Public Works",
    "final_address": "BURBANK DR & PARIS AVE",
    "address_councildis": "D",
    "status": "Pending",
    "rowid": "1229433",
    "final_x": "3678932.0",
    "final_y": "554363.48",
    "longitude": "-90.07538725474053",
    "latitude": "30.018384988433816",
    "geocoded_column": {
      "latitude": "30.018384988433816",
      "longitude": "-90.07538725474053"
    }
  },
  {
    "service_request": "2025-1229432",
    "request_type": "Street and Traffic Signs",
    "request_reason": "Street Name Sign Damaged or Missing",
    "date_created": "2025-09-26T21:44:20.000",
    "date_modified": "2025-09-26T21:44:21.000",
    "request_status": "Pending",
    "responsible_agency": "Department of Public Works",
    "final_address": "PARIS AVE & CHURCHILL DR",
    "address_councildis": "D",
    "status": "Pending",
    "rowid": "1229432",
    "final_x": "3679524.4",
    "final_y": "547931.98",
    "longitude": "-90.07373887508083",
    "latitude": "30.000682778954154",
    "geocoded_column": {
      "latitude": "30.000682778954154",
      "longitude": "-90.07373887508083"
    }
  },
  {
    "service_request": "2025-1229431",
    "request_type": "Street and Traffic Signs",
    "request_reason": "Street Name Sign Damaged or Missing",
    "date_created": "2025-09-26T21:43:21.000",
    "date_modified": "2025-09-26T21:43:22.000",
    "request_status": "Pending",
    "responsible_agency": "Department of Public Works",
    "final_address": "MILTON ST & PARIS AVE",
    "address_councildis": "D",
    "status": "Pending",
    "rowid": "1229431",
    "final_x": "3679585.7",
    "final_y": "546241.58",
    "longitude": "-90.07360393271308",
    "latitude": "29.996032925501734",
    "geocoded_column": {
      "latitude": "29.996032925501734",
      "longitude": "-90.07360393271308"
    }
  },
  {
    "service_request": "2025-1229430",
    "request_type": "Street and Traffic Signs",
    "request_reason": "Street Name Sign Damaged or Missing",
    "date_created": "2025-09-26T21:42:15.000",
    "date_modified": "2025-09-26T21:42:17.000",
    "request_status": "Pending",
    "responsible_agency": "Department of Public Works",
    "final_address": "PARIS AVE & ST DENIS ST",
    "address_councildis": "D",
    "status": "Pending",
    "rowid": "1229430",
    "final_x": "3679685.2",
    "final_y": "545883.38",
    "longitude": "-90.07330206281812",
    "latitude": "29.995044993952305",
    "geocoded_column": {
      "latitude": "29.995044993952305",
      "longitude": "-90.07330206281812"
    }
  },
  {
    "service_request": "2025-1229429",
    "request_type": "Street and Traffic Signs",
    "request_reason": "Street Name Sign Damaged or Missing",
    "date_created": "2025-09-26T21:41:20.000",
    "date_modified": "2025-09-26T21:41:22.000",
    "request_status": "Pending",
    "responsible_agency": "Department of Public Works",
    "final_address": "PARIS AVE & SERE ST",
    "address_councildis": "D",
    "status": "Pending",
    "rowid": "1229429",
    "final_x": "3679717.3",
    "final_y": "545510.08",
    "longitude": "-90.07321363062758",
    "latitude": "29.994017580162737",
    "geocoded_column": {
      "latitude": "29.994017580162737",
      "longitude": "-90.07321363062758"
    }
  },
  {
    "service_request": "2025-1229428",
    "request_type": "Trash/Recycling",
    "request_reason": "Illegal Dumping",
    "date_created": "2025-09-26T21:06:09.000",
    "date_modified": "2025-09-26T21:06:11.000",
    "request_status": "Pending",
    "responsible_agency": "Department of Sanitation",
    "final_address": "13000 BLK Lincoln Beach Blvd",
    "address_councildis": "E",
    "status": "Pending",
    "rowid": "1229428",
    "final_x": "3715182.01284",
    "final_y": "571089.827424",
    "longitude": "-89.96021856809055",
    "latitude": "30.063231608747888",
    "geocoded_column": {
      "latitude": "30.063231608747888",
      "longitude": "-89.96021856809055"
    }
  },
  {
    "service_request": "2025-1229427",
    "request_type": "General Services",
    "request_reason": "General Service Request",
    "date_created": "2025-09-26T20:55:50.000",
    "date_modified": "2025-09-26T20:55:52.000",
    "request_status": "Pending",
    "responsible_agency": "Orleans Parish Communication District",
    "final_address": "3519 Republic St",
    "address_councildis": "D",
    "status": "Pending",
    "rowid": "1229427",
    "final_x": "3680519.45103",
    "final_y": "545372.028944",
    "longitude": "-90.07068455482127",
    "latitude": "29.99361370809165",
    "geocoded_column": {
      "latitude": "29.99361370809165",
      "longitude": "-90.07068455482127"
    }
  },
  {
    "service_request": "2025-1229426",
    "request_type": "Trash/Recycling",
    "request_reason": "Order Recycling Cart",
    "date_created": "2025-09-26T20:41:13.000",
    "date_modified": "2025-09-26T20:41:15.000",
    "request_status": "Pending",
    "responsible_agency": "Department of Sanitation",
    "final_address": "921 Mazant St",
    "address_councildis": "C",
    "status": "Pending",
    "rowid": "1229426",
    "final_x": "3691984.38377",
    "final_y": "534600.286277",
    "longitude": "-90.03485432207307",
    "latitude": "29.9636428981623",
    "geocoded_column": {
      "latitude": "29.9636428981623",
      "longitude": "-90.03485432207307"
    }
  },
  {
    "service_request": "2025-1229425",
    "request_type": "Streetlights",
    "request_reason": "Streetlight Outage/Malfunction",
    "date_created": "2025-09-26T19:43:35.000",
    "date_modified": "2025-09-26T19:43:37.000",
    "request_status": "Pending",
    "responsible_agency": "Department of Public Works",
    "final_address": "6332 General Haig St",
    "address_councildis": "A",
    "status": "Pending",
    "rowid": "1229425",
    "final_x": "3670671.99892",
    "final_y": "549377.968723",
    "longitude": "-90.10165520243415",
    "latitude": "30.004923346897353",
    "geocoded_column": {
      "latitude": "30.004923346897353",
      "longitude": "-90.10165520243415"
    }
  },
  {
    "service_request": "2025-1229424",
    "request_type": "Abandoned Vehicles",
    "request_reason": "Abandoned/Junk Vehicles",
    "date_created": "2025-09-26T18:58:03.000",
    "date_modified": "2025-09-26T18:58:05.000",
    "request_status": "Pending",
    "responsible_agency": "Department of Public Works",
    "final_address": "7042 Yorktown Dr",
    "address_councildis": "E",
    "status": "Pending",
    "rowid": "1229424",
    "final_x": "3706081.06948",
    "final_y": "560638.28611",
    "longitude": "-89.98937438781473",
    "latitude": "30.034790783453083",
    "geocoded_column": {
      "latitude": "30.034790783453083",
      "longitude": "-89.98937438781473"
    }
  },
  {
    "service_request": "2025-1229423",
    "request_type": "Property Maintenance",
    "request_reason": "Property Maintenance",
    "date_created": "2025-09-26T18:56:01.000",
    "date_modified": "2025-09-26T18:56:03.000",
    "request_status": "Pending",
    "responsible_agency": "Department of Code Enforcement",
    "final_address": "3575 Bacchus Dr",
    "address_councildis": "C",
    "status": "Pending",
    "rowid": "1229423",
    "final_x": "3710075.11281",
    "final_y": "517367.740725",
    "longitude": "-89.97836970005409",
    "latitude": "29.915683468420962",
    "geocoded_column": {
      "latitude": "29.915683468420962",
      "longitude": "-89.97836970005409"
    }
  },
  {
    "service_request": "2025-1229422",
    "request_type": "Trash/Recycling",
    "request_reason": "Replace Trash Cart",
    "date_created": "2025-09-26T18:27:18.000",
    "date_modified": "2025-09-26T18:27:21.000",
    "request_status": "Pending",
    "responsible_agency": "Department of Sanitation",
    "final_address": "6311 Fontainebleau Dr",
    "address_councildis": "B",
    "status": "Assigned to Contractor",
    "contractor": "IV Waste",
    "rowid": "1229422",
    "final_x": "3667919.07098",
    "final_y": "530129.577473",
    "longitude": "-90.11100098594193",
    "latitude": "29.952077837834565",
    "geocoded_column": {
      "latitude": "29.952077837834565",
      "longitude": "-90.11100098594193"
    }
  },
  {
    "service_request": "2025-1229421",
    "request_type": "Roads and Streets",
    "request_reason": "Street Subsidence (Sinking)",
    "date_created": "2025-09-26T17:41:24.000",
    "date_modified": "2025-09-26T17:41:25.000",
    "request_status": "Pending",
    "responsible_agency": "Sewerage & Water Board",
    "final_address": "1130 Third St",
    "address_councildis": "B",
    "status": "Pending",
    "rowid": "1229421",
    "final_x": "3677401.18536",
    "final_y": "521353.852345",
    "longitude": "-90.08136365249929",
    "latitude": "29.927665949682126",
    "geocoded_column": {
      "latitude": "29.927665949682126",
      "longitude": "-90.08136365249929"
    }
  },