[
  {
    "service_request": "2026-1264439",
    "request_type": "Property Maintenance",
    "request_reason": "Property Maintenance",
    "date_created": "2026-03-10T23:02:28.000",
    "date_modified": "2026-03-10T23:02:30.000",
    "request_status": "Pending",
    "responsible_agency": "Department of Code Enforcement",
    "final_address": "4455 Gawain Dr",
    "address_councildis": "E",
    "status": "Pending",
    "rowid": "1264439",
    "final_x": "3707233.62052",
    "final_y": "553920.405591",
    "longitude": "-89.98598181387648",
    "latitude": "30.016282013088194",
    "geocoded_column": {
      "latitude": "30.016282013088194",
      "longitude": "-89.98598181387648"
    }
  },
  {
    "service_request": "2026-1264438",
    "request_type": "Health Related Request",
    "request_reason": "Noise Ordinance Complaint",
    "date_created": "2026-03-10T22:34:26.000",
    "date_modified": "2026-03-10T22:34:27.000",
    "request_status": "Pending",
    "responsible_agency": "Health Department",
    "final_address": "801 Bourbon St, New Orleans, Louisiana, 70116",
    "address_councildis": "C",
    "status": "Pending",
    "rowid": "1264438",
    "final_x": "3682490.98735",
    "final_y": "533018.672772",
    "longitude": "-90.06488875731978",
    "latitude": "29.959586396383013",
    "geocoded_column": {
      "latitude": "29.959586396383013",
      "longitude": "-90.06488875731978"
    }
  },
  {
    "service_request": "2026-1264437",
    "request_type": "Health Related Request",
    "request_reason": "Noise Ordinance Complaint",
    "date_created": "2026-03-10T22:34:04.000",
    "date_modified": "2026-03-10T22:34:06.000",
    "request_status": "Pending",
    "responsible_agency": "Health Department",
    "final_address": "801 Bourbon St, New Orleans, Louisiana, 70116",
    "address_councildis": "C",
    "status": "Pending",
    "rowid": "1264437",
    "final_x": "3682490.98735",
    "final_y": "533018.672772",
    "longitude": "-90.06488875731978",
    "latitude": "29.959586396383013",
    "geocoded_column": {
      "latitude": "29.959586396383013",
      "longitude": "-90.06488875731978"
    }
  },
  {
    "service_request": "2026-1264436",
    "request_type": "Health Related Request",
    "request_reason": "Noise Ordinance Complaint",
    "date_created": "2026-03-10T22:33:44.000",
    "date_modified": "2026-03-10T22:33:45.000",
    "request_status": "Pending",
    "responsible_agency": "Health Department",
    "final_address": "801 Bourbon St, New Orleans, Louisiana, 70116",
    "address_councildis": "C",
    "status": "Pending",
    "rowid": "1264436",
    "final_x": "3682490.98735",
    "final_y": "533018.672772",
    "longitude": "-90.06488875731978",
    "latitude": "29.959586396383013",
    "geocoded_column": {
      "latitude": "29.959586396383013",
      "longitude": "-90.06488875731978"
    }
  },
  {
    "service_request": "2026-1264435",
    "request_type": "Health Related Request",
    "request_reason": "Noise Ordinance Complaint",
    "date_created": "2026-03-10T22:33:15.000",
    "date_modified": "2026-03-10T22:33:16.000",
    "request_status": "Pending",
    "responsible_agency": "Health Department",
    "final_address": "800 Bourbon St, New Orleans, Louisiana, 70116",
    "address_councildis": "C",
    "status": "Pending",
    "rowid": "1264435",
    "final_x": "3682553.51528",
    "final_y": "533013.631428",
    "longitude": "-90.06469148499534",
    "latitude": "29.95957063099051",
    "geocoded_column": {
      "latitude": "29.95957063099051",
      "longitude": "-90.06469148499534"
    }
  },
  {
    "service_request": "2026-1264434",
    "request_type": "Abandoned Vehicles",
    "request_reason": "Abandoned/Junk Vehicles",
    "date_created": "2026-03-10T22:32:56.000",
    "date_modified": "2026-03-10T22:32:57.000",
    "request_status": "Pending",
    "responsible_agency": "Department of Public Works",
    "final_address": "4659 Lancelot Dr",
    "address_councildis": "E",
    "status": "Pending",
    "rowid": "1264434",
    "final_x": "3707582.32292",
    "final_y": "554895.431448",
    "longitude": "-89.98484382119132",
    "latitude": "30.018951677972574",
    "geocoded_column": {
      "latitude": "30.018951677972574",
      "longitude": "-89.98484382119132"
    }
  },
  {
    "service_request": "2026-1264433",
    "request_type": "Healthy Homes",
    "request_reason": "Healthy Homes",
    "date_created": "2026-03-10T22:31:33.000",
    "date_modified": "2026-03-10T22:31:35.000",
    "request_status": "Pending",
    "responsible_agency": "Department of Code Enforcement",
    "final_address": "1401 St Andrew St",
    "address_councildis": "B",
    "status": "Pending",
    "rowid": "1264433",
    "final_x": "3678815.58011",
    "final_y": "523465.250683",
    "longitude": "-90.07682565870911",
    "latitude": "29.933429034383952",
    "geocoded_column": {
      "latitude": "29.933429034383952",
      "longitude": "-90.07682565870911"
    }
  },
  {
    "service_request": "2026-1264432",
    "request_type": "Trash/Recycling",
    "request_reason": "Replace Trash Cart",
    "date_created": "2026-03-10T22:10:34.000",
    "date_modified": "2026-03-10T22:10:36.000",
    "request_status": "Pending",
    "responsible_agency": "Department of Sanitation",
    "final_address": "3620 Rue Mignon",
    "address_councildis": "C",
    "status": "Assigned to Contractor",
    "contractor": "Richards Disposal",
    "rowid": "1264432",
    "final_x": "3703378.41111",
    "final_y": "517270.811381",
    "longitude": "-89.99951044240807",
    "latitude": "29.915632990983504",
    "geocoded_column": {
      "latitude": "29.915632990983504",
      "longitude": "-89.99951044240807"
    }
  },
  {
    "service_request": "2026-1264431",
    "request_type": "Property Maintenance",
    "request_reason": "Property Maintenance",
    "date_created": "2026-03-10T22:08:41.000",
    "date_modified": "2026-03-10T22:08:43.000",
    "request_status": "Pending",
    "responsible_agency": "Department of Code Enforcement",
    "final_address": "1816 Burdette St",
    "address_councildis": "A",
    "status": "Pending",
    "rowid": "1264431",
    "final_x": "3664284.19719",
    "final_y": "529320.130689",
    "longitude": "-90.12250527442846",
    "latitude": "29.94995823933573",
    "geocoded_column": {
      "latitude": "29.94995823933573",
      "longitude": "-90.12250527442846"
    }
  },
  {
    "service_request": "2026-1264430",
    "request_type": "Trash/Recycling",
    "request_reason": "Order Recycling Cart",
    "date_created": "2026-03-10T22:06:52.000",
    "date_modified": "2026-03-10T22:06:53.000",
    "request_status": "Pending",
    "responsible_agency": "Department of Sanitation",
    "final_address": "3620 Rue Mignon",
    "address_councildis": "C",
    "status": "Pending",
    "rowid": "1264430",
    "final_x": "3703378.41111",
    "final_y": "517270.811381",
    "longitude": "-89.99951044240807",
    "latitude": "29.915632990983504",
    "geocoded_column": {
      "latitude": "29.915632990983504",
      "longitude": "-89.99951044240807"
    }
  },
  {
    "service_request": "2026-1264429",
    "request_type": "Trash/Recycling",
    "request_reason": "Order Second Trash Cart",
    "date_created": "2026-03-10T22:05:32.000",
    "date_modified": "2026-03-10T22:05:34.000",
    "request_status": "Pending",
    "responsible_agency": "Department of Sanitation",
    "final_address": "3620 Rue Mignon",
    "address_councildis": "C",
    "status": "Assigned to Contractor",
    "contractor": "Richards Disposal",
    "rowid": "1264429",
    "final_x": "3703378.41111",
    "final_y": "517270.811381",
    "longitude": "-89.99951044240807",
    "latitude": "29.915632990983504",
    "geocoded_column": {
      "latitude": "29.915632990983504",
      "longitude": "-89.99951044240807"
    }
  },
  {
    "service_request": "2026-1264428",
    "request_type": "Roads and Streets",
    "request_reason": "Pothole",
    "date_created": "2026-03-10T22:03:45.000",
    "date_modified": "2026-03-10T22:03:46.000",
    "request_status": "Pending",
    "responsible_agency": "Department of Public Works",
    "final_address": "6554 Argonne Blvd",
    "address_councildis": "A",
    "status": "Pending",
    "rowid": "1264428",
    "final_x": "3670451.92199",
    "final_y": "551062.737813",
    "longitude": "-90.10229328935854",
    "latitude": "30.009562373502806",
    "geocoded_column": {
      "latitude": "30.009562373502806",
      "longitude": "-90.10229328935854"
    }
  },
  {
    "service_request": "2026-1264427",
    "request_type": "Trash/Recycling",
    "request_reason": "Repair Trash Cart",
    "date_created": "2026-03-10T21:54:37.000",
    "date_modified": "2026-03-10T21:54:39.000",
    "request_status": "Pending",
    "responsible_agency": "Department of Sanitation",
    "final_address": "4920 Major Dr",
    "address_councildis": "E",
    "status": "Assigned to Contractor",
    "contractor": "Waste Pro",
    "rowid": "1264427",
    "final_x": "3718080.26085",
    "final_y": "557952.511515",
    "longitude": "-89.95155795012813",
    "latitude": "30.027013546481935",
    "geocoded_column": {
      "latitude": "30.027013546481935",
      "longitude": "-89.95155795012813"
    }
  },
  {
    "service_request": "2026-1264426",
    "request_type": "Streetlights",
    "request_reason": "Streetlight Outage/Malfunction",
    "date_created": "2026-03-10T21:44:27.000",
    "date_modified": "2026-03-10T21:44:28.000",
    "request_status": "Pending",
    "responsible_agency": "Department of Public Works",
    "final_address": "WOODLAND BRIDGE & WOODLAND HWY",
    "address_councildis": "C",
    "status": "Pending",
    "rowid": "1264426",
    "final_x": "3710002.1",
    "final_y": "513116.08",
    "longitude": "-89.97875879866287",
    "latitude": "29.90399525116702",
    "geocoded_column": {
      "latitude": "29.90399525116702",
      "longitude": "-89.97875879866287"
    }
  },
  {
    "service_request": "2026-1264425",
    "request_type": "Utility Poles",
    "request_reason": "Utility Pole Leaning",
    "date_created": "2026-03-10T21:44:07.000",
    "date_modified": "2026-03-10T21:44:09.000",
    "request_status": "Pending",
    "responsible_agency": "Utility Company Collective",
    "final_address": "6400 Pontchartrain Blvd",
    "address_councildis": "A",
    "status": "Pending",
    "rowid": "1264425",
    "final_x": "3666157.33524",
    "final_y": "550539.92994",
    "longitude": "-90.11587900120868",
    "latitude": "30.008251000919216",
    "geocoded_column": {
      "latitude": "30.008251000919216",
      "longitude": "-90.11587900120868"
    }
  },
  {
    "service_request": "2026-1264424",
    "request_type": "Trash/Recycling",
    "request_reason": "Request a Large Item Pick Up",
    "date_created": "2026-03-10T21:37:33.000",
    "date_modified": "2026-03-10T21:37:36.000",
    "request_status": "Pending",
    "responsible_agency": "Department of Sanitation",
    "final_address": "4755 Virgilian St",
    "address_councildis": "D",
    "status": "Assigned to Contractor",
    "contractor": "Waste Pro",
    "rowid": "1264424",
    "final_x": "3697546.1537",
    "final_y": "553915.734807",
    "longitude": "-90.01658998540613",
    "latitude": "30.01657882674997",
    "geocoded_column": {
      "latitude": "30.01657882674997",
      "longitude": "-90.01658998540613"
    }
  },
  {
    "service_request": "2026-1264423",
    "request_type": "Trash/Recycling",
    "request_reason": "Request a Large Item Pick Up",
    "date_created": "2026-03-10T21:32:26.000",
    "date_modified": "2026-03-10T21:32:29.000",
    "request_status": "Pending",
    "responsible_agency": "Department of Sanitation",
    "final_address": "4600 BLK De Montluzin St",
    "address_councildis": "D",
    "status": "Assigned to Contractor",
    "contractor": "IV Waste",
    "rowid": "1264423",
    "final_x": "3687190.96941",
    "final_y": "550004.248204",
    "longitude": "-90.04944635106229",
    "latitude": "30.006146805142613",
    "geocoded_column": {
      "latitude": "30.006146805142613",
      "longitude": "-90.04944635106229"
    }
  },
  {
    "service_request": "2026-1264422",
    "request_type": "Trash/Recycling",
    "request_reason": "Order Recycling Cart",
    "date_created": "2026-03-10T21:28:49.000",
    "date_modified": "2026-03-10T21:28:51.000",
    "request_status": "Pending",
    "responsible_agency": "Department of Sanitation",
    "final_address": "1365 Constance St",
    "address_councildis": "B",
    "status": "Pending",
    "rowid": "1264422",
    "final_x": "3680741.91727",
    "final_y": "524633.168316",
    "longitude": "-90.07070369869973",
    "latitude": "29.93658219734958",
    "geocoded_column": {
      "latitude": "29.93658219734958",
      "longitude": "-90.07070369869973"
    }
  },
  {
    "service_request": "2026-1264421",
    "request_type": "Trash/Recycling",
    "request_reason": "Request a Large Item Pick Up",
    "date_created": "2026-03-10T21:28:20.000",
    "date_modified": "2026-03-10T21:28:21.000",
    "request_status": "Pending",
    "responsible_agency": "Department of Sanitation",
    "final_address": "8311 Aberdeen Rd",
    "address_councildis": "E",
    "status": "Assigned to Contractor",
    "contractor": "Waste Pro",
    "rowid": "1264421",
    "final_x": "3703196.85226",
    "final_y": "561613.285407",
    "longitude": "-89.99845298654589",
    "latitude": "30.03756435157793",
    "geocoded_column": {
      "latitude": "30.03756435157793",
      "longitude": "-89.99845298654589"
    }
  },
  {
    "service_request": "2026-1264420",
    "request_type": "Trash/Recycling",
    "request_reason": "Order Recycling Cart",
    "date_created": "2026-03-10T21:26:58.000",
    "date_modified": "2026-03-10T21:27:01.000",
    "request_status": "Pending",
    "responsible_agency": "Department of Sanitation",
    "final_address": "1029 Philip St",
    "address_councildis": "B",
    "status": "Pending",
    "rowid": "1264420",
    "final_x": "3678656.96366",
    "final_y": "521750.376698",
    "longitude": "-90.07738574151561",
    "latitude": "29.928718474438664",
    "geocoded_column": {
      "latitude": "29.928718474438664",
      "longitude": "-90.07738574151561"
    }
  },
  {
    "service_request": "2026-1264419",
    "request_type": "Trash/Recycling",
    "request_reason": "Request a Large Item Pick Up",
    "date_created": "2026-03-10T21:18:20.000",
    "date_modified": "2026-03-10T21:18:21.000",
    "request_status": "Pending",
    "responsible_agency": "Department of Sanitation",
    "final_address": "20 Neron Pl",
    "address_councildis": "A",
    "status": "Assigned to Contractor",
    "contractor": "IV Waste",
    "rowid": "1264419",
    "final_x": "3665002.91904",
    "final_y": "530773.532482",
    "longitude": "-90.12018733970334",
    "latitude": "29.95393372017727",
    "geocoded_column": {
      "latitude": "29.95393372017727",
      "longitude": "-90.12018733970334"
    }
  },
  {
    "service_request": "2026-1264418",
    "request_type": "Trash/Recycling",
    "request_reason": "Request a Large Item Pick Up",
    "date_created": "2026-03-10T21:15:35.000",
    "date_modified": "2026-03-10T21:15:37.000",
    "request_status": "Pending",
    "responsible_agency": "Department of Sanitation",
    "final_address": "8419 Palm St",
    "address_councildis": "A",
    "status": "Assigned to Contractor",
    "contractor": "IV Waste",
    "rowid": "1264418",
    "final_x": "3666837.22439",
    "final_y": "535548.541382",
    "longitude": "-90.11423491828158",
    "latitude": "29.9670098965196",
    "geocoded_column": {
      "latitude": "29.9670098965196",
      "longitude": "-90.11423491828158"
    }
  },
  {
    "service_request": "2026-1264417",
    "request_type": "Streetlights",
    "request_reason": "Streetlight Outage/Malfunction",
    "date_created": "2026-03-10T21:13:53.000",
    "date_modified": "2026-03-10T21:13:55.000",
    "request_status": "Pending",
    "responsible_agency": "Department of Public Works",
    "final_address": "3220 Louisiana Avenue Prkwy",
    "address_councildis": "B",
    "status": "Pending",
    "rowid": "1264417",
    "final_x": "3671802.44084",
    "final_y": "527117.442751",
    "longitude": "-90.09884156250081",
    "latitude": "29.943680976521648",
    "geocoded_column": {
      "latitude": "29.943680976521648",
      "longitude": "-90.09884156250081"
    }
  },
  {
    "service_request": "2026-1264416",
    "request_type": "Trash/Recycling",
    "request_reason": "Order Second Trash Cart",
    "date_created": "2026-03-10T21:13:20.000",
    "date_modified": "2026-03-10T21:13:21.000",
    "request_status": "Pending",
    "responsible_agency": "Department of Sanitation",
    "final_address": "5709 Constance St",
    "address_councildis": "A",
    "status": "Assigned to Contractor",
    "contractor": "IV Waste",
    "rowid": "1264416",
    "final_x": "3665672.08109",
    "final_y": "518693.789559",
    "longitude": "-90.11847879424995",
    "latitude": "29.920698786848945",
    "geocoded_column": {
      "latitude": "29.920698786848945",
      "longitude": "-90.11847879424995"
    }
  },
  {
    "service_request": "2026-1264415",
    "request_type": "Streetlights",
    "request_reason": "Streetlight Outage/Malfunction",
    "date_created": "2026-03-10T21:10:33.000",
    "date_modified": "2026-03-10T21:10:35.000",
    "request_status": "Pending",
    "responsible_agency": "Department of Public Works",
    "final_address": "214 Fairfax Pl",
    "address_councildis": "C",
    "status": "Pending",
    "rowid": "1264415",
    "final_x": "3706632.48683",
    "final_y": "517507.434486",
    "longitude": "-89.98923067289243",
    "latitude": "29.916179066069766",
    "geocoded_column": {
      "latitude": "29.916179066069766",
      "longitude": "-89.98923067289243"
    }
  },
  {
    "service_request": "2026-1264414",
    "request_type": "Streetlights",
    "request_reason": "Streetlight Outage/Malfunction",
    "date_created": "2026-03-10T21:03:13.000",
    "date_modified": "2026-03-10T21:03:15.000",
    "request_status": "Pending",
    "responsible_agency": "Department of Public Works",
    "final_address": "4409 Annunciation St",
    "address_councildis": "B",
    "status": "Pending",
    "rowid": "1264414",
    "final_x": "3671016.79803",
    "final_y": "517777.370934",
    "longitude": "-90.10163903840723",
    "latitude": "29.91802203022088",
    "geocoded_column": {
      "latitude": "29.91802203022088",
      "longitude": "-90.10163903840723"
    }
  },
  {
    "service_request": "2026-1264413",
    "request_type": "Street and Traffic Signs",
    "request_reason": "One Way Sign Missing or Damaged",
    "date_created": "2026-03-10T20:57:50.000",
    "date_modified": "2026-03-10T20:57:51.000",
    "request_status": "Pending",
    "responsible_agency": "Department of Public Works",
    "final_address": "1444 St Mary St",
    "address_councildis": "B",
    "status": "Pending",
    "rowid": "1264413",
    "final_x": "3678791.56149",
    "final_y": "523821.568443",
    "longitude": "-90.07688914956084",
    "latitude": "29.934409515281207",
    "geocoded_column": {
      "latitude": "29.934409515281207",
      "longitude": "-90.07688914956084"
    }
  },
  {
    "service_request": "2026-1264412",
    "request_type": "Trash/Recycling",
    "request_reason": "Request a Large Item Pick Up",
    "date_created": "2026-03-10T20:47:36.000",
    "date_modified": "2026-03-10T20:47:38.000",
    "request_status": "Pending",
    "responsible_agency": "Department of Sanitation",
    "final_address": "4958 Maid Marion Dr",
    "address_councildis": "E",
    "status": "Assigned to Contractor",
    "contractor": "Waste Pro",
    "rowid": "1264412",
    "final_x": "3716788.32607",
    "final_y": "558018.759323",
    "longitude": "-89.95563777495244",
    "latitude": "30.02723847597956",
    "geocoded_column": {
      "latitude": "30.02723847597956",
      "longitude": "-89.95563777495244"
    }
  },
  {
    "service_request": "2026-1264411",
    "request_type": "Streetlights",
    "request_reason": "Streetlight Outage/Malfunction",
    "date_created": "2026-03-10T20:45:42.000",
    "date_modified": "2026-03-10T20:45:44.000",
    "request_status": "Pending",
    "responsible_agency": "Department of Public Works",
    "final_address": "1000 Napoleon Ave",
    "address_councildis": "B",
    "status": "Pending",
    "rowid": "1264411",
    "final_x": "3670903.2466",
    "final_y": "519193.400055",
    "longitude": "-90.1019494260475",
    "latitude": "29.921919016815504",
    "geocoded_column": {
      "latitude": "29.921919016815504",
      "longitude": "-90.1019494260475"
    }
  },
  {
    "service_request": "2026-1264410",
    "request_type": "General Services",
    "request_reason": "General Service Request",
    "date_created": "2026-03-10T20:42:46.000",
    "date_modified": "2026-03-10T20:42:49.000",
    "request_status": "Pending",
    "responsible_agency": "Orleans Parish Communication District",
    "final_address": "5860 W Louis Prima Dr",
    "address_councildis": "E",
    "status": "Pending",
    "rowid": "1264410",
    "final_x": "3715168.22885",
    "final_y": "562951.864224",
    "longitude": "-89.96057032858108",
    "latitude": "30.040855996101165",
    "geocoded_column": {
      "latitude": "30.040855996101165",
      "longitude": "-89.96057032858108"
    }
  },
  {
    "service_request": "2026-1264409",
    "request_type": "Streetlights",
    "request_reason": "Streetlight Outage/Malfunction",
    "date_created": "2026-03-10T20:40:17.000",
    "date_modified": "2026-03-10T20:40:18.000",
    "request_status": "Pending",
    "responsible_agency": "Department of Public Works",
    "final_address": "1000 Napoleon Ave",
    "address_councildis": "B",
    "status": "Pending",
    "rowid": "1264409",
    "final_x": "3670903.2466",
    "final_y": "519193.400055",
    "longitude": "-90.1019494260475",
    "latitude": "29.921919016815504",
    "geocoded_column": {
      "latitude": "29.921919016815504",
      "longitude": "-90.1019494260475"
    }
  },
  {
    "service_request": "2026-1264408",
    "request_type": "Trash/Recycling",
    "request_reason": "Order Recycling Cart",
    "date_created": "2026-03-10T20:39:48.000",
    "date_modified": "2026-03-10T20:39:50.000",
    "request_status": "Pending",
    "responsible_agency": "Department of Sanitation",
    "final_address": "9026 Green St",
    "address_councildis": "A",
    "status": "Pending",
    "rowid": "1264408",
    "final_x": "3660585.59443",
    "final_y": "531945.871811",
    "longitude": "-90.13409677579662",
    "latitude": "29.957285132742253",
    "geocoded_column": {
      "latitude": "29.957285132742253",
      "longitude": "-90.13409677579662"
    }
  },
  {
    "service_request": "2026-1264407",
    "request_type": "Streetlights",
    "request_reason": "Streetlight Outage/Malfunction",
    "date_created": "2026-03-10T20:37:59.000",
    "date_modified": "2026-03-10T20:38:01.000",
    "request_status": "Pending",
    "responsible_agency": "Department of Public Works",
    "final_address": "6724 Louisville St",
    "address_councildis": "A",
    "status": "Pending",
    "rowid": "1264407",
    "final_x": "3668095.19386",
    "final_y": "552301.157974",
    "longitude": "-90.10969726423376",
    "latitude": "30.013037004010197",
    "geocoded_column": {
      "latitude": "30.013037004010197",
      "longitude": "-90.10969726423376"
    }
  },
  {
    "service_request": "2026-1264406",
    "request_type": "Trash/Recycling",
    "request_reason": "Request a Large Item Pick Up",
    "date_created": "2026-03-10T20:22:36.000",
    "date_modified": "2026-03-10T20:22:41.000",
    "request_status": "Pending",
    "responsible_agency": "Department of Sanitation",
    "final_address": "3224 Annunciation St",
    "address_councildis": "B",
    "status": "Assigned to Contractor",
    "contractor": "IV Waste",
    "rowid": "1264406",
    "final_x": "3676123.5108",
    "final_y": "518886.613623",
    "longitude": "-90.08548178638193",
    "latitude": "29.920920164311294",
    "geocoded_column": {
      "latitude": "29.920920164311294",
      "longitude": "-90.08548178638193"
    }
  },
  {
    "service_request": "2026-1264405",
    "request_type": "Streetlights",
    "request_reason": "Streetlight Outage/Malfunction",
    "date_created": "2026-03-10T20:00:30.000",
    "date_modified": "2026-03-10T20:00:31.000",
    "request_status": "Pending",
    "responsible_agency": "Department of Public Works",
    "final_address": "300 BLK Notre Dame St",
    "address_councildis": "B",
    "status": "Pending",
    "rowid": "1264405",
    "final_x": "3682116.87392",
    "final_y": "527871.35579",
    "longitude": "-90.06624985919098",
    "latitude": "29.9454443991192",
    "geocoded_column": {
      "latitude": "29.9454443991192",
      "longitude": "-90.06624985919098"
    }
  },
  {
    "service_request": "2026-1264404",
    "request_type": "Trash/Recycling",
    "request_reason": "Repair Recycling Cart",
    "date_created": "2026-03-10T19:39:00.000",
    "date_modified": "2026-03-10T19:39:03.000",
    "request_status": "Pending",
    "responsible_agency": "Department of Sanitation",
    "final_address": "945 Picheloup Pl",
    "address_councildis": "A",
    "status": "Pending",
    "rowid": "1264404",
    "final_x": "3673585.2731",
    "final_y": "540616.031243",
    "longitude": "-90.09275125235061",
    "latitude": "29.980744635638988",
    "geocoded_column": {
      "latitude": "29.980744635638988",
      "longitude": "-90.09275125235061"
    }
  },
  {
    "service_request": "2026-1264403",
    "request_type": "Drainage",
    "request_reason": "Catch Basin Frame and Cover Missing or Damaged",
    "date_created": "2026-03-10T19:24:02.000",
    "date_modified": "2026-03-10T19:24:06.000",
    "request_status": "Pending",
    "responsible_agency": "Sewerage & Water Board",
    "final_address": "7670 Sandy Cove Dr",
    "address_councildis": "E",
    "status": "Pending",
    "rowid": "1264403",
    "final_x": "3715345.41842",
    "final_y": "569467.873574",
    "longitude": "-89.95976350075755",
    "latitude": "30.05876652159072",
    "geocoded_column": {
      "latitude": "30.05876652159072",
      "longitude": "-89.95976350075755"
    }
  },
  {
    "service_request": "2026-1264402",
    "request_type": "Trash/Recycling",
    "request_reason": "Missed Trash Pick-Up",
    "date_created": "2026-03-10T18:45:01.000",
    "date_modified": "2026-03-10T18:45:03.000",
    "request_status": "Pending",
    "responsible_agency": "Department of Sanitation",
    "final_address": "914 Lowerline St, New Orleans, Louisiana, 70118",
    "address_councildis": "A",
    "status": "Assigned to Contractor",
    "contractor": "IV Waste",
    "rowid": "1264402",
    "final_x": "3663136.68307",
    "final_y": "526082.05523",
    "longitude": "-90.12623623411938",
    "latitude": "29.941087861485936",
    "geocoded_column": {
      "latitude": "29.941087861485936",
      "longitude": "-90.12623623411938"
    }
  },
  {
    "service_request": "2026-1264401",
    "request_type": "Trash/Recycling",
    "request_reason": "Replace Trash Cart",
    "date_created": "2026-03-10T18:03:51.000",
    "date_modified": "2026-03-10T18:03:53.000",
    "request_status": "Pending",
    "responsible_agency": "Department of Sanitation",
    "final_address": "8830 Palmetto St",
    "address_councildis": "A",
    "status": "Assigned to Contractor",
    "contractor": "IV Waste",
    "rowid": "1264401",
    "final_x": "3666077.50682",
    "final_y": "536903.405832",
    "longitude": "-90.11658868461363",
    "latitude": "29.970757527790656",
    "geocoded_column": {
      "latitude": "29.970757527790656",
      "longitude": "-90.11658868461363"
    }
  },
  {
    "service_request": "2026-1264400",
    "request_type": "Roads and Streets",
    "request_reason": "Sidewalk Damaged or Missing",
    "date_created": "2026-03-10T17:55:35.000",
    "date_modified": "2026-03-10T17:55:36.000",
    "request_status": "Pending",
    "responsible_agency": "Department of Public Works",
    "final_address": "3112 St Anthony Ave",
    "address_councildis": "D",
    "status": "Pending",
    "rowid": "1264400",
    "final_x": "3682747.56988",
    "final_y": "544076.291278",
    "longitude": "-90.06369162965221",
    "latitude": "29.98998318992409",
    "geocoded_column": {
      "latitude": "29.98998318992409",
      "longitude": "-90.06369162965221"
    }
  },
  {
    "service_request": "2026-1264399",
    "request_type": "Trash/Recycling",
    "request_reason": "Missed Trash Pick-Up",
    "date_created": "2026-03-10T17:55:16.000",
    "date_modified": "2026-03-10T17:55:18.000",
    "request_status": "Pending",
    "responsible_agency": "Department of Sanitation",
    "final_address": "4554 Eastview Dr, New Orleans, Louisiana, 70126",
    "address_councildis": "E",
    "status": "Assigned to Contractor",
    "contractor": "Waste Pro",
    "rowid": "1264399",
    "final_x": "3705174.89956",
    "final_y": "554157.447704",
    "longitude": "-89.99247765840269",
    "latitude": "30.017000189415782",
    "geocoded_column": {
      "latitude": "30.017000189415782",
      "longitude": "-89.99247765840269"
    }
  },
  {
    "service_request": "2026-1264398",
    "request_type": "Trash/Recycling",
    "request_reason": "Replace Recycling Cart",
    "date_created": "2026-03-10T17:40:07.000",
    "date_modified": "2026-03-10T17:40:09.000",
    "request_status": "Pending",
    "responsible_agency": "Department of Sanitation",
    "final_address": "2031 Joseph St",
    "address_councildis": "A",
    "status": "Pending",
    "rowid": "1264398",
    "final_x": "3667256.6953",
    "final_y": "523690.030395",
    "longitude": "-90.11330896070162",
    "latitude": "29.934390574118083",
    "geocoded_column": {
      "latitude": "29.934390574118083",
      "longitude": "-90.11330896070162"
    }
  },
  {
    "service_request": "2026-1264397",
    "request_type": "Trash/Recycling",
    "request_reason": "Request a Large Item Pick Up",
    "date_created": "2026-03-10T17:37:24.000",
    "date_modified": "2026-03-10T17:37:27.000",
    "request_status": "Pending",
    "responsible_agency": "Department of Sanitation",
    "final_address": "3615 Patterson St",
    "address_councildis": "C",
    "status": "Assigned to Contractor",
    "contractor": "Richards Disposal",
    "rowid": "1264397",
    "final_x": "3697395.52611",
    "final_y": "527583.383423",
    "longitude": "-90.01802094299613",
    "latitude": "29.944179168050045",
    "geocoded_column": {
      "latitude": "29.944179168050045",
      "longitude": "-90.01802094299613"
    }
  },
  {
    "service_request": "2026-1264396",
    "request_type": "Trash/Recycling",
    "request_reason": "Order Trash Cart",
    "date_created": "2026-03-10T17:35:01.000",
    "date_modified": "2026-03-10T17:35:02.000",
    "request_status": "Pending",
    "responsible_agency": "Department of Sanitation",
    "final_address": "4658 Longfellow Dr",
    "address_councildis": "E",
    "status": "Assigned to Contractor",
    "contractor": "Waste Pro",
    "rowid": "1264396",
    "final_x": "3709606.42117",
    "final_y": "555297.435609",
    "longitude": "-89.978433422977",
    "latitude": "30.019991379295565",
    "geocoded_column": {
      "latitude": "30.019991379295565",
      "longitude": "-89.978433422977"
    }
  },
  {
    "service_request": "2026-1264395",
    "request_type": "Trash/Recycling",
    "request_reason": "Request a Large Item Pick Up",
    "date_created": "2026-03-10T17:34:24.000",
    "date_modified": "2026-03-10T17:34:25.000",
    "request_status": "Pending",
    "responsible_agency": "Department of Sanitation",
    "final_address": "1211 Louisa St",
    "address_councildis": "C",
    "status": "Assigned to Contractor",
    "contractor": "IV Waste",
    "rowid": "1264395",
    "final_x": "3689714.68143",
    "final_y": "536308.712647",
    "longitude": "-90.04196098429344",
    "latitude": "29.9684109999101",
    "geocoded_column": {
      "latitude": "29.9684109999101",
      "longitude": "-90.04196098429344"
    }
  },
  {
    "service_request": "2026-1264394",
    "request_type": "Trash/Recycling",
    "request_reason": "Request a Large Item Pick Up",
    "date_created": "2026-03-10T17:29:07.000",
    "date_modified": "2026-03-10T17:29:08.000",
    "request_status": "Pending",
    "responsible_agency": "Department of Sanitation",
    "final_address": "1029 Eliza St",
    "address_councildis": "C",
    "status": "Assigned to Contractor",
    "contractor": "Richards Disposal",
    "rowid": "1264394",
    "final_x": "3688770.03235",
    "final_y": "529827.321281",
    "longitude": "-90.04517433146124",
    "latitude": "29.950618661079076",
    "geocoded_column": {
      "latitude": "29.950618661079076",
      "longitude": "-90.04517433146124"
    }
  },
  {
    "service_request": "2026-1264393",
    "request_type": "Trash/Recycling",
    "request_reason": "Damaged Caused By Contractor",
    "date_created": "2026-03-10T17:27:53.000",
    "date_modified": "2026-03-10T17:27:55.000",
    "request_status": "Pending",
    "responsible_agency": "Department of Sanitation",
    "final_address": "236 Verret St",
    "address_councildis": "C",
    "status": "Assigned to Contractor",
    "contractor": "Richards Disposal",
    "rowid": "1264393",
    "final_x": "3686974.40783",
    "final_y": "530896.15277",
    "longitude": "-90.05080620256653",
    "latitude": "29.953612965574013",
    "geocoded_column": {
      "latitude": "29.953612965574013",
      "longitude": "-90.05080620256653"
    }
  },
  {
    "service_request": "2026-1264392",
    "request_type": "Drainage",
    "request_reason": "Catch Basin Frame and Cover Missing or Damaged",
    "date_created": "2026-03-10T17:27:22.000",
    "date_modified": "2026-03-10T17:27:25.000",
    "request_status": "Pending",
    "responsible_agency": "Sewerage & Water Board",
    "final_address": "2440 Piety St",
    "address_councildis": "D",
    "status": "Pending",
    "rowid": "1264392",
    "final_x": "3691109.71478",
    "final_y": "541036.006347",
    "longitude": "-90.03738657014077",
    "latitude": "29.981366076072327",
    "geocoded_column": {
      "latitude": "29.981366076072327",
      "longitude": "-90.03738657014077"
    }
  },
  {
    "service_request": "2026-1264391",
    "request_type": "Roads and Streets",
    "request_reason": "Abandoned Service Cut",
    "date_created": "2026-03-10T17:22:14.000",
    "date_modified": "2026-03-10T17:22:17.000",
    "request_status": "Pending",
    "responsible_agency": "Department of Public Works",
    "final_address": "4910 Dauphine St",
    "address_councildis": "E",
    "status": "Pending",
    "rowid": "1264391",
    "final_x": "3695174.76982",
    "final_y": "533223.825348",
    "longitude": "-90.02482909663985",
    "latitude": "29.959758320453343",
    "geocoded_column": {
      "latitude": "29.959758320453343",
      "longitude": "-90.02482909663985"
    }
  },
  {
    "service_request": "2026-1264390",
    "request_type": "Trash/Recycling",
    "request_reason": "Replace Trash Cart",
    "date_created": "2026-03-10T17:17:31.000",
    "date_modified": "2026-03-10T17:17:34.000",
    "request_status": "Pending",
    "responsible_agency": "Department of Sanitation",
    "final_address": "2900 Blair St",
    "address_councildis": "C",
    "status": "Assigned to Contractor",
    "contractor": "Richards Disposal",
    "rowid": "1264390",
    "final_x": "3709611.98091",
    "final_y": "519976.193912",
    "longitude": "-89.9797342460848",
    "latitude": "29.922870852108634",
    "geocoded_column": {
      "latitude": "29.922870852108634",
      "longitude": "-89.9797342460848"
    }
  },
  {
    "service_request": "2026-1264389",
    "request_type": "Street and Traffic Signs",
    "request_reason": "One Way Sign Missing or Damaged",
    "date_created": "2026-03-10T17:11:04.000",
    "date_modified": "2026-03-10T17:11:06.000",
    "request_status": "Pending",
    "responsible_agency": "Department of Public Works",
    "final_address": "3820 St Charles Ave",
    "address_councildis": "B",
    "status": "Pending",
    "rowid": "1264389",
    "final_x": "3672733.95432",
    "final_y": "520909.244857",
    "longitude": "-90.09611216198044",
    "latitude": "29.926582816963144",
    "geocoded_column": {
      "latitude": "29.926582816963144",
      "longitude": "-90.09611216198044"
    }
  },
  {
    "service_request": "2026-1264388",
    "request_type": "Trash/Recycling",
    "request_reason": "Request a Large Item Pick Up",
    "date_created": "2026-03-10T17:09:37.000",
    "date_modified": "2026-03-10T17:09:39.000",
    "request_status": "Pending",
    "responsible_agency": "Department of Sanitation",
    "final_address": "3212 Danneel St",
    "address_councildis": "B",
    "status": "Assigned to Contractor",
    "contractor": "IV Waste",
    "rowid": "1264388",
    "final_x": "3674108.79611",
    "final_y": "523038.870267",
    "longitude": "-90.09169931079143",
    "latitude": "29.93239770828291",
    "geocoded_column": {
      "latitude": "29.93239770828291",
      "longitude": "-90.09169931079143"
    }
  },
  {
    "service_request": "2026-1264387",
    "request_type": "Trash/Recycling",
    "request_reason": "Request a Large Item Pick Up",
    "date_created": "2026-03-10T16:54:47.000",
    "date_modified": "2026-03-10T16:55:47.000",
    "request_status": "Pending",
    "responsible_agency": "Department of Sanitation",
    "final_address": "4226 S Miro St",
    "address_councildis": "B",
    "status": "Assigned to Contractor",
    "contractor": "IV Waste",
    "rowid": "1264387",
    "final_x": "3670704.49723",
    "final_y": "527833.369791",
    "longitude": "-90.10228378682744",
    "latitude": "29.945682022307565",
    "geocoded_column": {
      "latitude": "29.945682022307565",
      "longitude": "-90.10228378682744"
    }
  },
  {
    "service_request": "2026-1264386",
    "request_type": "Roads and Streets",
    "request_reason": "Street Subsidence (Sinking)",
    "date_created": "2026-03-10T16:52:18.000",
    "date_modified": "2026-03-10T16:52:20.000",
    "request_status": "Pending",
    "responsible_agency": "Sewerage & Water Board",
    "final_address": "330 Newton St",
    "address_councildis": "C",
    "status": "Pending",
    "rowid": "1264386",
    "final_x": "3686453.95266",
    "final_y": "527970.608319",
    "longitude": "-90.05255283301311",
    "latitude": "29.94558472359371",
    "geocoded_column": {
      "latitude": "29.94558472359371",
      "longitude": "-90.05255283301311"
    }
  },
  {
    "service_request": "2026-1264385",
    "request_type": "Trash/Recycling",
    "request_reason": "Request a Large Item Pick Up",
    "date_created": "2026-03-10T16:46:38.000",
    "date_modified": "2026-03-10T16:46:40.000",
    "request_status": "Pending",
    "responsible_agency": "Department of Sanitation",
    "final_address": "1816 Lizardi St",
    "address_councildis": "E",
    "status": "Assigned to Contractor",
    "contractor": "Waste Pro",
    "rowid": "1264385",
    "final_x": "3697262.28752",
    "final_y": "536904.08372",
    "longitude": "-90.01810382888874",
    "latitude": "29.96981200723804",
    "geocoded_column": {
      "latitude": "29.96981200723804",
      "longitude": "-90.01810382888874"
    }
  },
  {
    "service_request": "2026-1264384",
    "request_type": "Parks & Parkways",
    "request_reason": "Request Tree Service (Right of Way/Public Property)",
    "date_created": "2026-03-10T16:41:52.000",
    "date_modified": "2026-03-10T16:41:53.000",
    "request_status": "Pending",
    "responsible_agency": "Department of Parks & Parkway",
    "final_address": "104 Finland Pl",
    "address_councildis": "C",
    "status": "Pending",
    "rowid": "1264384",
    "final_x": "3705893.3331",
    "final_y": "520824.409913",
    "longitude": "-89.99144110551615",
    "latitude": "29.925323416767952",
    "geocoded_column": {
      "latitude": "29.925323416767952",
      "longitude": "-89.99144110551615"
    }
  },
  {
    "service_request": "2026-1264383",
    "request_type": "Traffic Signals",
    "request_reason": "Traffic Signal Malfunctioning or Damaged",
    "date_created": "2026-03-10T16:39:18.000",
    "date_modified": "2026-03-10T16:39:19.000",
    "request_status": "Pending",
    "responsible_agency": "Department of Public Works",
    "final_address": "1000 BLK Camp St",
    "address_councildis": "B",
    "status": "Pending",
    "rowid": "1264383",
    "final_x": "3680484.00284",
    "final_y": "526729.901052",
    "longitude": "-90.07144504620884",
    "latitude": "29.94235532793877",
    "geocoded_column": {
      "latitude": "29.94235532793877",
      "longitude": "-90.07144504620884"
    }
  },
  {
    "service_request": "2026-1264382",
    "request_type": "Drainage",
    "request_reason": "Catch Basin Not Draining",
    "date_created": "2026-03-10T16:35:20.000",
    "date_modified": "2026-03-10T16:35:21.000",
    "request_status": "Pending",
    "responsible_agency": "Sewerage & Water Board",
    "final_address": "STATE ST & DELORD ST",
    "address_councildis": "A",
    "status": "Pending",
    "rowid": "1264382",
    "final_x": "3666928.1",
    "final_y": "526086.98",
    "longitude": "-90.11426582370457",
    "latitude": "29.940991033656523",
    "geocoded_column": {
      "latitude": "29.940991033656523",
      "longitude": "-90.11426582370457"
    }
  },
  {
    "service_request": "2026-1264381",
    "request_type": "Trash/Recycling",
    "request_reason": "Repair Trash Cart",
    "date_created": "2026-03-10T16:31:10.000",
    "date_modified": "2026-03-10T16:31:12.000",
    "request_status": "Pending",
    "responsible_agency": "Department of Sanitation",
    "final_address": "8428 Pritchard Pl",
    "address_councildis": "A",
    "status": "Assigned to Contractor",
    "contractor": "IV Waste",
    "rowid": "1264381",
    "final_x": "3665057.75904",
    "final_y": "533746.387013",
    "longitude": "-90.11991476981123",
    "latitude": "29.962106502667545",
    "geocoded_column": {
      "latitude": "29.962106502667545",
      "longitude": "-90.11991476981123"
    }
  },
  {
    "service_request": "2026-1264380",
    "request_type": "Trash/Recycling",
    "request_reason": "Request a Large Item Pick Up",
    "date_created": "2026-03-10T16:29:27.000",
    "date_modified": "2026-03-10T16:29:28.000",
    "request_status": "Pending",
    "responsible_agency": "Department of Sanitation",
    "final_address": "4932 Major Dr",
    "address_councildis": "E",
    "status": "Assigned to Contractor",
    "contractor": "Waste Pro",
    "rowid": "1264380",
    "final_x": "3718070.29938",
    "final_y": "558051.631195",
    "longitude": "-89.95158565012238",
    "latitude": "30.02728641617718",
    "geocoded_column": {
      "latitude": "30.02728641617718",
      "longitude": "-89.95158565012238"
    }
  },
  {
    "service_request": "2026-1264379",
    "request_type": "Trash/Recycling",
    "request_reason": "Return Recycling Cart",
    "date_created": "2026-03-10T16:29:25.000",
    "date_modified": "2026-03-10T16:29:28.000",
    "request_status": "Pending",
    "responsible_agency": "Department of Sanitation",
    "final_address": "2531 Chartres St",
    "address_councildis": "C",
    "status": "Pending",
    "rowid": "1264379",
    "final_x": "3686533.86082",
    "final_y": "534652.270214",
    "longitude": "-90.05206464192453",
    "latitude": "29.963954545436522",
    "geocoded_column": {
      "latitude": "29.963954545436522",
      "longitude": "-90.05206464192453"
    }
  },
  {
    "service_request": "2026-1264378",
    "request_type": "Trash/Recycling",
    "request_reason": "Request a Large Item Pick Up",
    "date_created": "2026-03-10T16:29:16.000",
    "date_modified": "2026-03-10T16:32:18.000",
    "request_status": "Pending",
    "responsible_agency": "Department of Sanitation",
    "final_address": "8428 Pritchard Pl",
    "address_councildis": "A",
    "status": "Assigned to Contractor",
    "contractor": "IV Waste",
    "rowid": "1264378",
    "final_x": "3665057.75904",
    "final_y": "533746.387013",
    "longitude": "-90.11991476981123",
    "latitude": "29.962106502667545",
    "geocoded_column": {
      "latitude": "29.962106502667545",
      "longitude": "-90.11991476981123"
    }
  },
  {
    "service_request": "2026-1264377",
    "request_type": "Trash/Recycling",
    "request_reason": "Order Recycling Cart",
    "date_created": "2026-03-10T16:25:42.000",
    "date_modified": "2026-03-10T16:25:43.000",
    "request_status": "Pending",
    "responsible_agency": "Department of Sanitation",
    "final_address": "5801 Oxford Pl",
    "address_councildis": "C",
    "status": "Pending",
    "rowid": "1264377",
    "final_x": "3704868.81623",
    "final_y": "519842.379832",
    "longitude": "-89.9947113721973",
    "latitude": "29.92265612636965",
    "geocoded_column": {
      "latitude": "29.92265612636965",
      "longitude": "-89.9947113721973"
    }
  },
  {
    "service_request": "2026-1264376",
    "request_type": "Trash/Recycling",
    "request_reason": "Request a Large Item Pick Up",
    "date_created": "2026-03-10T16:24:19.000",
    "date_modified": "2026-03-10T16:24:20.000",
    "request_status": "Pending",
    "responsible_agency": "Department of Sanitation",
    "final_address": "7549 Elmdale Rd",
    "address_councildis": "E",
    "status": "Assigned to Contractor",
    "contractor": "Waste Pro",
    "rowid": "1264376",
    "final_x": "3709677.56312",
    "final_y": "564553.262497",
    "longitude": "-89.97786268135943",
    "latitude": "30.04543892792313",
    "geocoded_column": {
      "latitude": "30.04543892792313",
      "longitude": "-89.97786268135943"
    }
  },
  {
    "service_request": "2026-1264375",
    "request_type": "Trash/Recycling",
    "request_reason": "Request a Large Item Pick Up",
    "date_created": "2026-03-10T16:20:31.000",
    "date_modified": "2026-03-10T16:20:33.000",
    "request_status": "Pending",
    "responsible_agency": "Department of Sanitation",
    "final_address": "4957 Pentland Dr",
    "address_councildis": "E",
    "status": "Assigned to Contractor",
    "contractor": "Waste Pro",
    "rowid": "1264375",
    "final_x": "3718733.56044",
    "final_y": "558333.340828",
    "longitude": "-89.94947907835831",
    "latitude": "30.02803899599615",
    "geocoded_column": {
      "latitude": "30.02803899599615",
      "longitude": "-89.94947907835831"
    }
  },
  {
    "service_request": "2026-1264374",
    "request_type": "Trash/Recycling",
    "request_reason": "Repair Trash Cart",
    "date_created": "2026-03-10T16:19:13.000",
    "date_modified": "2026-03-10T16:19:27.000",
    "request_status": "Pending",
    "responsible_agency": "Department of Sanitation",
    "final_address": "7657 Stonewood St",
    "address_councildis": "E",
    "status": "Assigned to Contractor",
    "contractor": "Waste Pro",
    "rowid": "1264374",
    "final_x": "3719352.39084",
    "final_y": "572552.656169",
    "longitude": "-89.94698000638718",
    "latitude": "30.06711570145545",
    "geocoded_column": {
      "latitude": "30.06711570145545",
      "longitude": "-89.94698000638718"
    }
  },
  {
    "service_request": "2026-1264373",
    "request_type": "Trash/Recycling",
    "request_reason": "Request a Large Item Pick Up",
    "date_created": "2026-03-10T16:18:04.000",
    "date_modified": "2026-03-10T16:18:07.000",
    "request_status": "Pending",
    "responsible_agency": "Department of Sanitation",
    "final_address": "11026 Vienna St",
    "address_councildis": "E",
    "status": "Assigned to Contractor",
    "contractor": "Waste Pro",
    "rowid": "1264373",
    "final_x": "3715902.57036",
    "final_y": "557810.302939",
    "longitude": "-89.95844455583878",
    "latitude": "30.02669455732732",
    "geocoded_column": {
      "latitude": "30.02669455732732",
      "longitude": "-89.95844455583878"
    }
  },
  {
    "service_request": "2026-1264372",
    "request_type": "Trash/Recycling",
    "request_reason": "Illegal Dumping",
    "date_created": "2026-03-10T16:15:37.000",
    "date_modified": "2026-03-10T16:15:38.000",
    "request_status": "Pending",
    "responsible_agency": "Department of Sanitation",
    "final_address": "4716 Burgundy St",
    "address_councildis": "E",
    "status": "Pending",
    "rowid": "1264372",
    "final_x": "3694594.31741",
    "final_y": "533731.658565",
    "longitude": "-90.02664373860756",
    "latitude": "29.961172896405454",
    "geocoded_column": {
      "latitude": "29.961172896405454",
      "longitude": "-90.02664373860756"
    }
  },
  {
    "service_request": "2026-1264371",
    "request_type": "Trash/Recycling",
    "request_reason": "Damaged Caused By Contractor",
    "date_created": "2026-03-10T16:15:07.000",
    "date_modified": "2026-03-10T16:15:09.000",
    "request_status": "Pending",
    "responsible_agency": "Department of Sanitation",
    "final_address": "980 Lane St",
    "address_councildis": "A",
    "status": "Assigned to Contractor",
    "contractor": "IV Waste",
    "rowid": "1264371",
    "final_x": "3671130.7346",
    "final_y": "550437.709844",
    "longitude": "-90.10016992820773",
    "latitude": "30.007823696416043",
    "geocoded_column": {
      "latitude": "30.007823696416043",
      "longitude": "-90.10016992820773"
    }
  },
  {
    "service_request": "2026-1264370",
    "request_type": "Utility Poles",
    "request_reason": "Utility Pole Leaning",
    "date_created": "2026-03-10T16:13:46.000",
    "date_modified": "2026-03-10T16:13:49.000",
    "request_status": "Pending",
    "responsible_agency": "Utility Company Collective",
    "final_address": "2326 Audubon St",
    "address_councildis": "A",
    "status": "Pending",
    "rowid": "1264370",
    "final_x": "3666706.92884",
    "final_y": "529816.104641",
    "longitude": "-90.11483890311456",
    "latitude": "29.951251388760298",
    "geocoded_column": {
      "latitude": "29.951251388760298",
      "longitude": "-90.11483890311456"
    }
  },
  {
    "service_request": "2026-1264369",
    "request_type": "Roads and Streets",
    "request_reason": "Pothole",
    "date_created": "2026-03-10T16:13:09.000",
    "date_modified": "2026-03-10T16:13:10.000",
    "request_status": "Pending",
    "responsible_agency": "Department of Public Works",
    "final_address": "2604 Clara St",
    "address_councildis": "B",
    "status": "Pending",
    "rowid": "1264369",
    "final_x": "3674080.27419",
    "final_y": "526325.069438",
    "longitude": "-90.09167693466061",
    "latitude": "29.941434534626552",
    "geocoded_column": {
      "latitude": "29.941434534626552",
      "longitude": "-90.09167693466061"
    }
  },
  {
    "service_request": "2026-1264368",
    "request_type": "Roads and Streets",
    "request_reason": "Street Subsidence (Sinking)",
    "date_created": "2026-03-10T16:12:14.000",
    "date_modified": "2026-03-10T16:12:16.000",
    "request_status": "Pending",
    "responsible_agency": "Sewerage & Water Board",
    "final_address": "7523 Onyx St",
    "address_councildis": "D",
    "status": "Pending",
    "rowid": "1264368",
    "final_x": "3669056.7963",
    "final_y": "556534.798618",
    "longitude": "-90.10651589575095",
    "latitude": "30.024649742918697",
    "geocoded_column": {
      "latitude": "30.024649742918697",
      "longitude": "-90.10651589575095"
    }
  },
  {
    "service_request": "2026-1264367",
    "request_type": "Trash/Recycling",
    "request_reason": "Order Trash Cart",
    "date_created": "2026-03-10T16:09:49.000",
    "date_modified": "2026-03-10T16:09:50.000",
    "request_status": "Pending",
    "responsible_agency": "Department of Sanitation",
    "final_address": "6916 Olive St",
    "address_councildis": "B",
    "status": "Assigned to Contractor",
    "contractor": "IV Waste",
    "rowid": "1264367",
    "final_x": "3668899.39207",
    "final_y": "532652.677188",
    "longitude": "-90.1078203742537",
    "latitude": "29.9589867412491",
    "geocoded_column": {
      "latitude": "29.9589867412491",
      "longitude": "-90.1078203742537"
    }
  },
  {
    "service_request": "2026-1264365",
    "request_type": "Trash/Recycling",
    "request_reason": "Order Trash Cart",
    "date_created": "2026-03-10T16:09:46.000",
    "date_modified": "2026-03-10T16:09:48.000",
    "request_status": "Pending",
    "responsible_agency": "Department of Sanitation",
    "final_address": "6916 Olive St",
    "address_councildis": "B",
    "status": "Assigned to Contractor",
    "contractor": "IV Waste",
    "rowid": "1264365",
    "final_x": "3668899.39207",
    "final_y": "532652.677188",
    "longitude": "-90.1078203742537",
    "latitude": "29.9589867412491",
    "geocoded_column": {
      "latitude": "29.9589867412491",
      "longitude": "-90.1078203742537"
    }
  },
  {
    "service_request": "2026-1264366",
    "request_type": "Trash/Recycling",
    "request_reason": "Order Trash Cart",
    "date_created": "2026-03-10T16:09:46.000",
    "date_modified": "2026-03-10T16:09:48.000",
    "request_status": "Pending",
    "responsible_agency": "Department of Sanitation",
    "final_address": "6916 Olive St",
    "address_councildis": "B",
    "status": "Assigned to Contractor",
    "contractor": "IV Waste",
    "rowid": "1264366",
    "final_x": "3668899.39207",
    "final_y": "532652.677188",
    "longitude": "-90.1078203742537",
    "latitude": "29.9589867412491",
    "geocoded_column": {
      "latitude": "29.9589867412491",
      "longitude": "-90.1078203742537"
    }
  },
  {
    "service_request": "2026-1264364",
    "request_type": "Trash/Recycling",
    "request_reason": "Order Trash Cart",
    "date_created": "2026-03-10T16:09:46.000",
    "date_modified": "2026-03-10T16:09:48.000",
    "request_status": "Pending",
    "responsible_agency": "Department of Sanitation",
    "final_address": "6916 Olive St",
    "address_councildis": "B",
    "status": "Assigned to Contractor",
    "contractor": "IV Waste",
    "rowid": "1264364",
    "final_x": "3668899.39207",
    "final_y": "532652.677188",
    "longitude": "-90.1078203742537",
    "latitude": "29.9589867412491",
    "geocoded_column": {
      "latitude": "29.9589867412491",
      "longitude": "-90.1078203742537"
    }
  },
  {
    "service_request": "2026-1264363",
    "request_type": "Trash/Recycling",
    "request_reason": "Order Recycling Cart",
    "date_created": "2026-03-10T16:09:05.000",
    "date_modified": "2026-03-10T16:09:08.000",
    "request_status": "Pending",
    "responsible_agency": "Department of Sanitation",
    "final_address": "5221 Edenboro Rd",
    "address_councildis": "E",
    "status": "Pending",
    "rowid": "1264363",
    "final_x": "3708529.08939",
    "final_y": "557514.377115",
    "longitude": "-89.98175479199777",
    "latitude": "30.02612208641367",
    "geocoded_column": {
      "latitude": "30.02612208641367",
      "longitude": "-89.98175479199777"
    }
  },
  {
    "service_request": "2026-1264362",
    "request_type": "Alley Ways",
    "request_reason": "Alley Way Issues",
    "date_created": "2026-03-10T16:05:23.000",
    "date_modified": "2026-03-10T16:05:24.000",
    "request_status": "Pending",
    "responsible_agency": "Department of Public Works",
    "final_address": "3360 Somerset Dr",
    "address_councildis": "C",
    "status": "Pending",
    "rowid": "1264362",
    "final_x": "3702584.68938",
    "final_y": "518747.477559",
    "longitude": "-90.00196155497353",
    "latitude": "29.91971869741165",
    "geocoded_column": {
      "latitude": "29.91971869741165",
      "longitude": "-90.00196155497353"
    }
  },
  {
    "service_request": "2026-1264361",
    "request_type": "Streetlights",
    "request_reason": "Streetlight Outage/Malfunction",
    "date_created": "2026-03-10T16:04:12.000",
    "date_modified": "2026-03-10T16:04:14.000",
    "request_status": "Pending",
    "responsible_agency": "Department of Public Works",
    "final_address": "315 N Miro St",
    "address_councildis": "B",
    "status": "Pending",
    "rowid": "1264361",
    "final_x": "3677247.36162",
    "final_y": "534870.357126",
    "longitude": "-90.08138304093819",
    "latitude": "29.96483646971515",
    "geocoded_column": {
      "latitude": "29.96483646971515",
      "longitude": "-90.08138304093819"
    }
  },
  {
    "service_request": "2026-1264360",
    "request_type": "Trash/Recycling",
    "request_reason": "Replace Trash Cart",
    "date_created": "2026-03-10T16:03:42.000",
    "date_modified": "2026-03-10T16:03:43.000",
    "request_status": "Pending",
    "responsible_agency": "Department of Sanitation",
    "final_address": "2522 Laurel St",
    "address_councildis": "B",
    "status": "Assigned to Contractor",
    "contractor": "IV Waste",
    "rowid": "1264360",
    "final_x": "3678076.72206",
    "final_y": "520576.103736",
    "longitude": "-90.07925801559324",
    "latitude": "29.925507081380385",
    "geocoded_column": {
      "latitude": "29.925507081380385",
      "longitude": "-90.07925801559324"
    }
  },
  {
    "service_request": "2026-1264359",
    "request_type": "Trash/Recycling",
    "request_reason": "Repair Trash Cart",
    "date_created": "2026-03-10T16:02:19.000",
    "date_modified": "2026-03-10T16:02:22.000",
    "request_status": "Pending",
    "responsible_agency": "Department of Sanitation",
    "final_address": "2227 Jefferson Ave",
    "address_councildis": "B",
    "status": "Assigned to Contractor",
    "contractor": "IV Waste",
    "rowid": "1264359",
    "final_x": "3667950.2729",
    "final_y": "523858.921339",
    "longitude": "-90.11111366085979",
    "latitude": "29.934834646104786",
    "geocoded_column": {
      "latitude": "29.934834646104786",
      "longitude": "-90.11111366085979"
    }
  },
  {
    "service_request": "2026-1264358",
    "request_type": "Roads and Streets",
    "request_reason": "Sidewalk Damaged or Missing",
    "date_created": "2026-03-10T15:53:56.000",
    "date_modified": "2026-03-10T15:53:57.000",
    "request_status": "Pending",
    "responsible_agency": "Department of Public Works",
    "final_address": "2442 Hudson Pl",
    "address_councildis": "C",
    "status": "Pending",
    "rowid": "1264358",
    "final_x": "3703533.57322",
    "final_y": "522069.732602",
    "longitude": "-89.99884428596158",
    "latitude": "29.928823397893204",
    "geocoded_column": {
      "latitude": "29.928823397893204",
      "longitude": "-89.99884428596158"
    }
  },
  {
    "service_request": "2026-1264357",
    "request_type": "Safety & Permits",
    "request_reason": "Licenses & Permits",
    "date_created": "2026-03-10T15:52:40.000",
    "date_modified": "2026-03-10T15:52:42.000",
    "request_status": "Pending",
    "responsible_agency": "Safety and Permits",
    "final_address": "N MIRO ST & NEW ORLEANS ST",
    "address_councildis": "D",
    "status": "Pending",
    "rowid": "1264357",
    "final_x": "3682084.3",
    "final_y": "540151.88",
    "longitude": "-90.06592383271771",
    "latitude": "29.97921262810447",
    "geocoded_column": {
      "latitude": "29.97921262810447",
      "longitude": "-90.06592383271771"
    }
  },
  {
    "service_request": "2026-1264356",
    "request_type": "Trash/Recycling",
    "request_reason": "Request a Large Item Pick Up",
    "date_created": "2026-03-10T15:49:13.000",
    "date_modified": "2026-03-10T15:49:15.000",
    "request_status": "Pending",
    "responsible_agency": "Department of Sanitation",
    "final_address": "416 Leboeuf St",
    "address_councildis": "C",
    "status": "Assigned to Contractor",
    "contractor": "Richards Disposal",
    "rowid": "1264356",
    "final_x": "3689910.25033",
    "final_y": "530068.553601",
    "longitude": "-90.04156553452844",
    "latitude": "29.951246671398668",
    "geocoded_column": {
      "latitude": "29.951246671398668",
      "longitude": "-90.04156553452844"
    }
  },
  {
    "service_request": "2026-1264355",
    "request_type": "Abandoned Vehicles",
    "request_reason": "Abandoned/Junk Vehicles",
    "date_created": "2026-03-10T15:45:36.000",
    "date_modified": "2026-03-10T15:46:45.000",
    "request_status": "Pending",
    "responsible_agency": "Department of Public Works",
    "final_address": "2817 Orleans Ave",
    "address_councildis": "A",
    "status": "Pending",
    "rowid": "1264355",
    "final_x": "3676232.82645",
    "final_y": "537501.148616",
    "longitude": "-90.08449633394642",
    "latitude": "29.972100693078655",
    "geocoded_column": {
      "latitude": "29.972100693078655",
      "longitude": "-90.08449633394642"
    }
  },
  {
    "service_request": "2026-1264354",
    "request_type": "Trash/Recycling",
    "request_reason": "Request a Large Item Pick Up",
    "date_created": "2026-03-10T15:42:42.000",
    "date_modified": "2026-03-10T15:42:44.000",
    "request_status": "Pending",
    "responsible_agency": "Department of Sanitation",
    "final_address": "11291 Midpoint Dr",
    "address_councildis": "E",
    "status": "Assigned to Contractor",
    "contractor": "Waste Pro",
    "rowid": "1264354",
    "final_x": "3718417.64575",
    "final_y": "559607.907613",
    "longitude": "-89.95042872845589",
    "latitude": "30.031554028989994",
    "geocoded_column": {
      "latitude": "30.031554028989994",
      "longitude": "-89.95042872845589"
    }
  },
  {
    "service_request": "2026-1264353",
    "request_type": "Trash/Recycling",
    "request_reason": "Request a Large Item Pick Up",
    "date_created": "2026-03-10T15:42:11.000",
    "date_modified": "2026-03-10T15:43:26.000",
    "request_status": "Pending",
    "responsible_agency": "Department of Sanitation",
    "final_address": "13911 Curran Rd",
    "address_councildis": "E",
    "status": "Assigned to Contractor",
    "contractor": "Waste Pro",
    "rowid": "1264353",
    "final_x": "3718210.32217",
    "final_y": "572016.368296",
    "longitude": "-89.95061069894132",
    "latitude": "30.065679078762404",
    "geocoded_column": {
      "latitude": "30.065679078762404",
      "longitude": "-89.95061069894132"
    }
  },
  {
    "service_request": "2026-1264352",
    "request_type": "Trash/Recycling",
    "request_reason": "Request a Large Item Pick Up",
    "date_created": "2026-03-10T15:40:05.000",
    "date_modified": "2026-03-10T17:02:23.000",
    "request_status": "Pending",
    "responsible_agency": "Department of Sanitation",
    "final_address": "4750 Lafaye St",
    "address_councildis": "D",
    "status": "Assigned to Contractor",
    "contractor": "IV Waste",
    "rowid": "1264352",
    "final_x": "3687380.98908",
    "final_y": "550734.100309",
    "longitude": "-90.04882018588042",
    "latitude": "30.008147776367487",
    "geocoded_column": {
      "latitude": "30.008147776367487",
      "longitude": "-90.04882018588042"
    }
  },
  {
    "service_request": "2026-1264351",
    "request_type": "Trash/Recycling",
    "request_reason": "Repair Trash Cart",
    "date_created": "2026-03-10T15:39:48.000",
    "date_modified": "2026-03-10T15:39:56.000",
    "request_status": "Pending",
    "responsible_agency": "Department of Sanitation",
    "final_address": "721 Filmore Ave",
    "address_councildis": "A",
    "status": "Assigned to Contractor",
    "contractor": "IV Waste",
    "rowid": "1264351",
    "final_x": "3669220.47828",
    "final_y": "552081.49391",
    "longitude": "-90.10614939355916",
    "latitude": "30.012399915185753",
    "geocoded_column": {
      "latitude": "30.012399915185753",
      "longitude": "-90.10614939355916"
    }
  },
  {
    "service_request": "2026-1264350",
    "request_type": "Trash/Recycling",
    "request_reason": "Order Second Trash Cart",
    "date_created": "2026-03-10T15:38:32.000",
    "date_modified": "2026-03-10T15:38:34.000",
    "request_status": "Pending",
    "responsible_agency": "Department of Sanitation",
    "final_address": "2811 Potomac St",
    "address_councildis": "C",
    "status": "Assigned to Contractor",
    "contractor": "Richards Disposal",
    "rowid": "1264350",
    "final_x": "3692622.92905",
    "final_y": "519571.266936",
    "longitude": "-90.0333763042064",
    "latitude": "29.9222983503775",
    "geocoded_column": {
      "latitude": "29.9222983503775",
      "longitude": "-90.0333763042064"
    }
  },
  {
    "service_request": "2026-1264349",
    "request_type": "Safety & Permits",
    "request_reason": "Zoning Enforcement",
    "date_created": "2026-03-10T15:23:28.000",
    "date_modified": "2026-03-10T15:23:30.000",
    "request_status": "Pending",
    "responsible_agency": "Safety and Permits",
    "final_address": "MONTICELLO AVE & APRICOT ST",
    "address_councildis": "A",
    "status": "Pending",
    "rowid": "1264349",
    "final_x": "3662448.7",
    "final_y": "535705.28",
    "longitude": "-90.12808875942216",
    "latitude": "29.96756853100463",
    "geocoded_column": {
      "latitude": "29.96756853100463",
      "longitude": "-90.12808875942216"
    }
  },
  {
    "service_request": "2026-1264348",
    "request_type": "Trash/Recycling",
    "request_reason": "Order Trash Cart",
    "date_created": "2026-03-10T15:19:21.000",
    "date_modified": "2026-03-10T15:20:46.000",
    "request_status": "Pending",
    "responsible_agency": "Department of Sanitation",
    "final_address": "2821 Potomac St",
    "address_councildis": "C",
    "status": "Assigned to Contractor",
    "contractor": "Richards Disposal",
    "rowid": "1264348",
    "final_x": "3692668.77008",
    "final_y": "519531.155831",
    "longitude": "-90.03323304007203",
    "latitude": "29.922186628234446",
    "geocoded_column": {
      "latitude": "29.922186628234446",
      "longitude": "-90.03323304007203"
    }
  },
  {
    "service_request": "2026-1264347",
    "request_type": "Trash/Recycling",
    "request_reason": "Request a Large Item Pick Up",
    "date_created": "2026-03-10T15:15:47.000",
    "date_modified": "2026-03-10T15:15:49.000",
    "request_status": "Pending",
    "responsible_agency": "Department of Sanitation",
    "final_address": "10321 Brookfield Dr",
    "address_councildis": "E",
    "status": "Assigned to Contractor",
    "contractor": "Waste Pro",
    "rowid": "1264347",
    "final_x": "3710483.0236",
    "final_y": "563227.483936",
    "longitude": "-89.97536671587568",
    "latitude": "30.04176734543833",
    "geocoded_column": {
      "latitude": "30.04176734543833",
      "longitude": "-89.97536671587568"
    }
  },
  {
    "service_request": "2026-1264346",
    "request_type": "Trash/Recycling",
    "request_reason": "Request a Large Item Pick Up",
    "date_created": "2026-03-10T15:14:08.000",
    "date_modified": "2026-03-10T15:14:10.000",
    "request_status": "Pending",
    "responsible_agency": "Department of Sanitation",
    "final_address": "10311 Brookfield Dr",
    "address_councildis": "E",
    "status": "Assigned to Contractor",
    "contractor": "Waste Pro",
    "rowid": "1264346",
    "final_x": "3710438.59787",
    "final_y": "563194.590688",
    "longitude": "-89.9755083481934",
    "latitude": "30.04167834977917",
    "geocoded_column": {
      "latitude": "30.04167834977917",
      "longitude": "-89.9755083481934"
    }
  },
  {
    "service_request": "2026-1264345",
    "request_type": "Trash/Recycling",
    "request_reason": "Request a Large Item Pick Up",
    "date_created": "2026-03-10T15:07:57.000",
    "date_modified": "2026-03-10T15:20:19.000",
    "request_status": "Pending",
    "responsible_agency": "Department of Sanitation",
    "final_address": "5157 Wildair Dr",
    "address_councildis": "D",
    "status": "Assigned to Contractor",
    "contractor": "IV Waste",
    "rowid": "1264345",
    "final_x": "3681696.76584",
    "final_y": "551429.277333",
    "longitude": "-90.06675410019191",
    "latitude": "30.010233248401953",
    "geocoded_column": {
      "latitude": "30.010233248401953",
      "longitude": "-90.06675410019191"
    }
  },
  {
    "service_request": "2026-1264344",
    "request_type": "Trash/Recycling",
    "request_reason": "Request a Large Item Pick Up",
    "date_created": "2026-03-10T15:07:00.000",
    "date_modified": "2026-03-10T15:07:02.000",
    "request_status": "Pending",
    "responsible_agency": "Department of Sanitation",
    "final_address": "1819 Frenchmen St",
    "address_councildis": "D",
    "status": "Assigned to Contractor",
    "contractor": "IV Waste",
    "rowid": "1264344",
    "final_x": "3684412.91676",
    "final_y": "539024.214282",
    "longitude": "-90.05860878543677",
    "latitude": "29.97604091473289",
    "geocoded_column": {
      "latitude": "29.97604091473289",
      "longitude": "-90.05860878543677"
    }
  },
  {
    "service_request": "2026-1264343",
    "request_type": "Trash/Recycling",
    "request_reason": "Illegal Dumping",
    "date_created": "2026-03-10T15:06:17.000",
    "date_modified": "2026-03-10T15:06:19.000",
    "request_status": "Pending",
    "responsible_agency": "Department of Sanitation",
    "final_address": "NEWTON ST & NUNEZ ST",
    "address_councildis": "C",
    "status": "Pending",
    "rowid": "1264343",
    "final_x": "3686956.0",
    "final_y": "527946.28",
    "longitude": "-90.05096856911986",
    "latitude": "29.945502389117618",
    "geocoded_column": {
      "latitude": "29.945502389117618",
      "longitude": "-90.05096856911986"
    }
  },
  {
    "service_request": "2026-1264342",
    "request_type": "Trash/Recycling",
    "request_reason": "Order Recycling Cart",
    "date_created": "2026-03-10T15:03:35.000",
    "date_modified": "2026-03-10T15:03:37.000",
    "request_status": "Pending",
    "responsible_agency": "Department of Sanitation",
    "final_address": "2340 Robert St",
    "address_councildis": "B",
    "status": "Pending",
    "rowid": "1264342",
    "final_x": "3668770.39732",
    "final_y": "524226.61158",
    "longitude": "-90.10851212318342",
    "latitude": "29.935821596819597",
    "geocoded_column": {
      "latitude": "29.935821596819597",
      "longitude": "-90.10851212318342"
    }
  },
  {
    "service_request": "2026-1264341",
    "request_type": "Trash/Recycling",
    "request_reason": "Repair Trash Cart",
    "date_created": "2026-03-10T15:02:50.000",
    "date_modified": "2026-03-10T15:02:52.000",
    "request_status": "Pending",
    "responsible_agency": "Department of Sanitation",
    "final_address": "2340 Robert St",
    "address_councildis": "B",
    "status": "Assigned to Contractor",
    "contractor": "IV Waste",
    "rowid": "1264341",
    "final_x": "3668770.39732",
    "final_y": "524226.61158",
    "longitude": "-90.10851212318342",
    "latitude": "29.935821596819597",
    "geocoded_column": {
      "latitude": "29.935821596819597",
      "longitude": "-90.10851212318342"
    }
  },
  {
    "service_request": "2026-1264340",
    "request_type": "Trash/Recycling",
    "request_reason": "Request a Large Item Pick Up",
    "date_created": "2026-03-10T15:01:09.000",
    "date_modified": "2026-03-10T15:01:12.000",
    "request_status": "Pending",
    "responsible_agency": "Department of Sanitation",
    "final_address": "4783 Lancelot Dr",
    "address_councildis": "E",
    "status": "Assigned to Contractor",
    "contractor": "Waste Pro",
    "rowid": "1264340",
    "final_x": "3707491.54142",
    "final_y": "555797.698329",
    "longitude": "-89.98509711235381",
    "latitude": "30.02143549900781",
    "geocoded_column": {
      "latitude": "30.02143549900781",
      "longitude": "-89.98509711235381"
    }
  },
  {
    "service_request": "2026-1264339",
    "request_type": "Drainage",
    "request_reason": "Catch Basin Not Draining",
    "date_created": "2026-03-10T14:48:56.000",
    "date_modified": "2026-03-10T14:48:57.000",
    "request_status": "Pending",
    "responsible_agency": "Sewerage & Water Board",
    "final_address": "13259 Dwyer Blvd",
    "address_councildis": "E",
    "status": "Pending",
    "rowid": "1264339",
    "final_x": "3724708.66496",
    "final_y": "561653.506399",
    "longitude": "-89.93046995228734",
    "latitude": "30.036968319534576",
    "geocoded_column": {
      "latitude": "30.036968319534576",
      "longitude": "-89.93046995228734"
    }
  },
  {
    "service_request": "2026-1264338",
    "request_type": "Trash/Recycling",
    "request_reason": "Change Size of Trash Cart",
    "date_created": "2026-03-10T14:48:16.000",
    "date_modified": "2026-03-10T14:51:54.000",
    "request_status": "Pending",
    "responsible_agency": "Department of Sanitation",
    "final_address": "2113 Second St",
    "address_councildis": "B",
    "status": "Assigned to Contractor",
    "contractor": "IV Waste",
    "rowid": "1264338",
    "final_x": "3675666.53985",
    "final_y": "524661.793148",
    "longitude": "-90.08672591015727",
    "latitude": "29.936813710829952",
    "geocoded_column": {
      "latitude": "29.936813710829952",
      "longitude": "-90.08672591015727"
    }
  },
  {
    "service_request": "2026-1264337",
    "request_type": "Trash/Recycling",
    "request_reason": "Replace Recycling Cart",
    "date_created": "2026-03-10T14:42:31.000",
    "date_modified": "2026-03-10T14:42:33.000",
    "request_status": "Pending",
    "responsible_agency": "Department of Sanitation",
    "final_address": "7531 Weaver Ave",
    "address_councildis": "E",
    "status": "Pending",
    "rowid": "1264337",
    "final_x": "3707577.09931",
    "final_y": "564162.690529",
    "longitude": "-89.98451564432159",
    "latitude": "30.044433164528996",
    "geocoded_column": {
      "latitude": "30.044433164528996",
      "longitude": "-89.98451564432159"
    }
  },
  {
    "service_request": "2026-1264336",
    "request_type": "Trash/Recycling",
    "request_reason": "Replace Trash Cart",
    "date_created": "2026-03-10T14:39:34.000",
    "date_modified": "2026-03-10T14:39:36.000",
    "request_status": "Pending",
    "responsible_agency": "Department of Sanitation",
    "final_address": "4208 Orleans Ave",
    "address_councildis": "A",
    "status": "Assigned to Contractor",
    "contractor": "IV Waste",
    "rowid": "1264336",
    "final_x": "3671885.94907",
    "final_y": "540607.251723",
    "longitude": "-90.09811877436721",
    "latitude": "29.980770974475018",
    "geocoded_column": {
      "latitude": "29.980770974475018",
      "longitude": "-90.09811877436721"
    }
  },
  {
    "service_request": "2026-1264335",
    "request_type": "Trash/Recycling",
    "request_reason": "Request a Large Item Pick Up",
    "date_created": "2026-03-10T14:38:09.000",
    "date_modified": "2026-03-10T14:38:17.000",
    "request_status": "Pending",
    "responsible_agency": "Department of Sanitation",
    "final_address": "4319 St Ann St",
    "address_councildis": "A",
    "status": "Assigned to Contractor",
    "contractor": "IV Waste",
    "rowid": "1264335",
    "final_x": "3671763.55924",
    "final_y": "541168.974732",
    "longitude": "-90.09848621630759",
    "latitude": "29.98231914825386",
    "geocoded_column": {
      "latitude": "29.98231914825386",
      "longitude": "-90.09848621630759"
    }
  },
  {
    "service_request": "2026-1264334",
    "request_type": "Drainage",
    "request_reason": "Catch Basin Not Draining",
    "date_created": "2026-03-10T14:36:54.000",
    "date_modified": "2026-03-10T14:36:56.000",
    "request_status": "Pending",
    "responsible_agency": "Sewerage & Water Board",
    "final_address": "2535 S Carrollton Ave",
    "address_councildis": "A",
    "status": "Pending",
    "rowid": "1264334",
    "final_x": "3665433.77735",
    "final_y": "531933.447299",
    "longitude": "-90.11878803856291",
    "latitude": "29.95711055779636",
    "geocoded_column": {
      "latitude": "29.95711055779636",
      "longitude": "-90.11878803856291"
    }
  },
  {
    "service_request": "2026-1264333",
    "request_type": "Trash/Recycling",
    "request_reason": "Request a Large Item Pick Up",
    "date_created": "2026-03-10T14:35:23.000",
    "date_modified": "2026-03-10T14:35:25.000",
    "request_status": "Pending",
    "responsible_agency": "Department of Sanitation",
    "final_address": "6155 S Laverne St",
    "address_councildis": "D",
    "status": "Assigned to Contractor",
    "contractor": "Waste Pro",
    "rowid": "1264333",
    "final_x": "3696873.31626",
    "final_y": "555490.922329",
    "longitude": "-90.01865875096503",
    "latitude": "30.02093123955977",
    "geocoded_column": {
      "latitude": "30.02093123955977",
      "longitude": "-90.01865875096503"
    }
  },
  {
    "service_request": "2026-1264332",
    "request_type": "Trash/Recycling",
    "request_reason": "Repair Trash Cart",
    "date_created": "2026-03-10T14:34:42.000",
    "date_modified": "2026-03-10T14:42:15.000",
    "request_status": "Pending",
    "responsible_agency": "Department of Sanitation",
    "final_address": "1700 Agriculture St",
    "address_councildis": "D",
    "status": "Assigned to Contractor",
    "contractor": "IV Waste",
    "rowid": "1264332",
    "final_x": "3680711.52175",
    "final_y": "542958.198797",
    "longitude": "-90.07016189006856",
    "latitude": "29.986970704456077",
    "geocoded_column": {
      "latitude": "29.986970704456077",
      "longitude": "-90.07016189006856"
    }
  },
  {
    "service_request": "2026-1264331",
    "request_type": "Trash/Recycling",
    "request_reason": "Request a Large Item Pick Up",
    "date_created": "2026-03-10T14:33:49.000",
    "date_modified": "2026-03-10T14:33:50.000",
    "request_status": "Pending",
    "responsible_agency": "Department of Sanitation",
    "final_address": "742 Jefferson Ave",
    "address_councildis": "A",
    "status": "Assigned to Contractor",
    "contractor": "IV Waste",
    "rowid": "1264331",
    "final_x": "3666536.2969",
    "final_y": "518267.560118",
    "longitude": "-90.11576514913773",
    "latitude": "29.919501566913905",
    "geocoded_column": {
      "latitude": "29.919501566913905",
      "longitude": "-90.11576514913773"
    }
  },
  {
    "service_request": "2026-1264330",
    "request_type": "Streetlights",
    "request_reason": "Streetlight Outage/Malfunction",
    "date_created": "2026-03-10T14:29:47.000",
    "date_modified": "2026-03-10T14:29:48.000",
    "request_status": "Pending",
    "responsible_agency": "Department of Public Works",
    "final_address": "3209 Milan St",
    "address_councildis": "B",
    "status": "Pending",
    "rowid": "1264330",
    "final_x": "3671067.10433",
    "final_y": "526746.70899",
    "longitude": "-90.10117580801932",
    "latitude": "29.942683342636148",
    "geocoded_column": {
      "latitude": "29.942683342636148",
      "longitude": "-90.10117580801932"
    }
  },
  {
    "service_request": "2026-1264329",
    "request_type": "Trash/Recycling",
    "request_reason": "Request a Large Item Pick Up",
    "date_created": "2026-03-10T14:28:09.000",
    "date_modified": "2026-03-10T14:28:11.000",
    "request_status": "Pending",
    "responsible_agency": "Department of Sanitation",
    "final_address": "11721 W Barrington Dr",
    "address_councildis": "E",
    "status": "Assigned to Contractor",
    "contractor": "Waste Pro",
    "rowid": "1264329",
    "final_x": "3713925.35199",
    "final_y": "565552.44829",
    "longitude": "-89.96440001400003",
    "latitude": "30.048047433254943",
    "geocoded_column": {
      "latitude": "30.048047433254943",
      "longitude": "-89.96440001400003"
    }
  },
  {
    "service_request": "2026-1264328",
    "request_type": "Trash/Recycling",
    "request_reason": "Request a Large Item Pick Up",
    "date_created": "2026-03-10T14:27:27.000",
    "date_modified": "2026-03-10T14:27:29.000",
    "request_status": "Pending",
    "responsible_agency": "Department of Sanitation",
    "final_address": "4538 Shalimar Dr",
    "address_councildis": "D",
    "status": "Assigned to Contractor",
    "contractor": "Waste Pro",
    "rowid": "1264328",
    "final_x": "3697208.0929",
    "final_y": "553206.524055",
    "longitude": "-90.01768383628247",
    "latitude": "30.014639442115257",
    "geocoded_column": {
      "latitude": "30.014639442115257",
      "longitude": "-90.01768383628247"
    }
  },
  {
    "service_request": "2026-1264327",
    "request_type": "Trash/Recycling",
    "request_reason": "Illegal Dumping",
    "date_created": "2026-03-10T14:26:04.000",
    "date_modified": "2026-03-10T14:26:06.000",
    "request_status": "Pending",
    "responsible_agency": "Department of Sanitation",
    "final_address": "5900 Beechcraft St",
    "address_councildis": "D",
    "status": "Pending",
    "rowid": "1264327",
    "final_x": "3696298.99997",
    "final_y": "553259.043095",
    "longitude": "-90.02055421037453",
    "latitude": "30.014812519547167",
    "geocoded_column": {
      "latitude": "30.014812519547167",
      "longitude": "-90.02055421037453"
    }
  },
  {
    "service_request": "2026-1264326",
    "request_type": "Trash/Recycling",
    "request_reason": "Request a Large Item Pick Up",
    "date_created": "2026-03-10T14:24:54.000",
    "date_modified": "2026-03-10T14:24:56.000",
    "request_status": "Pending",
    "responsible_agency": "Department of Sanitation",
    "final_address": "5906 Beechcraft St",
    "address_councildis": "D",
    "status": "Assigned to Contractor",
    "contractor": "Waste Pro",
    "rowid": "1264326",
    "final_x": "3696322.32432",
    "final_y": "553259.396567",
    "longitude": "-90.02048050426829",
    "latitude": "30.0148127566708",
    "geocoded_column": {
      "latitude": "30.0148127566708",
      "longitude": "-90.02048050426829"
    }
  },
  {
    "service_request": "2026-1264325",
    "request_type": "Trash/Recycling",
    "request_reason": "Repair Trash Cart",
    "date_created": "2026-03-10T14:22:46.000",
    "date_modified": "2026-03-10T14:22:48.000",
    "request_status": "Pending",
    "responsible_agency": "Department of Sanitation",
    "final_address": "5900 Providence Pl",
    "address_councildis": "D",
    "status": "Assigned to Contractor",
    "contractor": "IV Waste",
    "rowid": "1264325",
    "final_x": "3688140.41423",
    "final_y": "554993.352409",
    "longitude": "-90.04626978810329",
    "latitude": "30.01983571945994",
    "geocoded_column": {
      "latitude": "30.01983571945994",
      "longitude": "-90.04626978810329"
    }
  },
  {
    "service_request": "2026-1264324",
    "request_type": "Property Maintenance",
    "request_reason": "Property Maintenance",
    "date_created": "2026-03-10T14:22:21.000",
    "date_modified": "2026-03-10T14:22:23.000",
    "request_status": "Pending",
    "responsible_agency": "Department of Code Enforcement",
    "final_address": "6747 Tara Ln",
    "address_councildis": "E",
    "status": "Pending",
    "rowid": "1264324",
    "final_x": "3707561.93457",
    "final_y": "559029.750172",
    "longitude": "-89.98475449822814",
    "latitude": "30.030320101220116",
    "geocoded_column": {
      "latitude": "30.030320101220116",
      "longitude": "-89.98475449822814"
    }
  },
  {
    "service_request": "2026-1264323",
    "request_type": "Safety & Permits",
    "request_reason": "Licenses & Permits",
    "date_created": "2026-03-10T14:20:26.000",
    "date_modified": "2026-03-10T14:21:49.000",
    "request_status": "Pending",
    "responsible_agency": "Safety and Permits",
    "final_address": "2238 Franklin Ave",
    "address_councildis": "D",
    "status": "Pending",
    "rowid": "1264323",
    "final_x": "3687501.56738",
    "final_y": "540874.822603",
    "longitude": "-90.04878843290476",
    "latitude": "29.981034592738904",
    "geocoded_column": {
      "latitude": "29.981034592738904",
      "longitude": "-90.04878843290476"
    }
  },
  {
    "service_request": "2026-1264322",
    "request_type": "Trash/Recycling",
    "request_reason": "Request a Large Item Pick Up",
    "date_created": "2026-03-10T14:18:35.000",
    "date_modified": "2026-03-10T14:18:37.000",
    "request_status": "Pending",
    "responsible_agency": "Department of Sanitation",
    "final_address": "3912 Louisiana Avenue Prkwy",
    "address_councildis": "B",
    "status": "Assigned to Contractor",
    "contractor": "IV Waste",
    "rowid": "1264322",
    "final_x": "3671104.12692",
    "final_y": "529160.953664",
    "longitude": "-90.10097694010916",
    "latitude": "29.949320631541116",
    "geocoded_column": {
      "latitude": "29.949320631541116",
      "longitude": "-90.10097694010916"
    }
  },
  {
    "service_request": "2026-1264321",
    "request_type": "Trash/Recycling",
    "request_reason": "Request a Large Item Pick Up",
    "date_created": "2026-03-10T14:15:28.000",
    "date_modified": "2026-03-10T15:16:35.000",
    "request_status": "Pending",
    "responsible_agency": "Department of Sanitation",
    "final_address": "3415 Fern St",
    "address_councildis": "B",
    "status": "Assigned to Contractor",
    "contractor": "IV Waste",
    "rowid": "1264321",
    "final_x": "3667958.21338",
    "final_y": "533700.364293",
    "longitude": "-90.11075709262828",
    "latitude": "29.96189518033477",
    "geocoded_column": {
      "latitude": "29.96189518033477",
      "longitude": "-90.11075709262828"
    }
  },
  {
    "service_request": "2026-1264320",
    "request_type": "Trash/Recycling",
    "request_reason": "Repair Trash Cart",
    "date_created": "2026-03-10T14:14:39.000",
    "date_modified": "2026-03-10T14:14:41.000",
    "request_status": "Pending",
    "responsible_agency": "Department of Sanitation",
    "final_address": "130 S Alexander St",
    "address_councildis": "A",
    "status": "Assigned to Contractor",
    "contractor": "IV Waste",
    "rowid": "1264320",
    "final_x": "3669833.55489",
    "final_y": "538898.309514",
    "longitude": "-90.10465903406704",
    "latitude": "29.976132637751927",
    "geocoded_column": {
      "latitude": "29.976132637751927",
      "longitude": "-90.10465903406704"
    }
  },
  {
    "service_request": "2026-1264319",
    "request_type": "Abandoned Vehicles",
    "request_reason": "Abandoned/Junk Vehicles",
    "date_created": "2026-03-10T14:14:01.000",
    "date_modified": "2026-03-10T14:14:03.000",
    "request_status": "Pending",
    "responsible_agency": "Department of Public Works",
    "final_address": "2927 Washington Ave",
    "address_councildis": "B",
    "status": "Pending",
    "rowid": "1264319",
    "final_x": "3673338.12673",
    "final_y": "526602.990078",
    "longitude": "-90.09401055271526",
    "latitude": "29.942220817612046",
    "geocoded_column": {
      "latitude": "29.942220817612046",
      "longitude": "-90.09401055271526"
    }
  },
  {
    "service_request": "2026-1264318",
    "request_type": "Trash/Recycling",
    "request_reason": "Repair Trash Cart",
    "date_created": "2026-03-10T14:13:32.000",
    "date_modified": "2026-03-10T14:43:15.000",
    "request_status": "Pending",
    "responsible_agency": "Department of Sanitation",
    "final_address": "781 Germain St",
    "address_councildis": "A",
    "status": "Assigned to Contractor",
    "contractor": "IV Waste",
    "rowid": "1264318",
    "final_x": "3669197.9755",
    "final_y": "547927.938386",
    "longitude": "-90.10636101104184",
    "latitude": "30.000979752488394",
    "geocoded_column": {
      "latitude": "30.000979752488394",
      "longitude": "-90.10636101104184"
    }
  },
  {
    "service_request": "2026-1264317",
    "request_type": "Trash/Recycling",
    "request_reason": "Missed Trash Pick-Up",
    "date_created": "2026-03-10T14:13:23.000",
    "date_modified": "2026-03-10T15:36:53.000",
    "case_close_date": "2026-03-10T10:36:52.000",
    "request_status": "Closed",
    "responsible_agency": "Department of Sanitation",
    "final_address": "3307 Eagle St",
    "address_councildis": "A",
    "status": "Invalid Request",
    "contractor": "IV Waste",
    "contractor_action": "Invalid Request",
    "rowid": "1264317",
    "final_x": "3665251.74074",
    "final_y": "535613.175046",
    "longitude": "-90.11923974046749",
    "latitude": "29.96723390516236",
    "geocoded_column": {
      "latitude": "29.96723390516236",
      "longitude": "-90.11923974046749"
    }
  },
  {
    "service_request": "2026-1264316",
    "request_type": "Trash/Recycling",
    "request_reason": "Request a Large Item Pick Up",
    "date_created": "2026-03-10T14:11:17.000",
    "date_modified": "2026-03-10T14:11:20.000",
    "request_status": "Pending",
    "responsible_agency": "Department of Sanitation",
    "final_address": "6984 Queensway Dr",
    "address_councildis": "E",
    "status": "Assigned to Contractor",
    "contractor": "Waste Pro",
    "rowid": "1264316",
    "final_x": "3719355.27429",
    "final_y": "569152.90007",
    "longitude": "-89.94710091030844",
    "latitude": "30.057767697791764",
    "geocoded_column": {
      "latitude": "30.057767697791764",
      "longitude": "-89.94710091030844"
    }
  },
  {
    "service_request": "2026-1264315",
    "request_type": "Graffiti Removal",
    "request_reason": "Graffiti Removal",
    "date_created": "2026-03-10T14:10:54.000",
    "date_modified": "2026-03-10T14:48:05.000",
    "case_close_date": "2026-03-10T09:48:04.000",
    "request_status": "Closed",
    "responsible_agency": "Department of Code Enforcement",
    "final_address": "605 Ninth St",
    "address_councildis": "B",
    "status": "Closed",
    "rowid": "1264315",
    "final_x": "3676853.92104",
    "final_y": "518612.842807",
    "longitude": "-90.08318563939218",
    "latitude": "29.920145490672436",
    "geocoded_column": {
      "latitude": "29.920145490672436",
      "longitude": "-90.08318563939218"
    }
  },
  {
    "service_request": "2026-1264314",
    "request_type": "Abandoned Vehicles",
    "request_reason": "Abandoned/Junk Vehicles",
    "date_created": "2026-03-10T14:08:21.000",
    "date_modified": "2026-03-10T14:08:23.000",
    "request_status": "Pending",
    "responsible_agency": "Department of Public Works",
    "final_address": "2927 Washington Ave",
    "address_councildis": "B",
    "status": "Pending",
    "rowid": "1264314",
    "final_x": "3673338.12673",
    "final_y": "526602.990078",
    "longitude": "-90.09401055271526",
    "latitude": "29.942220817612046",
    "geocoded_column": {
      "latitude": "29.942220817612046",
      "longitude": "-90.09401055271526"
    }
  },
  {
    "service_request": "2026-1264313",
    "request_type": "Roads and Streets",
    "request_reason": "Sidewalk Damaged or Missing",
    "date_created": "2026-03-10T14:04:23.000",
    "date_modified": "2026-03-10T14:05:34.000",
    "request_status": "Pending",
    "responsible_agency": "Department of Public Works",
    "final_address": "848 Harrison Ave",
    "address_councildis": "A",
    "status": "Pending",
    "rowid": "1264313",
    "final_x": "3669766.08046",
    "final_y": "549034.592147",
    "longitude": "-90.10452882573644",
    "latitude": "30.00400592568403",
    "geocoded_column": {
      "latitude": "30.00400592568403",
      "longitude": "-90.10452882573644"
    }
  },
  {
    "service_request": "2026-1264312",
    "request_type": "Trash/Recycling",
    "request_reason": "Request a Large Item Pick Up",
    "date_created": "2026-03-10T14:03:44.000",
    "date_modified": "2026-03-10T14:03:45.000",
    "request_status": "Pending",
    "responsible_agency": "Department of Sanitation",
    "final_address": "216 N Norman C Francis Prkwy",
    "address_councildis": "B",
    "status": "Assigned to Contractor",
    "contractor": "IV Waste",
    "rowid": "1264312",
    "final_x": "3673677.69332",
    "final_y": "537101.452552",
    "longitude": "-90.09257954906465",
    "latitude": "29.971077989624032",
    "geocoded_column": {
      "latitude": "29.971077989624032",
      "longitude": "-90.09257954906465"
    }
  },
  {
    "service_request": "2026-1264311",
    "request_type": "Trash/Recycling",
    "request_reason": "Request a Large Item Pick Up",
    "date_created": "2026-03-10T14:00:16.000",
    "date_modified": "2026-03-10T14:00:18.000",
    "request_status": "Pending",
    "responsible_agency": "Department of Sanitation",
    "final_address": "5140 Lakeview Ct",
    "address_councildis": "E",
    "status": "Assigned to Contractor",
    "contractor": "Waste Pro",
    "rowid": "1264311",
    "final_x": "3698789.7946",
    "final_y": "556323.081114",
    "longitude": "-90.01257296103665",
    "latitude": "30.023158759132535",
    "geocoded_column": {
      "latitude": "30.023158759132535",
      "longitude": "-90.01257296103665"
    }
  },
  {
    "service_request": "2026-1264310",
    "request_type": "Trash/Recycling",
    "request_reason": "Request a Large Item Pick Up",
    "date_created": "2026-03-10T14:00:02.000",
    "date_modified": "2026-03-10T14:00:04.000",
    "request_status": "Pending",
    "responsible_agency": "Department of Sanitation",
    "final_address": "1608 Milan St",
    "address_councildis": "B",
    "status": "Assigned to Contractor",
    "contractor": "IV Waste",
    "rowid": "1264310",
    "final_x": "3671553.67163",
    "final_y": "521041.868025",
    "longitude": "-90.09983349195188",
    "latitude": "29.926982477586133",
    "geocoded_column": {
      "latitude": "29.926982477586133",
      "longitude": "-90.09983349195188"
    }
  },
  {
    "service_request": "2026-1264309",
    "request_type": "Traffic Signals",
    "request_reason": "Traffic Signal Malfunctioning or Damaged",
    "date_created": "2026-03-10T13:55:52.000",
    "date_modified": "2026-03-10T13:55:54.000",
    "request_status": "Pending",
    "responsible_agency": "Department of Public Works",
    "final_address": "FRANKLIN AVE & ROBERT E LEE BLVD",
    "address_councildis": "D",
    "status": "Pending",
    "rowid": "1264309",
    "final_x": "3686324.6",
    "final_y": "555939.08",
    "longitude": "-90.05197374601998",
    "latitude": "30.022492077114148",
    "geocoded_column": {
      "latitude": "30.022492077114148",
      "longitude": "-90.05197374601998"
    }
  },
  {
    "service_request": "2026-1264308",
    "request_type": "Abandoned Vehicles",
    "request_reason": "Abandoned/Junk Vehicles",
    "date_created": "2026-03-10T13:55:45.000",
    "date_modified": "2026-03-10T13:55:46.000",
    "request_status": "Pending",
    "responsible_agency": "Department of Public Works",
    "final_address": "5534 Willow St Apt A",
    "address_councildis": "A",
    "status": "Pending",
    "rowid": "1264308",
    "final_x": "3667601.70605",
    "final_y": "525390.607485",
    "longitude": "-90.11216255126764",
    "latitude": "29.939056510528175",
    "geocoded_column": {
      "latitude": "29.939056510528175",
      "longitude": "-90.11216255126764"
    }
  },
  {
    "service_request": "2026-1264307",
    "request_type": "Drainage",
    "request_reason": "Catch Basin Not Draining",
    "date_created": "2026-03-10T13:54:21.000",
    "date_modified": "2026-03-10T13:54:22.000",
    "request_status": "Pending",
    "responsible_agency": "Sewerage & Water Board",
    "final_address": "1218 Murl St",
    "address_councildis": "C",
    "status": "Pending",
    "rowid": "1264307",
    "final_x": "3695492.97494",
    "final_y": "526859.57011",
    "longitude": "-90.02405391557248",
    "latitude": "29.942248846044063",
    "geocoded_column": {
      "latitude": "29.942248846044063",
      "longitude": "-90.02405391557248"
    }
  },
  {
    "service_request": "2026-1264306",
    "request_type": "Trash/Recycling",
    "request_reason": "Order Trash Cart",
    "date_created": "2026-03-10T13:53:32.000",
    "date_modified": "2026-03-10T13:53:36.000",
    "request_status": "Pending",
    "responsible_agency": "Department of Sanitation",
    "final_address": "3122 Broadway St",
    "address_councildis": "B",
    "status": "Assigned to Contractor",
    "contractor": "IV Waste",
    "rowid": "1264306",
    "final_x": "3668010.49965",
    "final_y": "532331.812611",
    "longitude": "-90.11063809569947",
    "latitude": "29.9581305803706",
    "geocoded_column": {
      "latitude": "29.9581305803706",
      "longitude": "-90.11063809569947"
    }
  },
  {
    "service_request": "2026-1264305",
    "request_type": "Trash/Recycling",
    "request_reason": "Repair Trash Cart",
    "date_created": "2026-03-10T13:51:09.000",
    "date_modified": "2026-03-10T14:44:23.000",
    "request_status": "Pending",
    "responsible_agency": "Department of Sanitation",
    "final_address": "4601 Longfellow Dr",
    "address_councildis": "E",
    "status": "Assigned to Contractor",
    "contractor": "Waste Pro",
    "rowid": "1264305",
    "final_x": "3709783.24984",
    "final_y": "554880.658264",
    "longitude": "-89.97789028369054",
    "latitude": "30.018839653654233",
    "geocoded_column": {
      "latitude": "30.018839653654233",
      "longitude": "-89.97789028369054"
    }
  },
  {
    "service_request": "2026-1264304",
    "request_type": "Trash/Recycling",
    "request_reason": "Request a Large Item Pick Up",
    "date_created": "2026-03-10T13:50:36.000",
    "date_modified": "2026-03-10T13:50:40.000",
    "request_status": "Pending",
    "responsible_agency": "Department of Sanitation",
    "final_address": "4661 Viola St",
    "address_councildis": "E",
    "status": "Assigned to Contractor",
    "contractor": "Waste Pro",
    "rowid": "1264304",
    "final_x": "3704078.22762",
    "final_y": "554742.181208",
    "longitude": "-89.99592109812208",
    "latitude": "30.01864322291585",
    "geocoded_column": {
      "latitude": "30.01864322291585",
      "longitude": "-89.99592109812208"
    }
  },
  {
    "service_request": "2026-1264303",
    "request_type": "Trash/Recycling",
    "request_reason": "Request a Large Item Pick Up",
    "date_created": "2026-03-10T13:50:17.000",
    "date_modified": "2026-03-10T13:50:19.000",
    "request_status": "Pending",
    "responsible_agency": "Department of Sanitation",
    "final_address": "4825 Rosalia Dr",
    "address_councildis": "E",
    "status": "Assigned to Contractor",
    "contractor": "Waste Pro",
    "rowid": "1264303",
    "final_x": "3711196.16574",
    "final_y": "556467.320922",
    "longitude": "-89.97336651422455",
    "latitude": "30.02315632210817",
    "geocoded_column": {
      "latitude": "30.02315632210817",
      "longitude": "-89.97336651422455"
    }
  },
  {
    "service_request": "2026-1264302",
    "request_type": "Trash/Recycling",
    "request_reason": "Request a Large Item Pick Up",
    "date_created": "2026-03-10T13:46:55.000",
    "date_modified": "2026-03-10T13:49:11.000",
    "request_status": "Pending",
    "responsible_agency": "Department of Sanitation",
    "final_address": "10720 Dwyer Rd",
    "address_councildis": "E",
    "status": "Assigned to Contractor",
    "contractor": "Waste Pro",
    "rowid": "1264302",
    "final_x": "3715091.15717",
    "final_y": "558237.549916",
    "longitude": "-89.96099233746612",
    "latitude": "30.027896062097",
    "geocoded_column": {
      "latitude": "30.027896062097",
      "longitude": "-89.96099233746612"
    }
  },
  {
    "service_request": "2026-1264301",
    "request_type": "Abandoned Vehicles",
    "request_reason": "Abandoned/Junk Vehicles",
    "date_created": "2026-03-10T13:45:42.000",
    "date_modified": "2026-03-10T13:45:43.000",
    "request_status": "Pending",
    "responsible_agency": "Department of Public Works",
    "final_address": "1546 N Broad St",
    "address_councildis": "D",
    "status": "Pending",
    "rowid": "1264301",
    "final_x": "3678997.21038",
    "final_y": "539865.44321",
    "longitude": "-90.07568399747666",
    "latitude": "29.978518555078683",
    "geocoded_column": {
      "latitude": "29.978518555078683",
      "longitude": "-90.07568399747666"
    }
  },