[
  {
    "service_request": "2023-1054547",
    "request_type": "Abandoned Vehicles",
    "request_reason": "Abandoned/Junk Vehicles",
    "date_created": "2023-12-08T02:09:10.000",
    "date_modified": "2023-12-08T02:09:10.000",
    "request_status": "Pending",
    "responsible_agency": "Department of Public Works",
    "final_address": "2005 Lafitte Ave",
    "address_councildis": "D",
    "status": "Pending",
    "rowid": "1054547",
    "final_x": "3678617.3435",
    "final_y": "535028.922566",
    "longitude": "-90.07705123574998",
    "latitude": "29.965231241361433",
    "geocoded_column": {
      "latitude": "29.965231241361433",
      "longitude": "-90.07705123574998"
    }
  },
  {
    "service_request": "2023-1054546",
    "request_type": "Traffic Signals/Signs/Striping/Streetlights",
    "request_reason": "Street Light Outage/Malfunction",
    "date_created": "2023-12-08T00:35:53.000",
    "date_modified": "2023-12-08T00:35:54.000",
    "request_status": "Pending",
    "responsible_agency": "Department of Public Works",
    "final_address": "6568 Milne Blvd",
    "address_councildis": "A",
    "status": "Assigned to Contractor",
    "contractor": "Legacy Professional Services",
    "rowid": "1054546",
    "final_x": "3667309.58113",
    "final_y": "551399.942613",
    "longitude": "-90.11220973066722",
    "latitude": "30.010582022245945",
    "geocoded_column": {
      "latitude": "30.010582022245945",
      "longitude": "-90.11220973066722"
    }
  },
  {
    "service_request": "2023-1054545",
    "request_type": "Trash/Recycling",
    "request_reason": "Replace Trash Cart",
    "date_created": "2023-12-08T00:01:56.000",
    "date_modified": "2023-12-08T00:01:57.000",
    "request_status": "Pending",
    "responsible_agency": "Department of Sanitation",
    "final_address": "2209 General Collins Ave",
    "address_councildis": "C",
    "status": "Assigned to Contractor",
    "contractor": "Richards Disposal",
    "rowid": "1054545",
    "final_x": "3698414.3032",
    "final_y": "522917.609851",
    "longitude": "-90.01497388632511",
    "latitude": "29.931317713688518",
    "geocoded_column": {
      "latitude": "29.931317713688518",
      "longitude": "-90.01497388632511"
    }
  },
  {
    "service_request": "2023-1054544",
    "request_type": "Roads/Drainage",
    "request_reason": "Pothole",
    "date_created": "2023-12-07T23:31:38.000",
    "date_modified": "2023-12-07T23:31:38.000",
    "request_status": "Pending",
    "responsible_agency": "Department of Public Works",
    "final_address": "1301 Constantinople St",
    "address_councildis": "B",
    "status": "Pending",
    "rowid": "1054544",
    "final_x": "3672430.66305",
    "final_y": "520250.7726",
    "longitude": "-90.09709199725775",
    "latitude": "29.924781230435865",
    "geocoded_column": {
      "latitude": "29.924781230435865",
      "longitude": "-90.09709199725775"
    }
  },
  {
    "service_request": "2023-1054543",
    "request_type": "Trash/Recycling",
    "request_reason": "Replace Recycling Cart",
    "date_created": "2023-12-07T22:25:38.000",
    "date_modified": "2023-12-07T22:25:38.000",
    "request_status": "Pending",
    "responsible_agency": "Department of Sanitation",
    "final_address": "1036 Soniat St",
    "address_councildis": "B",
    "status": "Pending",
    "rowid": "1054543",
    "final_x": "3668319.45338",
    "final_y": "519263.105143",
    "longitude": "-90.11010304809294",
    "latitude": "29.9221867809085",
    "geocoded_column": {
      "latitude": "29.9221867809085",
      "longitude": "-90.11010304809294"
    }
  },
  {
    "service_request": "2023-1054542",
    "request_type": "Trash/Recycling",
    "request_reason": "Replace Recycling Cart",
    "date_created": "2023-12-07T22:23:45.000",
    "date_modified": "2023-12-07T22:23:45.000",
    "request_status": "Pending",
    "responsible_agency": "Department of Sanitation",
    "final_address": "1036 Soniat St",
    "address_councildis": "B",
    "status": "Pending",
    "rowid": "1054542",
    "final_x": "3668319.45338",
    "final_y": "519263.105143",
    "longitude": "-90.11010304809294",
    "latitude": "29.9221867809085",
    "geocoded_column": {
      "latitude": "29.9221867809085",
      "longitude": "-90.11010304809294"
    }
  },
  {
    "service_request": "2023-1054541",
    "request_type": "Roads/Drainage",
    "request_reason": "Pothole",
    "date_created": "2023-12-07T22:21:56.000",
    "date_modified": "2023-12-07T22:21:56.000",
    "request_status": "Pending",
    "responsible_agency": "Department of Public Works",
    "final_address": "6030 Benjamin St",
    "address_councildis": "A",
    "status": "Pending",
    "rowid": "1054541",
    "final_x": "3665294.82272",
    "final_y": "522097.453754",
    "longitude": "-90.1195558218563",
    "latitude": "29.930068785218353",
    "geocoded_column": {
      "latitude": "29.930068785218353",
      "longitude": "-90.1195558218563"
    }
  },
  {
    "service_request": "2023-1054540",
    "request_type": "Roads/Drainage",
    "request_reason": "Pothole",
    "date_created": "2023-12-07T22:18:14.000",
    "date_modified": "2023-12-07T22:18:14.000",
    "request_status": "Pending",
    "responsible_agency": "Department of Public Works",
    "final_address": "1220 State St",
    "address_councildis": "A",
    "status": "Pending",
    "rowid": "1054540",
    "final_x": "3665043.24647",
    "final_y": "520712.994745",
    "longitude": "-90.12039627443846",
    "latitude": "29.926269284939202",
    "geocoded_column": {
      "latitude": "29.926269284939202",
      "longitude": "-90.12039627443846"
    }
  },
  {
    "service_request": "2023-1054539",
    "request_type": "Roads/Drainage",
    "request_reason": "Pothole",
    "date_created": "2023-12-07T22:15:31.000",
    "date_modified": "2023-12-07T22:15:31.000",
    "request_status": "Pending",
    "responsible_agency": "Department of Public Works",
    "final_address": "1521 Webster St",
    "address_councildis": "A",
    "status": "Pending",
    "rowid": "1054539",
    "final_x": "3665172.71917",
    "final_y": "522143.293626",
    "longitude": "-90.11993975188861",
    "latitude": "29.93019838632039",
    "geocoded_column": {
      "latitude": "29.93019838632039",
      "longitude": "-90.11993975188861"
    }
  },
  {
    "service_request": "2023-1054538",
    "request_type": "Trash/Recycling",
    "request_reason": "Order Trash Cart",
    "date_created": "2023-12-07T21:56:57.000",
    "date_modified": "2023-12-07T21:56:58.000",
    "request_status": "Pending",
    "responsible_agency": "Department of Sanitation",
    "final_address": "2026 Allen St",
    "address_councildis": "D",
    "status": "Assigned to Contractor",
    "contractor": "IV Waste",
    "rowid": "1054538",
    "final_x": "3682457.6468",
    "final_y": "539635.136394",
    "longitude": "-90.06476272777304",
    "latitude": "29.977780403313716",
    "geocoded_column": {
      "latitude": "29.977780403313716",
      "longitude": "-90.06476272777304"
    }
  },
  {
    "service_request": "2023-1054537",
    "request_type": "EMS",
    "request_reason": "EMS General",
    "date_created": "2023-12-07T21:33:49.000",
    "date_modified": "2023-12-07T21:33:49.000",
    "request_status": "Pending",
    "responsible_agency": "Emergency Medical Services",
    "final_address": " & BALDWIN ST",
    "address_councildis": "D",
    "status": "Pending",
    "rowid": "1054537",
    "final_x": "3687880.8",
    "final_y": "560035.64",
    "longitude": "-90.04691121641319",
    "latitude": "30.03370814054373",
    "geocoded_column": {
      "latitude": "30.03370814054373",
      "longitude": "-90.04691121641319"
    }
  },
  {
    "service_request": "2023-1054536",
    "request_type": "Property Maintenance",
    "request_reason": "Property Maintenance",
    "date_created": "2023-12-07T21:28:52.000",
    "date_modified": "2023-12-07T21:28:52.000",
    "request_status": "Pending",
    "responsible_agency": "Department of Code Enforcement",
    "final_address": "1442 Louisiana Ave",
    "address_councildis": "B",
    "status": "Pending",
    "rowid": "1054536",
    "final_x": "3674404.98401",
    "final_y": "520862.038585",
    "longitude": "-90.09083878848466",
    "latitude": "29.9264032969456",
    "geocoded_column": {
      "latitude": "29.9264032969456",
      "longitude": "-90.09083878848466"
    }
  },
  {
    "service_request": "2023-1054535",
    "request_type": "Trash/Recycling",
    "request_reason": "MIssed Recycling Pick-Up",
    "date_created": "2023-12-07T21:06:30.000",
    "date_modified": "2023-12-07T21:06:31.000",
    "request_status": "Pending",
    "responsible_agency": "Department of Sanitation",
    "final_address": "5516 Dauphine St",
    "address_councildis": "E",
    "status": "Assigned to Contractor",
    "contractor": "Waste Pro",
    "rowid": "1054535",
    "final_x": "3697555.75952",
    "final_y": "532620.609668",
    "longitude": "-90.01733238695968",
    "latitude": "29.958024713093863",
    "geocoded_column": {
      "latitude": "29.958024713093863",
      "longitude": "-90.01733238695968"
    }
  },
  {
    "service_request": "2023-1054534",
    "request_type": "Traffic Signals/Signs/Striping/Streetlights",
    "request_reason": "Street Light Outage/Malfunction",
    "date_created": "2023-12-07T20:51:18.000",
    "date_modified": "2023-12-07T20:51:19.000",
    "request_status": "Pending",
    "responsible_agency": "Department of Public Works",
    "final_address": "3221 Laurel St",
    "address_councildis": "B",
    "status": "Assigned to Contractor",
    "contractor": "Legacy Professional Services",
    "rowid": "1054534",
    "final_x": "3675953.58081",
    "final_y": "519287.504759",
    "longitude": "-90.0860044036573",
    "latitude": "29.92202757329186",
    "geocoded_column": {
      "latitude": "29.92202757329186",
      "longitude": "-90.0860044036573"
    }
  },
  {
    "service_request": "2023-1054533",
    "request_type": "Trash/Recycling",
    "request_reason": "Illegal Dumping",
    "date_created": "2023-12-07T20:37:48.000",
    "date_modified": "2023-12-07T20:37:48.000",
    "request_status": "Pending",
    "responsible_agency": "Department of Sanitation",
    "final_address": "2628 N Roman St",
    "address_councildis": "D",
    "status": "Pending",
    "rowid": "1054533",
    "final_x": "3688034.08323",
    "final_y": "538989.620874",
    "longitude": "-90.04717334842266",
    "latitude": "29.975834529073385",
    "geocoded_column": {
      "latitude": "29.975834529073385",
      "longitude": "-90.04717334842266"
    }
  },
  {
    "service_request": "2023-1054532",
    "request_type": "Traffic Signals/Signs/Striping/Streetlights",
    "request_reason": "Street Light Outage/Malfunction",
    "date_created": "2023-12-07T20:03:35.000",
    "date_modified": "2023-12-07T20:03:36.000",
    "request_status": "Pending",
    "responsible_agency": "Department of Public Works",
    "final_address": "6155 Warwick Ct",
    "address_councildis": "C",
    "status": "Assigned to Contractor",
    "contractor": "Legacy Professional Services",
    "rowid": "1054532",
    "final_x": "3706796.7171",
    "final_y": "515828.555828",
    "longitude": "-89.98877448361388",
    "latitude": "29.911557431938686",
    "geocoded_column": {
      "latitude": "29.911557431938686",
      "longitude": "-89.98877448361388"
    }
  },
  {
    "service_request": "2023-1054531",
    "request_type": "Trash/Recycling",
    "request_reason": "Order Trash Cart",
    "date_created": "2023-12-07T20:00:47.000",
    "date_modified": "2023-12-07T20:01:12.000",
    "request_status": "Pending",
    "responsible_agency": "Department of Sanitation",
    "final_address": "2300 St Andrew St",
    "address_councildis": "B",
    "status": "Assigned to Contractor",
    "contractor": "Richards Disposal",
    "rowid": "1054531",
    "final_x": "3676511.73576",
    "final_y": "526222.42515",
    "longitude": "-90.08400386334569",
    "latitude": "29.9410796249164",
    "geocoded_column": {
      "latitude": "29.9410796249164",
      "longitude": "-90.08400386334569"
    }
  },
  {
    "service_request": "2023-1054530",
    "request_type": "Traffic Signals/Signs/Striping/Streetlights",
    "request_reason": "Street Light Outage/Malfunction",
    "date_created": "2023-12-07T19:57:08.000",
    "date_modified": "2023-12-07T19:57:09.000",
    "request_status": "Pending",
    "responsible_agency": "Department of Public Works",
    "final_address": "4305 Genoa St",
    "address_councildis": "E",
    "status": "Assigned to Contractor",
    "contractor": "Legacy Professional Services",
    "rowid": "1054530",
    "final_x": "3760890.42557",
    "final_y": "573148.737065",
    "longitude": "-89.81564958142262",
    "latitude": "30.067307347068233",
    "geocoded_column": {
      "latitude": "30.067307347068233",
      "longitude": "-89.81564958142262"
    }
  },
  {
    "service_request": "2023-1054529",
    "request_type": "Property Maintenance",
    "request_reason": "Property Maintenance",
    "date_created": "2023-12-07T19:52:52.000",
    "date_modified": "2023-12-07T19:52:52.000",
    "request_status": "Pending",
    "responsible_agency": "Department of Code Enforcement",
    "final_address": "4900 BLK Cardenas Dr",
    "address_councildis": "E",
    "status": "Pending",
    "rowid": "1054529",
    "final_x": "3713567.51574",
    "final_y": "557513.24106",
    "longitude": "-89.96583420422527",
    "latitude": "30.02595458770032",
    "geocoded_column": {
      "latitude": "30.02595458770032",
      "longitude": "-89.96583420422527"
    }
  },
  {
    "service_request": "2023-1054528",
    "request_type": "Trash/Recycling",
    "request_reason": "Request a Large Item Pick Up",
    "date_created": "2023-12-07T19:39:23.000",
    "date_modified": "2023-12-07T19:39:24.000",
    "request_status": "Pending",
    "responsible_agency": "Department of Sanitation",
    "final_address": "4617 Rosemont Pl Apt A",
    "address_councildis": "E",
    "status": "Assigned to Contractor",
    "contractor": "Waste Pro",
    "rowid": "1054528",
    "final_x": "3702864.26698",
    "final_y": "554206.606808",
    "longitude": "-89.9997764419282",
    "latitude": "30.017209502686562",
    "geocoded_column": {
      "latitude": "30.017209502686562",
      "longitude": "-89.9997764419282"
    }
  },
  {
    "service_request": "2023-1054527",
    "request_type": "Abandoned Vehicles",
    "request_reason": "Abandoned/Junk Vehicles",
    "date_created": "2023-12-07T19:00:55.000",
    "date_modified": "2023-12-07T19:00:55.000",
    "request_status": "Pending",
    "responsible_agency": "Department of Public Works",
    "final_address": "S JOHNSON ST & CADIZ ST",
    "address_councildis": "B",
    "status": "Pending",
    "rowid": "1054527",
    "final_x": "3669467.1",
    "final_y": "527147.38",
    "longitude": "-90.10621386421522",
    "latitude": "29.94383226990395",
    "geocoded_column": {
      "latitude": "29.94383226990395",
      "longitude": "-90.10621386421522"
    }
  },
  {
    "service_request": "2023-1054526",
    "request_type": "Abandoned Vehicles",
    "request_reason": "Abandoned/Junk Vehicles",
    "date_created": "2023-12-07T18:58:58.000",
    "date_modified": "2023-12-07T18:58:58.000",
    "request_status": "Pending",
    "responsible_agency": "Department of Public Works",
    "final_address": "S JOHNSON ST & CADIZ ST",
    "address_councildis": "B",
    "status": "Pending",
    "rowid": "1054526",
    "final_x": "3669467.1",
    "final_y": "527147.38",
    "longitude": "-90.10621386421522",
    "latitude": "29.94383226990395",
    "geocoded_column": {
      "latitude": "29.94383226990395",
      "longitude": "-90.10621386421522"
    }
  },
  {
    "service_request": "2023-1054525",
    "request_type": "Traffic Signals/Signs/Striping/Streetlights",
    "request_reason": "Street Light Knocked Down/Leaning",
    "date_created": "2023-12-07T18:56:30.000",
    "date_modified": "2023-12-07T18:56:31.000",
    "request_status": "Pending",
    "responsible_agency": "Department of Public Works",
    "final_address": "6043 Boeing St",
    "address_councildis": "D",
    "status": "Pending",
    "contractor": "Legacy Professional Services",
    "rowid": "1054525",
    "final_x": "3696693.97079",
    "final_y": "552976.018775",
    "longitude": "-90.01931655440673",
    "latitude": "30.014021860703934",
    "geocoded_column": {
      "latitude": "30.014021860703934",
      "longitude": "-90.01931655440673"
    }
  },
  {
    "service_request": "2023-1054524",
    "request_type": "Trash/Recycling",
    "request_reason": "Request a Large Item Pick Up",
    "date_created": "2023-12-07T18:54:53.000",
    "date_modified": "2023-12-07T18:54:54.000",
    "request_status": "Pending",
    "responsible_agency": "Department of Sanitation",
    "final_address": "6043 Boeing St",
    "address_councildis": "D",
    "status": "Assigned to Contractor",
    "contractor": "Waste Pro",
    "rowid": "1054524",
    "final_x": "3696693.97079",
    "final_y": "552976.018775",
    "longitude": "-90.01931655440673",
    "latitude": "30.014021860703934",
    "geocoded_column": {
      "latitude": "30.014021860703934",
      "longitude": "-90.01931655440673"
    }
  },
  {
    "service_request": "2023-1054523",
    "request_type": "Abandoned Vehicles",
    "request_reason": "Abandoned/Junk Vehicles",
    "date_created": "2023-12-07T18:54:46.000",
    "date_modified": "2023-12-07T18:54:46.000",
    "request_status": "Pending",
    "responsible_agency": "Department of Public Works",
    "final_address": "S JOHNSON ST & CADIZ ST",
    "address_councildis": "B",
    "status": "Pending",
    "rowid": "1054523",
    "final_x": "3669467.1",
    "final_y": "527147.38",
    "longitude": "-90.10621386421522",
    "latitude": "29.94383226990395",
    "geocoded_column": {
      "latitude": "29.94383226990395",
      "longitude": "-90.10621386421522"
    }
  },
  {
    "service_request": "2023-1054522",
    "request_type": "Abandoned Vehicles",
    "request_reason": "Abandoned/Junk Vehicles",
    "date_created": "2023-12-07T18:51:48.000",
    "date_modified": "2023-12-07T18:51:48.000",
    "request_status": "Pending",
    "responsible_agency": "Department of Public Works",
    "final_address": "S JOHNSON ST & CADIZ ST",
    "address_councildis": "B",
    "status": "Pending",
    "rowid": "1054522",
    "final_x": "3669467.1",
    "final_y": "527147.38",
    "longitude": "-90.10621386421522",
    "latitude": "29.94383226990395",
    "geocoded_column": {
      "latitude": "29.94383226990395",
      "longitude": "-90.10621386421522"
    }
  },
  {
    "service_request": "2023-1054521",
    "request_type": "Trash/Recycling",
    "request_reason": "Request a Large Item Pick Up",
    "date_created": "2023-12-07T17:59:24.000",
    "date_modified": "2023-12-07T17:59:24.000",
    "request_status": "Pending",
    "responsible_agency": "Department of Sanitation",
    "final_address": "6735 E Hermes St",
    "address_councildis": "D",
    "status": "Assigned to Contractor",
    "contractor": "Waste Pro",
    "rowid": "1054521",
    "final_x": "3697714.32471",
    "final_y": "556425.274586",
    "longitude": "-90.0159674797979",
    "latitude": "30.02347379411678",
    "geocoded_column": {
      "latitude": "30.02347379411678",
      "longitude": "-90.0159674797979"
    }
  },
  {
    "service_request": "2023-1054520",
    "request_type": "Trash/Recycling",
    "request_reason": "Missed Trash Pick-Up",
    "date_created": "2023-12-07T17:58:01.000",
    "date_modified": "2023-12-07T18:42:16.000",
    "request_status": "Pending",
    "responsible_agency": "Department of Sanitation",
    "final_address": "6735 E Hermes St",
    "address_councildis": "D",
    "status": "Assigned to Contractor",
    "contractor": "Waste Pro",
    "contractor_action": "duplicate",
    "rowid": "1054520",
    "final_x": "3697714.32471",
    "final_y": "556425.274586",
    "longitude": "-90.0159674797979",
    "latitude": "30.02347379411678",
    "geocoded_column": {
      "latitude": "30.02347379411678",
      "longitude": "-90.0159674797979"
    }
  },
  {
    "service_request": "2023-1054519",
    "request_type": "Trash/Recycling",
    "request_reason": "Replace Recycling Cart",
    "date_created": "2023-12-07T17:17:53.000",
    "date_modified": "2023-12-07T17:17:53.000",
    "request_status": "Pending",
    "responsible_agency": "Department of Sanitation",
    "final_address": "1300 BLK Moss St",
    "address_councildis": "A",
    "status": "Pending",
    "rowid": "1054519",
    "final_x": "3674653.75007",
    "final_y": "540681.738962",
    "longitude": "-90.08937427533309",
    "latitude": "29.98089345743581",
    "geocoded_column": {
      "latitude": "29.98089345743581",
      "longitude": "-90.08937427533309"
    }
  },
  {
    "service_request": "2023-1054518",
    "request_type": "Abandoned Vehicles",
    "request_reason": "Abandoned/Junk Vehicles",
    "date_created": "2023-12-07T16:53:21.000",
    "date_modified": "2023-12-07T16:53:22.000",
    "request_status": "Pending",
    "responsible_agency": "Department of Public Works",
    "final_address": "3646 Laurel St",
    "address_councildis": "B",
    "status": "Pending",
    "rowid": "1054518",
    "final_x": "3674006.56168",
    "final_y": "518417.650934",
    "longitude": "-90.09218007905983",
    "latitude": "29.91969388868408",
    "geocoded_column": {
      "latitude": "29.91969388868408",
      "longitude": "-90.09218007905983"
    }
  },
  {
    "service_request": "2023-1054517",
    "request_type": "Utility Poles",
    "request_reason": "Utility Pole Leaning",
    "date_created": "2023-12-07T16:52:40.000",
    "date_modified": "2023-12-07T16:52:47.000",
    "request_status": "Pending",
    "responsible_agency": "Utility Company Collective",
    "final_address": "EDINBURGH ST & FERN ST",
    "address_councildis": "B",
    "status": "Pending",
    "rowid": "1054517",
    "final_x": "3668053.8",
    "final_y": "533908.78",
    "longitude": "-90.11044822016866",
    "latitude": "29.96246544995555",
    "geocoded_column": {
      "latitude": "29.96246544995555",
      "longitude": "-90.11044822016866"
    }
  },
  {
    "service_request": "2023-1054515",
    "request_type": "Traffic Signals/Signs/Striping/Streetlights",
    "request_reason": "Disabled Parking Sign ",
    "date_created": "2023-12-07T16:51:10.000",
    "date_modified": "2023-12-07T16:51:10.000",
    "request_status": "Pending",
    "responsible_agency": "Department of Public Works",
    "final_address": "3646 Laurel St",
    "address_councildis": "B",
    "status": "Pending",
    "rowid": "1054515",
    "final_x": "3674006.56168",
    "final_y": "518417.650934",
    "longitude": "-90.09218007905983",
    "latitude": "29.91969388868408",
    "geocoded_column": {
      "latitude": "29.91969388868408",
      "longitude": "-90.09218007905983"
    }
  },
  {
    "service_request": "2023-1054514",
    "request_type": "Traffic Signals/Signs/Striping/Streetlights",
    "request_reason": "Disabled Parking Sign ",
    "date_created": "2023-12-07T16:50:20.000",
    "date_modified": "2023-12-07T16:50:20.000",
    "request_status": "Pending",
    "responsible_agency": "Department of Public Works",
    "final_address": "3656 Laurel St",
    "address_councildis": "B",
    "status": "Pending",
    "rowid": "1054514",
    "final_x": "3673936.40219",
    "final_y": "518396.83615",
    "longitude": "-90.09240224991193",
    "latitude": "29.9196387441247",
    "geocoded_column": {
      "latitude": "29.9196387441247",
      "longitude": "-90.09240224991193"
    }
  },
  {
    "service_request": "2023-1054513",
    "request_type": "Trash/Recycling",
    "request_reason": "Replace Trash Cart",
    "date_created": "2023-12-07T16:44:11.000",
    "date_modified": "2023-12-07T16:44:39.000",
    "request_status": "Pending",
    "responsible_agency": "Department of Sanitation",
    "final_address": "1823 Murl St",
    "address_councildis": "C",
    "status": "Assigned to Contractor",
    "contractor": "Richards Disposal",
    "rowid": "1054513",
    "final_x": "3695298.31818",
    "final_y": "524542.925244",
    "longitude": "-90.02475201647124",
    "latitude": "29.93588498549612",
    "geocoded_column": {
      "latitude": "29.93588498549612",
      "longitude": "-90.02475201647124"
    }
  },
  {
    "service_request": "2023-1054512",
    "request_type": "Roads/Drainage",
    "request_reason": "Catch Basin - Clogged",
    "date_created": "2023-12-07T16:43:43.000",
    "date_modified": "2023-12-07T16:43:43.000",
    "request_status": "Pending",
    "responsible_agency": "Department of Public Works",
    "final_address": "3300 BLK Fern St",
    "address_councildis": "B",
    "status": "Pending",
    "rowid": "1054512",
    "final_x": "3667701.14127",
    "final_y": "533522.784776",
    "longitude": "-90.11157486784998",
    "latitude": "29.96141443477592",
    "geocoded_column": {
      "latitude": "29.96141443477592",
      "longitude": "-90.11157486784998"
    }
  },
  {
    "service_request": "2023-1054511",
    "request_type": "Trash/Recycling",
    "request_reason": "Request a Large Item Pick Up",
    "date_created": "2023-12-07T16:42:25.000",
    "date_modified": "2023-12-07T16:42:25.000",
    "request_status": "Pending",
    "responsible_agency": "Department of Sanitation",
    "final_address": "8506 Apricot St",
    "address_councildis": "A",
    "status": "Assigned to Contractor",
    "contractor": "Richards Disposal",
    "rowid": "1054511",
    "final_x": "3664686.92685",
    "final_y": "533611.932741",
    "longitude": "-90.12109029887758",
    "latitude": "29.961747590287853",
    "geocoded_column": {
      "latitude": "29.961747590287853",
      "longitude": "-90.12109029887758"
    }
  },
  {
    "service_request": "2023-1054510",
    "request_type": "Trash/Recycling",
    "request_reason": "Order Trash Cart",
    "date_created": "2023-12-07T16:40:07.000",
    "date_modified": "2023-12-07T16:40:08.000",
    "request_status": "Pending",
    "responsible_agency": "Department of Sanitation",
    "final_address": "3120 Coliseum St",
    "address_councildis": "B",
    "status": "Assigned to Contractor",
    "contractor": "Richards Disposal",
    "rowid": "1054510",
    "final_x": "3675404.46197",
    "final_y": "520920.773305",
    "longitude": "-90.08768169755777",
    "latitude": "29.926534960012052",
    "geocoded_column": {
      "latitude": "29.926534960012052",
      "longitude": "-90.08768169755777"
    }
  },
  {
    "service_request": "2023-1054508",
    "request_type": "Trash/Recycling",
    "request_reason": "Request a Large Item Pick Up",
    "date_created": "2023-12-07T16:32:45.000",
    "date_modified": "2023-12-07T16:32:46.000",
    "request_status": "Pending",
    "responsible_agency": "Department of Sanitation",
    "final_address": "4743 Charlmark Dr",
    "address_councildis": "E",
    "status": "Assigned to Contractor",
    "contractor": "Waste Pro",
    "rowid": "1054508",
    "final_x": "3711512.81662",
    "final_y": "556041.107417",
    "longitude": "-89.97238197222306",
    "latitude": "30.021974064808084",
    "geocoded_column": {
      "latitude": "30.021974064808084",
      "longitude": "-89.97238197222306"
    }
  },
  {
    "service_request": "2023-1054507",
    "request_type": "Roads/Drainage",
    "request_reason": "Pothole",
    "date_created": "2023-12-07T16:19:20.000",
    "date_modified": "2023-12-07T16:19:20.000",
    "request_status": "Pending",
    "responsible_agency": "Department of Public Works",
    "final_address": "6600 BLK Dwyer Rd",
    "address_councildis": "E",
    "status": "Pending",
    "rowid": "1054507",
    "final_x": "3699010.36769",
    "final_y": "555491.169973",
    "longitude": "-90.01190631700443",
    "latitude": "30.020864328167466",
    "geocoded_column": {
      "latitude": "30.020864328167466",
      "longitude": "-90.01190631700443"
    }
  },
  {
    "service_request": "2023-1054505",
    "request_type": "Trash/Recycling",
    "request_reason": "MIssed Recycling Pick-Up",
    "date_created": "2023-12-07T16:13:53.000",
    "date_modified": "2023-12-07T16:13:54.000",
    "request_status": "Pending",
    "responsible_agency": "Department of Sanitation",
    "final_address": "1403 Tennessee St",
    "address_councildis": "E",
    "status": "Assigned to Contractor",
    "contractor": "Waste Pro",
    "rowid": "1054505",
    "final_x": "3696085.44835",
    "final_y": "535438.43335",
    "longitude": "-90.02187335376989",
    "latitude": "29.96581908105865",
    "geocoded_column": {
      "latitude": "29.96581908105865",
      "longitude": "-90.02187335376989"
    }
  },
  {
    "service_request": "2023-1054504",
    "request_type": "Trash/Recycling",
    "request_reason": "Request a Large Item Pick Up",
    "date_created": "2023-12-07T16:13:16.000",
    "date_modified": "2023-12-07T16:13:17.000",
    "request_status": "Pending",
    "responsible_agency": "Department of Sanitation",
    "final_address": "13120 Linden St",
    "address_councildis": "E",
    "status": "Assigned to Contractor",
    "contractor": "Waste Pro",
    "rowid": "1054504",
    "final_x": "3716219.934",
    "final_y": "570502.390055",
    "longitude": "-89.95695998841956",
    "latitude": "30.061582159722185",
    "geocoded_column": {
      "latitude": "30.061582159722185",
      "longitude": "-89.95695998841956"
    }
  },
  {
    "service_request": "2023-1054503",
    "request_type": "Trash/Recycling",
    "request_reason": "Illegal Dumping",
    "date_created": "2023-12-07T16:06:23.000",
    "date_modified": "2023-12-07T16:06:23.000",
    "request_status": "Pending",
    "responsible_agency": "Department of Sanitation",
    "final_address": "2100 BLK Clara St",
    "address_councildis": "B",
    "status": "Pending",
    "rowid": "1054503",
    "final_x": "3675190.85857",
    "final_y": "527173.502527",
    "longitude": "-90.08814148965328",
    "latitude": "29.943734308841147",
    "geocoded_column": {
      "latitude": "29.943734308841147",
      "longitude": "-90.08814148965328"
    }
  },
  {
    "service_request": "2023-1054502",
    "request_type": "Roads/Drainage",
    "request_reason": "Catch Basin - Clogged",
    "date_created": "2023-12-07T16:04:41.000",
    "date_modified": "2023-12-07T16:05:30.000",
    "request_status": "Pending",
    "responsible_agency": "Department of Public Works",
    "final_address": "6222 Wadsworth Dr",
    "address_councildis": "D",
    "rowid": "1054502",
    "final_x": "3681565.30543",
    "final_y": "555913.883929",
    "longitude": "-90.06701284933116",
    "latitude": "30.022568278861446",
    "geocoded_column": {
      "latitude": "30.022568278861446",
      "longitude": "-90.06701284933116"
    }
  },
  {
    "service_request": "2023-1054501",
    "request_type": "Property Maintenance",
    "request_reason": "Property Maintenance",
    "date_created": "2023-12-07T16:03:02.000",
    "date_modified": "2023-12-07T16:03:03.000",
    "request_status": "Pending",
    "responsible_agency": "Department of Code Enforcement",
    "final_address": "1979 N Rocheblave St",
    "address_councildis": "D",
    "status": "Pending",
    "rowid": "1054501",
    "final_x": "3682325.20732",
    "final_y": "540946.652683",
    "longitude": "-90.06513517153043",
    "latitude": "29.9813906460744",
    "geocoded_column": {
      "latitude": "29.9813906460744",
      "longitude": "-90.06513517153043"
    }
  },
  {
    "service_request": "2023-1054500",
    "request_type": "Trash/Recycling",
    "request_reason": "Request a Large Item Pick Up",
    "date_created": "2023-12-07T15:55:45.000",
    "date_modified": "2023-12-07T15:55:45.000",
    "request_status": "Pending",
    "responsible_agency": "Department of Sanitation",
    "final_address": "1370 St Anthony St",
    "address_councildis": "C",
    "status": "Assigned to Contractor",
    "contractor": "IV Waste",
    "rowid": "1054500",
    "final_x": "3683386.33628",
    "final_y": "537137.98292",
    "longitude": "-90.06191712166986",
    "latitude": "29.970885796804613",
    "geocoded_column": {
      "latitude": "29.970885796804613",
      "longitude": "-90.06191712166986"
    }
  },
  {
    "service_request": "2023-1054499",
    "request_type": "Abandoned Vehicles",
    "request_reason": "Abandoned/Junk Vehicles",
    "date_created": "2023-12-07T15:55:02.000",
    "date_modified": "2023-12-07T15:55:02.000",
    "request_status": "Pending",
    "responsible_agency": "Department of Public Works",
    "final_address": "5910 Catina St",
    "address_councildis": "A",
    "status": "Pending",
    "rowid": "1054499",
    "final_x": "3666676.78093",
    "final_y": "547218.769425",
    "longitude": "-90.11434952879414",
    "latitude": "29.99910377393616",
    "geocoded_column": {
      "latitude": "29.99910377393616",
      "longitude": "-90.11434952879414"
    }
  },
  {
    "service_request": "2023-1054498",
    "request_type": "Trash/Recycling",
    "request_reason": "Return Trash Cart",
    "date_created": "2023-12-07T15:54:16.000",
    "date_modified": "2023-12-07T15:54:17.000",
    "request_status": "Pending",
    "responsible_agency": "Department of Sanitation",
    "final_address": "4228 S Miro St",
    "address_councildis": "B",
    "status": "Assigned to Contractor",
    "contractor": "Richards Disposal",
    "rowid": "1054498",
    "final_x": "3670686.03559",
    "final_y": "527831.576447",
    "longitude": "-90.10234213728467",
    "latitude": "29.945677636567638",
    "geocoded_column": {
      "latitude": "29.945677636567638",
      "longitude": "-90.10234213728467"
    }
  },
  {
    "service_request": "2023-1054497",
    "request_type": "Abandoned Vehicles",
    "request_reason": "Abandoned/Junk Vehicles",
    "date_created": "2023-12-07T15:47:22.000",
    "date_modified": "2023-12-07T15:47:22.000",
    "request_status": "Pending",
    "responsible_agency": "Department of Public Works",
    "final_address": "1236 Merrill St",
    "address_councildis": "C",
    "status": "Pending",
    "rowid": "1054497",
    "final_x": "3694990.73968",
    "final_y": "526982.24947",
    "longitude": "-90.02563515509084",
    "latitude": "29.942601941888242",
    "geocoded_column": {
      "latitude": "29.942601941888242",
      "longitude": "-90.02563515509084"
    }
  },
  {
    "service_request": "2023-1054496",
    "request_type": "Trash/Recycling",
    "request_reason": "MIssed Recycling Pick-Up",
    "date_created": "2023-12-07T15:42:00.000",
    "date_modified": "2023-12-07T15:42:00.000",
    "request_status": "Pending",
    "responsible_agency": "Department of Sanitation",
    "final_address": "515 Alabo St",
    "address_councildis": "E",
    "status": "Assigned to Contractor",
    "contractor": "Waste Pro",
    "rowid": "1054496",
    "final_x": "3698422.77431",
    "final_y": "531534.918787",
    "longitude": "-90.01463406823896",
    "latitude": "29.95501203872355",
    "geocoded_column": {
      "latitude": "29.95501203872355",
      "longitude": "-90.01463406823896"
    }
  },
  {
    "service_request": "2023-1054495",
    "request_type": "Trash/Recycling",
    "request_reason": "Return Trash Cart",
    "date_created": "2023-12-07T15:40:18.000",
    "date_modified": "2023-12-07T15:40:19.000",
    "request_status": "Pending",
    "responsible_agency": "Department of Sanitation",
    "final_address": "2021 Annette St",
    "address_councildis": "D",
    "status": "Assigned to Contractor",
    "contractor": "IV Waste",
    "rowid": "1054495",
    "final_x": "3682897.7942",
    "final_y": "539667.009226",
    "longitude": "-90.06337147622",
    "latitude": "29.977854636316483",
    "geocoded_column": {
      "latitude": "29.977854636316483",
      "longitude": "-90.06337147622"
    }
  },
  {
    "service_request": "2023-1054494",
    "request_type": "Trash/Recycling",
    "request_reason": "MIssed Recycling Pick-Up",
    "date_created": "2023-12-07T15:40:14.000",
    "date_modified": "2023-12-07T15:40:15.000",
    "request_status": "Pending",
    "responsible_agency": "Department of Sanitation",
    "final_address": "1309 Leontine St",
    "address_councildis": "B",
    "status": "Assigned to Contractor",
    "contractor": "Richards Disposal",
    "rowid": "1054494",
    "final_x": "3667402.1929",
    "final_y": "520074.555768",
    "longitude": "-90.11297119012383",
    "latitude": "29.92444490734079",
    "geocoded_column": {
      "latitude": "29.92444490734079",
      "longitude": "-90.11297119012383"
    }
  },
  {
    "service_request": "2023-1054492",
    "request_type": "Trash/Recycling",
    "request_reason": "Request a Large Item Pick Up",
    "date_created": "2023-12-07T15:39:38.000",
    "date_modified": "2023-12-07T15:39:39.000",
    "request_status": "Pending",
    "responsible_agency": "Department of Sanitation",
    "final_address": "1706 St Maurice Ave",
    "address_councildis": "E",
    "status": "Assigned to Contractor",
    "contractor": "Waste Pro",
    "rowid": "1054492",
    "final_x": "3700674.57533",
    "final_y": "535393.318726",
    "longitude": "-90.00738278944138",
    "latitude": "29.965549810234094",
    "geocoded_column": {
      "latitude": "29.965549810234094",
      "longitude": "-90.00738278944138"
    }
  },
  {
    "service_request": "2023-1054493",
    "request_type": "Trash/Recycling",
    "request_reason": "Request a Large Item Pick Up",
    "date_created": "2023-12-07T15:39:38.000",
    "date_modified": "2023-12-07T15:39:39.000",
    "request_status": "Pending",
    "responsible_agency": "Department of Sanitation",
    "final_address": "1706 St Maurice Ave",
    "address_councildis": "E",
    "status": "Assigned to Contractor",
    "contractor": "Waste Pro",
    "rowid": "1054493",
    "final_x": "3700674.57533",
    "final_y": "535393.318726",
    "longitude": "-90.00738278944138",
    "latitude": "29.965549810234094",
    "geocoded_column": {
      "latitude": "29.965549810234094",
      "longitude": "-90.00738278944138"
    }
  },
  {
    "service_request": "2023-1054491",
    "request_type": "Traffic Signals/Signs/Striping/Streetlights",
    "request_reason": "Street Light Knocked Down/Leaning",
    "date_created": "2023-12-07T15:32:55.000",
    "date_modified": "2023-12-07T15:32:56.000",
    "request_status": "Pending",
    "responsible_agency": "Department of Public Works",
    "final_address": "CANAL ST & CAMP ST & CHARTRES ST",
    "address_councildis": "B",
    "status": "Pending",
    "contractor": "Legacy Professional Services",
    "rowid": "1054491",
    "final_x": "3681440.9",
    "final_y": "530424.38",
    "longitude": "-90.06829513253405",
    "latitude": "29.9524848929036",
    "geocoded_column": {
      "latitude": "29.9524848929036",
      "longitude": "-90.06829513253405"
    }
  },
  {
    "service_request": "2023-1054490",
    "request_type": "Trash/Recycling",
    "request_reason": "MIssed Recycling Pick-Up",
    "date_created": "2023-12-07T15:32:52.000",
    "date_modified": "2023-12-07T15:32:53.000",
    "request_status": "Pending",
    "responsible_agency": "Department of Sanitation",
    "final_address": "4427 Stemway Dr",
    "address_councildis": "D",
    "status": "Assigned to Contractor",
    "contractor": "Waste Pro",
    "rowid": "1054490",
    "final_x": "3697141.56746",
    "final_y": "552551.563478",
    "longitude": "-90.01791777906402",
    "latitude": "30.01284064703782",
    "geocoded_column": {
      "latitude": "30.01284064703782",
      "longitude": "-90.01791777906402"
    }
  },
  {
    "service_request": "2023-1054489",
    "request_type": "Trash/Recycling",
    "request_reason": "Request a Large Item Pick Up",
    "date_created": "2023-12-07T15:32:29.000",
    "date_modified": "2023-12-07T15:32:30.000",
    "request_status": "Pending",
    "responsible_agency": "Department of Sanitation",
    "final_address": "7454 Kenyon Rd",
    "address_councildis": "E",
    "status": "Assigned to Contractor",
    "contractor": "Waste Pro",
    "rowid": "1054489",
    "final_x": "3704280.61284",
    "final_y": "562004.651551",
    "longitude": "-89.99501362549263",
    "latitude": "30.038605694456592",
    "geocoded_column": {
      "latitude": "30.038605694456592",
      "longitude": "-89.99501362549263"
    }
  },
  {
    "service_request": "2023-1054488",
    "request_type": "Trash/Recycling",
    "request_reason": "Replace Trash Cart",
    "date_created": "2023-12-07T15:32:02.000",
    "date_modified": "2023-12-07T15:32:02.000",
    "request_status": "Pending",
    "responsible_agency": "Department of Sanitation",
    "final_address": "1201 N Roman St",
    "address_councildis": "D",
    "status": "Assigned to Contractor",
    "contractor": "Richards Disposal",
    "rowid": "1054488",
    "final_x": "3680300.84853",
    "final_y": "536562.306759",
    "longitude": "-90.07168149855522",
    "latitude": "29.969396662713756",
    "geocoded_column": {
      "latitude": "29.969396662713756",
      "longitude": "-90.07168149855522"
    }
  },
  {
    "service_request": "2023-1054487",
    "request_type": "Trash/Recycling",
    "request_reason": "Missed Trash Pick-Up",
    "date_created": "2023-12-07T15:30:57.000",
    "date_modified": "2023-12-07T15:30:57.000",
    "request_status": "Pending",
    "responsible_agency": "Department of Public Works",
    "final_address": "2021 Brainard St",
    "address_councildis": "B",
    "status": "Assigned to Contractor",
    "contractor": "Richards Disposal",
    "rowid": "1054487",
    "final_x": "3677553.89333",
    "final_y": "524569.934524",
    "longitude": "-90.08077061009227",
    "latitude": "29.936504535061776",
    "geocoded_column": {
      "latitude": "29.936504535061776",
      "longitude": "-90.08077061009227"
    }
  },
  {
    "service_request": "2023-1054486",
    "request_type": "Trash/Recycling",
    "request_reason": "MIssed Recycling Pick-Up",
    "date_created": "2023-12-07T15:29:42.000",
    "date_modified": "2023-12-07T15:29:43.000",
    "request_status": "Pending",
    "responsible_agency": "Department of Sanitation",
    "final_address": "4700 BLK Francisco Verrett Dr",
    "address_councildis": "E",
    "status": "Assigned to Contractor",
    "contractor": "Waste Pro",
    "rowid": "1054486",
    "final_x": "3704212.95899",
    "final_y": "555240.03957",
    "longitude": "-89.99547703238007",
    "latitude": "30.02000781714973",
    "geocoded_column": {
      "latitude": "30.02000781714973",
      "longitude": "-89.99547703238007"
    }
  },
  {
    "service_request": "2023-1054485",
    "request_type": "Trash/Recycling",
    "request_reason": "Missed Trash Pick-Up",
    "date_created": "2023-12-07T15:28:53.000",
    "date_modified": "2023-12-07T15:28:54.000",
    "request_status": "Pending",
    "responsible_agency": "Department of Sanitation",
    "final_address": "2300 BLK Dublin St",
    "address_councildis": "A",
    "status": "Assigned to Contractor",
    "contractor": "Richards Disposal",
    "rowid": "1054485",
    "final_x": "3664427.50543",
    "final_y": "531599.786982",
    "longitude": "-90.1219766866921",
    "latitude": "29.956222390348525",
    "geocoded_column": {
      "latitude": "29.956222390348525",
      "longitude": "-90.1219766866921"
    }
  },
  {
    "service_request": "2023-1054484",
    "request_type": "Abandoned Vehicles",
    "request_reason": "Abandoned/Junk Vehicles",
    "date_created": "2023-12-07T15:26:41.000",
    "date_modified": "2023-12-07T15:26:41.000",
    "request_status": "Pending",
    "responsible_agency": "Department of Public Works",
    "final_address": "8333 Green St",
    "address_councildis": "A",
    "status": "Pending",
    "rowid": "1054484",
    "final_x": "3662428.50899",
    "final_y": "530370.332802",
    "longitude": "-90.12832970155549",
    "latitude": "29.952899745802675",
    "geocoded_column": {
      "latitude": "29.952899745802675",
      "longitude": "-90.12832970155549"
    }
  },
  {
    "service_request": "2023-1054483",
    "request_type": "Roads/Drainage",
    "request_reason": "Damaged Sidewalk",
    "date_created": "2023-12-07T15:25:49.000",
    "date_modified": "2023-12-07T15:25:49.000",
    "request_status": "Pending",
    "responsible_agency": "Department of Public Works",
    "final_address": "4818 Lynhuber Dr",
    "address_councildis": "D",
    "status": "Pending",
    "rowid": "1054483",
    "final_x": "3697914.06103",
    "final_y": "554755.16188",
    "longitude": "-90.0153970560857",
    "latitude": "30.0188753033455",
    "geocoded_column": {
      "latitude": "30.0188753033455",
      "longitude": "-90.0153970560857"
    }
  },
  {
    "service_request": "2023-1054482",
    "request_type": "Roads/Drainage",
    "request_reason": "Catch Basin - Broken/Damage",
    "date_created": "2023-12-07T15:25:22.000",
    "date_modified": "2023-12-07T15:25:23.000",
    "request_status": "Pending",
    "responsible_agency": "Department of Public Works",
    "final_address": "129 18Th St",
    "address_councildis": "A",
    "status": "Pending",
    "rowid": "1054482",
    "final_x": "3665892.07597",
    "final_y": "548746.051923",
    "longitude": "-90.11677721270966",
    "latitude": "30.003326205006992",
    "geocoded_column": {
      "latitude": "30.003326205006992",
      "longitude": "-90.11677721270966"
    }
  },
  {
    "service_request": "2023-1054481",
    "request_type": "Abandoned Vehicles",
    "request_reason": "Abandoned/Junk Vehicles",
    "date_created": "2023-12-07T15:23:39.000",
    "date_modified": "2023-12-07T15:37:24.000",
    "request_status": "Pending",
    "responsible_agency": "Department of Public Works",
    "final_address": "2100 BLK Clara St",
    "address_councildis": "B",
    "status": "Inspected",
    "rowid": "1054481",
    "final_x": "3675190.85857",
    "final_y": "527173.502527",
    "longitude": "-90.08814148965328",
    "latitude": "29.943734308841147",
    "geocoded_column": {
      "latitude": "29.943734308841147",
      "longitude": "-90.08814148965328"
    }
  },
  {
    "service_request": "2023-1054480",
    "request_type": "Trash/Recycling",
    "request_reason": "MIssed Recycling Pick-Up",
    "date_created": "2023-12-07T15:22:11.000",
    "date_modified": "2023-12-07T15:22:12.000",
    "request_status": "Pending",
    "responsible_agency": "Department of Sanitation",
    "final_address": "1903 E Homestead Dr",
    "address_councildis": "C",
    "status": "Assigned to Contractor",
    "contractor": "Richards Disposal",
    "rowid": "1054480",
    "final_x": "3697098.372",
    "final_y": "524953.932093",
    "longitude": "-90.01905435992991",
    "latitude": "29.93695846453762",
    "geocoded_column": {
      "latitude": "29.93695846453762",
      "longitude": "-90.01905435992991"
    }
  },
  {
    "service_request": "2023-1054479",
    "request_type": "Abandoned Vehicles",
    "request_reason": "Abandoned/Junk Vehicles",
    "date_created": "2023-12-07T15:21:16.000",
    "date_modified": "2023-12-07T15:21:16.000",
    "request_status": "Pending",
    "responsible_agency": "Department of Public Works",
    "final_address": "900 BLK N Salcedo St",
    "address_councildis": "A",
    "status": "Pending",
    "rowid": "1054479",
    "final_x": "3676030.34705",
    "final_y": "538644.531422",
    "longitude": "-90.08509646114477",
    "latitude": "29.975250671550242",
    "geocoded_column": {
      "latitude": "29.975250671550242",
      "longitude": "-90.08509646114477"
    }
  },
  {
    "service_request": "2023-1054478",
    "request_type": "Traffic Signals/Signs/Striping/Streetlights",
    "request_reason": "Street Light Outage/Malfunction",
    "date_created": "2023-12-07T15:21:06.000",
    "date_modified": "2023-12-07T15:21:07.000",
    "request_status": "Pending",
    "responsible_agency": "Department of Public Works",
    "final_address": "4841 Rosalia Dr",
    "address_councildis": "E",
    "status": "Assigned to Contractor",
    "contractor": "Legacy Professional Services",
    "rowid": "1054478",
    "final_x": "3711184.17637",
    "final_y": "556586.909338",
    "longitude": "-89.97339991289009",
    "latitude": "30.02348553453962",
    "geocoded_column": {
      "latitude": "30.02348553453962",
      "longitude": "-89.97339991289009"
    }
  },
  {
    "service_request": "2023-1054477",
    "request_type": "Abandoned Vehicles",
    "request_reason": "Abandoned/Junk Vehicles",
    "date_created": "2023-12-07T15:20:55.000",
    "date_modified": "2023-12-07T15:20:55.000",
    "request_status": "Pending",
    "responsible_agency": "Department of Public Works",
    "final_address": "8333 Green St",
    "address_councildis": "A",
    "status": "Pending",
    "rowid": "1054477",
    "final_x": "3662428.50899",
    "final_y": "530370.332802",
    "longitude": "-90.12832970155549",
    "latitude": "29.952899745802675",
    "geocoded_column": {
      "latitude": "29.952899745802675",
      "longitude": "-90.12832970155549"
    }
  },
  {
    "service_request": "2023-1054476",
    "request_type": "Trash/Recycling",
    "request_reason": "Replace Trash Cart",
    "date_created": "2023-12-07T15:16:30.000",
    "date_modified": "2023-12-07T15:16:31.000",
    "request_status": "Pending",
    "responsible_agency": "Department of Sanitation",
    "final_address": "4726 Deanne St",
    "address_councildis": "D",
    "status": "Assigned to Contractor",
    "contractor": "Waste Pro",
    "rowid": "1054476",
    "final_x": "3696267.19133",
    "final_y": "554078.759384",
    "longitude": "-90.02062503911597",
    "latitude": "30.017067432821275",
    "geocoded_column": {
      "latitude": "30.017067432821275",
      "longitude": "-90.02062503911597"
    }
  },
  {
    "service_request": "2023-1054475",
    "request_type": "Trash/Recycling",
    "request_reason": "MIssed Recycling Pick-Up",
    "date_created": "2023-12-07T15:13:25.000",
    "date_modified": "2023-12-07T15:13:26.000",
    "request_status": "Pending",
    "responsible_agency": "Department of Sanitation",
    "final_address": "1524 Euterpe St",
    "address_councildis": "B",
    "status": "Assigned to Contractor",
    "contractor": "Richards Disposal",
    "rowid": "1054475",
    "final_x": "3679110.07138",
    "final_y": "524831.1879",
    "longitude": "-90.075848643482",
    "latitude": "29.937176028726743",
    "geocoded_column": {
      "latitude": "29.937176028726743",
      "longitude": "-90.075848643482"
    }
  },
  {
    "service_request": "2023-1054474",
    "request_type": "Trash/Recycling",
    "request_reason": "Request a Large Item Pick Up",
    "date_created": "2023-12-07T15:08:44.000",
    "date_modified": "2023-12-07T15:08:45.000",
    "request_status": "Pending",
    "responsible_agency": "Department of Sanitation",
    "final_address": "4420 Longfellow Dr",
    "address_councildis": "E",
    "status": "Assigned to Contractor",
    "contractor": "Waste Pro",
    "rowid": "1054474",
    "final_x": "3709719.63326",
    "final_y": "554190.373784",
    "longitude": "-89.9781170834316",
    "latitude": "30.01694370897143",
    "geocoded_column": {
      "latitude": "30.01694370897143",
      "longitude": "-89.9781170834316"
    }
  },
  {
    "service_request": "2023-1054472",
    "request_type": "Trash/Recycling",
    "request_reason": "Request a Large Item Pick Up",
    "date_created": "2023-12-07T15:01:01.000",
    "date_modified": "2023-12-07T15:01:02.000",
    "request_status": "Pending",
    "responsible_agency": "Department of Sanitation",
    "final_address": "1305 General Taylor St",
    "address_councildis": "B",
    "status": "Assigned to Contractor",
    "contractor": "Richards Disposal",
    "rowid": "1054472",
    "final_x": "3672835.63592",
    "final_y": "520330.183928",
    "longitude": "-90.0958109224427",
    "latitude": "29.924987565948786",
    "geocoded_column": {
      "latitude": "29.924987565948786",
      "longitude": "-90.0958109224427"
    }
  },
  {
    "service_request": "2023-1054471",
    "request_type": "Traffic Signals/Signs/Striping/Streetlights",
    "request_reason": "Street Light Knocked Down/Leaning",
    "date_created": "2023-12-07T14:51:38.000",
    "date_modified": "2023-12-07T14:51:38.000",
    "request_status": "Pending",
    "responsible_agency": "Department of Public Works",
    "final_address": "CANAL ST & CAMP ST & CHARTRES ST",
    "address_councildis": "B",
    "status": "Pending",
    "contractor": "Legacy Professional Services",
    "rowid": "1054471",
    "final_x": "3681440.9",
    "final_y": "530424.38",
    "longitude": "-90.06829513253405",
    "latitude": "29.9524848929036",
    "geocoded_column": {
      "latitude": "29.9524848929036",
      "longitude": "-90.06829513253405"
    }
  },
  {
    "service_request": "2023-1054470",
    "request_type": "Traffic Signals/Signs/Striping/Streetlights",
    "request_reason": "Street Light Outage/Malfunction",
    "date_created": "2023-12-07T14:50:48.000",
    "date_modified": "2023-12-07T14:50:48.000",
    "request_status": "Pending",
    "responsible_agency": "Department of Public Works",
    "final_address": "700 Canal St",
    "address_councildis": "B",
    "status": "Assigned to Contractor",
    "contractor": "Legacy Professional Services",
    "rowid": "1054470",
    "final_x": "3681088.32981",
    "final_y": "530625.904002",
    "longitude": "-90.06940136900302",
    "latitude": "29.95304971412305",
    "geocoded_column": {
      "latitude": "29.95304971412305",
      "longitude": "-90.06940136900302"
    }
  },
  {
    "service_request": "2023-1054469",
    "request_type": "Trash/Recycling",
    "request_reason": "Request a Large Item Pick Up",
    "date_created": "2023-12-07T14:48:34.000",
    "date_modified": "2023-12-07T14:48:35.000",
    "request_status": "Pending",
    "responsible_agency": "Department of Sanitation",
    "final_address": "3922 Iroquois St",
    "address_councildis": "D",
    "status": "Assigned to Contractor",
    "contractor": "IV Waste",
    "rowid": "1054469",
    "final_x": "3689118.6927",
    "final_y": "547739.068626",
    "longitude": "-90.04343678184767",
    "latitude": "29.999858855135535",
    "geocoded_column": {
      "latitude": "29.999858855135535",
      "longitude": "-90.04343678184767"
    }
  },
  {
    "service_request": "2023-1054468",
    "request_type": "Trash/Recycling",
    "request_reason": "Request a Large Item Pick Up",
    "date_created": "2023-12-07T14:48:01.000",
    "date_modified": "2023-12-07T14:48:02.000",
    "request_status": "Pending",
    "responsible_agency": "Department of Sanitation",
    "final_address": "8221 Belfast St",
    "address_councildis": "A",
    "status": "Assigned to Contractor",
    "contractor": "Richards Disposal",
    "rowid": "1054468",
    "final_x": "3665214.5529",
    "final_y": "532754.624324",
    "longitude": "-90.1194528145034",
    "latitude": "29.95937491382038",
    "geocoded_column": {
      "latitude": "29.95937491382038",
      "longitude": "-90.1194528145034"
    }
  },
  {
    "service_request": "2023-1054467",
    "request_type": "Trash/Recycling",
    "request_reason": "Order Recycling Cart",
    "date_created": "2023-12-07T14:42:51.000",
    "date_modified": "2023-12-07T14:42:51.000",
    "request_status": "Pending",
    "responsible_agency": "Department of Sanitation",
    "final_address": "821 Pauline St",
    "address_councildis": "C",
    "status": "Pending",
    "rowid": "1054467",
    "final_x": "3691006.03913",
    "final_y": "534475.931653",
    "longitude": "-90.03794826267709",
    "latitude": "29.96333141487062",
    "geocoded_column": {
      "latitude": "29.96333141487062",
      "longitude": "-90.03794826267709"
    }
  },
  {
    "service_request": "2023-1054466",
    "request_type": "Trash/Recycling",
    "request_reason": "Illegal Dumping",
    "date_created": "2023-12-07T14:40:03.000",
    "date_modified": "2023-12-07T14:40:04.000",
    "request_status": "Pending",
    "responsible_agency": "Department of Sanitation",
    "final_address": "3725 Macarthur Blvd",
    "address_councildis": "C",
    "status": "Pending",
    "rowid": "1054466",
    "final_x": "3697478.74595",
    "final_y": "520371.826872",
    "longitude": "-90.01801956058037",
    "latitude": "29.924347246960526",
    "geocoded_column": {
      "latitude": "29.924347246960526",
      "longitude": "-90.01801956058037"
    }
  },
  {
    "service_request": "2023-1054465",
    "request_type": "Trash/Recycling",
    "request_reason": "Illegal Dumping",
    "date_created": "2023-12-07T14:37:56.000",
    "date_modified": "2023-12-07T14:37:56.000",
    "request_status": "Pending",
    "responsible_agency": "Department of Sanitation",
    "final_address": "900 BLK Thayer St",
    "address_councildis": "C",
    "status": "Pending",
    "rowid": "1054465",
    "final_x": "3689443.37403",
    "final_y": "528079.956751",
    "longitude": "-90.04311039626863",
    "latitude": "29.94579317660493",
    "geocoded_column": {
      "latitude": "29.94579317660493",
      "longitude": "-90.04311039626863"
    }
  },
  {
    "service_request": "2023-1054464",
    "request_type": "Trash/Recycling",
    "request_reason": "Missed Trash Pick-Up",
    "date_created": "2023-12-07T14:34:53.000",
    "date_modified": "2023-12-07T14:34:54.000",
    "request_status": "Pending",
    "responsible_agency": "Department of Sanitation",
    "final_address": "7837 Darleen Ct",
    "address_councildis": "E",
    "status": "Assigned to Contractor",
    "contractor": "Waste Pro",
    "rowid": "1054464",
    "final_x": "3716960.09208",
    "final_y": "572080.912936",
    "longitude": "-89.95456033642735",
    "latitude": "30.0658979733796",
    "geocoded_column": {
      "latitude": "30.0658979733796",
      "longitude": "-89.95456033642735"
    }
  },
  {
    "service_request": "2023-1054463",
    "request_type": "Trash/Recycling",
    "request_reason": "MIssed Recycling Pick-Up",
    "date_created": "2023-12-07T14:32:38.000",
    "date_modified": "2023-12-07T14:32:38.000",
    "request_status": "Pending",
    "responsible_agency": "Department of Sanitation",
    "final_address": "2126 Brainard St",
    "address_councildis": "B",
    "status": "Assigned to Contractor",
    "contractor": "Richards Disposal",
    "rowid": "1054463",
    "final_x": "3677342.63438",
    "final_y": "524305.250364",
    "longitude": "-90.08144669277506",
    "latitude": "29.935783088805323",
    "geocoded_column": {
      "latitude": "29.935783088805323",
      "longitude": "-90.08144669277506"
    }
  },
  {
    "service_request": "2023-1054462",
    "request_type": "Traffic Signals/Signs/Striping/Streetlights",
    "request_reason": "Street Light Outage/Malfunction",
    "date_created": "2023-12-07T14:28:09.000",
    "date_modified": "2023-12-07T14:28:44.000",
    "request_status": "Pending",
    "responsible_agency": "Department of Public Works",
    "final_address": "7301 Trapier Ave",
    "address_councildis": "E",
    "status": "Assigned to Contractor",
    "contractor": "Legacy Professional Services",
    "rowid": "1054462",
    "final_x": "3707109.17713",
    "final_y": "562760.979552",
    "longitude": "-89.98604656771454",
    "latitude": "30.040594153803262",
    "geocoded_column": {
      "latitude": "30.040594153803262",
      "longitude": "-89.98604656771454"
    }
  },
  {
    "service_request": "2023-1054461",
    "request_type": "Traffic Signals/Signs/Striping/Streetlights",
    "request_reason": "Additional signage",
    "date_created": "2023-12-07T14:27:50.000",
    "date_modified": "2023-12-07T14:27:50.000",
    "request_status": "Pending",
    "responsible_agency": "Department of Public Works",
    "final_address": "CAMP ST & FELICITY ST & SOPHIE WRIGHT PL",
    "address_councildis": "B",
    "status": "Pending",
    "rowid": "1054461",
    "final_x": "3679670.0",
    "final_y": "523372.18",
    "longitude": "-90.0741315340554",
    "latitude": "29.933147330195464",
    "geocoded_column": {
      "latitude": "29.933147330195464",
      "longitude": "-90.0741315340554"
    }
  },
  {
    "service_request": "2023-1054460",
    "request_type": "Trash/Recycling",
    "request_reason": "Illegal Dumping",
    "date_created": "2023-12-07T14:18:49.000",
    "date_modified": "2023-12-07T14:20:00.000",
    "case_close_date": "2023-12-07T08:20:00.000",
    "request_status": "Closed",
    "responsible_agency": "Department of Sanitation",
    "final_address": "626 S Galvez St",
    "address_councildis": "B",
    "status": "Resolved",
    "rowid": "1054460",
    "final_x": "3675520.64411",
    "final_y": "531772.967811",
    "longitude": "-90.08694230653674",
    "latitude": "29.95637145275727",
    "geocoded_column": {
      "latitude": "29.95637145275727",
      "longitude": "-90.08694230653674"
    }
  },
  {
    "service_request": "2023-1054459",
    "request_type": "Property Maintenance",
    "request_reason": "Property Maintenance",
    "date_created": "2023-12-07T14:16:09.000",
    "date_modified": "2023-12-07T14:18:21.000",
    "request_status": "Pending",
    "responsible_agency": "Department of Code Enforcement",
    "final_address": "1907 Esplanade Ave HM",
    "address_councildis": "D",
    "status": "Pending",
    "rowid": "1054459",
    "final_x": "3680414.98863",
    "final_y": "537325.125704",
    "longitude": "-90.07129450173258",
    "latitude": "29.97149069624261",
    "geocoded_column": {
      "latitude": "29.97149069624261",
      "longitude": "-90.07129450173258"
    }
  },
  {
    "service_request": "2023-1054458",
    "request_type": "Parks & Parkways",
    "request_reason": "Request Tree Service (Right of Way/Public Property)",
    "date_created": "2023-12-07T14:15:16.000",
    "date_modified": "2023-12-07T14:15:16.000",
    "request_status": "Pending",
    "responsible_agency": "Department of Parks & Parkway",
    "final_address": "905 Aline St",
    "address_councildis": "B",
    "status": "Pending",
    "rowid": "1054458",
    "final_x": "3674720.54888",
    "final_y": "518781.129079",
    "longitude": "-90.08991391979993",
    "latitude": "29.920672052407443",
    "geocoded_column": {
      "latitude": "29.920672052407443",
      "longitude": "-90.08991391979993"
    }
  },
  {
    "service_request": "2023-1054457",
    "request_type": "Trash/Recycling",
    "request_reason": "Request a Large Item Pick Up",
    "date_created": "2023-12-07T14:10:26.000",
    "date_modified": "2023-12-07T14:10:27.000",
    "request_status": "Pending",
    "responsible_agency": "Department of Sanitation",
    "final_address": "7160 Deanne St",
    "address_councildis": "D",
    "status": "Assigned to Contractor",
    "contractor": "Waste Pro",
    "rowid": "1054457",
    "final_x": "3695366.92451",
    "final_y": "556997.46377",
    "longitude": "-90.02336407005002",
    "latitude": "30.025121095238553",
    "geocoded_column": {
      "latitude": "30.025121095238553",
      "longitude": "-90.02336407005002"
    }
  },
  {
    "service_request": "2023-1054456",
    "request_type": "Property Maintenance",
    "request_reason": "Property Maintenance",
    "date_created": "2023-12-07T14:05:16.000",
    "date_modified": "2023-12-07T14:05:16.000",
    "request_status": "Pending",
    "responsible_agency": "Department of Code Enforcement",
    "final_address": "6046 Pines Blvd",
    "address_councildis": "D",
    "status": "Pending",
    "rowid": "1054456",
    "final_x": "3696185.44323",
    "final_y": "556057.734681",
    "longitude": "-90.02081170516817",
    "latitude": "30.022511441711345",
    "geocoded_column": {
      "latitude": "30.022511441711345",
      "longitude": "-90.02081170516817"
    }
  },
  {
    "service_request": "2023-1054455",
    "request_type": "Traffic Signals/Signs/Striping/Streetlights",
    "request_reason": "Street Light Outage/Malfunction",
    "date_created": "2023-12-07T14:02:01.000",
    "date_modified": "2023-12-07T14:02:02.000",
    "request_status": "Pending",
    "responsible_agency": "Department of Public Works",
    "final_address": "7311 Beauvoir Ct",
    "address_councildis": "E",
    "status": "Assigned to Contractor",
    "contractor": "Legacy Professional Services",
    "rowid": "1054455",
    "final_x": "3716146.41541",
    "final_y": "567903.770597",
    "longitude": "-89.95729102254472",
    "latitude": "30.05443945767637",
    "geocoded_column": {
      "latitude": "30.05443945767637",
      "longitude": "-89.95729102254472"
    }
  },
  {
    "service_request": "2023-1054453",
    "request_type": "Trash/Recycling",
    "request_reason": "Request a Large Item Pick Up",
    "date_created": "2023-12-07T13:57:31.000",
    "date_modified": "2023-12-07T13:57:32.000",
    "request_status": "Pending",
    "responsible_agency": "Department of Sanitation",
    "final_address": "1400 Jourdan Ave",
    "address_councildis": "E",
    "status": "Assigned to Contractor",
    "contractor": "Waste Pro",
    "rowid": "1054453",
    "final_x": "3695277.1455",
    "final_y": "535662.641862",
    "longitude": "-90.02441784639066",
    "latitude": "29.96646098813612",
    "geocoded_column": {
      "latitude": "29.96646098813612",
      "longitude": "-90.02441784639066"
    }
  },
  {
    "service_request": "2023-1054452",
    "request_type": "Roads/Drainage",
    "request_reason": "Man hole cover issue",
    "date_created": "2023-12-07T13:56:41.000",
    "date_modified": "2023-12-07T13:56:41.000",
    "request_status": "Pending",
    "responsible_agency": "Department of Public Works",
    "final_address": "PRENTISS AVE & WINGATE DR",
    "address_councildis": "D",
    "status": "Pending",
    "rowid": "1054452",
    "final_x": "3681312.5",
    "final_y": "553659.98",
    "longitude": "-90.06789030596416",
    "latitude": "30.016378545805427",
    "geocoded_column": {
      "latitude": "30.016378545805427",
      "longitude": "-90.06789030596416"
    }
  },
  {
    "service_request": "2023-1054451",
    "request_type": "Trash/Recycling",
    "request_reason": "Illegal Dumping",
    "date_created": "2023-12-07T13:55:30.000",
    "date_modified": "2023-12-07T13:55:30.000",
    "request_status": "Pending",
    "responsible_agency": "Department of Sanitation",
    "final_address": "1644 Lesseps St",
    "address_councildis": "D",
    "status": "Pending",
    "rowid": "1054451",
    "final_x": "3693220.71165",
    "final_y": "537304.158344",
    "longitude": "-90.03085308415318",
    "latitude": "29.971039009029052",
    "geocoded_column": {
      "latitude": "29.971039009029052",
      "longitude": "-90.03085308415318"
    }
  },
  {
    "service_request": "2023-1054450",
    "request_type": "Trash/Recycling",
    "request_reason": "Repair Trash Cart",
    "date_created": "2023-12-07T13:54:07.000",
    "date_modified": "2023-12-07T13:54:08.000",
    "request_status": "Pending",
    "responsible_agency": "Department of Sanitation",
    "final_address": "3317 Coliseum St",
    "address_councildis": "B",
    "status": "Assigned to Contractor",
    "contractor": "Richards Disposal",
    "rowid": "1054450",
    "final_x": "3674817.49262",
    "final_y": "520725.674041",
    "longitude": "-90.08954128535716",
    "latitude": "29.926016032584204",
    "geocoded_column": {
      "latitude": "29.926016032584204",
      "longitude": "-90.08954128535716"
    }
  },
  {
    "service_request": "2023-1054449",
    "request_type": "Trash/Recycling",
    "request_reason": "Return Trash Cart",
    "date_created": "2023-12-07T13:51:07.000",
    "date_modified": "2023-12-07T13:51:07.000",
    "request_status": "Pending",
    "responsible_agency": "Department of Sanitation",
    "final_address": "1535 Annunciation St",
    "address_councildis": "B",
    "status": "Assigned to Contractor",
    "contractor": "Richards Disposal",
    "rowid": "1054449",
    "final_x": "3680760.96853",
    "final_y": "523405.708987",
    "longitude": "-90.07068625480736",
    "latitude": "29.933206512920485",
    "geocoded_column": {
      "latitude": "29.933206512920485",
      "longitude": "-90.07068625480736"
    }
  },
  {
    "service_request": "2023-1054447",
    "request_type": "Trash/Recycling",
    "request_reason": "Return Trash Cart",
    "date_created": "2023-12-07T13:47:34.000",
    "date_modified": "2023-12-07T14:17:12.000",
    "request_status": "Pending",
    "responsible_agency": "Department of Sanitation",
    "final_address": "6876 Farwood Rd",
    "address_councildis": "E",
    "contractor": "Waste Pro",
    "rowid": "1054447",
    "final_x": "3700657.08292",
    "final_y": "557353.733147",
    "longitude": "-90.00663506935066",
    "latitude": "30.02593334286755",
    "geocoded_column": {
      "latitude": "30.02593334286755",
      "longitude": "-90.00663506935066"
    }
  },
  {
    "service_request": "2023-1054446",
    "request_type": "Roads/Drainage",
    "request_reason": "Ditch Issue",
    "date_created": "2023-12-07T13:46:37.000",
    "date_modified": "2023-12-07T13:46:37.000",
    "request_status": "Pending",
    "responsible_agency": "Department of Public Works",
    "final_address": "3334 Joliet St",
    "address_councildis": "A",
    "status": "Pending",
    "rowid": "1054446",
    "final_x": "3666098.60954",
    "final_y": "535091.427398",
    "longitude": "-90.11658280528027",
    "latitude": "29.96577457141418",
    "geocoded_column": {
      "latitude": "29.96577457141418",
      "longitude": "-90.11658280528027"
    }
  },
  {
    "service_request": "2023-1054445",
    "request_type": "Trash/Recycling",
    "request_reason": "Order Trash Cart",
    "date_created": "2023-12-07T13:38:45.000",
    "date_modified": "2023-12-07T13:38:46.000",
    "request_status": "Pending",
    "responsible_agency": "Department of Sanitation",
    "final_address": "1767 N Tonti St",
    "address_councildis": "D",
    "status": "Assigned to Contractor",
    "contractor": "IV Waste",
    "rowid": "1054445",
    "final_x": "3681114.99221",
    "final_y": "540479.494027",
    "longitude": "-90.06897386587184",
    "latitude": "29.980142897305015",
    "geocoded_column": {
      "latitude": "29.980142897305015",
      "longitude": "-90.06897386587184"
    }
  },
  {
    "service_request": "2023-1054444",
    "request_type": "Traffic Signals/Signs/Striping/Streetlights",
    "request_reason": "Traffic Signal Malfunctioning/Damaged",
    "date_created": "2023-12-07T13:32:54.000",
    "date_modified": "2023-12-07T13:32:54.000",
    "request_status": "Pending",
    "responsible_agency": "Department of Public Works",
    "final_address": "3400 BLK N Claiborne Ave",
    "address_councildis": "D",
    "status": "Pending",
    "rowid": "1054444",
    "final_x": "3690786.35067",
    "final_y": "537538.271168",
    "longitude": "-90.03853273484832",
    "latitude": "29.97175859896029",
    "geocoded_column": {
      "latitude": "29.97175859896029",
      "longitude": "-90.03853273484832"
    }
  },
  {
    "service_request": "2023-1054443",
    "request_type": "Trash/Recycling",
    "request_reason": "Request a Large Item Pick Up",
    "date_created": "2023-12-07T13:30:33.000",
    "date_modified": "2023-12-07T13:30:34.000",
    "request_status": "Pending",
    "responsible_agency": "Department of Sanitation",
    "final_address": "1809 Alvar St",
    "address_councildis": "D",
    "status": "Assigned to Contractor",
    "contractor": "IV Waste",
    "rowid": "1054443",
    "final_x": "3692212.90077",
    "final_y": "538093.097481",
    "longitude": "-90.03400761782267",
    "latitude": "29.97323977287497",
    "geocoded_column": {
      "latitude": "29.97323977287497",
      "longitude": "-90.03400761782267"
    }
  },
  {
    "service_request": "2023-1054442",
    "request_type": "Traffic Signals/Signs/Striping/Streetlights",
    "request_reason": "Street Light Outage/Malfunction",
    "date_created": "2023-12-07T13:28:39.000",
    "date_modified": "2023-12-07T13:28:40.000",
    "request_status": "Pending",
    "responsible_agency": "Department of Public Works",
    "final_address": "3400 BLK S Claiborne Ave",
    "address_councildis": "B",
    "status": "Assigned to Contractor",
    "contractor": "Legacy Professional Services",
    "rowid": "1054442",
    "final_x": "3672058.24771",
    "final_y": "526014.518297",
    "longitude": "-90.09807145022116",
    "latitude": "29.940640713574588",
    "geocoded_column": {
      "latitude": "29.940640713574588",
      "longitude": "-90.09807145022116"
    }
  },
  {
    "service_request": "2023-1054441",
    "request_type": "Mosquito, Termite & Rodent Control",
    "request_reason": "Non-Rodent Complaint (Mice, Possums, Snakes)",
    "date_created": "2023-12-07T13:25:25.000",
    "date_modified": "2023-12-07T13:25:26.000",
    "request_status": "Pending",
    "responsible_agency": "Mosquito, Termite & Rodent Control Board",
    "final_address": "1729 Piety St",
    "address_councildis": "D",
    "status": "Pending",
    "rowid": "1054441",
    "final_x": "3690510.31152",
    "final_y": "538307.698569",
    "longitude": "-90.03937706537188",
    "latitude": "29.973882826292357",
    "geocoded_column": {
      "latitude": "29.973882826292357",
      "longitude": "-90.03937706537188"
    }
  },
  {
    "service_request": "2023-1054440",
    "request_type": "Trash/Recycling",
    "request_reason": "MIssed Recycling Pick-Up",
    "date_created": "2023-12-07T13:25:09.000",
    "date_modified": "2023-12-07T13:25:10.000",
    "request_status": "Pending",
    "responsible_agency": "Department of Sanitation",
    "final_address": "1240 Camp St",
    "address_councildis": "B",
    "status": "Assigned to Contractor",
    "contractor": "Richards Disposal",
    "rowid": "1054440",
    "final_x": "3680198.09986",
    "final_y": "525358.634365",
    "longitude": "-90.07239534849856",
    "latitude": "29.93859345473388",
    "geocoded_column": {
      "latitude": "29.93859345473388",
      "longitude": "-90.07239534849856"
    }
  },
  {
    "service_request": "2023-1054439",
    "request_type": "Trash/Recycling",
    "request_reason": "MIssed Recycling Pick-Up",
    "date_created": "2023-12-07T13:25:00.000",
    "date_modified": "2023-12-07T13:25:01.000",
    "request_status": "Pending",
    "responsible_agency": "Department of Sanitation",
    "final_address": "3021 Bell St",
    "address_councildis": "A",
    "status": "Assigned to Contractor",
    "contractor": "Richards Disposal",
    "rowid": "1054439",
    "final_x": "3676443.78286",
    "final_y": "539363.57953",
    "longitude": "-90.08376595495282",
    "latitude": "29.977215416782403",
    "geocoded_column": {
      "latitude": "29.977215416782403",
      "longitude": "-90.08376595495282"
    }
  },
  {
    "service_request": "2023-1054438",
    "request_type": "Trash/Recycling",
    "request_reason": "Illegal Dumping",
    "date_created": "2023-12-07T13:22:05.000",
    "date_modified": "2023-12-07T13:22:06.000",
    "request_status": "Pending",
    "responsible_agency": "Department of Sanitation",
    "final_address": "2330 S Derbigny St",
    "address_councildis": "B",
    "status": "Pending",
    "rowid": "1054438",
    "final_x": "3674159.71752",
    "final_y": "527782.771135",
    "longitude": "-90.0913762331745",
    "latitude": "29.94544036819871",
    "geocoded_column": {
      "latitude": "29.94544036819871",
      "longitude": "-90.0913762331745"
    }
  },
  {
    "service_request": "2023-1054437",
    "request_type": "Trash/Recycling",
    "request_reason": "Return Trash Cart",
    "date_created": "2023-12-07T13:21:17.000",
    "date_modified": "2023-12-07T13:21:18.000",
    "request_status": "Pending",
    "responsible_agency": "Department of Sanitation",
    "final_address": "2301 St Charles Ave",
    "address_councildis": "B",
    "status": "Assigned to Contractor",
    "contractor": "Richards Disposal",
    "rowid": "1054437",
    "final_x": "3677071.2795",
    "final_y": "523400.433275",
    "longitude": "-90.08233455188007",
    "latitude": "29.9333032873041",
    "geocoded_column": {
      "latitude": "29.9333032873041",
      "longitude": "-90.08233455188007"
    }
  },
  {
    "service_request": "2023-1054436",
    "request_type": "Trash/Recycling",
    "request_reason": "Request a Large Item Pick Up",
    "date_created": "2023-12-07T13:17:16.000",
    "date_modified": "2023-12-07T13:17:18.000",
    "request_status": "Pending",
    "responsible_agency": "Department of Sanitation",
    "final_address": "2330 S Derbigny St",
    "address_councildis": "B",
    "status": "Assigned to Contractor",
    "contractor": "Richards Disposal",
    "rowid": "1054436",
    "final_x": "3674159.71752",
    "final_y": "527782.771135",
    "longitude": "-90.0913762331745",
    "latitude": "29.94544036819871",
    "geocoded_column": {
      "latitude": "29.94544036819871",
      "longitude": "-90.0913762331745"
    }
  },
  {
    "service_request": "2023-1054435",
    "request_type": "Roads/Drainage",
    "request_reason": "Catch Basin - Clogged",
    "date_created": "2023-12-07T13:12:08.000",
    "date_modified": "2023-12-07T13:12:08.000",
    "request_status": "Pending",
    "responsible_agency": "Department of Public Works",
    "final_address": "1539 Verna St",
    "address_councildis": "A",
    "status": "Pending",
    "rowid": "1054435",
    "final_x": "3675914.39579",
    "final_y": "541690.073804",
    "longitude": "-90.08535790637856",
    "latitude": "29.983628338531002",
    "geocoded_column": {
      "latitude": "29.983628338531002",
      "longitude": "-90.08535790637856"
    }
  },
  {
    "service_request": "2023-1054434",
    "request_type": "Roads/Drainage",
    "request_reason": "Catch Basin - Clogged",
    "date_created": "2023-12-07T13:07:49.000",
    "date_modified": "2023-12-07T13:07:49.000",
    "request_status": "Pending",
    "responsible_agency": "Department of Public Works",
    "final_address": "5600 BLK Canal Blvd",
    "address_councildis": "A",
    "status": "Pending",
    "rowid": "1054434",
    "final_x": "3668317.85394",
    "final_y": "544829.794314",
    "longitude": "-90.10924595076945",
    "latitude": "29.99248680876876",
    "geocoded_column": {
      "latitude": "29.99248680876876",
      "longitude": "-90.10924595076945"
    }
  },
  {
    "service_request": "2023-1054433",
    "request_type": "Trash/Recycling",
    "request_reason": "Request a Large Item Pick Up",
    "date_created": "2023-12-07T13:07:12.000",
    "date_modified": "2023-12-07T13:07:13.000",
    "request_status": "Pending",
    "responsible_agency": "Department of Sanitation",
    "final_address": "1127 St Andrew St",
    "address_councildis": "B",
    "status": "Assigned to Contractor",
    "contractor": "Richards Disposal",
    "rowid": "1054433",
    "final_x": "3679370.12866",
    "final_y": "522798.452474",
    "longitude": "-90.07509809652522",
    "latitude": "29.931578825881914",
    "geocoded_column": {
      "latitude": "29.931578825881914",
      "longitude": "-90.07509809652522"
    }
  },
  {
    "service_request": "2023-1054432",
    "request_type": "Roads/Drainage",
    "request_reason": "Street Subsidence (Sinking)",
    "date_created": "2023-12-07T13:04:52.000",
    "date_modified": "2023-12-07T13:04:52.000",
    "request_status": "Pending",
    "responsible_agency": "Department of Public Works",
    "final_address": "4030 General Meyer Ave",
    "address_councildis": "C",
    "status": "Pending",
    "rowid": "1054432",
    "final_x": "3699141.63933",
    "final_y": "524768.113468",
    "longitude": "-90.01261045730328",
    "latitude": "29.936382927776773",
    "geocoded_column": {
      "latitude": "29.936382927776773",
      "longitude": "-90.01261045730328"
    }
  },
  {
    "service_request": "2023-1054430",
    "request_type": "Mayor's Request",
    "request_reason": "Entergy Bill Payment Assistance",
    "date_created": "2023-12-07T13:01:58.000",
    "date_modified": "2023-12-07T13:01:58.000",
    "request_status": "Pending",
    "responsible_agency": "Executive Office of the Mayor",
    "final_address": "5010 Constance St",
    "address_councildis": "B",
    "status": "Pending",
    "rowid": "1054430",
    "final_x": "3668528.86842",
    "final_y": "518180.822262",
    "longitude": "-90.10947849856062",
    "latitude": "29.919204695724737",
    "geocoded_column": {
      "latitude": "29.919204695724737",
      "longitude": "-90.10947849856062"
    }
  },
  {
    "service_request": "2023-1054429",
    "request_type": "Property Maintenance",
    "request_reason": "Property Maintenance",
    "date_created": "2023-12-07T13:00:36.000",
    "date_modified": "2023-12-07T13:00:37.000",
    "request_status": "Pending",
    "responsible_agency": "Department of Code Enforcement",
    "final_address": "6 Marywood Ct",
    "address_councildis": "E",
    "status": "Pending",
    "rowid": "1054429",
    "final_x": "3712752.09227",
    "final_y": "566385.221091",
    "longitude": "-89.96807678509569",
    "latitude": "30.05037570930936",
    "geocoded_column": {
      "latitude": "30.05037570930936",
      "longitude": "-89.96807678509569"
    }
  },
  {
    "service_request": "2023-1054428",
    "request_type": "Trash/Recycling",
    "request_reason": "Request a Large Item Pick Up",
    "date_created": "2023-12-07T12:59:27.000",
    "date_modified": "2023-12-07T12:59:27.000",
    "request_status": "Pending",
    "responsible_agency": "Department of Sanitation",
    "final_address": "722 General Pershing St",
    "address_councildis": "B",
    "status": "Assigned to Contractor",
    "contractor": "Richards Disposal",
    "rowid": "1054428",
    "final_x": "3671462.02753",
    "final_y": "518291.782518",
    "longitude": "-90.10021621449194",
    "latitude": "29.919423331704046",
    "geocoded_column": {
      "latitude": "29.919423331704046",
      "longitude": "-90.10021621449194"
    }
  },
  {
    "service_request": "2023-1054427",
    "request_type": "Safety & Permits",
    "request_reason": "Licenses & Permits",
    "date_created": "2023-12-07T12:58:30.000",
    "date_modified": "2023-12-07T12:58:31.000",
    "request_status": "Pending",
    "responsible_agency": "Safety and Permits",
    "final_address": "6 Marywood Ct",
    "address_councildis": "E",
    "status": "Pending",
    "rowid": "1054427",
    "final_x": "3712752.09227",
    "final_y": "566385.221091",
    "longitude": "-89.96807678509569",
    "latitude": "30.05037570930936",
    "geocoded_column": {
      "latitude": "30.05037570930936",
      "longitude": "-89.96807678509569"
    }
  },
  {
    "service_request": "2023-1054426",
    "request_type": "Taxi Issues",
    "request_reason": "Taxi Lost & Found Item",
    "date_created": "2023-12-07T12:57:43.000",
    "date_modified": "2023-12-07T12:57:44.000",
    "request_status": "Pending",
    "responsible_agency": "Ground Transportation Bureau",
    "final_address": "800 Iberville St",
    "address_councildis": "C",
    "status": "Pending",
    "rowid": "1054426",
    "final_x": "3681110.35407",
    "final_y": "531230.922882",
    "longitude": "-90.06931075184734",
    "latitude": "29.954712643438935",
    "geocoded_column": {
      "latitude": "29.954712643438935",
      "longitude": "-90.06931075184734"
    }
  },
  {
    "service_request": "2023-1054425",
    "request_type": "Trash/Recycling",
    "request_reason": "Repair Trash Cart",
    "date_created": "2023-12-07T12:56:38.000",
    "date_modified": "2023-12-07T12:56:39.000",
    "request_status": "Pending",
    "responsible_agency": "Department of Sanitation",
    "final_address": "2421 Franklin Ave",
    "address_councildis": "D",
    "status": "Assigned to Contractor",
    "contractor": "IV Waste",
    "rowid": "1054425",
    "final_x": "3687606.47433",
    "final_y": "541525.00686",
    "longitude": "-90.04843406266784",
    "latitude": "29.982819134683723",
    "geocoded_column": {
      "latitude": "29.982819134683723",
      "longitude": "-90.04843406266784"
    }
  },
  {
    "service_request": "2023-1054424",
    "request_type": "Trash/Recycling",
    "request_reason": "Repair Trash Cart",
    "date_created": "2023-12-07T12:55:20.000",
    "date_modified": "2023-12-07T12:55:20.000",
    "request_status": "Pending",
    "responsible_agency": "Department of Sanitation",
    "final_address": "2419 Franklin Ave",
    "address_councildis": "D",
    "status": "Assigned to Contractor",
    "contractor": "IV Waste",
    "rowid": "1054424",
    "final_x": "3687598.79721",
    "final_y": "541504.898956",
    "longitude": "-90.04845902299634",
    "latitude": "29.98276408179601",
    "geocoded_column": {
      "latitude": "29.98276408179601",
      "longitude": "-90.04845902299634"
    }
  },
  {
    "service_request": "2023-1054423",
    "request_type": "Trash/Recycling",
    "request_reason": "Repair Trash Cart",
    "date_created": "2023-12-07T12:52:14.000",
    "date_modified": "2023-12-07T12:52:15.000",
    "request_status": "Pending",
    "responsible_agency": "Department of Sanitation",
    "final_address": "3800 St Charles Ave",
    "address_councildis": "B",
    "status": "Assigned to Contractor",
    "contractor": "Richards Disposal",
    "rowid": "1054423",
    "final_x": "3672842.23822",
    "final_y": "520921.533241",
    "longitude": "-90.09576991983525",
    "latitude": "29.926613390720558",
    "geocoded_column": {
      "latitude": "29.926613390720558",
      "longitude": "-90.09576991983525"
    }
  },
  {
    "service_request": "2023-1054422",
    "request_type": "Trash/Recycling",
    "request_reason": "Missed Trash Pick-Up",
    "date_created": "2023-12-07T12:48:56.000",
    "date_modified": "2023-12-07T12:48:56.000",
    "request_status": "Pending",
    "responsible_agency": "Department of Sanitation",
    "final_address": "2516 Choctaw Ct",
    "address_councildis": "E",
    "status": "Assigned to Contractor",
    "contractor": "Waste Pro",
    "rowid": "1054422",
    "final_x": "3698866.86327",
    "final_y": "539388.797834",
    "longitude": "-90.0129460377322",
    "latitude": "29.976593334377522",
    "geocoded_column": {
      "latitude": "29.976593334377522",
      "longitude": "-90.0129460377322"
    }
  },
  {
    "service_request": "2023-1054421",
    "request_type": "Trash/Recycling",
    "request_reason": "Repair Trash Cart",
    "date_created": "2023-12-07T12:39:33.000",
    "date_modified": "2023-12-07T12:39:34.000",
    "request_status": "Pending",
    "responsible_agency": "Department of Sanitation",
    "final_address": "7620 Mayo Rd",
    "address_councildis": "E",
    "status": "Assigned to Contractor",
    "contractor": "Waste Pro",
    "rowid": "1054421",
    "final_x": "3700684.61239",
    "final_y": "560759.43747",
    "longitude": "-90.00642345901434",
    "latitude": "30.035296836271538",
    "geocoded_column": {
      "latitude": "30.035296836271538",
      "longitude": "-90.00642345901434"
    }
  },
  {
    "service_request": "2023-1054420",
    "request_type": "Roads/Drainage",
    "request_reason": "Street Flooding / Drainage",
    "date_created": "2023-12-07T12:37:35.000",
    "date_modified": "2023-12-07T12:37:35.000",
    "request_status": "Pending",
    "responsible_agency": "Department of Public Works",
    "final_address": "2451 Law St",
    "address_councildis": "D",
    "status": "Pending",
    "rowid": "1054420",
    "final_x": "3685730.17545",
    "final_y": "541981.861836",
    "longitude": "-90.05434424311846",
    "latitude": "29.98413304365652",
    "geocoded_column": {
      "latitude": "29.98413304365652",
      "longitude": "-90.05434424311846"
    }
  },
  {
    "service_request": "2023-1054419",
    "request_type": "Roads/Drainage",
    "request_reason": "Street Flooding / Drainage",
    "date_created": "2023-12-07T12:35:26.000",
    "date_modified": "2023-12-07T12:35:26.000",
    "request_status": "Pending",
    "responsible_agency": "Department of Public Works",
    "final_address": "2451 Law St",
    "address_councildis": "D",
    "status": "Pending",
    "rowid": "1054419",
    "final_x": "3685730.17545",
    "final_y": "541981.861836",
    "longitude": "-90.05434424311846",
    "latitude": "29.98413304365652",
    "geocoded_column": {
      "latitude": "29.98413304365652",
      "longitude": "-90.05434424311846"
    }
  },
  {
    "service_request": "2023-1054418",
    "request_type": "Trash/Recycling",
    "request_reason": "Replace Trash Cart",
    "date_created": "2023-12-07T12:35:02.000",
    "date_modified": "2023-12-07T12:35:02.000",
    "request_status": "Pending",
    "responsible_agency": "Department of Sanitation",
    "final_address": "2625 Constance St",
    "address_councildis": "B",
    "status": "Assigned to Contractor",
    "contractor": "Richards Disposal",
    "rowid": "1054418",
    "final_x": "3677620.24456",
    "final_y": "520789.685561",
    "longitude": "-90.08069160430351",
    "latitude": "29.926108091384283",
    "geocoded_column": {
      "latitude": "29.926108091384283",
      "longitude": "-90.08069160430351"
    }
  },
  {
    "service_request": "2023-1054417",
    "request_type": "Trash/Recycling",
    "request_reason": "Request a Large Item Pick Up",
    "date_created": "2023-12-07T12:31:08.000",
    "date_modified": "2023-12-07T12:31:08.000",
    "request_status": "Pending",
    "responsible_agency": "Department of Sanitation",
    "final_address": "2437 Verbena St",
    "address_councildis": "D",
    "status": "Assigned to Contractor",
    "contractor": "IV Waste",
    "rowid": "1054417",
    "final_x": "3685892.87241",
    "final_y": "547758.558738",
    "longitude": "-90.05362658238988",
    "latitude": "30.000011901288026",
    "geocoded_column": {
      "latitude": "30.000011901288026",
      "longitude": "-90.05362658238988"
    }
  },
  {
    "service_request": "2023-1054416",
    "request_type": "Trash/Recycling",
    "request_reason": "Request a Large Item Pick Up",
    "date_created": "2023-12-07T12:29:20.000",
    "date_modified": "2023-12-07T12:29:21.000",
    "request_status": "Pending",
    "responsible_agency": "Department of Sanitation",
    "final_address": "1536 St Mary St",
    "address_councildis": "B",
    "status": "Assigned to Contractor",
    "contractor": "Richards Disposal",
    "rowid": "1054416",
    "final_x": "3678476.76475",
    "final_y": "524095.140732",
    "longitude": "-90.07787349169797",
    "latitude": "29.93517123676265",
    "geocoded_column": {
      "latitude": "29.93517123676265",
      "longitude": "-90.07787349169797"
    }
  },
  {
    "service_request": "2023-1054415",
    "request_type": "Trash/Recycling",
    "request_reason": "Request a Large Item Pick Up",
    "date_created": "2023-12-07T12:24:05.000",
    "date_modified": "2023-12-07T12:24:06.000",
    "request_status": "Pending",
    "responsible_agency": "Department of Sanitation",
    "final_address": "5935 Carlisle Ct",
    "address_councildis": "C",
    "status": "Assigned to Contractor",
    "contractor": "Richards Disposal",
    "rowid": "1054415",
    "final_x": "3705751.46699",
    "final_y": "516414.082421",
    "longitude": "-89.9920518943892",
    "latitude": "29.91320111249764",
    "geocoded_column": {
      "latitude": "29.91320111249764",
      "longitude": "-89.9920518943892"
    }
  },
  {
    "service_request": "2023-1054414",
    "request_type": "Traffic Signals/Signs/Striping/Streetlights",
    "request_reason": "Street Light Outage/Malfunction",
    "date_created": "2023-12-07T12:23:35.000",
    "date_modified": "2023-12-07T12:23:36.000",
    "request_status": "Pending",
    "responsible_agency": "Department of Public Works",
    "final_address": "6332 Cartwright Dr",
    "address_councildis": "D",
    "status": "Assigned to Contractor",
    "contractor": "Legacy Professional Services",
    "rowid": "1054414",
    "final_x": "3678620.07483",
    "final_y": "556814.17801",
    "longitude": "-90.07628787538283",
    "latitude": "30.025132928347073",
    "geocoded_column": {
      "latitude": "30.025132928347073",
      "longitude": "-90.07628787538283"
    }
  },
  {
    "service_request": "2023-1054413",
    "request_type": "Trash/Recycling",
    "request_reason": "Repair Trash Cart",
    "date_created": "2023-12-07T12:21:42.000",
    "date_modified": "2023-12-07T12:21:43.000",
    "request_status": "Pending",
    "responsible_agency": "Department of Sanitation",
    "final_address": "2306 Baronne St",
    "address_councildis": "B",
    "status": "Assigned to Contractor",
    "contractor": "Richards Disposal",
    "rowid": "1054413",
    "final_x": "3676696.50299",
    "final_y": "523891.042556",
    "longitude": "-90.08350080504277",
    "latitude": "29.934663547923275",
    "geocoded_column": {
      "latitude": "29.934663547923275",
      "longitude": "-90.08350080504277"
    }
  },
  {
    "service_request": "2023-1054412",
    "request_type": "Trash/Recycling",
    "request_reason": "Request a Large Item Pick Up",
    "date_created": "2023-12-07T12:17:38.000",
    "date_modified": "2023-12-07T12:18:50.000",
    "request_status": "Pending",
    "responsible_agency": "Department of Sanitation",
    "final_address": "1301 Tricou St",
    "address_councildis": "E",
    "status": "Assigned to Contractor",
    "contractor": "Waste Pro",
    "rowid": "1054412",
    "final_x": "3700462.81815",
    "final_y": "533759.153861",
    "longitude": "-90.00811119040415",
    "latitude": "29.9610631785728",
    "geocoded_column": {
      "latitude": "29.9610631785728",
      "longitude": "-90.00811119040415"
    }
  },
  {
    "service_request": "2023-1054411",
    "request_type": "Roads/Drainage",
    "request_reason": "Catch Basin - Clogged",
    "date_created": "2023-12-07T12:16:49.000",
    "date_modified": "2023-12-07T12:16:50.000",
    "request_status": "Pending",
    "responsible_agency": "Department of Public Works",
    "final_address": "4720 Stemway Dr",
    "address_councildis": "D",
    "status": "Pending",
    "rowid": "1054411",
    "final_x": "3696882.43018",
    "final_y": "554071.59356",
    "longitude": "-90.01868140742866",
    "latitude": "30.01702833476925",
    "geocoded_column": {
      "latitude": "30.01702833476925",
      "longitude": "-90.01868140742866"
    }
  },
  {
    "service_request": "2023-1054410",
    "request_type": "Trash/Recycling",
    "request_reason": "Request a Large Item Pick Up",
    "date_created": "2023-12-07T12:15:44.000",
    "date_modified": "2023-12-07T12:15:49.000",
    "request_status": "Pending",
    "responsible_agency": "Department of Sanitation",
    "final_address": "4937 Rhodes Dr",
    "address_councildis": "E",
    "status": "Assigned to Contractor",
    "contractor": "Waste Pro",
    "rowid": "1054410",
    "final_x": "3702483.34769",
    "final_y": "555419.481369",
    "longitude": "-90.00093542231937",
    "latitude": "30.020556627314885",
    "geocoded_column": {
      "latitude": "30.020556627314885",
      "longitude": "-90.00093542231937"
    }
  },
  {
    "service_request": "2023-1054409",
    "request_type": "Trash/Recycling",
    "request_reason": "Missed Trash Pick-Up",
    "date_created": "2023-12-07T12:14:47.000",
    "date_modified": "2023-12-07T12:17:12.000",
    "request_status": "Pending",
    "responsible_agency": "Department of Sanitation",
    "final_address": "6900 Edgefield Dr",
    "address_councildis": "E",
    "status": "Assigned to Contractor",
    "contractor": "Waste Pro",
    "rowid": "1054409",
    "final_x": "3719216.80876",
    "final_y": "568413.605221",
    "longitude": "-89.94756683869356",
    "latitude": "30.055739549275785",
    "geocoded_column": {
      "latitude": "30.055739549275785",
      "longitude": "-89.94756683869356"
    }
  },
  {
    "service_request": "2023-1054408",
    "request_type": "Trash/Recycling",
    "request_reason": "Request a Large Item Pick Up",
    "date_created": "2023-12-07T12:06:40.000",
    "date_modified": "2023-12-07T12:06:40.000",
    "request_status": "Pending",
    "responsible_agency": "Department of Sanitation",
    "final_address": "7611 Maple St",
    "address_councildis": "A",
    "status": "Assigned to Contractor",
    "contractor": "Richards Disposal",
    "rowid": "1054408",
    "final_x": "3662299.23309",
    "final_y": "526226.905278",
    "longitude": "-90.12887542396415",
    "latitude": "29.941510384644783",
    "geocoded_column": {
      "latitude": "29.941510384644783",
      "longitude": "-90.12887542396415"
    }
  },
  {
    "service_request": "2023-1054407",
    "request_type": "Trash/Recycling",
    "request_reason": "Request a Large Item Pick Up",
    "date_created": "2023-12-07T12:02:02.000",
    "date_modified": "2023-12-07T12:02:02.000",
    "request_status": "Pending",
    "responsible_agency": "Department of Sanitation",
    "final_address": "2224 St Nick Dr",
    "address_councildis": "C",
    "status": "Assigned to Contractor",
    "contractor": "Richards Disposal",
    "rowid": "1054407",
    "final_x": "3699827.37085",
    "final_y": "522797.445691",
    "longitude": "-90.01051741614688",
    "latitude": "29.930942523513085",
    "geocoded_column": {
      "latitude": "29.930942523513085",
      "longitude": "-90.01051741614688"
    }
  },
  {
    "service_request": "2023-1054406",
    "request_type": "Roads/Drainage",
    "request_reason": "Accessibility Ramps, Curbs and Sidewalk Repair",
    "date_created": "2023-12-07T11:59:46.000",
    "date_modified": "2023-12-07T11:59:47.000",
    "request_status": "Pending",
    "responsible_agency": "Department of Public Works",
    "final_address": "5700 Wildair Dr",
    "address_councildis": "D",
    "status": "Pending",
    "rowid": "1054406",
    "final_x": "3681494.50556",
    "final_y": "553728.686679",
    "longitude": "-90.06731284899575",
    "latitude": "30.016561936046216",
    "geocoded_column": {
      "latitude": "30.016561936046216",
      "longitude": "-90.06731284899575"
    }
  },
  {
    "service_request": "2023-1054405",
    "request_type": "Roads/Drainage",
    "request_reason": "Damaged Sidewalk",
    "date_created": "2023-12-07T11:58:35.000",
    "date_modified": "2023-12-07T11:58:35.000",
    "request_status": "Pending",
    "responsible_agency": "Department of Public Works",
    "final_address": "6735 Argonne Blvd",
    "address_councildis": "A",
    "status": "Pending",
    "rowid": "1054405",
    "final_x": "3670684.86919",
    "final_y": "552127.170838",
    "longitude": "-90.10152117299083",
    "latitude": "30.012482305336974",
    "geocoded_column": {
      "latitude": "30.012482305336974",
      "longitude": "-90.10152117299083"
    }
  },
  {
    "service_request": "2023-1054404",
    "request_type": "Traffic Signals/Signs/Striping/Streetlights",
    "request_reason": "Street Light Outage/Malfunction",
    "date_created": "2023-12-07T11:49:12.000",
    "date_modified": "2023-12-07T11:49:13.000",
    "request_status": "Pending",
    "responsible_agency": "Department of Public Works",
    "final_address": "3304 Albert St",
    "address_councildis": "C",
    "status": "Assigned to Contractor",
    "contractor": "Legacy Professional Services",
    "rowid": "1054404",
    "final_x": "3712035.67851",
    "final_y": "518322.938934",
    "longitude": "-89.97214565643756",
    "latitude": "29.91824603444147",
    "geocoded_column": {
      "latitude": "29.91824603444147",
      "longitude": "-89.97214565643756"
    }
  },
  {
    "service_request": "2023-1054403",
    "request_type": "Trash/Recycling",
    "request_reason": "Return Trash Cart",
    "date_created": "2023-12-07T11:47:44.000",
    "date_modified": "2023-12-07T11:47:44.000",
    "request_status": "Pending",
    "responsible_agency": "Department of Sanitation",
    "final_address": "611 S Scott St",
    "address_councildis": "B",
    "status": "Assigned to Contractor",
    "contractor": "Richards Disposal",
    "rowid": "1054403",
    "final_x": "3670470.0555",
    "final_y": "536178.419911",
    "longitude": "-90.10274102925652",
    "latitude": "29.968635074623652",
    "geocoded_column": {
      "latitude": "29.968635074623652",
      "longitude": "-90.10274102925652"
    }
  },