[
  {
    "service_request": "2023-982946",
    "request_type": "Abandoned Vehicles",
    "request_reason": "Abandoned/Junk Vehicles",
    "date_created": "2023-03-15T01:05:37.000",
    "date_modified": "2023-03-15T01:05:37.000",
    "request_status": "Pending",
    "responsible_agency": "Department of Public Works",
    "final_address": "1100 Constance St",
    "address_councildis": "B",
    "status": "Pending",
    "rowid": "982946",
    "final_x": "3681185.23644",
    "final_y": "526174.720894",
    "longitude": "-90.06925043292526",
    "latitude": "29.940807514682593",
    "geocoded_column": {
      "latitude": "29.940807514682593",
      "longitude": "-90.06925043292526"
    }
  },
  {
    "service_request": "2023-982945",
    "request_type": "Mosquito, Termite & Rodent Control",
    "request_reason": "Non-Rodent Complaint (Mice, Possums, Snakes)",
    "date_created": "2023-03-15T00:53:05.000",
    "date_modified": "2023-03-15T00:53:05.000",
    "request_status": "Pending",
    "responsible_agency": "Mosquito, Termite & Rodent Control Board",
    "final_address": "4118 N Roman St",
    "address_councildis": "D",
    "status": "Pending",
    "rowid": "982945",
    "final_x": "3692951.8223",
    "final_y": "537764.63604",
    "longitude": "-90.03168574865765",
    "latitude": "29.972313560670244",
    "geocoded_column": {
      "latitude": "29.972313560670244",
      "longitude": "-90.03168574865765"
    }
  },
  {
    "service_request": "2023-982944",
    "request_type": "Property Maintenance",
    "request_reason": "Property Maintenance",
    "date_created": "2023-03-15T00:50:10.000",
    "date_modified": "2023-03-15T00:50:10.000",
    "request_status": "Pending",
    "responsible_agency": "Department of Code Enforcement",
    "final_address": "4118 N Roman St",
    "address_councildis": "D",
    "status": "Pending",
    "rowid": "982944",
    "final_x": "3692951.8223",
    "final_y": "537764.63604",
    "longitude": "-90.03168574865765",
    "latitude": "29.972313560670244",
    "geocoded_column": {
      "latitude": "29.972313560670244",
      "longitude": "-90.03168574865765"
    }
  },
  {
    "service_request": "2023-982943",
    "request_type": "Roads/Drainage",
    "request_reason": "Accessibility Ramps, Curbs and Sidewalk Repair",
    "date_created": "2023-03-15T00:47:30.000",
    "date_modified": "2023-03-15T00:47:30.000",
    "request_status": "Pending",
    "responsible_agency": "Department of Public Works",
    "final_address": "4118 N Roman St",
    "address_councildis": "D",
    "status": "Pending",
    "rowid": "982943",
    "final_x": "3692951.8223",
    "final_y": "537764.63604",
    "longitude": "-90.03168574865765",
    "latitude": "29.972313560670244",
    "geocoded_column": {
      "latitude": "29.972313560670244",
      "longitude": "-90.03168574865765"
    }
  },
  {
    "service_request": "2023-982942",
    "request_type": "Trash/Recycling",
    "request_reason": "Illegal Dumping",
    "date_created": "2023-03-15T00:46:31.000",
    "date_modified": "2023-03-15T00:46:31.000",
    "request_status": "Pending",
    "responsible_agency": "Department of Sanitation",
    "final_address": "4118 N Roman St",
    "address_councildis": "D",
    "status": "Pending",
    "rowid": "982942",
    "final_x": "3692951.8223",
    "final_y": "537764.63604",
    "longitude": "-90.03168574865765",
    "latitude": "29.972313560670244",
    "geocoded_column": {
      "latitude": "29.972313560670244",
      "longitude": "-90.03168574865765"
    }
  },
  {
    "service_request": "2023-982941",
    "request_type": "Traffic Signals/Signs/Striping/Streetlights",
    "request_reason": "Street Light Outage/Malfunction",
    "date_created": "2023-03-14T22:50:29.000",
    "date_modified": "2023-03-14T22:50:29.000",
    "request_status": "Pending",
    "responsible_agency": "Department of Public Works",
    "final_address": "1614 Farragut St",
    "address_councildis": "C",
    "status": "Assigned to Contractor",
    "contractor": "Legacy Professional Services",
    "rowid": "982941",
    "final_x": "3692339.47325",
    "final_y": "525277.426749",
    "longitude": "-90.03406681673523",
    "latitude": "29.937997195785368",
    "geocoded_column": {
      "latitude": "29.937997195785368",
      "longitude": "-90.03406681673523"
    }
  },
  {
    "service_request": "2023-982940",
    "request_type": "Roads/Drainage",
    "request_reason": "Pothole",
    "date_created": "2023-03-14T22:47:01.000",
    "date_modified": "2023-03-14T22:47:01.000",
    "request_status": "Pending",
    "responsible_agency": "Department of Public Works",
    "final_address": "5323 Memphis St",
    "address_councildis": "A",
    "status": "Pending",
    "rowid": "982940",
    "final_x": "3668726.18593",
    "final_y": "542385.661069",
    "longitude": "-90.10803866240413",
    "latitude": "29.98575427729658",
    "geocoded_column": {
      "latitude": "29.98575427729658",
      "longitude": "-90.10803866240413"
    }
  },
  {
    "service_request": "2023-982939",
    "request_type": "Abandoned Vehicles",
    "request_reason": "Abandoned/Junk Vehicles",
    "date_created": "2023-03-14T22:07:03.000",
    "date_modified": "2023-03-14T22:07:03.000",
    "request_status": "Pending",
    "responsible_agency": "Department of Public Works",
    "final_address": "4630 St Charles Ave",
    "address_councildis": "B",
    "status": "Pending",
    "rowid": "982939",
    "final_x": "3669824.55719",
    "final_y": "520628.244792",
    "longitude": "-90.10530586201752",
    "latitude": "29.925896214610017",
    "geocoded_column": {
      "latitude": "29.925896214610017",
      "longitude": "-90.10530586201752"
    }
  },
  {
    "service_request": "2023-982938",
    "request_type": "Traffic Signals/Signs/Striping/Streetlights",
    "request_reason": "Street Light Outage/Malfunction",
    "date_created": "2023-03-14T22:02:17.000",
    "date_modified": "2023-03-14T22:02:18.000",
    "request_status": "Pending",
    "responsible_agency": "Department of Public Works",
    "final_address": "2025 Lamarque St",
    "address_councildis": "C",
    "status": "Assigned to Contractor",
    "contractor": "Legacy Professional Services",
    "rowid": "982938",
    "final_x": "3691613.80457",
    "final_y": "526571.891838",
    "longitude": "-90.03631154732832",
    "latitude": "29.94157913766319",
    "geocoded_column": {
      "latitude": "29.94157913766319",
      "longitude": "-90.03631154732832"
    }
  },
  {
    "service_request": "2023-982937",
    "request_type": "Trash/Recycling",
    "request_reason": "Order Trash Cart",
    "date_created": "2023-03-14T21:54:18.000",
    "date_modified": "2023-03-14T21:54:19.000",
    "request_status": "Pending",
    "responsible_agency": "Department of Sanitation",
    "final_address": "2820 Amelia St",
    "address_councildis": "B",
    "status": "Assigned to Contractor",
    "contractor": "Richards Disposal",
    "rowid": "982937",
    "final_x": "3672007.09838",
    "final_y": "525480.553405",
    "longitude": "-90.09825110885853",
    "latitude": "29.939173999951286",
    "geocoded_column": {
      "latitude": "29.939173999951286",
      "longitude": "-90.09825110885853"
    }
  },
  {
    "service_request": "2023-982936",
    "request_type": "Traffic Signals/Signs/Striping/Streetlights",
    "request_reason": "Street Light Outage/Malfunction",
    "date_created": "2023-03-14T21:47:19.000",
    "date_modified": "2023-03-14T21:47:20.000",
    "request_status": "Pending",
    "responsible_agency": "Department of Public Works",
    "final_address": "2025 Lamarque St",
    "address_councildis": "C",
    "status": "Assigned to Contractor",
    "contractor": "Legacy Professional Services",
    "rowid": "982936",
    "final_x": "3691613.80457",
    "final_y": "526571.891838",
    "longitude": "-90.03631154732832",
    "latitude": "29.94157913766319",
    "geocoded_column": {
      "latitude": "29.94157913766319",
      "longitude": "-90.03631154732832"
    }
  },
  {
    "service_request": "2023-982935",
    "request_type": "Trash/Recycling",
    "request_reason": "Replace Trash Cart",
    "date_created": "2023-03-14T21:40:06.000",
    "date_modified": "2023-03-14T21:40:06.000",
    "request_status": "Pending",
    "responsible_agency": "Department of Sanitation",
    "final_address": "2537 Gravier St",
    "address_councildis": "B",
    "status": "Assigned to Contractor",
    "contractor": "Richards Disposal",
    "rowid": "982935",
    "final_x": "3674666.08091",
    "final_y": "533050.031748",
    "longitude": "-90.08959696605628",
    "latitude": "29.959908483415226",
    "geocoded_column": {
      "latitude": "29.959908483415226",
      "longitude": "-90.08959696605628"
    }
  },
  {
    "service_request": "2023-982934",
    "request_type": "Abandoned Vehicles",
    "request_reason": "Abandoned/Junk Vehicles",
    "date_created": "2023-03-14T20:04:58.000",
    "date_modified": "2023-03-14T20:04:58.000",
    "request_status": "Pending",
    "responsible_agency": "Department of Public Works",
    "final_address": "5537 Willow St",
    "address_councildis": "A",
    "status": "Pending",
    "rowid": "982934",
    "final_x": "3667627.79367",
    "final_y": "525497.778621",
    "longitude": "-90.11207658302096",
    "latitude": "29.939350432183346",
    "geocoded_column": {
      "latitude": "29.939350432183346",
      "longitude": "-90.11207658302096"
    }
  },
  {
    "service_request": "2023-982933",
    "request_type": "Trash/Recycling",
    "request_reason": "MIssed Recycling Pick-Up",
    "date_created": "2023-03-14T19:59:59.000",
    "date_modified": "2023-03-14T20:00:00.000",
    "request_status": "Pending",
    "responsible_agency": "Department of Sanitation",
    "final_address": "6509 Maumus Ave",
    "address_councildis": "C",
    "status": "Assigned to Contractor",
    "contractor": "Richards Disposal",
    "rowid": "982933",
    "final_x": "3707906.6284",
    "final_y": "516627.742197",
    "longitude": "-89.98524168073136",
    "latitude": "29.913719059426814",
    "geocoded_column": {
      "latitude": "29.913719059426814",
      "longitude": "-89.98524168073136"
    }
  },
  {
    "service_request": "2023-982932",
    "request_type": "Trash/Recycling",
    "request_reason": "Replace Trash Cart",
    "date_created": "2023-03-14T19:59:28.000",
    "date_modified": "2023-03-14T19:59:28.000",
    "request_status": "Pending",
    "responsible_agency": "Department of Sanitation",
    "final_address": "5025 Willow St",
    "address_councildis": "B",
    "status": "Assigned to Contractor",
    "contractor": "Richards Disposal",
    "rowid": "982932",
    "final_x": "3668680.10772",
    "final_y": "525354.336189",
    "longitude": "-90.10875912108402",
    "latitude": "29.93892513016516",
    "geocoded_column": {
      "latitude": "29.93892513016516",
      "longitude": "-90.10875912108402"
    }
  },
  {
    "service_request": "2023-982930",
    "request_type": "Property Maintenance",
    "request_reason": "Property Maintenance",
    "date_created": "2023-03-14T19:46:15.000",
    "date_modified": "2023-03-14T19:46:15.000",
    "request_status": "Pending",
    "responsible_agency": "Department of Code Enforcement",
    "final_address": "2701 Canal St",
    "address_councildis": "B",
    "status": "Pending",
    "rowid": "982930",
    "final_x": "3675309.15048",
    "final_y": "535276.497158",
    "longitude": "-90.0874898488438",
    "latitude": "29.966011304762628",
    "geocoded_column": {
      "latitude": "29.966011304762628",
      "longitude": "-90.0874898488438"
    }
  },
  {
    "service_request": "2023-982929",
    "request_type": "Trash/Recycling",
    "request_reason": "Order Recycling Cart",
    "date_created": "2023-03-14T19:40:22.000",
    "date_modified": "2023-03-14T19:40:22.000",
    "request_status": "Pending",
    "responsible_agency": "Department of Sanitation",
    "final_address": "2025 Harmony St",
    "address_councildis": "B",
    "status": "Pending",
    "rowid": "982929",
    "final_x": "3674159.69211",
    "final_y": "523270.069819",
    "longitude": "-90.09153072647374",
    "latitude": "29.93303191546082",
    "geocoded_column": {
      "latitude": "29.93303191546082",
      "longitude": "-90.09153072647374"
    }
  },
  {
    "service_request": "2023-982928",
    "request_type": "Trash/Recycling",
    "request_reason": "Return Trash Cart",
    "date_created": "2023-03-14T19:40:19.000",
    "date_modified": "2023-03-14T19:40:20.000",
    "request_status": "Pending",
    "responsible_agency": "Department of Sanitation",
    "final_address": "3624 Red Oak Ct",
    "address_councildis": "C",
    "status": "Assigned to Contractor",
    "contractor": "Richards Disposal",
    "rowid": "982928",
    "final_x": "3703175.35543",
    "final_y": "513839.625266",
    "longitude": "-90.00027735428428",
    "latitude": "29.90620489853063",
    "geocoded_column": {
      "latitude": "29.90620489853063",
      "longitude": "-90.00027735428428"
    }
  },
  {
    "service_request": "2023-982927",
    "request_type": "Property Maintenance",
    "request_reason": "Property Maintenance",
    "date_created": "2023-03-14T19:40:03.000",
    "date_modified": "2023-03-14T19:40:03.000",
    "request_status": "Pending",
    "responsible_agency": "Department of Code Enforcement",
    "final_address": "3600 Orleans Ave",
    "address_councildis": "A",
    "status": "Pending",
    "rowid": "982927",
    "final_x": "3673982.33032",
    "final_y": "539002.390026",
    "longitude": "-90.09155240260382",
    "latitude": "29.97629584759851",
    "geocoded_column": {
      "latitude": "29.97629584759851",
      "longitude": "-90.09155240260382"
    }
  },
  {
    "service_request": "2023-982926",
    "request_type": "Abandoned Vehicles",
    "request_reason": "Abandoned/Junk Vehicles",
    "date_created": "2023-03-14T19:38:43.000",
    "date_modified": "2023-03-14T19:38:43.000",
    "request_status": "Pending",
    "responsible_agency": "Department of Public Works",
    "final_address": "PORT ST & ARCHITECT ST",
    "address_councildis": "C",
    "status": "Pending",
    "rowid": "982926",
    "final_x": "3686993.8",
    "final_y": "534719.48",
    "longitude": "-90.05060982399515",
    "latitude": "29.964125199523618",
    "geocoded_column": {
      "latitude": "29.964125199523618",
      "longitude": "-90.05060982399515"
    }
  },
  {
    "service_request": "2023-982925",
    "request_type": "Trash/Recycling",
    "request_reason": "Repair Trash Cart",
    "date_created": "2023-03-14T19:04:19.000",
    "date_modified": "2023-03-14T19:04:19.000",
    "request_status": "Pending",
    "responsible_agency": "Department of Sanitation",
    "final_address": "2017 Mandeville St",
    "address_councildis": "D",
    "status": "Assigned to Contractor",
    "contractor": "IV Waste",
    "rowid": "982925",
    "final_x": "3685538.19362",
    "final_y": "539855.739274",
    "longitude": "-90.05502554351101",
    "latitude": "29.978292847155352",
    "geocoded_column": {
      "latitude": "29.978292847155352",
      "longitude": "-90.05502554351101"
    }
  },
  {
    "service_request": "2023-982924",
    "request_type": "Trash/Recycling",
    "request_reason": "Repair Trash Cart",
    "date_created": "2023-03-14T18:58:01.000",
    "date_modified": "2023-03-14T18:58:02.000",
    "request_status": "Pending",
    "responsible_agency": "Department of Sanitation",
    "final_address": "14207 Intrepid St",
    "address_councildis": "E",
    "status": "Assigned to Contractor",
    "contractor": "Waste Pro",
    "rowid": "982924",
    "final_x": "3726447.52755",
    "final_y": "571238.929704",
    "longitude": "-89.92460242997493",
    "latitude": "30.063265566734728",
    "geocoded_column": {
      "latitude": "30.063265566734728",
      "longitude": "-89.92460242997493"
    }
  },
  {
    "service_request": "2023-982923",
    "request_type": "Trash/Recycling",
    "request_reason": "Request a Large Item Pick Up",
    "date_created": "2023-03-14T18:36:18.000",
    "date_modified": "2023-03-14T18:36:18.000",
    "request_status": "Pending",
    "responsible_agency": "Department of Sanitation",
    "final_address": "1500 Crescent St",
    "address_councildis": "D",
    "status": "Assigned to Contractor",
    "contractor": "IV Waste",
    "rowid": "982923",
    "final_x": "3678544.07925",
    "final_y": "552388.871062",
    "longitude": "-90.07668136542954",
    "latitude": "30.012967231372674",
    "geocoded_column": {
      "latitude": "30.012967231372674",
      "longitude": "-90.07668136542954"
    }
  },
  {
    "service_request": "2023-982922",
    "request_type": "Trash/Recycling",
    "request_reason": "Request a Large Item Pick Up",
    "date_created": "2023-03-14T18:31:33.000",
    "date_modified": "2023-03-14T18:31:34.000",
    "request_status": "Pending",
    "responsible_agency": "Department of Sanitation",
    "final_address": "11220 N Parkwood Ct",
    "address_councildis": "E",
    "status": "Assigned to Contractor",
    "contractor": "Waste Pro",
    "rowid": "982922",
    "final_x": "3716593.71896",
    "final_y": "559158.478172",
    "longitude": "-89.95620942566758",
    "latitude": "30.030378679034335",
    "geocoded_column": {
      "latitude": "30.030378679034335",
      "longitude": "-89.95620942566758"
    }
  },
  {
    "service_request": "2023-982921",
    "request_type": "Trash/Recycling",
    "request_reason": "MIssed Recycling Pick-Up",
    "date_created": "2023-03-14T18:28:03.000",
    "date_modified": "2023-03-14T18:28:04.000",
    "request_status": "Pending",
    "responsible_agency": "Department of Sanitation",
    "final_address": "7454 Burke Ave",
    "address_councildis": "E",
    "status": "Assigned to Contractor",
    "contractor": "Waste Pro",
    "rowid": "982921",
    "final_x": "3705670.76939",
    "final_y": "562431.556767",
    "longitude": "-89.99060457983593",
    "latitude": "30.039734796975",
    "geocoded_column": {
      "latitude": "30.039734796975",
      "longitude": "-89.99060457983593"
    }
  },
  {
    "service_request": "2023-982919",
    "request_type": "Trash/Recycling",
    "request_reason": "Missed Trash Pick-Up",
    "date_created": "2023-03-14T18:20:01.000",
    "date_modified": "2023-03-14T18:20:01.000",
    "request_status": "Pending",
    "responsible_agency": "Department of Sanitation",
    "final_address": "7700 Branch Dr",
    "address_councildis": "E",
    "status": "Assigned to Contractor",
    "contractor": "Waste Pro",
    "rowid": "982919",
    "final_x": "3714486.69842",
    "final_y": "568955.348581",
    "longitude": "-89.96249718935007",
    "latitude": "30.05738556494383",
    "geocoded_column": {
      "latitude": "30.05738556494383",
      "longitude": "-89.96249718935007"
    }
  },
  {
    "service_request": "2023-982918",
    "request_type": "Traffic Signals/Signs/Striping/Streetlights",
    "request_reason": "Street Light Outage/Malfunction",
    "date_created": "2023-03-14T18:08:23.000",
    "date_modified": "2023-03-14T18:08:41.000",
    "request_status": "Pending",
    "responsible_agency": "Department of Public Works",
    "final_address": "1111 Saux Ln",
    "address_councildis": "C",
    "status": "Assigned to Contractor",
    "contractor": "Legacy Professional Services",
    "rowid": "982918",
    "final_x": "3692706.74377",
    "final_y": "527110.387839",
    "longitude": "-90.03284163842764",
    "latitude": "29.943025754170478",
    "geocoded_column": {
      "latitude": "29.943025754170478",
      "longitude": "-90.03284163842764"
    }
  },
  {
    "service_request": "2023-982917",
    "request_type": "Trash/Recycling",
    "request_reason": "Order Trash Cart",
    "date_created": "2023-03-14T18:06:44.000",
    "date_modified": "2023-03-14T18:06:45.000",
    "request_status": "Pending",
    "responsible_agency": "Department of Sanitation",
    "final_address": "3512 Paris Ave",
    "address_councildis": "D",
    "status": "Assigned to Contractor",
    "contractor": "IV Waste",
    "rowid": "982917",
    "final_x": "3679625.54831",
    "final_y": "545252.771023",
    "longitude": "-90.07351239781532",
    "latitude": "29.9933128453861",
    "geocoded_column": {
      "latitude": "29.9933128453861",
      "longitude": "-90.07351239781532"
    }
  },
  {
    "service_request": "2023-982916",
    "request_type": "Trash/Recycling",
    "request_reason": "MIssed Recycling Pick-Up",
    "date_created": "2023-03-14T18:05:57.000",
    "date_modified": "2023-03-14T18:05:58.000",
    "request_status": "Pending",
    "responsible_agency": "Department of Sanitation",
    "final_address": "1429 Lauradale Dr",
    "address_councildis": "C",
    "status": "Assigned to Contractor",
    "contractor": "Richards Disposal",
    "rowid": "982916",
    "final_x": "3692743.84374",
    "final_y": "525926.423165",
    "longitude": "-90.03276693342931",
    "latitude": "29.93976909991188",
    "geocoded_column": {
      "latitude": "29.93976909991188",
      "longitude": "-90.03276693342931"
    }
  },
  {
    "service_request": "2023-982915",
    "request_type": "Trash/Recycling",
    "request_reason": "Request a Large Item Pick Up",
    "date_created": "2023-03-14T18:04:33.000",
    "date_modified": "2023-03-14T18:04:34.000",
    "request_status": "Pending",
    "responsible_agency": "Department of Sanitation",
    "final_address": "4825 Perrier St",
    "address_councildis": "B",
    "status": "Assigned to Contractor",
    "contractor": "Richards Disposal",
    "rowid": "982915",
    "final_x": "3669237.16218",
    "final_y": "519962.547704",
    "longitude": "-90.10718258644773",
    "latitude": "29.924083055980724",
    "geocoded_column": {
      "latitude": "29.924083055980724",
      "longitude": "-90.10718258644773"
    }
  },
  {
    "service_request": "2023-982914",
    "request_type": "Traffic Signals/Signs/Striping/Streetlights",
    "request_reason": "Street Light Outage/Malfunction",
    "date_created": "2023-03-14T18:03:48.000",
    "date_modified": "2023-03-14T18:04:30.000",
    "request_status": "Pending",
    "responsible_agency": "Department of Public Works",
    "final_address": "LAURADALE DR & DE ARMAS ST",
    "address_councildis": "C",
    "status": "Assigned to Contractor",
    "contractor": "Legacy Professional Services",
    "rowid": "982914",
    "final_x": "3692835.5",
    "final_y": "526959.88",
    "longitude": "-90.03244052002883",
    "latitude": "29.9426078905485",
    "geocoded_column": {
      "latitude": "29.9426078905485",
      "longitude": "-90.03244052002883"
    }
  },
  {
    "service_request": "2023-982913",
    "request_type": "Traffic Signals/Signs/Striping/Streetlights",
    "request_reason": "Street Light Outage/Malfunction",
    "date_created": "2023-03-14T18:02:19.000",
    "date_modified": "2023-03-14T18:09:03.000",
    "request_status": "Pending",
    "responsible_agency": "Department of Public Works",
    "final_address": "1128 Lauradale Dr",
    "address_councildis": "C",
    "status": "Assigned to Contractor",
    "contractor": "Legacy Professional Services",
    "rowid": "982913",
    "final_x": "3692881.92867",
    "final_y": "527089.398591",
    "longitude": "-90.03228929147852",
    "latitude": "29.94296257266302",
    "geocoded_column": {
      "latitude": "29.94296257266302",
      "longitude": "-90.03228929147852"
    }
  },
  {
    "service_request": "2023-982911",
    "request_type": "Trash/Recycling",
    "request_reason": "Missed Trash Pick-Up",
    "date_created": "2023-03-14T17:52:45.000",
    "date_modified": "2023-03-14T17:52:46.000",
    "request_status": "Pending",
    "responsible_agency": "Department of Sanitation",
    "final_address": "1303 Cadiz",
    "address_councildis": "B",
    "status": "Assigned to Contractor",
    "contractor": "Richards Disposal",
    "rowid": "982911",
    "final_x": "3670225.21754",
    "final_y": "520045.56716",
    "longitude": "-90.10406082534332",
    "latitude": "29.924282223573574",
    "geocoded_column": {
      "latitude": "29.924282223573574",
      "longitude": "-90.10406082534332"
    }
  },
  {
    "service_request": "2023-982909",
    "request_type": "Trash/Recycling",
    "request_reason": "Request a Large Item Pick Up",
    "date_created": "2023-03-14T17:51:15.000",
    "date_modified": "2023-03-14T17:51:15.000",
    "request_status": "Pending",
    "responsible_agency": "Department of Sanitation",
    "final_address": "4734 Knight Dr",
    "address_councildis": "E",
    "status": "Assigned to Contractor",
    "contractor": "Waste Pro",
    "rowid": "982909",
    "final_x": "3708066.25566",
    "final_y": "555496.059737",
    "longitude": "-89.98329241774074",
    "latitude": "30.0205875039124",
    "geocoded_column": {
      "latitude": "30.0205875039124",
      "longitude": "-89.98329241774074"
    }
  },
  {
    "service_request": "2023-982908",
    "request_type": "Trash/Recycling",
    "request_reason": "Missed Trash Pick-Up",
    "date_created": "2023-03-14T17:50:39.000",
    "date_modified": "2023-03-14T17:50:39.000",
    "request_status": "Pending",
    "responsible_agency": "Department of Sanitation",
    "final_address": "8701 Aberdeen Rd",
    "address_councildis": "E",
    "status": "Assigned to Contractor",
    "contractor": "Waste Pro",
    "rowid": "982908",
    "final_x": "3704581.75108",
    "final_y": "562309.915871",
    "longitude": "-89.9940506785556",
    "latitude": "30.039435376576918",
    "geocoded_column": {
      "latitude": "30.039435376576918",
      "longitude": "-89.9940506785556"
    }
  },
  {
    "service_request": "2023-982907",
    "request_type": "Trash/Recycling",
    "request_reason": "Missed Trash Pick-Up",
    "date_created": "2023-03-14T17:50:14.000",
    "date_modified": "2023-03-14T17:50:15.000",
    "request_status": "Pending",
    "responsible_agency": "Department of Sanitation",
    "final_address": "1017 Jefferson Ave",
    "address_councildis": "B",
    "status": "Assigned to Contractor",
    "contractor": "Richards Disposal",
    "rowid": "982907",
    "final_x": "3666999.41729",
    "final_y": "519291.241655",
    "longitude": "-90.11426892619464",
    "latitude": "29.922302829678884",
    "geocoded_column": {
      "latitude": "29.922302829678884",
      "longitude": "-90.11426892619464"
    }
  },
  {
    "service_request": "2023-982906",
    "request_type": "Trash/Recycling",
    "request_reason": "Repair Trash Cart",
    "date_created": "2023-03-14T17:48:02.000",
    "date_modified": "2023-03-14T17:48:03.000",
    "request_status": "Pending",
    "responsible_agency": "Department of Sanitation",
    "final_address": "7219 Pritchard Pl",
    "address_councildis": "B",
    "status": "Assigned to Contractor",
    "contractor": "Richards Disposal",
    "rowid": "982906",
    "final_x": "3667416.52276",
    "final_y": "531689.984067",
    "longitude": "-90.11253530995901",
    "latitude": "29.956383176977734",
    "geocoded_column": {
      "latitude": "29.956383176977734",
      "longitude": "-90.11253530995901"
    }
  },
  {
    "service_request": "2023-982905",
    "request_type": "Roads/Drainage",
    "request_reason": "Pothole",
    "date_created": "2023-03-14T17:45:40.000",
    "date_modified": "2023-03-14T17:45:40.000",
    "request_status": "Pending",
    "responsible_agency": "Department of Public Works",
    "final_address": "9435 Stroelitz St",
    "address_councildis": "A",
    "status": "Pending",
    "rowid": "982905",
    "final_x": "3664384.78132",
    "final_y": "538272.151817",
    "longitude": "-90.12188884160254",
    "latitude": "29.97457044090555",
    "geocoded_column": {
      "latitude": "29.97457044090555",
      "longitude": "-90.12188884160254"
    }
  },
  {
    "service_request": "2023-982904",
    "request_type": "Traffic Signals/Signs/Striping/Streetlights",
    "request_reason": "Traffic Sign Missing/Damaged",
    "date_created": "2023-03-14T17:45:13.000",
    "date_modified": "2023-03-14T17:45:13.000",
    "request_status": "Pending",
    "responsible_agency": "Department of Public Works",
    "final_address": "3041 Joliet St",
    "address_councildis": "A",
    "status": "Pending",
    "rowid": "982904",
    "final_x": "3665490.47143",
    "final_y": "534307.406213",
    "longitude": "-90.1185295413882",
    "latitude": "29.96363651405899",
    "geocoded_column": {
      "latitude": "29.96363651405899",
      "longitude": "-90.1185295413882"
    }
  },
  {
    "service_request": "2023-982903",
    "request_type": "Trash/Recycling",
    "request_reason": "Order Recycling Cart",
    "date_created": "2023-03-14T17:44:12.000",
    "date_modified": "2023-03-14T17:44:12.000",
    "request_status": "Pending",
    "responsible_agency": "Department of Sanitation",
    "final_address": "4212 Monroe St",
    "address_councildis": "A",
    "status": "Pending",
    "rowid": "982903",
    "final_x": "3667580.18138",
    "final_y": "537859.896265",
    "longitude": "-90.11181083492366",
    "latitude": "29.973343596155008",
    "geocoded_column": {
      "latitude": "29.973343596155008",
      "longitude": "-90.11181083492366"
    }
  },
  {
    "service_request": "2023-982902",
    "request_type": "Abandoned Vehicles",
    "request_reason": "Abandoned/Junk Vehicles",
    "date_created": "2023-03-14T17:40:01.000",
    "date_modified": "2023-03-14T17:40:01.000",
    "request_status": "Pending",
    "responsible_agency": "Department of Public Works",
    "final_address": "9435 Stroelitz St",
    "address_councildis": "A",
    "status": "Pending",
    "rowid": "982902",
    "final_x": "3664384.78132",
    "final_y": "538272.151817",
    "longitude": "-90.12188884160254",
    "latitude": "29.97457044090555",
    "geocoded_column": {
      "latitude": "29.97457044090555",
      "longitude": "-90.12188884160254"
    }
  },
  {
    "service_request": "2023-982901",
    "request_type": "Trash/Recycling",
    "request_reason": "Missed Trash Pick-Up",
    "date_created": "2023-03-14T17:37:18.000",
    "date_modified": "2023-03-14T17:37:18.000",
    "request_status": "Pending",
    "responsible_agency": "Department of Sanitation",
    "final_address": "4037 Ulloa St",
    "address_councildis": "A",
    "status": "Assigned to Contractor",
    "contractor": "Richards Disposal",
    "rowid": "982901",
    "final_x": "3669819.61492",
    "final_y": "536399.998919",
    "longitude": "-90.1047876599315",
    "latitude": "29.96926353446488",
    "geocoded_column": {
      "latitude": "29.96926353446488",
      "longitude": "-90.1047876599315"
    }
  },
  {
    "service_request": "2023-982900",
    "request_type": "Trash/Recycling",
    "request_reason": "Illegal Dumping",
    "date_created": "2023-03-14T17:28:27.000",
    "date_modified": "2023-03-14T17:28:27.000",
    "request_status": "Pending",
    "responsible_agency": "Department of Sanitation",
    "final_address": "2105 Elysian Fields Ave",
    "address_councildis": "D",
    "status": "Pending",
    "rowid": "982900",
    "final_x": "3684843.5622",
    "final_y": "540071.188619",
    "longitude": "-90.05721185844975",
    "latitude": "29.97890654699026",
    "geocoded_column": {
      "latitude": "29.97890654699026",
      "longitude": "-90.05721185844975"
    }
  },
  {
    "service_request": "2023-982899",
    "request_type": "Trash/Recycling",
    "request_reason": "Illegal Dumping",
    "date_created": "2023-03-14T17:26:37.000",
    "date_modified": "2023-03-14T17:26:37.000",
    "request_status": "Pending",
    "responsible_agency": "Department of Sanitation",
    "final_address": "3535 General De Gaulle Dr",
    "address_councildis": "C",
    "status": "Pending",
    "rowid": "982899",
    "final_x": "3695995.31894",
    "final_y": "520594.808952",
    "longitude": "-90.02269415195497",
    "latitude": "29.925007110721328",
    "geocoded_column": {
      "latitude": "29.925007110721328",
      "longitude": "-90.02269415195497"
    }
  },
  {
    "service_request": "2023-982898",
    "request_type": "Abandoned Vehicles",
    "request_reason": "Abandoned/Junk Vehicles",
    "date_created": "2023-03-14T17:18:45.000",
    "date_modified": "2023-03-14T17:18:45.000",
    "request_status": "Pending",
    "responsible_agency": "Department of Public Works",
    "final_address": "3311 Huntlee Dr",
    "address_councildis": "C",
    "status": "Pending",
    "rowid": "982898",
    "final_x": "3701699.58244",
    "final_y": "519156.669623",
    "longitude": "-90.00474040664648",
    "latitude": "29.920872083564237",
    "geocoded_column": {
      "latitude": "29.920872083564237",
      "longitude": "-90.00474040664648"
    }
  },
  {
    "service_request": "2023-982897",
    "request_type": "Trash/Recycling",
    "request_reason": "Order Recycling Cart",
    "date_created": "2023-03-14T17:18:11.000",
    "date_modified": "2023-03-14T17:18:12.000",
    "request_status": "Pending",
    "responsible_agency": "Department of Sanitation",
    "final_address": "3517 Banks St",
    "address_councildis": "B",
    "status": "Pending",
    "rowid": "982897",
    "final_x": "3672045.35342",
    "final_y": "536180.742599",
    "longitude": "-90.09776606089765",
    "latitude": "29.968594848058387",
    "geocoded_column": {
      "latitude": "29.968594848058387",
      "longitude": "-90.09776606089765"
    }
  },
  {
    "service_request": "2023-982896",
    "request_type": "Trash/Recycling",
    "request_reason": "Order Recycling Cart",
    "date_created": "2023-03-14T17:18:06.000",
    "date_modified": "2023-03-14T17:18:06.000",
    "request_status": "Pending",
    "responsible_agency": "Department of Sanitation",
    "final_address": "7219 Pritchard Pl",
    "address_councildis": "B",
    "status": "Pending",
    "rowid": "982896",
    "final_x": "3667416.52276",
    "final_y": "531689.984067",
    "longitude": "-90.11253530995901",
    "latitude": "29.956383176977734",
    "geocoded_column": {
      "latitude": "29.956383176977734",
      "longitude": "-90.11253530995901"
    }
  },
  {
    "service_request": "2023-982895",
    "request_type": "Trash/Recycling",
    "request_reason": "Missed Trash Pick-Up",
    "date_created": "2023-03-14T17:10:51.000",
    "date_modified": "2023-03-14T17:10:52.000",
    "request_status": "Pending",
    "responsible_agency": "Department of Sanitation",
    "final_address": "7716 Michigan St",
    "address_councildis": "E",
    "status": "Assigned to Contractor",
    "contractor": "Waste Pro",
    "rowid": "982895",
    "final_x": "3711434.58264",
    "final_y": "566966.48298",
    "longitude": "-89.97221909972906",
    "latitude": "30.052017041274986",
    "geocoded_column": {
      "latitude": "30.052017041274986",
      "longitude": "-89.97221909972906"
    }
  },
  {
    "service_request": "2023-982894",
    "request_type": "Abandoned Vehicles",
    "request_reason": "Abandoned/Junk Vehicles",
    "date_created": "2023-03-14T17:08:04.000",
    "date_modified": "2023-03-14T17:09:23.000",
    "request_status": "Pending",
    "responsible_agency": "Department of Public Works",
    "final_address": "New Orleans,LA",
    "address_councildis": "B",
    "rowid": "982894",
    "final_x": "3671821.62614",
    "final_y": "518676.93225",
    "longitude": "-90.09906804391439",
    "latitude": "29.920471725154027",
    "geocoded_column": {
      "latitude": "29.920471725154027",
      "longitude": "-90.09906804391439"
    }
  },
  {
    "service_request": "2023-982893",
    "request_type": "Trash/Recycling",
    "request_reason": "Missed Trash Pick-Up",
    "date_created": "2023-03-14T17:03:16.000",
    "date_modified": "2023-03-14T17:03:16.000",
    "request_status": "Pending",
    "responsible_agency": "Department of Sanitation",
    "final_address": "1831 Bordeaux St",
    "address_councildis": "B",
    "status": "Assigned to Contractor",
    "contractor": "Richards Disposal",
    "rowid": "982893",
    "final_x": "3669331.87892",
    "final_y": "521703.529722",
    "longitude": "-90.10682477262996",
    "latitude": "29.928867415105458",
    "geocoded_column": {
      "latitude": "29.928867415105458",
      "longitude": "-90.10682477262996"
    }
  },
  {
    "service_request": "2023-982892",
    "request_type": "Trash/Recycling",
    "request_reason": "Missed Trash Pick-Up",
    "date_created": "2023-03-14T17:02:30.000",
    "date_modified": "2023-03-14T17:02:31.000",
    "request_status": "Pending",
    "responsible_agency": "Department of Sanitation",
    "final_address": "6170 General Haig St",
    "address_councildis": "A",
    "status": "Assigned to Contractor",
    "contractor": "IV Waste",
    "rowid": "982892",
    "final_x": "3670588.01339",
    "final_y": "548279.170834",
    "longitude": "-90.10195783518895",
    "latitude": "30.00190451865225",
    "geocoded_column": {
      "latitude": "30.00190451865225",
      "longitude": "-90.10195783518895"
    }
  },
  {
    "service_request": "2023-982891",
    "request_type": "Trash/Recycling",
    "request_reason": "Missed Trash Pick-Up",
    "date_created": "2023-03-14T16:59:00.000",
    "date_modified": "2023-03-14T16:59:01.000",
    "request_status": "Pending",
    "responsible_agency": "Department of Sanitation",
    "final_address": "1 Marywood Ct",
    "address_councildis": "E",
    "status": "Assigned to Contractor",
    "contractor": "Waste Pro",
    "rowid": "982891",
    "final_x": "3712883.22974",
    "final_y": "566309.500835",
    "longitude": "-89.96766516291125",
    "latitude": "30.050163212495477",
    "geocoded_column": {
      "latitude": "30.050163212495477",
      "longitude": "-89.96766516291125"
    }
  },
  {
    "service_request": "2023-982890",
    "request_type": "Trash/Recycling",
    "request_reason": "Missed Trash Pick-Up",
    "date_created": "2023-03-14T16:52:54.000",
    "date_modified": "2023-03-14T16:52:55.000",
    "request_status": "Pending",
    "responsible_agency": "Department of Sanitation",
    "final_address": "1119 Jefferson Ave",
    "address_councildis": "B",
    "status": "Assigned to Contractor",
    "contractor": "Richards Disposal",
    "rowid": "982890",
    "final_x": "3667068.12365",
    "final_y": "519671.511544",
    "longitude": "-90.11403927454339",
    "latitude": "29.923346441917865",
    "geocoded_column": {
      "latitude": "29.923346441917865",
      "longitude": "-90.11403927454339"
    }
  },
  {
    "service_request": "2023-982889",
    "request_type": "Trash/Recycling",
    "request_reason": "Repair Trash Cart",
    "date_created": "2023-03-14T16:49:09.000",
    "date_modified": "2023-03-14T16:49:10.000",
    "request_status": "Pending",
    "responsible_agency": "Department of Sanitation",
    "final_address": "5025 Willow St",
    "address_councildis": "B",
    "status": "Assigned to Contractor",
    "contractor": "Richards Disposal",
    "rowid": "982889",
    "final_x": "3668680.10772",
    "final_y": "525354.336189",
    "longitude": "-90.10875912108402",
    "latitude": "29.93892513016516",
    "geocoded_column": {
      "latitude": "29.93892513016516",
      "longitude": "-90.10875912108402"
    }
  },
  {
    "service_request": "2023-982888",
    "request_type": "Roads/Drainage",
    "request_reason": "Street Subsidence (Sinking)",
    "date_created": "2023-03-14T16:46:37.000",
    "date_modified": "2023-03-14T16:46:37.000",
    "request_status": "Pending",
    "responsible_agency": "Department of Public Works",
    "final_address": "4871 Brittany Ct",
    "address_councildis": "E",
    "status": "Pending",
    "rowid": "982888",
    "final_x": "3726825.62713",
    "final_y": "561927.055711",
    "longitude": "-89.92376935426087",
    "latitude": "30.03764903214526",
    "geocoded_column": {
      "latitude": "30.03764903214526",
      "longitude": "-89.92376935426087"
    }
  },
  {
    "service_request": "2023-982887",
    "request_type": "Trash/Recycling",
    "request_reason": "Request a Large Item Pick Up",
    "date_created": "2023-03-14T16:42:25.000",
    "date_modified": "2023-03-14T16:42:26.000",
    "request_status": "Pending",
    "responsible_agency": "Department of Sanitation",
    "final_address": "312 Pine St",
    "address_councildis": "A",
    "status": "Assigned to Contractor",
    "contractor": "Richards Disposal",
    "rowid": "982887",
    "final_x": "3661643.78067",
    "final_y": "523332.734075",
    "longitude": "-90.13104070406916",
    "latitude": "29.933571257320214",
    "geocoded_column": {
      "latitude": "29.933571257320214",
      "longitude": "-90.13104070406916"
    }
  },
  {
    "service_request": "2023-982886",
    "request_type": "Trash/Recycling",
    "request_reason": "Replace Trash Cart",
    "date_created": "2023-03-14T16:41:57.000",
    "date_modified": "2023-03-14T16:41:57.000",
    "request_status": "Pending",
    "responsible_agency": "Department of Sanitation",
    "final_address": "1311 Lowerline St",
    "address_councildis": "A",
    "status": "Assigned to Contractor",
    "contractor": "Richards Disposal",
    "rowid": "982886",
    "final_x": "3663996.4336",
    "final_y": "527139.124543",
    "longitude": "-90.12348659326945",
    "latitude": "29.943969531850996",
    "geocoded_column": {
      "latitude": "29.943969531850996",
      "longitude": "-90.12348659326945"
    }
  },
  {
    "service_request": "2023-982885",
    "request_type": "Trash/Recycling",
    "request_reason": "Request a Large Item Pick Up",
    "date_created": "2023-03-14T16:38:56.000",
    "date_modified": "2023-03-14T16:38:57.000",
    "request_status": "Pending",
    "responsible_agency": "Department of Sanitation",
    "final_address": "3801 Washington Ave",
    "address_councildis": "B",
    "status": "Assigned to Contractor",
    "contractor": "Richards Disposal",
    "rowid": "982885",
    "final_x": "3671692.62971",
    "final_y": "529000.389696",
    "longitude": "-90.09912423171585",
    "latitude": "29.948861716589217",
    "geocoded_column": {
      "latitude": "29.948861716589217",
      "longitude": "-90.09912423171585"
    }
  },
  {
    "service_request": "2023-982884",
    "request_type": "Trash/Recycling",
    "request_reason": "Request a Large Item Pick Up",
    "date_created": "2023-03-14T16:38:35.000",
    "date_modified": "2023-03-14T16:38:36.000",
    "request_status": "Pending",
    "responsible_agency": "Department of Sanitation",
    "final_address": "4100 General Ogden St",
    "address_councildis": "A",
    "status": "Assigned to Contractor",
    "contractor": "Richards Disposal",
    "rowid": "982884",
    "final_x": "3666799.31367",
    "final_y": "537944.411977",
    "longitude": "-90.11427414439325",
    "latitude": "29.973598852385994",
    "geocoded_column": {
      "latitude": "29.973598852385994",
      "longitude": "-90.11427414439325"
    }
  },
  {
    "service_request": "2023-982883",
    "request_type": "Trash/Recycling",
    "request_reason": "Missed Trash Pick-Up",
    "date_created": "2023-03-14T16:36:47.000",
    "date_modified": "2023-03-14T16:36:48.000",
    "request_status": "Pending",
    "responsible_agency": "Department of Sanitation",
    "final_address": "1905 Washington Ave",
    "address_councildis": "B",
    "status": "Assigned to Contractor",
    "contractor": "Richards Disposal",
    "rowid": "982883",
    "final_x": "3675313.72565",
    "final_y": "523522.353147",
    "longitude": "-90.08787886313469",
    "latitude": "29.933691172353555",
    "geocoded_column": {
      "latitude": "29.933691172353555",
      "longitude": "-90.08787886313469"
    }
  },
  {
    "service_request": "2023-982882",
    "request_type": "Trash/Recycling",
    "request_reason": "Request a Large Item Pick Up",
    "date_created": "2023-03-14T16:35:48.000",
    "date_modified": "2023-03-14T16:35:49.000",
    "request_status": "Pending",
    "responsible_agency": "Department of Sanitation",
    "final_address": "5550 Chamberlain Dr",
    "address_councildis": "D",
    "status": "Assigned to Contractor",
    "contractor": "IV Waste",
    "rowid": "982882",
    "final_x": "3679334.57717",
    "final_y": "552949.758615",
    "longitude": "-90.0741643457322",
    "latitude": "30.01448560810309",
    "geocoded_column": {
      "latitude": "30.01448560810309",
      "longitude": "-90.0741643457322"
    }
  },
  {
    "service_request": "2023-982881",
    "request_type": "Roads/Drainage",
    "request_reason": "Pothole",
    "date_created": "2023-03-14T16:35:26.000",
    "date_modified": "2023-03-14T16:35:26.000",
    "request_status": "Pending",
    "responsible_agency": "Department of Public Works",
    "final_address": "2552 Ursulines Ave",
    "address_councildis": "D",
    "status": "Pending",
    "rowid": "982881",
    "final_x": "3678061.25749",
    "final_y": "537736.304264",
    "longitude": "-90.07871371268011",
    "latitude": "29.972692369097597",
    "geocoded_column": {
      "latitude": "29.972692369097597",
      "longitude": "-90.07871371268011"
    }
  },
  {
    "service_request": "2023-982880",
    "request_type": "Traffic Signals/Signs/Striping/Streetlights",
    "request_reason": "Traffic Signal Malfunctioning/Damaged",
    "date_created": "2023-03-14T16:34:14.000",
    "date_modified": "2023-03-14T16:34:14.000",
    "request_status": "Pending",
    "responsible_agency": "Department of Public Works",
    "final_address": "AUDUBON BLVD & S CLAIBORNE AVE",
    "address_councildis": "A",
    "status": "Pending",
    "rowid": "982880",
    "final_x": "3666575.0",
    "final_y": "528995.78",
    "longitude": "-90.11528300487443",
    "latitude": "29.948999619383642",
    "geocoded_column": {
      "latitude": "29.948999619383642",
      "longitude": "-90.11528300487443"
    }
  },
  {
    "service_request": "2023-982879",
    "request_type": "Abandoned Vehicles",
    "request_reason": "Abandoned/Junk Vehicles",
    "date_created": "2023-03-14T16:31:01.000",
    "date_modified": "2023-03-14T16:31:01.000",
    "request_status": "Pending",
    "responsible_agency": "Department of Public Works",
    "final_address": "1932 Joliet St",
    "address_councildis": "A",
    "status": "Pending",
    "rowid": "982879",
    "final_x": "3662707.26131",
    "final_y": "531366.180546",
    "longitude": "-90.1274164275475",
    "latitude": "29.95562994172527",
    "geocoded_column": {
      "latitude": "29.95562994172527",
      "longitude": "-90.1274164275475"
    }
  },
  {
    "service_request": "2023-982878",
    "request_type": "Roads/Drainage",
    "request_reason": "Street Flooding / Drainage",
    "date_created": "2023-03-14T16:29:11.000",
    "date_modified": "2023-03-14T16:29:11.000",
    "request_status": "Pending",
    "responsible_agency": "Department of Public Works",
    "final_address": "2018 Joliet St",
    "address_councildis": "A",
    "status": "Pending",
    "rowid": "982878",
    "final_x": "3662864.09952",
    "final_y": "531539.882627",
    "longitude": "-90.12691541101884",
    "latitude": "29.95610302660331",
    "geocoded_column": {
      "latitude": "29.95610302660331",
      "longitude": "-90.12691541101884"
    }
  },
  {
    "service_request": "2023-982877",
    "request_type": "Trash/Recycling",
    "request_reason": "Request a Large Item Pick Up",
    "date_created": "2023-03-14T16:29:09.000",
    "date_modified": "2023-03-14T16:29:09.000",
    "request_status": "Pending",
    "responsible_agency": "Department of Sanitation",
    "final_address": "4527 Iberville St",
    "address_councildis": "A",
    "status": "Assigned to Contractor",
    "contractor": "Richards Disposal",
    "rowid": "982877",
    "final_x": "3669827.86593",
    "final_y": "539949.253962",
    "longitude": "-90.10464140959816",
    "latitude": "29.9790225473719",
    "geocoded_column": {
      "latitude": "29.9790225473719",
      "longitude": "-90.10464140959816"
    }
  },
  {
    "service_request": "2023-982876",
    "request_type": "Trash/Recycling",
    "request_reason": "Request a Large Item Pick Up",
    "date_created": "2023-03-14T16:21:40.000",
    "date_modified": "2023-03-14T16:21:41.000",
    "request_status": "Pending",
    "responsible_agency": "Department of Sanitation",
    "final_address": "4954 Warren Dr",
    "address_councildis": "E",
    "status": "Assigned to Contractor",
    "contractor": "Waste Pro",
    "rowid": "982876",
    "final_x": "3713273.37861",
    "final_y": "557391.219995",
    "longitude": "-89.96676822799627",
    "latitude": "30.025628726979832",
    "geocoded_column": {
      "latitude": "30.025628726979832",
      "longitude": "-89.96676822799627"
    }
  },
  {
    "service_request": "2023-982874",
    "request_type": "Trash/Recycling",
    "request_reason": "Request a Large Item Pick Up",
    "date_created": "2023-03-14T16:12:39.000",
    "date_modified": "2023-03-14T16:12:40.000",
    "request_status": "Pending",
    "responsible_agency": "Department of Sanitation",
    "final_address": "8620 Gervais St",
    "address_councildis": "E",
    "status": "Assigned to Contractor",
    "contractor": "Waste Pro",
    "rowid": "982874",
    "final_x": "3704029.3722",
    "final_y": "562731.296736",
    "longitude": "-89.99578080201496",
    "latitude": "30.04061174883874",
    "geocoded_column": {
      "latitude": "30.04061174883874",
      "longitude": "-89.99578080201496"
    }
  },
  {
    "service_request": "2023-982873",
    "request_type": "Trash/Recycling",
    "request_reason": "Repair Trash Cart",
    "date_created": "2023-03-14T16:09:08.000",
    "date_modified": "2023-03-14T16:09:08.000",
    "request_status": "Pending",
    "responsible_agency": "Department of Sanitation",
    "final_address": "2800 S Carrollton Ave",
    "address_councildis": "A",
    "status": "Assigned to Contractor",
    "contractor": "Richards Disposal",
    "rowid": "982873",
    "final_x": "3665839.74567",
    "final_y": "532697.821636",
    "longitude": "-90.11748049956833",
    "latitude": "29.95920049874055",
    "geocoded_column": {
      "latitude": "29.95920049874055",
      "longitude": "-90.11748049956833"
    }
  },
  {
    "service_request": "2023-982872",
    "request_type": "Abandoned Vehicles",
    "request_reason": "Abandoned/Junk Vehicles",
    "date_created": "2023-03-14T16:08:52.000",
    "date_modified": "2023-03-14T16:08:52.000",
    "request_status": "Pending",
    "responsible_agency": "Department of Public Works",
    "final_address": "1607 Dublin St",
    "address_councildis": "A",
    "status": "Pending",
    "rowid": "982872",
    "final_x": "3662744.93357",
    "final_y": "529705.708865",
    "longitude": "-90.12735265516957",
    "latitude": "29.951063090600034",
    "geocoded_column": {
      "latitude": "29.951063090600034",
      "longitude": "-90.12735265516957"
    }
  },
  {
    "service_request": "2023-982871",
    "request_type": "Trash/Recycling",
    "request_reason": "Repair Trash Cart",
    "date_created": "2023-03-14T16:07:36.000",
    "date_modified": "2023-03-14T16:07:36.000",
    "request_status": "Pending",
    "responsible_agency": "Department of Sanitation",
    "final_address": "8529 Apple St",
    "address_councildis": "A",
    "status": "Assigned to Contractor",
    "contractor": "Richards Disposal",
    "rowid": "982871",
    "final_x": "3664133.93748",
    "final_y": "533264.632324",
    "longitude": "-90.12284814332557",
    "latitude": "29.9608087026724",
    "geocoded_column": {
      "latitude": "29.9608087026724",
      "longitude": "-90.12284814332557"
    }
  },
  {
    "service_request": "2023-982870",
    "request_type": "Trash/Recycling",
    "request_reason": "Repair Trash Cart",
    "date_created": "2023-03-14T16:06:45.000",
    "date_modified": "2023-03-14T16:06:46.000",
    "request_status": "Pending",
    "responsible_agency": "Department of Sanitation",
    "final_address": "8527 Apple St",
    "address_councildis": "A",
    "status": "Assigned to Contractor",
    "contractor": "Richards Disposal",
    "rowid": "982870",
    "final_x": "3664143.54208",
    "final_y": "533255.594884",
    "longitude": "-90.12281811520049",
    "latitude": "29.960783573669687",
    "geocoded_column": {
      "latitude": "29.960783573669687",
      "longitude": "-90.12281811520049"
    }
  },
  {
    "service_request": "2023-982869",
    "request_type": "Trash/Recycling",
    "request_reason": "Repair Trash Cart",
    "date_created": "2023-03-14T16:06:19.000",
    "date_modified": "2023-03-14T16:06:19.000",
    "request_status": "Pending",
    "responsible_agency": "Department of Sanitation",
    "final_address": "8208 Apple St",
    "address_councildis": "A",
    "status": "Assigned to Contractor",
    "contractor": "Richards Disposal",
    "rowid": "982869",
    "final_x": "3665015.0914",
    "final_y": "532366.334019",
    "longitude": "-90.12009565173653",
    "latitude": "29.958313051085106",
    "geocoded_column": {
      "latitude": "29.958313051085106",
      "longitude": "-90.12009565173653"
    }
  },
  {
    "service_request": "2023-982868",
    "request_type": "Trash/Recycling",
    "request_reason": "Missed Trash Pick-Up",
    "date_created": "2023-03-14T16:05:29.000",
    "date_modified": "2023-03-14T16:15:00.000",
    "request_status": "Pending",
    "responsible_agency": "Department of Sanitation",
    "final_address": "14806 Emory Rd",
    "address_councildis": "E",
    "status": "Assigned to Contractor",
    "contractor": "Waste Pro",
    "rowid": "982868",
    "final_x": "3720648.74566",
    "final_y": "573775.73649",
    "longitude": "-89.94283513635618",
    "latitude": "30.070435465617393",
    "geocoded_column": {
      "latitude": "30.070435465617393",
      "longitude": "-89.94283513635618"
    }
  },
  {
    "service_request": "2023-982867",
    "request_type": "Trash/Recycling",
    "request_reason": "Request a Large Item Pick Up",
    "date_created": "2023-03-14T15:58:07.000",
    "date_modified": "2023-03-14T15:58:07.000",
    "request_status": "Pending",
    "responsible_agency": "Department of Sanitation",
    "final_address": "4766 Music St",
    "address_councildis": "D",
    "status": "Assigned to Contractor",
    "contractor": "IV Waste",
    "rowid": "982867",
    "final_x": "3685533.3615",
    "final_y": "550691.974036",
    "longitude": "-90.05465888209014",
    "latitude": "30.0080887664668",
    "geocoded_column": {
      "latitude": "30.0080887664668",
      "longitude": "-90.05465888209014"
    }
  },
  {
    "service_request": "2023-982866",
    "request_type": "Trash/Recycling",
    "request_reason": "Replace Recycling Cart",
    "date_created": "2023-03-14T15:57:53.000",
    "date_modified": "2023-03-14T15:57:53.000",
    "request_status": "Pending",
    "responsible_agency": "Department of Sanitation",
    "final_address": "2911 Milan St",
    "address_councildis": "B",
    "status": "Pending",
    "rowid": "982866",
    "final_x": "3671172.65652",
    "final_y": "525643.733053",
    "longitude": "-90.10088001003571",
    "latitude": "29.939647396045327",
    "geocoded_column": {
      "latitude": "29.939647396045327",
      "longitude": "-90.10088001003571"
    }
  },
  {
    "service_request": "2023-982865",
    "request_type": "Trash/Recycling",
    "request_reason": "Request a Large Item Pick Up",
    "date_created": "2023-03-14T15:57:26.000",
    "date_modified": "2023-03-14T15:57:27.000",
    "request_status": "Pending",
    "responsible_agency": "Department of Sanitation",
    "final_address": "3879 Mimosa Dr",
    "address_councildis": "C",
    "status": "Assigned to Contractor",
    "contractor": "Richards Disposal",
    "rowid": "982865",
    "final_x": "3704330.01764",
    "final_y": "512935.929137",
    "longitude": "-89.99666644648696",
    "latitude": "29.90368305442151",
    "geocoded_column": {
      "latitude": "29.90368305442151",
      "longitude": "-89.99666644648696"
    }
  },
  {
    "service_request": "2023-982864",
    "request_type": "Trash/Recycling",
    "request_reason": "Replace Trash Cart",
    "date_created": "2023-03-14T15:56:48.000",
    "date_modified": "2023-03-14T15:56:49.000",
    "request_status": "Pending",
    "responsible_agency": "Department of Sanitation",
    "final_address": "6219 Fairfax Pl",
    "address_councildis": "C",
    "status": "Assigned to Contractor",
    "contractor": "Richards Disposal",
    "rowid": "982864",
    "final_x": "3707075.84427",
    "final_y": "517342.543093",
    "longitude": "-89.98783738476176",
    "latitude": "29.915711364233136",
    "geocoded_column": {
      "latitude": "29.915711364233136",
      "longitude": "-89.98783738476176"
    }
  },
  {
    "service_request": "2023-982863",
    "request_type": "Trash/Recycling",
    "request_reason": "Illegal Dumping",
    "date_created": "2023-03-14T15:55:08.000",
    "date_modified": "2023-03-14T15:55:08.000",
    "request_status": "Pending",
    "responsible_agency": "Department of Sanitation",
    "final_address": "MURL ST & VESPASIAN ST",
    "address_councildis": "C",
    "status": "Pending",
    "rowid": "982863",
    "final_x": "3695087.6",
    "final_y": "522669.98",
    "longitude": "-90.02548474392688",
    "latitude": "29.930741642549066",
    "geocoded_column": {
      "latitude": "29.930741642549066",
      "longitude": "-90.02548474392688"
    }
  },
  {
    "service_request": "2023-982862",
    "request_type": "Abandoned Vehicles",
    "request_reason": "Abandoned/Junk Vehicles",
    "date_created": "2023-03-14T15:53:37.000",
    "date_modified": "2023-03-14T15:53:37.000",
    "request_status": "Pending",
    "responsible_agency": "Department of Public Works",
    "final_address": "333 W Harrison Ave",
    "address_councildis": "A",
    "status": "Pending",
    "rowid": "982862",
    "final_x": "3664923.57197",
    "final_y": "549750.978516",
    "longitude": "-90.11980325635794",
    "latitude": "30.006117644451145",
    "geocoded_column": {
      "latitude": "30.006117644451145",
      "longitude": "-90.11980325635794"
    }
  },
  {
    "service_request": "2023-982861",
    "request_type": "Roads/Drainage",
    "request_reason": "Pothole",
    "date_created": "2023-03-14T15:50:55.000",
    "date_modified": "2023-03-14T15:50:58.000",
    "request_status": "Pending",
    "responsible_agency": "Department of Public Works",
    "final_address": "7723 Burke Ave",
    "address_councildis": "E",
    "status": "Pending",
    "rowid": "982861",
    "final_x": "3705336.05463",
    "final_y": "563213.956064",
    "longitude": "-89.99163342015552",
    "latitude": "30.041896866207928",
    "geocoded_column": {
      "latitude": "30.041896866207928",
      "longitude": "-89.99163342015552"
    }
  },
  {
    "service_request": "2023-982860",
    "request_type": "Abandoned Vehicles",
    "request_reason": "Abandoned/Junk Vehicles",
    "date_created": "2023-03-14T15:50:05.000",
    "date_modified": "2023-03-14T15:50:06.000",
    "request_status": "Pending",
    "responsible_agency": "Department of Public Works",
    "final_address": "5517 Pauline Dr",
    "address_councildis": "D",
    "status": "Pending",
    "rowid": "982860",
    "final_x": "3692143.84701",
    "final_y": "554350.512472",
    "longitude": "-90.03364332274357",
    "latitude": "30.017943895604922",
    "geocoded_column": {
      "latitude": "30.017943895604922",
      "longitude": "-90.03364332274357"
    }
  },
  {
    "service_request": "2023-982859",
    "request_type": "Abandoned Vehicles",
    "request_reason": "Abandoned/Junk Vehicles",
    "date_created": "2023-03-14T15:49:39.000",
    "date_modified": "2023-03-14T15:49:39.000",
    "request_status": "Pending",
    "responsible_agency": "Department of Public Works",
    "final_address": "1757 Pace Blvd",
    "address_councildis": "C",
    "status": "Pending",
    "rowid": "982859",
    "final_x": "3694220.83389",
    "final_y": "524119.361084",
    "longitude": "-90.0281688709691",
    "latitude": "29.934754120176102",
    "geocoded_column": {
      "latitude": "29.934754120176102",
      "longitude": "-90.0281688709691"
    }
  },
  {
    "service_request": "2023-982858",
    "request_type": "Trash/Recycling",
    "request_reason": "Missed Trash Pick-Up",
    "date_created": "2023-03-14T15:46:07.000",
    "date_modified": "2023-03-14T15:46:07.000",
    "request_status": "Pending",
    "responsible_agency": "Department of Sanitation",
    "final_address": "14812 Emory Rd",
    "address_councildis": "E",
    "status": "Assigned to Contractor",
    "contractor": "Waste Pro",
    "rowid": "982858",
    "final_x": "3720679.97145",
    "final_y": "573805.353002",
    "longitude": "-89.94273528792085",
    "latitude": "30.070515856547193",
    "geocoded_column": {
      "latitude": "30.070515856547193",
      "longitude": "-89.94273528792085"
    }
  },
  {
    "service_request": "2023-982857",
    "request_type": "Traffic Signals/Signs/Striping/Streetlights",
    "request_reason": "Street Light Outage/Malfunction",
    "date_created": "2023-03-14T15:43:51.000",
    "date_modified": "2023-03-14T15:43:52.000",
    "request_status": "Pending",
    "responsible_agency": "Department of Public Works",
    "final_address": "7931 Wave Dr",
    "address_councildis": "E",
    "status": "Assigned to Contractor",
    "contractor": "Legacy Professional Services",
    "rowid": "982857",
    "final_x": "3714286.42738",
    "final_y": "569822.703078",
    "longitude": "-89.96309742766941",
    "latitude": "30.059777019172074",
    "geocoded_column": {
      "latitude": "30.059777019172074",
      "longitude": "-89.96309742766941"
    }
  },
  {
    "service_request": "2023-982856",
    "request_type": "Trash/Recycling",
    "request_reason": "Request a Large Item Pick Up",
    "date_created": "2023-03-14T15:42:42.000",
    "date_modified": "2023-03-14T15:42:43.000",
    "request_status": "Pending",
    "responsible_agency": "Department of Sanitation",
    "final_address": "7616 Kingsport Blvd",
    "address_councildis": "E",
    "status": "Assigned to Contractor",
    "contractor": "Waste Pro",
    "rowid": "982856",
    "final_x": "3719930.09062",
    "final_y": "572871.757417",
    "longitude": "-89.94514159878175",
    "latitude": "30.06797386425145",
    "geocoded_column": {
      "latitude": "30.06797386425145",
      "longitude": "-89.94514159878175"
    }
  },
  {
    "service_request": "2023-982855",
    "request_type": "Trash/Recycling",
    "request_reason": "Request a Large Item Pick Up",
    "date_created": "2023-03-14T15:41:17.000",
    "date_modified": "2023-03-14T15:41:18.000",
    "request_status": "Pending",
    "responsible_agency": "Department of Sanitation",
    "final_address": "8730 Gervais St",
    "address_councildis": "E",
    "status": "Assigned to Contractor",
    "contractor": "Waste Pro",
    "rowid": "982855",
    "final_x": "3704458.05918",
    "final_y": "562951.712224",
    "longitude": "-89.99441787848068",
    "latitude": "30.04120403806333",
    "geocoded_column": {
      "latitude": "30.04120403806333",
      "longitude": "-89.99441787848068"
    }
  },
  {
    "service_request": "2023-982854",
    "request_type": "Trash/Recycling",
    "request_reason": "MIssed Recycling Pick-Up",
    "date_created": "2023-03-14T15:39:49.000",
    "date_modified": "2023-03-14T16:06:52.000",
    "request_status": "Pending",
    "responsible_agency": "Department of Sanitation",
    "final_address": "234 S Norman C Francis Pkwy, New Orleans, Louisiana, 70119",
    "address_councildis": "B",
    "status": "Assigned to Contractor",
    "rowid": "982854",
    "final_x": "3672885.84705",
    "final_y": "536081.231431",
    "longitude": "-90.09511512720694",
    "latitude": "29.968296278677425",
    "geocoded_column": {
      "latitude": "29.968296278677425",
      "longitude": "-90.09511512720694"
    }
  },
  {
    "service_request": "2023-982853",
    "request_type": "Trash/Recycling",
    "request_reason": "Repair Recycling Cart",
    "date_created": "2023-03-14T15:36:09.000",
    "date_modified": "2023-03-14T15:36:10.000",
    "request_status": "Pending",
    "responsible_agency": "Department of Sanitation",
    "final_address": "4510 Camelot Dr",
    "address_councildis": "E",
    "status": "Pending",
    "rowid": "982853",
    "final_x": "3708455.24811",
    "final_y": "554171.249816",
    "longitude": "-89.9821126921216",
    "latitude": "30.016932183433067",
    "geocoded_column": {
      "latitude": "30.016932183433067",
      "longitude": "-89.9821126921216"
    }
  },
  {
    "service_request": "2023-982852",
    "request_type": "Trash/Recycling",
    "request_reason": "Repair Trash Cart",
    "date_created": "2023-03-14T15:35:46.000",
    "date_modified": "2023-03-14T15:35:46.000",
    "request_status": "Pending",
    "responsible_agency": "Department of Sanitation",
    "final_address": "4510 Camelot Dr",
    "address_councildis": "E",
    "status": "Assigned to Contractor",
    "contractor": "Waste Pro",
    "rowid": "982852",
    "final_x": "3708455.24811",
    "final_y": "554171.249816",
    "longitude": "-89.9821126921216",
    "latitude": "30.016932183433067",
    "geocoded_column": {
      "latitude": "30.016932183433067",
      "longitude": "-89.9821126921216"
    }
  },
  {
    "service_request": "2023-982851",
    "request_type": "Roads/Drainage",
    "request_reason": "Accessibility Ramps, Curbs and Sidewalk Repair",
    "date_created": "2023-03-14T15:33:37.000",
    "date_modified": "2023-03-14T15:33:37.000",
    "request_status": "Pending",
    "responsible_agency": "Department of Public Works",
    "final_address": "2529 Jena St",
    "address_councildis": "B",
    "status": "Pending",
    "rowid": "982851",
    "final_x": "3670147.79847",
    "final_y": "524254.761084",
    "longitude": "-90.1041626785356",
    "latitude": "29.935858442401077",
    "geocoded_column": {
      "latitude": "29.935858442401077",
      "longitude": "-90.1041626785356"
    }
  },
  {
    "service_request": "2023-982850",
    "request_type": "Trash/Recycling",
    "request_reason": "Request a Large Item Pick Up",
    "date_created": "2023-03-14T15:29:57.000",
    "date_modified": "2023-03-14T15:29:57.000",
    "request_status": "Pending",
    "responsible_agency": "Department of Sanitation",
    "final_address": "5514 Wingate Dr",
    "address_councildis": "D",
    "status": "Assigned to Contractor",
    "contractor": "IV Waste",
    "rowid": "982850",
    "final_x": "3681283.84904",
    "final_y": "553218.035671",
    "longitude": "-90.0679962502945",
    "latitude": "30.015164229557072",
    "geocoded_column": {
      "latitude": "30.015164229557072",
      "longitude": "-90.0679962502945"
    }
  },
  {
    "service_request": "2023-982849",
    "request_type": "Trash/Recycling",
    "request_reason": "Missed Trash Pick-Up",
    "date_created": "2023-03-14T15:29:11.000",
    "date_modified": "2023-03-14T15:29:12.000",
    "request_status": "Pending",
    "responsible_agency": "Department of Sanitation",
    "final_address": "8526 Panola St",
    "address_councildis": "A",
    "status": "Assigned to Contractor",
    "contractor": "Richards Disposal",
    "rowid": "982849",
    "final_x": "3662839.02042",
    "final_y": "531804.739011",
    "longitude": "-90.12698579774666",
    "latitude": "29.95683202181691",
    "geocoded_column": {
      "latitude": "29.95683202181691",
      "longitude": "-90.12698579774666"
    }
  },
  {
    "service_request": "2023-982848",
    "request_type": "Property Maintenance",
    "request_reason": "Property Maintenance",
    "date_created": "2023-03-14T15:28:39.000",
    "date_modified": "2023-03-14T15:28:40.000",
    "request_status": "Pending",
    "responsible_agency": "Department of Code Enforcement",
    "final_address": "4611 Sierra Madre Dr",
    "address_councildis": "E",
    "status": "Pending",
    "rowid": "982848",
    "final_x": "3714045.76351",
    "final_y": "555685.905561",
    "longitude": "-89.96439200340096",
    "latitude": "30.020914435164194",
    "geocoded_column": {
      "latitude": "30.020914435164194",
      "longitude": "-89.96439200340096"
    }
  },
  {
    "service_request": "2023-982847",
    "request_type": "Trash/Recycling",
    "request_reason": "MIssed Recycling Pick-Up",
    "date_created": "2023-03-14T15:25:28.000",
    "date_modified": "2023-03-14T15:25:28.000",
    "request_status": "Pending",
    "responsible_agency": "Department of Sanitation",
    "final_address": "7241 Restgate Rd",
    "address_councildis": "E",
    "status": "Assigned to Contractor",
    "contractor": "Waste Pro",
    "rowid": "982847",
    "final_x": "3710623.40933",
    "final_y": "563563.36112",
    "longitude": "-89.97491046486283",
    "latitude": "30.04268629765786",
    "geocoded_column": {
      "latitude": "30.04268629765786",
      "longitude": "-89.97491046486283"
    }
  },
  {
    "service_request": "2023-982846",
    "request_type": "Trash/Recycling",
    "request_reason": "Request a Large Item Pick Up",
    "date_created": "2023-03-14T15:25:12.000",
    "date_modified": "2023-03-14T15:25:13.000",
    "request_status": "Pending",
    "responsible_agency": "Department of Sanitation",
    "final_address": "1655 N Dorgenois St",
    "address_councildis": "D",
    "status": "Assigned to Contractor",
    "contractor": "IV Waste",
    "rowid": "982846",
    "final_x": "3679821.03675",
    "final_y": "540231.287883",
    "longitude": "-90.07306934209953",
    "latitude": "29.97949961254516",
    "geocoded_column": {
      "latitude": "29.97949961254516",
      "longitude": "-90.07306934209953"
    }
  },
  {
    "service_request": "2023-982845",
    "request_type": "Trash/Recycling",
    "request_reason": "Replace Trash Cart",
    "date_created": "2023-03-14T15:19:07.000",
    "date_modified": "2023-03-14T15:19:08.000",
    "request_status": "Pending",
    "responsible_agency": "Department of Sanitation",
    "final_address": "818 Olga St",
    "address_councildis": "A",
    "status": "Assigned to Contractor",
    "contractor": "Richards Disposal",
    "rowid": "982845",
    "final_x": "3673344.49198",
    "final_y": "539904.42273",
    "longitude": "-90.09353606487714",
    "latitude": "29.978795121377306",
    "geocoded_column": {
      "latitude": "29.978795121377306",
      "longitude": "-90.09353606487714"
    }
  },
  {
    "service_request": "2023-982844",
    "request_type": "Abandoned Vehicles",
    "request_reason": "Abandoned/Junk Vehicles",
    "date_created": "2023-03-14T15:17:17.000",
    "date_modified": "2023-03-14T15:17:17.000",
    "request_status": "Pending",
    "responsible_agency": "Department of Public Works",
    "final_address": "5300 BLK Saint Charles Ave",
    "address_councildis": "B",
    "status": "Pending",
    "rowid": "982844",
    "final_x": "3667503.33326",
    "final_y": "521530.842553",
    "longitude": "-90.11260294895877",
    "latitude": "29.928446272354073",
    "geocoded_column": {
      "latitude": "29.928446272354073",
      "longitude": "-90.11260294895877"
    }
  },
  {
    "service_request": "2023-982843",
    "request_type": "Trash/Recycling",
    "request_reason": "Request a Large Item Pick Up",
    "date_created": "2023-03-14T15:17:15.000",
    "date_modified": "2023-03-14T15:17:16.000",
    "request_status": "Pending",
    "responsible_agency": "Department of Sanitation",
    "final_address": "3200 BLK Somerset Dr",
    "address_councildis": "C",
    "status": "Assigned to Contractor",
    "contractor": "Richards Disposal",
    "rowid": "982843",
    "final_x": "3702542.1897",
    "final_y": "519341.050673",
    "longitude": "-90.00207393658643",
    "latitude": "29.921352176883378",
    "geocoded_column": {
      "latitude": "29.921352176883378",
      "longitude": "-90.00207393658643"
    }
  },
  {
    "service_request": "2023-982842",
    "request_type": "Trash/Recycling",
    "request_reason": "Repair Trash Cart",
    "date_created": "2023-03-14T15:14:01.000",
    "date_modified": "2023-03-14T15:14:01.000",
    "request_status": "Pending",
    "responsible_agency": "Department of Sanitation",
    "final_address": "4644 Crowder Blvd",
    "address_councildis": "E",
    "status": "Assigned to Contractor",
    "contractor": "Waste Pro",
    "rowid": "982842",
    "final_x": "3706376.05284",
    "final_y": "555152.142105",
    "longitude": "-89.98864566007819",
    "latitude": "30.019696511743522",
    "geocoded_column": {
      "latitude": "30.019696511743522",
      "longitude": "-89.98864566007819"
    }
  },
  {
    "service_request": "2023-982841",
    "request_type": "Trash/Recycling",
    "request_reason": "Replace Recycling Cart",
    "date_created": "2023-03-14T15:13:26.000",
    "date_modified": "2023-03-14T15:13:26.000",
    "request_status": "Pending",
    "responsible_agency": "Department of Sanitation",
    "final_address": "4740 Iberville St",
    "address_councildis": "A",
    "status": "Pending",
    "rowid": "982841",
    "final_x": "3669076.45262",
    "final_y": "540331.915211",
    "longitude": "-90.10700173400848",
    "latitude": "29.9800968701747",
    "geocoded_column": {
      "latitude": "29.9800968701747",
      "longitude": "-90.10700173400848"
    }
  },
  {
    "service_request": "2023-982840",
    "request_type": "Trash/Recycling",
    "request_reason": "Request a Large Item Pick Up",
    "date_created": "2023-03-14T15:11:12.000",
    "date_modified": "2023-03-14T15:15:46.000",
    "case_close_date": "2023-03-14T10:15:46.000",
    "request_status": "Closed",
    "responsible_agency": "Department of Sanitation",
    "final_address": "2015 Filmore Ave",
    "address_councildis": "D",
    "status": "Assigned to Contractor",
    "contractor": "IV Waste",
    "contractor_action": "Completed",
    "rowid": "982840",
    "final_x": "3682358.15791",
    "final_y": "552233.232022",
    "longitude": "-90.0646363947881",
    "latitude": "30.012423713602637",
    "geocoded_column": {
      "latitude": "30.012423713602637",
      "longitude": "-90.0646363947881"
    }
  },
  {
    "service_request": "2023-982839",
    "request_type": "Trash/Recycling",
    "request_reason": "Request a Large Item Pick Up",
    "date_created": "2023-03-14T15:11:10.000",
    "date_modified": "2023-03-14T15:14:17.000",
    "case_close_date": "2023-03-14T10:14:17.000",
    "request_status": "Closed",
    "responsible_agency": "Department of Sanitation",
    "final_address": "1622 Agriculture St",
    "address_councildis": "D",
    "status": "Assigned to Contractor",
    "contractor": "IV Waste",
    "contractor_action": "Completed",
    "rowid": "982839",
    "final_x": "3680126.57576",
    "final_y": "542919.684685",
    "longitude": "-90.07201086021256",
    "latitude": "29.986882522098753",
    "geocoded_column": {
      "latitude": "29.986882522098753",
      "longitude": "-90.07201086021256"
    }
  },
  {
    "service_request": "2023-982837",
    "request_type": "Traffic Signals/Signs/Striping/Streetlights",
    "request_reason": "Street Light Outage/Malfunction",
    "date_created": "2023-03-14T15:04:26.000",
    "date_modified": "2023-03-14T15:04:27.000",
    "request_status": "Pending",
    "responsible_agency": "Department of Public Works",
    "final_address": "4516 Citrus Dr",
    "address_councildis": "E",
    "status": "Assigned to Contractor",
    "contractor": "Legacy Professional Services",
    "rowid": "982837",
    "final_x": "3710675.84651",
    "final_y": "554865.600856",
    "longitude": "-89.97507058658634",
    "latitude": "30.018769188829157",
    "geocoded_column": {
      "latitude": "30.018769188829157",
      "longitude": "-89.97507058658634"
    }
  },
  {
    "service_request": "2023-982838",
    "request_type": "Traffic Signals/Signs/Striping/Streetlights",
    "request_reason": "Street Light Outage/Malfunction",
    "date_created": "2023-03-14T15:04:26.000",
    "date_modified": "2023-03-14T15:04:28.000",
    "request_status": "Pending",
    "responsible_agency": "Department of Public Works",
    "final_address": "4516 Citrus Dr",
    "address_councildis": "E",
    "status": "Assigned to Contractor",
    "contractor": "Legacy Professional Services",
    "rowid": "982838",
    "final_x": "3710675.84651",
    "final_y": "554865.600856",
    "longitude": "-89.97507058658634",
    "latitude": "30.018769188829157",
    "geocoded_column": {
      "latitude": "30.018769188829157",
      "longitude": "-89.97507058658634"
    }
  },
  {
    "service_request": "2023-982836",
    "request_type": "Traffic Signals/Signs/Striping/Streetlights",
    "request_reason": "Street Light Outage/Malfunction",
    "date_created": "2023-03-14T14:59:13.000",
    "date_modified": "2023-03-14T14:59:13.000",
    "request_status": "Pending",
    "responsible_agency": "Department of Public Works",
    "final_address": "DELACHAISE ST & ANNUNCIATION ST",
    "address_councildis": "B",
    "status": "Assigned to Contractor",
    "contractor": "Legacy Professional Services",
    "rowid": "982836",
    "final_x": "3675107.2",
    "final_y": "518464.18",
    "longitude": "-90.08870430634616",
    "latitude": "29.919789001410297",
    "geocoded_column": {
      "latitude": "29.919789001410297",
      "longitude": "-90.08870430634616"
    }
  },
  {
    "service_request": "2023-982835",
    "request_type": "Traffic Signals/Signs/Striping/Streetlights",
    "request_reason": "Street Light Outage/Malfunction",
    "date_created": "2023-03-14T14:58:42.000",
    "date_modified": "2023-03-14T14:58:43.000",
    "request_status": "Pending",
    "responsible_agency": "Department of Public Works",
    "final_address": "ALINE ST & ANNUNCIATION ST",
    "address_councildis": "B",
    "status": "Assigned to Contractor",
    "contractor": "Legacy Professional Services",
    "rowid": "982835",
    "final_x": "3674820.7",
    "final_y": "518367.98",
    "longitude": "-90.08961194375574",
    "latitude": "29.919533036130257",
    "geocoded_column": {
      "latitude": "29.919533036130257",
      "longitude": "-90.08961194375574"
    }
  },
  {
    "service_request": "2023-982834",
    "request_type": "Trash/Recycling",
    "request_reason": "Illegal Dumping",
    "date_created": "2023-03-14T14:56:59.000",
    "date_modified": "2023-03-14T14:56:59.000",
    "request_status": "Pending",
    "responsible_agency": "Department of Sanitation",
    "final_address": "3000 BLK Conti St",
    "address_councildis": "B",
    "status": "Pending",
    "rowid": "982834",
    "final_x": "3674917.10354",
    "final_y": "536900.365948",
    "longitude": "-90.08867221994502",
    "latitude": "29.970488109084464",
    "geocoded_column": {
      "latitude": "29.970488109084464",
      "longitude": "-90.08867221994502"
    }
  },
  {
    "service_request": "2023-982833",
    "request_type": "Trash/Recycling",
    "request_reason": "Illegal Dumping",
    "date_created": "2023-03-14T14:53:59.000",
    "date_modified": "2023-03-14T14:53:59.000",
    "request_status": "Pending",
    "responsible_agency": "Department of Sanitation",
    "final_address": "2900 BLK Lafitte Ave",
    "address_councildis": "A",
    "status": "Pending",
    "rowid": "982833",
    "final_x": "3675435.14876",
    "final_y": "537019.972992",
    "longitude": "-90.08703206354076",
    "latitude": "29.970801504669062",
    "geocoded_column": {
      "latitude": "29.970801504669062",
      "longitude": "-90.08703206354076"
    }
  },
  {
    "service_request": "2023-982832",
    "request_type": "Trash/Recycling",
    "request_reason": "Request a Large Item Pick Up",
    "date_created": "2023-03-14T14:53:12.000",
    "date_modified": "2023-03-14T14:53:12.000",
    "request_status": "Pending",
    "responsible_agency": "Department of Sanitation",
    "final_address": "7032 Derbes St",
    "address_councildis": "A",
    "status": "Assigned to Contractor",
    "contractor": "IV Waste",
    "rowid": "982832",
    "final_x": "3665809.76333",
    "final_y": "554512.513048",
    "longitude": "-90.11684384826852",
    "latitude": "30.019184364016667",
    "geocoded_column": {
      "latitude": "30.019184364016667",
      "longitude": "-90.11684384826852"
    }
  },
  {
    "service_request": "2023-982831",
    "request_type": "Roads/Drainage",
    "request_reason": "Catch Basin - Clogged",
    "date_created": "2023-03-14T14:52:16.000",
    "date_modified": "2023-03-14T14:56:59.000",
    "request_status": "Pending",
    "responsible_agency": "Department of Public Works",
    "final_address": "9300 BLK Apricot St",
    "address_councildis": "A",
    "status": "Pending",
    "rowid": "982831",
    "final_x": "3662571.13479",
    "final_y": "535586.713391",
    "longitude": "-90.12770604549881",
    "latitude": "29.96723897010325",
    "geocoded_column": {
      "latitude": "29.96723897010325",
      "longitude": "-90.12770604549881"
    }
  },
  {
    "service_request": "2023-982830",
    "request_type": "Traffic Signals/Signs/Striping/Streetlights",
    "request_reason": "Street Light Outage/Malfunction",
    "date_created": "2023-03-14T14:51:45.000",
    "date_modified": "2023-03-14T14:51:46.000",
    "request_status": "Pending",
    "responsible_agency": "Department of Public Works",
    "final_address": "4100 S Liberty St",
    "address_councildis": "B",
    "status": "Assigned to Contractor",
    "contractor": "Legacy Professional Services",
    "rowid": "982830",
    "final_x": "3671623.44756",
    "final_y": "523390.026491",
    "longitude": "-90.09953341169984",
    "latitude": "29.933437092855097",
    "geocoded_column": {
      "latitude": "29.933437092855097",
      "longitude": "-90.09953341169984"
    }
  },
  {
    "service_request": "2023-982829",
    "request_type": "Trash/Recycling",
    "request_reason": "Order Recycling Cart",
    "date_created": "2023-03-14T14:50:45.000",
    "date_modified": "2023-03-14T14:50:45.000",
    "request_status": "Pending",
    "responsible_agency": "Department of Sanitation",
    "final_address": "4210 Vincennes Pl",
    "address_councildis": "B",
    "status": "Pending",
    "rowid": "982829",
    "final_x": "3668711.24366",
    "final_y": "531273.22605",
    "longitude": "-90.1084610659289",
    "latitude": "29.955199236515377",
    "geocoded_column": {
      "latitude": "29.955199236515377",
      "longitude": "-90.1084610659289"
    }
  },
  {
    "service_request": "2023-982828",
    "request_type": "Traffic Signals/Signs/Striping/Streetlights",
    "request_reason": "Street Light Outage/Malfunction",
    "date_created": "2023-03-14T14:50:10.000",
    "date_modified": "2023-03-14T14:50:11.000",
    "request_status": "Pending",
    "responsible_agency": "Department of Public Works",
    "final_address": "5816 Colbert St",
    "address_councildis": "A",
    "status": "Assigned to Contractor",
    "contractor": "Legacy Professional Services",
    "rowid": "982828",
    "final_x": "3667259.16807",
    "final_y": "546310.709264",
    "longitude": "-90.112540311684",
    "latitude": "29.9965898725176",
    "geocoded_column": {
      "latitude": "29.9965898725176",
      "longitude": "-90.112540311684"
    }
  },
  {
    "service_request": "2023-982827",
    "request_type": "Trash/Recycling",
    "request_reason": "Replace Trash Cart",
    "date_created": "2023-03-14T14:48:11.000",
    "date_modified": "2023-03-14T14:48:12.000",
    "request_status": "Pending",
    "responsible_agency": "Department of Sanitation",
    "final_address": "4905 Constance St",
    "address_councildis": "B",
    "status": "Assigned to Contractor",
    "contractor": "Richards Disposal",
    "rowid": "982827",
    "final_x": "3668901.42938",
    "final_y": "518241.824694",
    "longitude": "-90.10830045062355",
    "latitude": "29.9193614862095",
    "geocoded_column": {
      "latitude": "29.9193614862095",
      "longitude": "-90.10830045062355"
    }
  },
  {
    "service_request": "2023-982826",
    "request_type": "Trash/Recycling",
    "request_reason": "Illegal Dumping",
    "date_created": "2023-03-14T14:45:08.000",
    "date_modified": "2023-03-14T14:45:09.000",
    "request_status": "Pending",
    "responsible_agency": "Department of Sanitation",
    "final_address": "1700 France St",
    "address_councildis": "D",
    "status": "Pending",
    "rowid": "982826",
    "final_x": "3692920.4031",
    "final_y": "537443.633288",
    "longitude": "-90.03179649080697",
    "latitude": "29.971431898465518",
    "geocoded_column": {
      "latitude": "29.971431898465518",
      "longitude": "-90.03179649080697"
    }
  },
  {
    "service_request": "2023-982825",
    "request_type": "Abandoned Vehicles",
    "request_reason": "Abandoned/Junk Vehicles",
    "date_created": "2023-03-14T14:44:24.000",
    "date_modified": "2023-03-14T14:45:48.000",
    "request_status": "Pending",
    "responsible_agency": "Department of Public Works",
    "final_address": "PHILIP ST & PRYTANIA ST",
    "address_councildis": "B",
    "status": "Pending",
    "rowid": "982825",
    "final_x": "3677625.7",
    "final_y": "523045.68",
    "longitude": "-90.08059652411043",
    "latitude": "29.93231117647866",
    "geocoded_column": {
      "latitude": "29.93231117647866",
      "longitude": "-90.08059652411043"
    }
  },
  {
    "service_request": "2023-982824",
    "request_type": "Trash/Recycling",
    "request_reason": "MIssed Recycling Pick-Up",
    "date_created": "2023-03-14T14:41:44.000",
    "date_modified": "2023-03-14T14:41:45.000",
    "request_status": "Pending",
    "responsible_agency": "Department of Sanitation",
    "final_address": "7450 Seven Oaks Rd",
    "address_councildis": "E",
    "status": "Assigned to Contractor",
    "contractor": "Waste Pro",
    "rowid": "982824",
    "final_x": "3712355.66437",
    "final_y": "565476.035682",
    "longitude": "-89.96936394618264",
    "latitude": "30.04788879968247",
    "geocoded_column": {
      "latitude": "30.04788879968247",
      "longitude": "-89.96936394618264"
    }
  },
  {
    "service_request": "2023-982823",
    "request_type": "Parks & Parkways",
    "request_reason": "Request Tree Service (Right of Way/Public Property)",
    "date_created": "2023-03-14T14:41:06.000",
    "date_modified": "2023-03-14T14:41:06.000",
    "request_status": "Pending",
    "responsible_agency": "Department of Parks & Parkway",
    "final_address": "3135 Esplanade Ave",
    "address_councildis": "A",
    "status": "Pending",
    "rowid": "982823",
    "final_x": "3676200.56865",
    "final_y": "540575.331595",
    "longitude": "-90.08449239439497",
    "latitude": "29.980554608975353",
    "geocoded_column": {
      "latitude": "29.980554608975353",
      "longitude": "-90.08449239439497"
    }
  },
  {
    "service_request": "2023-982822",
    "request_type": "Roads/Drainage",
    "request_reason": "Street Subsidence (Sinking)",
    "date_created": "2023-03-14T14:40:30.000",
    "date_modified": "2023-03-14T14:41:31.000",
    "request_status": "Pending",
    "responsible_agency": "Department of Public Works",
    "final_address": "DREUX AVE & DOWNMAN RD",
    "address_councildis": "D",
    "status": "Pending",
    "rowid": "982822",
    "final_x": "3695997.2",
    "final_y": "553769.58",
    "longitude": "-90.02148928044049",
    "latitude": "30.016225808033237",
    "geocoded_column": {
      "latitude": "30.016225808033237",
      "longitude": "-90.02148928044049"
    }
  },
  {
    "service_request": "2023-982821",
    "request_type": "Trash/Recycling",
    "request_reason": "Missed Trash Pick-Up",
    "date_created": "2023-03-14T14:39:22.000",
    "date_modified": "2023-03-14T14:39:24.000",
    "request_status": "Pending",
    "responsible_agency": "Department of Sanitation",
    "final_address": "1110 Aline St",
    "address_councildis": "B",
    "status": "Assigned to Contractor",
    "contractor": "Richards Disposal",
    "rowid": "982821",
    "final_x": "3674400.79316",
    "final_y": "519453.150775",
    "longitude": "-90.09090024164782",
    "latitude": "29.92252943367725",
    "geocoded_column": {
      "latitude": "29.92252943367725",
      "longitude": "-90.09090024164782"
    }
  },
  {
    "service_request": "2023-982820",
    "request_type": "Trash/Recycling",
    "request_reason": "Missed Trash Pick-Up",
    "date_created": "2023-03-14T14:39:17.000",
    "date_modified": "2023-03-14T14:39:18.000",
    "request_status": "Pending",
    "responsible_agency": "Department of Sanitation",
    "final_address": "1110 Aline St",
    "address_councildis": "B",
    "status": "Assigned to Contractor",
    "contractor": "Richards Disposal",
    "rowid": "982820",
    "final_x": "3674400.79316",
    "final_y": "519453.150775",
    "longitude": "-90.09090024164782",
    "latitude": "29.92252943367725",
    "geocoded_column": {
      "latitude": "29.92252943367725",
      "longitude": "-90.09090024164782"
    }
  },
  {
    "service_request": "2023-982819",
    "request_type": "Abandoned Vehicles",
    "request_reason": "Vehicle Blocking Your Driveway",
    "date_created": "2023-03-14T14:38:36.000",
    "date_modified": "2023-03-14T14:38:36.000",
    "request_status": "Pending",
    "responsible_agency": "Department of Public Works",
    "final_address": "7107 Maple St, New Orleans, Louisiana, 70118",
    "address_councildis": "A",
    "status": "Pending",
    "rowid": "982819",
    "final_x": "3663554.31303",
    "final_y": "525269.218109",
    "longitude": "-90.1249447569937",
    "latitude": "29.93884071436571",
    "geocoded_column": {
      "latitude": "29.93884071436571",
      "longitude": "-90.1249447569937"
    }
  },
  {
    "service_request": "2023-982818",
    "request_type": "Roads/Drainage",
    "request_reason": "Accessibility Ramps, Curbs and Sidewalk Repair",
    "date_created": "2023-03-14T14:38:33.000",
    "date_modified": "2023-03-14T14:38:34.000",
    "request_status": "Pending",
    "responsible_agency": "Department of Public Works",
    "final_address": "7708 Alabama St",
    "address_councildis": "D",
    "status": "Pending",
    "rowid": "982818",
    "final_x": "3694751.85232",
    "final_y": "558791.431644",
    "longitude": "-90.02524287990003",
    "latitude": "30.030073145183692",
    "geocoded_column": {
      "latitude": "30.030073145183692",
      "longitude": "-90.02524287990003"
    }
  },
  {
    "service_request": "2023-982817",
    "request_type": "Trash/Recycling",
    "request_reason": "Order Recycling Cart",
    "date_created": "2023-03-14T14:37:52.000",
    "date_modified": "2023-03-14T14:37:52.000",
    "request_status": "Pending",
    "responsible_agency": "Department of Sanitation",
    "final_address": "2529 Jena St",
    "address_councildis": "B",
    "status": "Pending",
    "rowid": "982817",
    "final_x": "3670147.79847",
    "final_y": "524254.761084",
    "longitude": "-90.1041626785356",
    "latitude": "29.935858442401077",
    "geocoded_column": {
      "latitude": "29.935858442401077",
      "longitude": "-90.1041626785356"
    }
  },
  {
    "service_request": "2023-982816",
    "request_type": "Trash/Recycling",
    "request_reason": "Missed Trash Pick-Up",
    "date_created": "2023-03-14T14:37:45.000",
    "date_modified": "2023-03-14T14:37:46.000",
    "request_status": "Pending",
    "responsible_agency": "Department of Sanitation",
    "final_address": "4028 Prytania St",
    "address_councildis": "B",
    "status": "Assigned to Contractor",
    "contractor": "Richards Disposal",
    "rowid": "982816",
    "final_x": "3672142.74375",
    "final_y": "520403.683704",
    "longitude": "-90.09799566101609",
    "latitude": "29.925210225338862",
    "geocoded_column": {
      "latitude": "29.925210225338862",
      "longitude": "-90.09799566101609"
    }
  },
  {
    "service_request": "2023-982815",
    "request_type": "Trash/Recycling",
    "request_reason": "Order Trash Cart",
    "date_created": "2023-03-14T14:36:41.000",
    "date_modified": "2023-03-14T14:36:42.000",
    "request_status": "Pending",
    "responsible_agency": "Department of Sanitation",
    "final_address": "2529 Jena St",
    "address_councildis": "B",
    "status": "Assigned to Contractor",
    "contractor": "Richards Disposal",
    "rowid": "982815",
    "final_x": "3670147.79847",
    "final_y": "524254.761084",
    "longitude": "-90.1041626785356",
    "latitude": "29.935858442401077",
    "geocoded_column": {
      "latitude": "29.935858442401077",
      "longitude": "-90.1041626785356"
    }
  },
  {
    "service_request": "2023-982814",
    "request_type": "Trash/Recycling",
    "request_reason": "Missed Trash Pick-Up",
    "date_created": "2023-03-14T14:32:39.000",
    "date_modified": "2023-03-14T14:32:39.000",
    "request_status": "Pending",
    "responsible_agency": "Department of Sanitation",
    "final_address": "12521 Carmel Pl",
    "address_councildis": "E",
    "status": "Assigned to Contractor",
    "contractor": "Waste Pro",
    "rowid": "982814",
    "final_x": "3716305.7758",
    "final_y": "566877.190564",
    "longitude": "-89.95682630606898",
    "latitude": "30.051611521354115",
    "geocoded_column": {
      "latitude": "30.051611521354115",
      "longitude": "-89.95682630606898"
    }
  },
  {
    "service_request": "2023-982813",
    "request_type": "Traffic Signals/Signs/Striping/Streetlights",
    "request_reason": "Request for Traffic Calming due to Speeding",
    "date_created": "2023-03-14T14:32:23.000",
    "date_modified": "2023-03-14T14:32:23.000",
    "request_status": "Pending",
    "responsible_agency": "Department of Public Works",
    "final_address": "1962 Treasure St",
    "address_councildis": "D",
    "status": "Pending",
    "rowid": "982813",
    "final_x": "3682724.95016",
    "final_y": "543854.252046",
    "longitude": "-90.06377085011385",
    "latitude": "29.989373349714196",
    "geocoded_column": {
      "latitude": "29.989373349714196",
      "longitude": "-90.06377085011385"
    }
  },
  {
    "service_request": "2023-982812",
    "request_type": "Roads/Drainage",
    "request_reason": "Damaged Sidewalk",
    "date_created": "2023-03-14T14:31:44.000",
    "date_modified": "2023-03-14T14:31:44.000",
    "request_status": "Pending",
    "responsible_agency": "Department of Public Works",
    "final_address": "1014 General Taylor St",
    "address_councildis": "B",
    "status": "Pending",
    "rowid": "982812",
    "final_x": "3672958.91816",
    "final_y": "519507.642551",
    "longitude": "-90.09544981044783",
    "latitude": "29.922722178959962",
    "geocoded_column": {
      "latitude": "29.922722178959962",
      "longitude": "-90.09544981044783"
    }
  },
  {
    "service_request": "2023-982810",
    "request_type": "Trash/Recycling",
    "request_reason": "Request a Large Item Pick Up",
    "date_created": "2023-03-14T14:24:14.000",
    "date_modified": "2023-03-14T14:24:14.000",
    "request_status": "Pending",
    "responsible_agency": "Department of Sanitation",
    "final_address": "5625 Franklin Ave",
    "address_councildis": "D",
    "status": "Assigned to Contractor",
    "contractor": "IV Waste",
    "rowid": "982810",
    "final_x": "3686605.07586",
    "final_y": "553859.916887",
    "longitude": "-90.05116102438839",
    "latitude": "30.01676652005989",
    "geocoded_column": {
      "latitude": "30.01676652005989",
      "longitude": "-90.05116102438839"
    }
  },
  {
    "service_request": "2023-982809",
    "request_type": "Trash/Recycling",
    "request_reason": "Order Trash Cart",
    "date_created": "2023-03-14T14:20:56.000",
    "date_modified": "2023-03-14T14:20:57.000",
    "request_status": "Pending",
    "responsible_agency": "Department of Sanitation",
    "final_address": "1318 Henriette Delille St",
    "address_councildis": "C",
    "status": "Assigned to Contractor",
    "contractor": "Richards Disposal",
    "rowid": "982809",
    "final_x": "3682515.06978",
    "final_y": "535445.976454",
    "longitude": "-90.06472784990058",
    "latitude": "29.966259916361082",
    "geocoded_column": {
      "latitude": "29.966259916361082",
      "longitude": "-90.06472784990058"
    }
  },
  {
    "service_request": "2023-982808",
    "request_type": "Trash/Recycling",
    "request_reason": "Request a Large Item Pick Up",
    "date_created": "2023-03-14T14:18:24.000",
    "date_modified": "2023-03-14T14:18:24.000",
    "request_status": "Pending",
    "responsible_agency": "Department of Sanitation",
    "final_address": "WASHINGTON AVE & CAMP ST",
    "address_councildis": "B",
    "status": "Assigned to Contractor",
    "contractor": "Richards Disposal",
    "rowid": "982808",
    "final_x": "3676846.8",
    "final_y": "521137.68",
    "longitude": "-90.08312116067118",
    "latitude": "29.927088189986534",
    "geocoded_column": {
      "latitude": "29.927088189986534",
      "longitude": "-90.08312116067118"
    }
  },
  {
    "service_request": "2023-982807",
    "request_type": "Trash/Recycling",
    "request_reason": "Request a Large Item Pick Up",
    "date_created": "2023-03-14T14:15:15.000",
    "date_modified": "2023-03-14T14:15:15.000",
    "request_status": "Pending",
    "responsible_agency": "Department of Sanitation",
    "final_address": "1108 N Miro St",
    "address_councildis": "D",
    "status": "Assigned to Contractor",
    "contractor": "Richards Disposal",
    "rowid": "982807",
    "final_x": "3679080.48936",
    "final_y": "537171.362952",
    "longitude": "-90.07551437615236",
    "latitude": "29.97110824922464",
    "geocoded_column": {
      "latitude": "29.97110824922464",
      "longitude": "-90.07551437615236"
    }
  },
  {
    "service_request": "2023-982806",
    "request_type": "Traffic Signals/Signs/Striping/Streetlights",
    "request_reason": "Street Light Outage/Malfunction",
    "date_created": "2023-03-14T14:14:50.000",
    "date_modified": "2023-03-14T14:14:51.000",
    "request_status": "Pending",
    "responsible_agency": "Department of Public Works",
    "final_address": "315 Decatur St",
    "address_councildis": "C",
    "status": "Assigned to Contractor",
    "contractor": "Legacy Professional Services",
    "rowid": "982806",
    "final_x": "3682332.13967",
    "final_y": "530970.484162",
    "longitude": "-90.06546192627788",
    "latitude": "29.953959408807965",
    "geocoded_column": {
      "latitude": "29.953959408807965",
      "longitude": "-90.06546192627788"
    }
  },
  {
    "service_request": "2023-982805",
    "request_type": "Abandoned Vehicles",
    "request_reason": "Abandoned/Junk Vehicles",
    "date_created": "2023-03-14T14:12:51.000",
    "date_modified": "2023-03-14T14:16:14.000",
    "request_status": "Pending",
    "responsible_agency": "Department of Public Works",
    "final_address": "MORRISON RD & GANNON RD",
    "address_councildis": "E",
    "status": "Inspected",
    "rowid": "982805",
    "final_x": "3716924.6",
    "final_y": "569197.48",
    "longitude": "-89.95478219091096",
    "latitude": "30.057970905569707",
    "geocoded_column": {
      "latitude": "30.057970905569707",
      "longitude": "-89.95478219091096"
    }
  },
  {
    "service_request": "2023-982804",
    "request_type": "Trash/Recycling",
    "request_reason": "Request a Large Item Pick Up",
    "date_created": "2023-03-14T14:08:17.000",
    "date_modified": "2023-03-14T14:08:18.000",
    "request_status": "Pending",
    "responsible_agency": "Department of Sanitation",
    "final_address": "9 Curtis Dr",
    "address_councildis": "E",
    "status": "Assigned to Contractor",
    "contractor": "Waste Pro",
    "rowid": "982804",
    "final_x": "3697705.42295",
    "final_y": "560584.523934",
    "longitude": "-90.01584449656109",
    "latitude": "30.03491041627826",
    "geocoded_column": {
      "latitude": "30.03491041627826",
      "longitude": "-90.01584449656109"
    }
  },