[
  {
    "service_request": "2022-939029",
    "request_type": "Trash/Recycling",
    "request_reason": "MIssed Recycling Pick-Up",
    "date_created": "2022-11-07T00:51:51.000",
    "date_modified": "2022-11-07T00:51:52.000",
    "request_status": "Pending",
    "responsible_agency": "Department of Sanitation",
    "final_address": "3108 College Ct",
    "address_councildis": "B",
    "status": "Assigned to Contractor",
    "contractor": "Richards Disposal",
    "rowid": "939029",
    "final_x": "3668438.72218",
    "final_y": "531824.666499",
    "longitude": "-90.10930299017294",
    "latitude": "29.956723524055274",
    "geocoded_column": {
      "latitude": "29.956723524055274",
      "longitude": "-90.10930299017294"
    }
  },
  {
    "service_request": "2022-939028",
    "request_type": "Abandoned Vehicles",
    "request_reason": "Vehicle Blocking Your Driveway",
    "date_created": "2022-11-06T23:58:12.000",
    "date_modified": "2022-11-06T23:58:12.000",
    "request_status": "Pending",
    "responsible_agency": "Department of Public Works",
    "final_address": "3621 State Street Dr",
    "address_councildis": "A",
    "status": "Pending",
    "rowid": "939028",
    "final_x": "3667973.21268",
    "final_y": "529168.49248",
    "longitude": "-90.11086240732065",
    "latitude": "29.949433579350597",
    "geocoded_column": {
      "latitude": "29.949433579350597",
      "longitude": "-90.11086240732065"
    }
  },
  {
    "service_request": "2022-939027",
    "request_type": "Trash/Recycling",
    "request_reason": "Return Recycling Cart",
    "date_created": "2022-11-06T23:57:57.000",
    "date_modified": "2022-11-06T23:57:57.000",
    "request_status": "Pending",
    "responsible_agency": "Department of Sanitation",
    "final_address": "4511 Bonita Dr",
    "address_councildis": "E",
    "status": "Pending",
    "rowid": "939027",
    "final_x": "3704684.57162",
    "final_y": "553762.651927",
    "longitude": "-89.99404145977883",
    "latitude": "30.015930420314085",
    "geocoded_column": {
      "latitude": "30.015930420314085",
      "longitude": "-89.99404145977883"
    }
  },
  {
    "service_request": "2022-939026",
    "request_type": "Abandoned Vehicles",
    "request_reason": "Vehicle Blocking Your Driveway",
    "date_created": "2022-11-06T23:56:05.000",
    "date_modified": "2022-11-06T23:56:05.000",
    "request_status": "Pending",
    "responsible_agency": "Department of Public Works",
    "final_address": "3621 State Street Dr",
    "address_councildis": "A",
    "status": "Pending",
    "rowid": "939026",
    "final_x": "3667973.21268",
    "final_y": "529168.49248",
    "longitude": "-90.11086240732065",
    "latitude": "29.949433579350597",
    "geocoded_column": {
      "latitude": "29.949433579350597",
      "longitude": "-90.11086240732065"
    }
  },
  {
    "service_request": "2022-939025",
    "request_type": "Traffic Signals/Signs/Striping/Streetlights",
    "request_reason": "Street Light Outage/Malfunction",
    "date_created": "2022-11-06T23:52:05.000",
    "date_modified": "2022-11-06T23:52:05.000",
    "request_status": "Pending",
    "responsible_agency": "Department of Public Works",
    "final_address": "3953 Camp St",
    "address_councildis": "B",
    "status": "Pending",
    "contractor": "Legacy Professional Services",
    "rowid": "939025",
    "final_x": "3672541.03515",
    "final_y": "519361.687287",
    "longitude": "-90.0967738759507",
    "latitude": "29.922333255437202",
    "geocoded_column": {
      "latitude": "29.922333255437202",
      "longitude": "-90.0967738759507"
    }
  },
  {
    "service_request": "2022-939024",
    "request_type": "Trash/Recycling",
    "request_reason": "Dead Animal Pick Up",
    "date_created": "2022-11-06T23:50:34.000",
    "date_modified": "2022-11-06T23:50:35.000",
    "request_status": "Pending",
    "responsible_agency": "Department of Sanitation",
    "final_address": "EVE ST & S BROAD ST",
    "address_councildis": "B",
    "status": "Assigned to Contractor",
    "contractor": "Richards Disposal",
    "rowid": "939024",
    "final_x": "3671552.3",
    "final_y": "529976.88",
    "longitude": "-90.09953411517228",
    "latitude": "29.951550899243408",
    "geocoded_column": {
      "latitude": "29.951550899243408",
      "longitude": "-90.09953411517228"
    }
  },
  {
    "service_request": "2022-939023",
    "request_type": "Trash/Recycling",
    "request_reason": "Order Recycling Cart",
    "date_created": "2022-11-06T23:42:02.000",
    "date_modified": "2022-11-06T23:42:02.000",
    "request_status": "Pending",
    "responsible_agency": "Department of Sanitation",
    "final_address": "3027 Coliseum St",
    "address_councildis": "B",
    "status": "Pending",
    "rowid": "939023",
    "final_x": "3675605.95969",
    "final_y": "521160.982009",
    "longitude": "-90.08703737671343",
    "latitude": "29.927189431535904",
    "geocoded_column": {
      "latitude": "29.927189431535904",
      "longitude": "-90.08703737671343"
    }
  },
  {
    "service_request": "2022-939022",
    "request_type": "Trash/Recycling",
    "request_reason": "Replace Trash Cart",
    "date_created": "2022-11-06T23:36:39.000",
    "date_modified": "2022-11-06T23:36:40.000",
    "request_status": "Pending",
    "responsible_agency": "Department of Sanitation",
    "final_address": "6019 Louis Xiv St",
    "address_councildis": "A",
    "status": "Assigned to Contractor",
    "contractor": "IV Waste",
    "rowid": "939022",
    "final_x": "3668187.46119",
    "final_y": "547458.711953",
    "longitude": "-90.10956914814406",
    "latitude": "29.999719256474307",
    "geocoded_column": {
      "latitude": "29.999719256474307",
      "longitude": "-90.10956914814406"
    }
  },
  {
    "service_request": "2022-939021",
    "request_type": "Trash/Recycling",
    "request_reason": "Order Trash Cart",
    "date_created": "2022-11-06T23:35:07.000",
    "date_modified": "2022-11-06T23:35:08.000",
    "request_status": "Pending",
    "responsible_agency": "Department of Sanitation",
    "final_address": "114 28Th St",
    "address_councildis": "A",
    "status": "Assigned to Contractor",
    "contractor": "IV Waste",
    "rowid": "939021",
    "final_x": "3666050.8178",
    "final_y": "550141.970836",
    "longitude": "-90.11622887886978",
    "latitude": "30.007159863164325",
    "geocoded_column": {
      "latitude": "30.007159863164325",
      "longitude": "-90.11622887886978"
    }
  },
  {
    "service_request": "2022-939020",
    "request_type": "Trash/Recycling",
    "request_reason": "Order Recycling Cart",
    "date_created": "2022-11-06T23:26:40.000",
    "date_modified": "2022-11-06T23:26:40.000",
    "request_status": "Pending",
    "responsible_agency": "Department of Sanitation",
    "final_address": "14637 Emory Rd",
    "address_councildis": "E",
    "status": "Pending",
    "rowid": "939020",
    "final_x": "3720119.0055",
    "final_y": "573455.052266",
    "longitude": "-89.94452205932876",
    "latitude": "30.069571384620502",
    "geocoded_column": {
      "latitude": "30.069571384620502",
      "longitude": "-89.94452205932876"
    }
  },
  {
    "service_request": "2022-939019",
    "request_type": "Trash/Recycling",
    "request_reason": "Order Recycling Cart",
    "date_created": "2022-11-06T23:20:32.000",
    "date_modified": "2022-11-06T23:20:32.000",
    "request_status": "Pending",
    "responsible_agency": "Department of Sanitation",
    "final_address": "4935 Franklin Ave",
    "address_councildis": "D",
    "status": "Pending",
    "rowid": "939019",
    "final_x": "3686845.66991",
    "final_y": "551235.597717",
    "longitude": "-90.05049368124484",
    "latitude": "30.009543200933162",
    "geocoded_column": {
      "latitude": "30.009543200933162",
      "longitude": "-90.05049368124484"
    }
  },
  {
    "service_request": "2022-939018",
    "request_type": "Trash/Recycling",
    "request_reason": "Order Trash Cart",
    "date_created": "2022-11-06T23:09:48.000",
    "date_modified": "2022-11-06T23:09:49.000",
    "request_status": "Pending",
    "responsible_agency": "Department of Sanitation",
    "final_address": "6145 Colbert St",
    "address_councildis": "A",
    "status": "Assigned to Contractor",
    "contractor": "IV Waste",
    "rowid": "939018",
    "final_x": "3667598.89524",
    "final_y": "548372.452306",
    "longitude": "-90.11139767543654",
    "latitude": "30.002248997271558",
    "geocoded_column": {
      "latitude": "30.002248997271558",
      "longitude": "-90.11139767543654"
    }
  },
  {
    "service_request": "2022-939017",
    "request_type": "Traffic Signals/Signs/Striping/Streetlights",
    "request_reason": "Street Light Outage/Malfunction",
    "date_created": "2022-11-06T23:04:52.000",
    "date_modified": "2022-11-06T23:04:53.000",
    "request_status": "Pending",
    "responsible_agency": "Department of Public Works",
    "final_address": "1039 Marengo St",
    "address_councildis": "B",
    "status": "Pending",
    "contractor": "Legacy Professional Services",
    "rowid": "939017",
    "final_x": "3672140.16539",
    "final_y": "519589.688504",
    "longitude": "-90.09803150150684",
    "latitude": "29.922972075227364",
    "geocoded_column": {
      "latitude": "29.922972075227364",
      "longitude": "-90.09803150150684"
    }
  },
  {
    "service_request": "2022-939016",
    "request_type": "Trash/Recycling",
    "request_reason": "Order Recycling Cart",
    "date_created": "2022-11-06T22:54:20.000",
    "date_modified": "2022-11-06T22:54:20.000",
    "request_status": "Pending",
    "responsible_agency": "Department of Sanitation",
    "final_address": "2334 Barracks St",
    "address_councildis": "D",
    "status": "Pending",
    "rowid": "939016",
    "final_x": "3679171.2052",
    "final_y": "537795.174024",
    "longitude": "-90.07520625200519",
    "latitude": "29.972820776902832",
    "geocoded_column": {
      "latitude": "29.972820776902832",
      "longitude": "-90.07520625200519"
    }
  },
  {
    "service_request": "2022-939015",
    "request_type": "Traffic Signals/Signs/Striping/Streetlights",
    "request_reason": "Street Light Outage/Malfunction",
    "date_created": "2022-11-06T22:51:13.000",
    "date_modified": "2022-11-06T22:51:13.000",
    "request_status": "Pending",
    "responsible_agency": "Department of Public Works",
    "final_address": "3727 Coliseum St",
    "address_councildis": "B",
    "status": "Pending",
    "contractor": "Legacy Professional Services",
    "rowid": "939015",
    "final_x": "3673174.89992",
    "final_y": "520136.978104",
    "longitude": "-90.09474656689223",
    "latitude": "29.924446232479852",
    "geocoded_column": {
      "latitude": "29.924446232479852",
      "longitude": "-90.09474656689223"
    }
  },
  {
    "service_request": "2022-939014",
    "request_type": "Trash/Recycling",
    "request_reason": "Order Recycling Cart",
    "date_created": "2022-11-06T22:26:23.000",
    "date_modified": "2022-11-06T22:26:23.000",
    "request_status": "Pending",
    "responsible_agency": "Department of Sanitation",
    "final_address": "428 Stafford Pl",
    "address_councildis": "A",
    "status": "Pending",
    "rowid": "939014",
    "final_x": "3664811.17242",
    "final_y": "553886.599383",
    "longitude": "-90.12002000722883",
    "latitude": "30.017492434035677",
    "geocoded_column": {
      "latitude": "30.017492434035677",
      "longitude": "-90.12002000722883"
    }
  },
  {
    "service_request": "2022-939013",
    "request_type": "Trash/Recycling",
    "request_reason": "Order Trash Cart",
    "date_created": "2022-11-06T22:19:29.000",
    "date_modified": "2022-11-06T22:19:30.000",
    "request_status": "Pending",
    "responsible_agency": "Department of Sanitation",
    "final_address": "5824 Argonne Blvd",
    "address_councildis": "A",
    "status": "Assigned to Contractor",
    "contractor": "IV Waste",
    "rowid": "939013",
    "final_x": "3669982.76353",
    "final_y": "546027.485904",
    "longitude": "-90.10394621055919",
    "latitude": "29.99573103702786",
    "geocoded_column": {
      "latitude": "29.99573103702786",
      "longitude": "-90.10394621055919"
    }
  },
  {
    "service_request": "2022-939012",
    "request_type": "Trash/Recycling",
    "request_reason": "Order Recycling Cart",
    "date_created": "2022-11-06T22:11:12.000",
    "date_modified": "2022-11-06T22:11:12.000",
    "request_status": "Pending",
    "responsible_agency": "Department of Sanitation",
    "final_address": "6309 Caldwell Dr",
    "address_councildis": "D",
    "status": "Pending",
    "rowid": "939012",
    "final_x": "3679310.50037",
    "final_y": "556729.742874",
    "longitude": "-90.07410916989035",
    "latitude": "30.02487991793548",
    "geocoded_column": {
      "latitude": "30.02487991793548",
      "longitude": "-90.07410916989035"
    }
  },
  {
    "service_request": "2022-939011",
    "request_type": "Trash/Recycling",
    "request_reason": "Order Trash Cart",
    "date_created": "2022-11-06T21:48:52.000",
    "date_modified": "2022-11-06T21:48:53.000",
    "request_status": "Pending",
    "responsible_agency": "Department of Sanitation",
    "final_address": "5839 Argonne Blvd",
    "address_councildis": "A",
    "status": "Assigned to Contractor",
    "contractor": "IV Waste",
    "rowid": "939011",
    "final_x": "3670132.50228",
    "final_y": "546113.95048",
    "longitude": "-90.10347026588555",
    "latitude": "29.995964366364163",
    "geocoded_column": {
      "latitude": "29.995964366364163",
      "longitude": "-90.10347026588555"
    }
  },
  {
    "service_request": "2022-939008",
    "request_type": "Trash/Recycling",
    "request_reason": "Repair Recycling Cart",
    "date_created": "2022-11-06T21:34:03.000",
    "date_modified": "2022-11-06T21:34:03.000",
    "request_status": "Pending",
    "responsible_agency": "Department of Sanitation",
    "final_address": "900 Germain St",
    "address_councildis": "A",
    "status": "Pending",
    "rowid": "939008",
    "final_x": "3669922.03322",
    "final_y": "547729.734226",
    "longitude": "-90.10408036585875",
    "latitude": "30.00041342138975",
    "geocoded_column": {
      "latitude": "30.00041342138975",
      "longitude": "-90.10408036585875"
    }
  },
  {
    "service_request": "2022-939007",
    "request_type": "Trash/Recycling",
    "request_reason": "Order Trash Cart",
    "date_created": "2022-11-06T21:33:55.000",
    "date_modified": "2022-11-06T21:33:55.000",
    "request_status": "Pending",
    "responsible_agency": "Department of Sanitation",
    "final_address": "6458 Marshal Foch St",
    "address_councildis": "A",
    "status": "Assigned to Contractor",
    "contractor": "IV Waste",
    "rowid": "939007",
    "final_x": "3670025.67066",
    "final_y": "550386.91394",
    "longitude": "-90.10366288463597",
    "latitude": "30.00771668015856",
    "geocoded_column": {
      "latitude": "30.00771668015856",
      "longitude": "-90.10366288463597"
    }
  },
  {
    "service_request": "2022-939006",
    "request_type": "Trash/Recycling",
    "request_reason": "Order Trash Cart",
    "date_created": "2022-11-06T21:33:13.000",
    "date_modified": "2022-11-06T21:33:13.000",
    "request_status": "Pending",
    "responsible_agency": "Department of Sanitation",
    "final_address": "6767 Avenue A",
    "address_councildis": "A",
    "status": "Assigned to Contractor",
    "contractor": "IV Waste",
    "rowid": "939006",
    "final_x": "3666144.88058",
    "final_y": "553189.751959",
    "longitude": "-90.11582939748749",
    "latitude": "30.015537449428752",
    "geocoded_column": {
      "latitude": "30.015537449428752",
      "longitude": "-90.11582939748749"
    }
  },
  {
    "service_request": "2022-939005",
    "request_type": "Trash/Recycling",
    "request_reason": "Order Trash Cart",
    "date_created": "2022-11-06T21:32:19.000",
    "date_modified": "2022-11-06T21:32:20.000",
    "request_status": "Pending",
    "responsible_agency": "Department of Sanitation",
    "final_address": "900 Germain St",
    "address_councildis": "A",
    "status": "Assigned to Contractor",
    "contractor": "IV Waste",
    "rowid": "939005",
    "final_x": "3669922.03322",
    "final_y": "547729.734226",
    "longitude": "-90.10408036585875",
    "latitude": "30.00041342138975",
    "geocoded_column": {
      "latitude": "30.00041342138975",
      "longitude": "-90.10408036585875"
    }
  },
  {
    "service_request": "2022-939003",
    "request_type": "Trash/Recycling",
    "request_reason": "Order Trash Cart",
    "date_created": "2022-11-06T21:30:09.000",
    "date_modified": "2022-11-06T21:30:10.000",
    "request_status": "Pending",
    "responsible_agency": "Department of Sanitation",
    "final_address": "6958 General Haig St",
    "address_councildis": "A",
    "status": "Assigned to Contractor",
    "contractor": "IV Waste",
    "rowid": "939003",
    "final_x": "3671006.61441",
    "final_y": "553465.168151",
    "longitude": "-90.10045915023834",
    "latitude": "30.01615180921859",
    "geocoded_column": {
      "latitude": "30.01615180921859",
      "longitude": "-90.10045915023834"
    }
  },
  {
    "service_request": "2022-939000",
    "request_type": "Trash/Recycling",
    "request_reason": "Order Recycling Cart",
    "date_created": "2022-11-06T21:07:08.000",
    "date_modified": "2022-11-06T21:07:08.000",
    "request_status": "Pending",
    "responsible_agency": "Department of Sanitation",
    "final_address": "541 Emerald St",
    "address_councildis": "D",
    "status": "Pending",
    "rowid": "939000",
    "final_x": "3668452.03662",
    "final_y": "555150.451033",
    "longitude": "-90.10847359907964",
    "latitude": "30.020861069891694",
    "geocoded_column": {
      "latitude": "30.020861069891694",
      "longitude": "-90.10847359907964"
    }
  },
  {
    "service_request": "2022-938999",
    "request_type": "Safety & Permits",
    "request_reason": "Licenses & Permits",
    "date_created": "2022-11-06T21:01:40.000",
    "date_modified": "2022-11-06T21:01:40.000",
    "request_status": "Pending",
    "responsible_agency": "Safety and Permits",
    "status": "Pending",
    "rowid": "938999",
    "longitude": "0.0",
    "latitude": "0.0",
    "geocoded_column": {
      "latitude": "0.0",
      "longitude": "0.0"
    }
  },
  {
    "service_request": "2022-938998",
    "request_type": "Roads/Drainage",
    "request_reason": "Accessibility Ramps, Curbs and Sidewalk Repair",
    "date_created": "2022-11-06T20:53:18.000",
    "date_modified": "2022-11-06T20:53:18.000",
    "request_status": "Pending",
    "responsible_agency": "Department of Public Works",
    "final_address": "514 Madison St",
    "address_councildis": "C",
    "status": "Pending",
    "rowid": "938998",
    "final_x": "3683375.24617",
    "final_y": "532505.529092",
    "longitude": "-90.06211445238885",
    "latitude": "29.95814848139939",
    "geocoded_column": {
      "latitude": "29.95814848139939",
      "longitude": "-90.06211445238885"
    }
  },
  {
    "service_request": "2022-938997",
    "request_type": "Roads/Drainage",
    "request_reason": "Pothole",
    "date_created": "2022-11-06T20:51:34.000",
    "date_modified": "2022-11-06T20:51:34.000",
    "request_status": "Pending",
    "responsible_agency": "Department of Public Works",
    "final_address": "514 Madison St",
    "address_councildis": "C",
    "status": "Pending",
    "rowid": "938997",
    "final_x": "3683375.24617",
    "final_y": "532505.529092",
    "longitude": "-90.06211445238885",
    "latitude": "29.95814848139939",
    "geocoded_column": {
      "latitude": "29.95814848139939",
      "longitude": "-90.06211445238885"
    }
  },
  {
    "service_request": "2022-938996",
    "request_type": "Traffic Signals/Signs/Striping/Streetlights",
    "request_reason": "Street Light Outage/Malfunction",
    "date_created": "2022-11-06T20:46:52.000",
    "date_modified": "2022-11-06T20:48:13.000",
    "request_status": "Pending",
    "responsible_agency": "Department of Public Works",
    "final_address": "823 Decatur St",
    "address_councildis": "C",
    "status": "Pending",
    "contractor": "Legacy Professional Services",
    "rowid": "938996",
    "final_x": "3683493.16981",
    "final_y": "532491.87898",
    "longitude": "-90.06174256092147",
    "latitude": "29.95810735043386",
    "geocoded_column": {
      "latitude": "29.95810735043386",
      "longitude": "-90.06174256092147"
    }
  },
  {
    "service_request": "2022-938995",
    "request_type": "Health Related Questions",
    "request_reason": "Noise Ordinance Complaint",
    "date_created": "2022-11-06T20:38:13.000",
    "date_modified": "2022-11-06T20:38:14.000",
    "request_status": "Pending",
    "responsible_agency": "Health Department",
    "final_address": "1943 N Rampart St",
    "address_councildis": "C",
    "status": "Pending",
    "rowid": "938995",
    "final_x": "3684229.0758",
    "final_y": "535901.470151",
    "longitude": "-90.05929906686211",
    "latitude": "29.967460076499936",
    "geocoded_column": {
      "latitude": "29.967460076499936",
      "longitude": "-90.05929906686211"
    }
  },
  {
    "service_request": "2022-938994",
    "request_type": "Trash/Recycling",
    "request_reason": "Order Trash Cart",
    "date_created": "2022-11-06T20:33:14.000",
    "date_modified": "2022-11-06T20:33:15.000",
    "request_status": "Pending",
    "responsible_agency": "Department of Sanitation",
    "final_address": "1774 Gentilly Blvd",
    "address_councildis": "D",
    "status": "Assigned to Contractor",
    "contractor": "IV Waste",
    "rowid": "938994",
    "final_x": "3678742.76526",
    "final_y": "541997.843212",
    "longitude": "-90.0764137510946",
    "latitude": "29.98438959170625",
    "geocoded_column": {
      "latitude": "29.98438959170625",
      "longitude": "-90.0764137510946"
    }
  },
  {
    "service_request": "2022-938993",
    "request_type": "Trash/Recycling",
    "request_reason": "Order Recycling Cart",
    "date_created": "2022-11-06T20:31:06.000",
    "date_modified": "2022-11-06T20:31:06.000",
    "request_status": "Pending",
    "responsible_agency": "Department of Sanitation",
    "final_address": "915 Polk St",
    "address_councildis": "A",
    "status": "Pending",
    "rowid": "938993",
    "final_x": "3669958.63585",
    "final_y": "547238.544273",
    "longitude": "-90.10398138349275",
    "latitude": "29.99906173986664",
    "geocoded_column": {
      "latitude": "29.99906173986664",
      "longitude": "-90.10398138349275"
    }
  },
  {
    "service_request": "2022-938992",
    "request_type": "Trash/Recycling",
    "request_reason": "Repair Trash Cart",
    "date_created": "2022-11-06T20:30:07.000",
    "date_modified": "2022-11-06T20:30:08.000",
    "request_status": "Pending",
    "responsible_agency": "Department of Sanitation",
    "final_address": "4448 Lafaye St",
    "address_councildis": "D",
    "status": "Assigned to Contractor",
    "contractor": "IV Waste",
    "rowid": "938992",
    "final_x": "3687483.64284",
    "final_y": "549361.695123",
    "longitude": "-90.04854448822641",
    "latitude": "30.004370997973552",
    "geocoded_column": {
      "latitude": "30.004370997973552",
      "longitude": "-90.04854448822641"
    }
  },
  {
    "service_request": "2022-938990",
    "request_type": "Trash/Recycling",
    "request_reason": "Order Recycling Cart",
    "date_created": "2022-11-06T20:11:08.000",
    "date_modified": "2022-11-06T20:11:08.000",
    "request_status": "Pending",
    "responsible_agency": "Department of Sanitation",
    "final_address": "701 Valence St",
    "address_councildis": "B",
    "status": "Pending",
    "rowid": "938990",
    "final_x": "3670063.31028",
    "final_y": "517980.551926",
    "longitude": "-90.10464181041999",
    "latitude": "29.918608861576885",
    "geocoded_column": {
      "latitude": "29.918608861576885",
      "longitude": "-90.10464181041999"
    }
  },
  {
    "service_request": "2022-938989",
    "request_type": "Trash/Recycling",
    "request_reason": "Order Recycling Cart",
    "date_created": "2022-11-06T20:08:37.000",
    "date_modified": "2022-11-06T20:08:37.000",
    "request_status": "Pending",
    "responsible_agency": "Department of Sanitation",
    "final_address": "5228 Spain St",
    "address_councildis": "D",
    "status": "Pending",
    "rowid": "938989",
    "final_x": "3684794.61775",
    "final_y": "552297.849622",
    "longitude": "-90.05693627969494",
    "latitude": "30.012526986492677",
    "geocoded_column": {
      "latitude": "30.012526986492677",
      "longitude": "-90.05693627969494"
    }
  },
  {
    "service_request": "2022-938988",
    "request_type": "Trash/Recycling",
    "request_reason": "Order Recycling Cart",
    "date_created": "2022-11-06T20:08:03.000",
    "date_modified": "2022-11-06T20:08:04.000",
    "request_status": "Pending",
    "responsible_agency": "Department of Sanitation",
    "final_address": "2514 Danbury Dr",
    "address_councildis": "C",
    "status": "Pending",
    "rowid": "938988",
    "final_x": "3703757.6234",
    "final_y": "521797.418106",
    "longitude": "-89.9981470275332",
    "latitude": "29.92806745103162",
    "geocoded_column": {
      "latitude": "29.92806745103162",
      "longitude": "-89.9981470275332"
    }
  },
  {
    "service_request": "2022-938987",
    "request_type": "Trash/Recycling",
    "request_reason": "Order Trash Cart",
    "date_created": "2022-11-06T19:53:01.000",
    "date_modified": "2022-11-06T19:53:02.000",
    "request_status": "Pending",
    "responsible_agency": "Department of Sanitation",
    "final_address": "7802 Sycamore St",
    "address_councildis": "A",
    "status": "Assigned to Contractor",
    "contractor": "Richards Disposal",
    "rowid": "938987",
    "final_x": "3665106.94279",
    "final_y": "530216.040961",
    "longitude": "-90.11987751600891",
    "latitude": "29.95239777081363",
    "geocoded_column": {
      "latitude": "29.95239777081363",
      "longitude": "-90.11987751600891"
    }
  },
  {
    "service_request": "2022-938986",
    "request_type": "Trash/Recycling",
    "request_reason": "Request a Large Item Pick Up",
    "date_created": "2022-11-06T19:50:55.000",
    "date_modified": "2022-11-06T19:50:56.000",
    "request_status": "Pending",
    "responsible_agency": "Department of Sanitation",
    "final_address": "2823 St Philip St",
    "address_councildis": "A",
    "status": "Assigned to Contractor",
    "contractor": "Richards Disposal",
    "rowid": "938986",
    "final_x": "3676826.2196",
    "final_y": "538337.575305",
    "longitude": "-90.08259346484347",
    "latitude": "29.974382784067203",
    "geocoded_column": {
      "latitude": "29.974382784067203",
      "longitude": "-90.08259346484347"
    }
  },
  {
    "service_request": "2022-938985",
    "request_type": "Property Maintenance",
    "request_reason": "Property Maintenance",
    "date_created": "2022-11-06T19:46:48.000",
    "date_modified": "2022-11-06T19:46:48.000",
    "request_status": "Pending",
    "responsible_agency": "Department of Code Enforcement",
    "final_address": "2625 Ursulines Ave",
    "address_councildis": "D",
    "status": "Pending",
    "rowid": "938985",
    "final_x": "3677934.43125",
    "final_y": "538019.394057",
    "longitude": "-90.07910446724452",
    "latitude": "29.97347458667208",
    "geocoded_column": {
      "latitude": "29.97347458667208",
      "longitude": "-90.07910446724452"
    }
  },
  {
    "service_request": "2022-938984",
    "request_type": "Trash/Recycling",
    "request_reason": "Order Recycling Cart",
    "date_created": "2022-11-06T19:38:13.000",
    "date_modified": "2022-11-06T19:38:13.000",
    "request_status": "Pending",
    "responsible_agency": "Department of Sanitation",
    "final_address": "10114 Pressburg St",
    "address_councildis": "E",
    "status": "Pending",
    "rowid": "938984",
    "final_x": "3712860.61086",
    "final_y": "557082.11625",
    "longitude": "-89.96808414013576",
    "latitude": "30.02479234320724",
    "geocoded_column": {
      "latitude": "30.02479234320724",
      "longitude": "-89.96808414013576"
    }
  },
  {
    "service_request": "2022-938983",
    "request_type": "Trash/Recycling",
    "request_reason": "Replace Trash Cart",
    "date_created": "2022-11-06T19:31:26.000",
    "date_modified": "2022-11-06T19:31:27.000",
    "request_status": "Pending",
    "responsible_agency": "Department of Sanitation",
    "final_address": "100 French St",
    "address_councildis": "A",
    "status": "Assigned to Contractor",
    "contractor": "IV Waste",
    "rowid": "938983",
    "final_x": "3666616.27092",
    "final_y": "548919.861459",
    "longitude": "-90.11448351993904",
    "latitude": "30.003782959446237",
    "geocoded_column": {
      "latitude": "30.003782959446237",
      "longitude": "-90.11448351993904"
    }
  },
  {
    "service_request": "2022-938981",
    "request_type": "Trash/Recycling",
    "request_reason": "Order Recycling Cart",
    "date_created": "2022-11-06T19:23:29.000",
    "date_modified": "2022-11-06T19:23:29.000",
    "request_status": "Pending",
    "responsible_agency": "Department of Sanitation",
    "final_address": "2711 Verbena St",
    "address_councildis": "D",
    "status": "Pending",
    "rowid": "938981",
    "final_x": "3687853.62057",
    "final_y": "547928.300114",
    "longitude": "-90.0474264814441",
    "latitude": "30.000418270646186",
    "geocoded_column": {
      "latitude": "30.000418270646186",
      "longitude": "-90.0474264814441"
    }
  },
  {
    "service_request": "2022-938980",
    "request_type": "Trash/Recycling",
    "request_reason": "Order Recycling Cart",
    "date_created": "2022-11-06T19:21:03.000",
    "date_modified": "2022-11-06T19:21:03.000",
    "request_status": "Pending",
    "responsible_agency": "Department of Sanitation",
    "final_address": "1928 Duels St",
    "address_councildis": "D",
    "status": "Pending",
    "rowid": "938980",
    "final_x": "3682539.4916",
    "final_y": "542305.057549",
    "longitude": "-90.06441085069304",
    "latitude": "29.985119259779747",
    "geocoded_column": {
      "latitude": "29.985119259779747",
      "longitude": "-90.06441085069304"
    }
  },
  {
    "service_request": "2022-938979",
    "request_type": "Trash/Recycling",
    "request_reason": "Order Trash Cart",
    "date_created": "2022-11-06T19:19:06.000",
    "date_modified": "2022-11-06T19:19:06.000",
    "request_status": "Pending",
    "responsible_agency": "Department of Sanitation",
    "final_address": "3038 Ponce De Leon St",
    "address_councildis": "A",
    "status": "Assigned to Contractor",
    "contractor": "IV Waste",
    "rowid": "938979",
    "final_x": "3676841.91112",
    "final_y": "540462.042059",
    "longitude": "-90.08247066186453",
    "latitude": "29.98022386635523",
    "geocoded_column": {
      "latitude": "29.98022386635523",
      "longitude": "-90.08247066186453"
    }
  },
  {
    "service_request": "2022-938978",
    "request_type": "Trash/Recycling",
    "request_reason": "Order Recycling Cart",
    "date_created": "2022-11-06T19:17:59.000",
    "date_modified": "2022-11-06T19:17:59.000",
    "request_status": "Pending",
    "responsible_agency": "Department of Sanitation",
    "final_address": "3038 Ponce De Leon St",
    "address_councildis": "A",
    "status": "Pending",
    "rowid": "938978",
    "final_x": "3676841.91112",
    "final_y": "540462.042059",
    "longitude": "-90.08247066186453",
    "latitude": "29.98022386635523",
    "geocoded_column": {
      "latitude": "29.98022386635523",
      "longitude": "-90.08247066186453"
    }
  },
  {
    "service_request": "2022-938977",
    "request_type": "Health Related Questions",
    "request_reason": "Noise Ordinance Complaint",
    "date_created": "2022-11-06T19:17:11.000",
    "date_modified": "2022-11-06T19:17:11.000",
    "request_status": "Pending",
    "responsible_agency": "Health Department",
    "final_address": "2040 Burgundy St",
    "address_councildis": "C",
    "status": "Pending",
    "rowid": "938977",
    "final_x": "3684608.2358",
    "final_y": "535515.768774",
    "longitude": "-90.05811523035665",
    "latitude": "29.966387933778154",
    "geocoded_column": {
      "latitude": "29.966387933778154",
      "longitude": "-90.05811523035665"
    }
  },
  {
    "service_request": "2022-938976",
    "request_type": "Trash/Recycling",
    "request_reason": "Order Recycling Cart",
    "date_created": "2022-11-06T19:10:58.000",
    "date_modified": "2022-11-06T19:10:58.000",
    "request_status": "Pending",
    "responsible_agency": "Department of Sanitation",
    "final_address": "3664 Clematis St Apt B",
    "address_councildis": "D",
    "status": "Pending",
    "rowid": "938976",
    "final_x": "3686076.21487",
    "final_y": "546439.743185",
    "longitude": "-90.05309394443267",
    "latitude": "29.996380001880627",
    "geocoded_column": {
      "latitude": "29.996380001880627",
      "longitude": "-90.05309394443267"
    }
  },
  {
    "service_request": "2022-938975",
    "request_type": "Trash/Recycling",
    "request_reason": "Order Recycling Cart",
    "date_created": "2022-11-06T19:09:17.000",
    "date_modified": "2022-11-06T19:09:17.000",
    "request_status": "Pending",
    "responsible_agency": "Department of Sanitation",
    "final_address": "3664 Clematis St Apt A",
    "address_councildis": "D",
    "status": "Pending",
    "rowid": "938975",
    "final_x": "3686069.96489",
    "final_y": "546459.187601",
    "longitude": "-90.05311300139483",
    "latitude": "29.996433659045785",
    "geocoded_column": {
      "latitude": "29.996433659045785",
      "longitude": "-90.05311300139483"
    }
  },
  {
    "service_request": "2022-938974",
    "request_type": "Trash/Recycling",
    "request_reason": "Order Recycling Cart",
    "date_created": "2022-11-06T19:06:26.000",
    "date_modified": "2022-11-06T19:06:26.000",
    "request_status": "Pending",
    "responsible_agency": "Department of Sanitation",
    "final_address": "7590 Rochon Ave",
    "address_councildis": "E",
    "status": "Pending",
    "rowid": "938974",
    "final_x": "3718722.31173",
    "final_y": "571523.185256",
    "longitude": "-89.94901108851373",
    "latitude": "30.064306033983275",
    "geocoded_column": {
      "latitude": "30.064306033983275",
      "longitude": "-89.94901108851373"
    }
  },
  {
    "service_request": "2022-938973",
    "request_type": "Trash/Recycling",
    "request_reason": "Order Recycling Cart",
    "date_created": "2022-11-06T19:05:43.000",
    "date_modified": "2022-11-06T19:05:43.000",
    "request_status": "Pending",
    "responsible_agency": "Department of Sanitation",
    "final_address": "6147 Catina St",
    "address_councildis": "A",
    "status": "Pending",
    "rowid": "938973",
    "final_x": "3666919.95674",
    "final_y": "548690.012819",
    "longitude": "-90.11353185175822",
    "latitude": "30.003142069477814",
    "geocoded_column": {
      "latitude": "30.003142069477814",
      "longitude": "-90.11353185175822"
    }
  },
  {
    "service_request": "2022-938971",
    "request_type": "Roads/Drainage",
    "request_reason": "Catch Basin - Clogged",
    "date_created": "2022-11-06T19:00:17.000",
    "date_modified": "2022-11-06T19:00:17.000",
    "request_status": "Pending",
    "responsible_agency": "Department of Public Works",
    "final_address": "2404 Ursulines Ave",
    "address_councildis": "D",
    "status": "Pending",
    "rowid": "938971",
    "final_x": "3678596.07266",
    "final_y": "537298.433288",
    "longitude": "-90.07703982938447",
    "latitude": "29.971472261683022",
    "geocoded_column": {
      "latitude": "29.971472261683022",
      "longitude": "-90.07703982938447"
    }
  },
  {
    "service_request": "2022-938970",
    "request_type": "Trash/Recycling",
    "request_reason": "Order Recycling Cart",
    "date_created": "2022-11-06T18:58:04.000",
    "date_modified": "2022-11-06T18:58:04.000",
    "request_status": "Pending",
    "responsible_agency": "Department of Sanitation",
    "final_address": "2611 Columbus St",
    "address_councildis": "D",
    "status": "Pending",
    "rowid": "938970",
    "final_x": "3678543.19374",
    "final_y": "539690.81249",
    "longitude": "-90.07712399637775",
    "latitude": "29.97805207517414",
    "geocoded_column": {
      "latitude": "29.97805207517414",
      "longitude": "-90.07712399637775"
    }
  },
  {
    "service_request": "2022-938969",
    "request_type": "Trash/Recycling",
    "request_reason": "Return Recycling Cart",
    "date_created": "2022-11-06T18:55:14.000",
    "date_modified": "2022-11-06T18:55:14.000",
    "request_status": "Pending",
    "responsible_agency": "Department of Sanitation",
    "final_address": "4721 Painters St",
    "address_councildis": "D",
    "status": "Pending",
    "rowid": "938969",
    "final_x": "3686307.10095",
    "final_y": "550404.147348",
    "longitude": "-90.05222457536249",
    "latitude": "30.007273583826304",
    "geocoded_column": {
      "latitude": "30.007273583826304",
      "longitude": "-90.05222457536249"
    }
  },
  {
    "service_request": "2022-938968",
    "request_type": "Trash/Recycling",
    "request_reason": "Order Trash Cart",
    "date_created": "2022-11-06T18:46:54.000",
    "date_modified": "2022-11-06T18:46:55.000",
    "request_status": "Pending",
    "responsible_agency": "Department of Sanitation",
    "final_address": "2158 Pleasure St",
    "address_councildis": "D",
    "status": "Assigned to Contractor",
    "contractor": "IV Waste",
    "rowid": "938968",
    "final_x": "3684038.83836",
    "final_y": "545071.463567",
    "longitude": "-90.05957792123796",
    "latitude": "29.992680155283207",
    "geocoded_column": {
      "latitude": "29.992680155283207",
      "longitude": "-90.05957792123796"
    }
  },
  {
    "service_request": "2022-938967",
    "request_type": "Trash/Recycling",
    "request_reason": "Order Recycling Cart",
    "date_created": "2022-11-06T18:45:42.000",
    "date_modified": "2022-11-06T18:45:42.000",
    "request_status": "Pending",
    "responsible_agency": "Department of Sanitation",
    "final_address": "2158 Pleasure St",
    "address_councildis": "D",
    "status": "Pending",
    "rowid": "938967",
    "final_x": "3684038.83836",
    "final_y": "545071.463567",
    "longitude": "-90.05957792123796",
    "latitude": "29.992680155283207",
    "geocoded_column": {
      "latitude": "29.992680155283207",
      "longitude": "-90.05957792123796"
    }
  },
  {
    "service_request": "2022-938966",
    "request_type": "Roads/Drainage",
    "request_reason": "Accessibility Ramps, Curbs and Sidewalk Repair",
    "date_created": "2022-11-06T18:44:45.000",
    "date_modified": "2022-11-06T18:44:45.000",
    "request_status": "Pending",
    "responsible_agency": "Department of Public Works",
    "final_address": "5601 Read Blvd",
    "address_councildis": "E",
    "status": "Pending",
    "rowid": "938966",
    "final_x": "3711987.02949",
    "final_y": "559650.501085",
    "longitude": "-89.97074797591881",
    "latitude": "30.03188297577755",
    "geocoded_column": {
      "latitude": "30.03188297577755",
      "longitude": "-89.97074797591881"
    }
  },
  {
    "service_request": "2022-938965",
    "request_type": "Trash/Recycling",
    "request_reason": "Order Recycling Cart",
    "date_created": "2022-11-06T18:42:28.000",
    "date_modified": "2022-11-06T18:42:28.000",
    "request_status": "Pending",
    "responsible_agency": "Department of Sanitation",
    "final_address": "4434 Venus St",
    "address_councildis": "D",
    "status": "Pending",
    "rowid": "938965",
    "final_x": "3686516.96764",
    "final_y": "549210.320595",
    "longitude": "-90.05160373859655",
    "latitude": "30.00398454083295",
    "geocoded_column": {
      "latitude": "30.00398454083295",
      "longitude": "-90.05160373859655"
    }
  },
  {
    "service_request": "2022-938964",
    "request_type": "Trash/Recycling",
    "request_reason": "Order Trash Cart",
    "date_created": "2022-11-06T18:41:57.000",
    "date_modified": "2022-11-06T18:41:58.000",
    "request_status": "Pending",
    "responsible_agency": "Department of Sanitation",
    "final_address": "4434 Venus St",
    "address_councildis": "D",
    "status": "Assigned to Contractor",
    "contractor": "IV Waste",
    "rowid": "938964",
    "final_x": "3686516.96764",
    "final_y": "549210.320595",
    "longitude": "-90.05160373859655",
    "latitude": "30.00398454083295",
    "geocoded_column": {
      "latitude": "30.00398454083295",
      "longitude": "-90.05160373859655"
    }
  },
  {
    "service_request": "2022-938963",
    "request_type": "Trash/Recycling",
    "request_reason": "Replace Trash Cart",
    "date_created": "2022-11-06T18:30:50.000",
    "date_modified": "2022-11-06T18:30:50.000",
    "request_status": "Pending",
    "responsible_agency": "Department of Sanitation",
    "final_address": "2326 Benefit St",
    "address_councildis": "D",
    "status": "Assigned to Contractor",
    "contractor": "IV Waste",
    "rowid": "938963",
    "final_x": "3685346.54761",
    "final_y": "544441.314895",
    "longitude": "-90.05546931359649",
    "latitude": "29.99090743498784",
    "geocoded_column": {
      "latitude": "29.99090743498784",
      "longitude": "-90.05546931359649"
    }
  },
  {
    "service_request": "2022-938961",
    "request_type": "Trash/Recycling",
    "request_reason": "Order Recycling Cart",
    "date_created": "2022-11-06T18:27:08.000",
    "date_modified": "2022-11-06T18:27:09.000",
    "request_status": "Pending",
    "responsible_agency": "Department of Sanitation",
    "final_address": "1505 Harrison Ave",
    "address_councildis": "D",
    "status": "Pending",
    "rowid": "938961",
    "final_x": "3678767.82171",
    "final_y": "547715.895186",
    "longitude": "-90.07613644909316",
    "latitude": "30.000111469166317",
    "geocoded_column": {
      "latitude": "30.000111469166317",
      "longitude": "-90.07613644909316"
    }
  },
  {
    "service_request": "2022-938960",
    "request_type": "Trash/Recycling",
    "request_reason": "Order Trash Cart",
    "date_created": "2022-11-06T18:26:27.000",
    "date_modified": "2022-11-06T18:26:28.000",
    "request_status": "Pending",
    "responsible_agency": "Department of Sanitation",
    "final_address": "1505 Harrison Ave",
    "address_councildis": "D",
    "status": "Assigned to Contractor",
    "contractor": "IV Waste",
    "rowid": "938960",
    "final_x": "3678767.82171",
    "final_y": "547715.895186",
    "longitude": "-90.07613644909316",
    "latitude": "30.000111469166317",
    "geocoded_column": {
      "latitude": "30.000111469166317",
      "longitude": "-90.07613644909316"
    }
  },
  {
    "service_request": "2022-938959",
    "request_type": "Trash/Recycling",
    "request_reason": "Replace Recycling Cart",
    "date_created": "2022-11-06T18:22:06.000",
    "date_modified": "2022-11-06T18:22:06.000",
    "request_status": "Pending",
    "responsible_agency": "Department of Sanitation",
    "final_address": "338 Bermuda St",
    "address_councildis": "C",
    "status": "Pending",
    "rowid": "938959",
    "final_x": "3686497.07266",
    "final_y": "530538.740034",
    "longitude": "-90.05232604022464",
    "latitude": "29.952644885078094",
    "geocoded_column": {
      "latitude": "29.952644885078094",
      "longitude": "-90.05232604022464"
    }
  },
  {
    "service_request": "2022-938958",
    "request_type": "Trash/Recycling",
    "request_reason": "Order Recycling Cart",
    "date_created": "2022-11-06T18:17:14.000",
    "date_modified": "2022-11-06T18:17:15.000",
    "request_status": "Pending",
    "responsible_agency": "Department of Sanitation",
    "final_address": "5705 Wildair Dr",
    "address_councildis": "D",
    "status": "Pending",
    "rowid": "938958",
    "final_x": "3681636.56648",
    "final_y": "553787.642071",
    "longitude": "-90.06686193859562",
    "latitude": "30.01671972528479",
    "geocoded_column": {
      "latitude": "30.01671972528479",
      "longitude": "-90.06686193859562"
    }
  },
  {
    "service_request": "2022-938957",
    "request_type": "Trash/Recycling",
    "request_reason": "Replace Trash Cart",
    "date_created": "2022-11-06T18:10:26.000",
    "date_modified": "2022-11-06T18:10:26.000",
    "request_status": "Pending",
    "responsible_agency": "Department of Sanitation",
    "final_address": "633 Spain St",
    "address_councildis": "C",
    "status": "Assigned to Contractor",
    "contractor": "IV Waste",
    "rowid": "938957",
    "final_x": "3686288.74038",
    "final_y": "534878.307142",
    "longitude": "-90.05283073103121",
    "latitude": "29.964583602966005",
    "geocoded_column": {
      "latitude": "29.964583602966005",
      "longitude": "-90.05283073103121"
    }
  },
  {
    "service_request": "2022-938956",
    "request_type": "Traffic Signals/Signs/Striping/Streetlights",
    "request_reason": "Traffic Sign Missing/Damaged",
    "date_created": "2022-11-06T18:09:52.000",
    "date_modified": "2022-11-06T18:09:53.000",
    "request_status": "Pending",
    "responsible_agency": "Department of Public Works",
    "final_address": "GENERAL DE GAULLE DR & KABEL DR",
    "address_councildis": "C",
    "status": "Pending",
    "rowid": "938956",
    "final_x": "3700602.7",
    "final_y": "517489.68",
    "longitude": "-90.00826359187937",
    "latitude": "29.916323357455582",
    "geocoded_column": {
      "latitude": "29.916323357455582",
      "longitude": "-90.00826359187937"
    }
  },
  {
    "service_request": "2022-938955",
    "request_type": "Trash/Recycling",
    "request_reason": "Order Recycling Cart",
    "date_created": "2022-11-06T18:05:27.000",
    "date_modified": "2022-11-06T18:05:27.000",
    "request_status": "Pending",
    "responsible_agency": "Department of Sanitation",
    "final_address": "420 30Th St",
    "address_councildis": "A",
    "status": "Pending",
    "rowid": "938955",
    "final_x": "3664691.09204",
    "final_y": "550497.300244",
    "longitude": "-90.1205127635828",
    "latitude": "30.008176538766286",
    "geocoded_column": {
      "latitude": "30.008176538766286",
      "longitude": "-90.1205127635828"
    }
  },
  {
    "service_request": "2022-938954",
    "request_type": "Trash/Recycling",
    "request_reason": "Order Recycling Cart",
    "date_created": "2022-11-06T18:03:42.000",
    "date_modified": "2022-11-06T18:03:42.000",
    "request_status": "Pending",
    "responsible_agency": "Department of Sanitation",
    "final_address": "200 36Th St",
    "address_councildis": "A",
    "status": "Pending",
    "rowid": "938954",
    "final_x": "3665932.61786",
    "final_y": "551951.03279",
    "longitude": "-90.1165416142121",
    "latitude": "30.012137605155342",
    "geocoded_column": {
      "latitude": "30.012137605155342",
      "longitude": "-90.1165416142121"
    }
  },
  {
    "service_request": "2022-938953",
    "request_type": "Property Maintenance",
    "request_reason": "Property Maintenance",
    "date_created": "2022-11-06T18:01:17.000",
    "date_modified": "2022-11-06T18:01:17.000",
    "request_status": "Pending",
    "responsible_agency": "Department of Code Enforcement",
    "final_address": "1314 Marigny St",
    "address_councildis": "C",
    "status": "Pending",
    "rowid": "938953",
    "final_x": "3685309.61071",
    "final_y": "537200.096904",
    "longitude": "-90.05584100117046",
    "latitude": "29.970997769406587",
    "geocoded_column": {
      "latitude": "29.970997769406587",
      "longitude": "-90.05584100117046"
    }
  },
  {
    "service_request": "2022-938952",
    "request_type": "Abandoned Vehicles",
    "request_reason": "Abandoned/Junk Vehicles",
    "date_created": "2022-11-06T17:59:32.000",
    "date_modified": "2022-11-06T17:59:32.000",
    "request_status": "Pending",
    "responsible_agency": "Department of Public Works",
    "final_address": "4657 Clara St",
    "address_councildis": "B",
    "status": "Pending",
    "rowid": "938952",
    "final_x": "3669255.65582",
    "final_y": "525007.268605",
    "longitude": "-90.10695377125919",
    "latitude": "29.937953880608603",
    "geocoded_column": {
      "latitude": "29.937953880608603",
      "longitude": "-90.10695377125919"
    }
  },
  {
    "service_request": "2022-938951",
    "request_type": "Abandoned Vehicles",
    "request_reason": "Abandoned/Junk Vehicles",
    "date_created": "2022-11-06T17:57:24.000",
    "date_modified": "2022-11-06T17:57:24.000",
    "request_status": "Pending",
    "responsible_agency": "Department of Public Works",
    "final_address": "4657 Clara St",
    "address_councildis": "B",
    "status": "Pending",
    "rowid": "938951",
    "final_x": "3669255.65582",
    "final_y": "525007.268605",
    "longitude": "-90.10695377125919",
    "latitude": "29.937953880608603",
    "geocoded_column": {
      "latitude": "29.937953880608603",
      "longitude": "-90.10695377125919"
    }
  },
  {
    "service_request": "2022-938950",
    "request_type": "Trash/Recycling",
    "request_reason": "Order Recycling Cart",
    "date_created": "2022-11-06T17:53:57.000",
    "date_modified": "2022-11-06T17:53:57.000",
    "request_status": "Pending",
    "responsible_agency": "Department of Sanitation",
    "final_address": "4340 W Alba Rd",
    "address_councildis": "E",
    "status": "Pending",
    "rowid": "938950",
    "final_x": "3761413.92093",
    "final_y": "572924.748969",
    "longitude": "-89.81400415150148",
    "latitude": "30.06667240756393",
    "geocoded_column": {
      "latitude": "30.06667240756393",
      "longitude": "-89.81400415150148"
    }
  },
  {
    "service_request": "2022-938949",
    "request_type": "Trash/Recycling",
    "request_reason": "Order Recycling Cart",
    "date_created": "2022-11-06T17:53:10.000",
    "date_modified": "2022-11-06T17:53:10.000",
    "request_status": "Pending",
    "responsible_agency": "Department of Sanitation",
    "final_address": "5213 E Lemans St",
    "address_councildis": "E",
    "status": "Pending",
    "rowid": "938949",
    "final_x": "3727230.19731",
    "final_y": "563445.410592",
    "longitude": "-89.92243175134752",
    "latitude": "30.041810187531848",
    "geocoded_column": {
      "latitude": "30.041810187531848",
      "longitude": "-89.92243175134752"
    }
  },
  {
    "service_request": "2022-938948",
    "request_type": "Trash/Recycling",
    "request_reason": "Order Recycling Cart",
    "date_created": "2022-11-06T17:52:14.000",
    "date_modified": "2022-11-06T17:52:14.000",
    "request_status": "Pending",
    "responsible_agency": "Department of Sanitation",
    "final_address": "5211 E Lemans St",
    "address_councildis": "E",
    "status": "Pending",
    "rowid": "938948",
    "final_x": "3727244.78067",
    "final_y": "563430.3064",
    "longitude": "-89.92238625098386",
    "latitude": "30.041768163532566",
    "geocoded_column": {
      "latitude": "30.041768163532566",
      "longitude": "-89.92238625098386"
    }
  },
  {
    "service_request": "2022-938947",
    "request_type": "Trash/Recycling",
    "request_reason": "Request a Large Item Pick Up",
    "date_created": "2022-11-06T17:49:31.000",
    "date_modified": "2022-11-06T17:49:31.000",
    "request_status": "Pending",
    "responsible_agency": "Department of Sanitation",
    "final_address": "8019 Bass St",
    "address_councildis": "E",
    "status": "Assigned to Contractor",
    "contractor": "Waste Pro",
    "rowid": "938947",
    "final_x": "3719338.77042",
    "final_y": "574507.397227",
    "longitude": "-89.9469482978209",
    "latitude": "30.07249086831117",
    "geocoded_column": {
      "latitude": "30.07249086831117",
      "longitude": "-89.9469482978209"
    }
  },
  {
    "service_request": "2022-938946",
    "request_type": "Trash/Recycling",
    "request_reason": "Order Recycling Cart",
    "date_created": "2022-11-06T17:46:24.000",
    "date_modified": "2022-11-06T17:46:24.000",
    "request_status": "Pending",
    "responsible_agency": "Department of Sanitation",
    "final_address": "5535 West End Blvd",
    "address_councildis": "A",
    "status": "Pending",
    "rowid": "938946",
    "final_x": "3666353.20602",
    "final_y": "544582.194959",
    "longitude": "-90.11546023844582",
    "latitude": "29.991863558691673",
    "geocoded_column": {
      "latitude": "29.991863558691673",
      "longitude": "-90.11546023844582"
    }
  },
  {
    "service_request": "2022-938945",
    "request_type": "Trash/Recycling",
    "request_reason": "Order Recycling Cart",
    "date_created": "2022-11-06T17:38:30.000",
    "date_modified": "2022-11-06T17:38:30.000",
    "request_status": "Pending",
    "responsible_agency": "Department of Sanitation",
    "final_address": "5130 Mandeville St",
    "address_councildis": "D",
    "status": "Pending",
    "rowid": "938945",
    "final_x": "3684515.53999",
    "final_y": "551653.205269",
    "longitude": "-90.05784068096372",
    "latitude": "30.010762994478192",
    "geocoded_column": {
      "latitude": "30.010762994478192",
      "longitude": "-90.05784068096372"
    }
  },
  {
    "service_request": "2022-938944",
    "request_type": "Trash/Recycling",
    "request_reason": "Request a Large Item Pick Up",
    "date_created": "2022-11-06T17:28:24.000",
    "date_modified": "2022-11-06T17:28:24.000",
    "request_status": "Pending",
    "responsible_agency": "Department of Sanitation",
    "final_address": "5557 Woodlawn Pl",
    "address_councildis": "A",
    "status": "Assigned to Contractor",
    "contractor": "IV Waste",
    "rowid": "938944",
    "final_x": "3667542.86362",
    "final_y": "544498.077839",
    "longitude": "-90.11170517842685",
    "latitude": "29.991597443914134",
    "geocoded_column": {
      "latitude": "29.991597443914134",
      "longitude": "-90.11170517842685"
    }
  },
  {
    "service_request": "2022-938943",
    "request_type": "Trash/Recycling",
    "request_reason": "Repair Recycling Cart",
    "date_created": "2022-11-06T17:25:33.000",
    "date_modified": "2022-11-06T17:25:33.000",
    "request_status": "Pending",
    "responsible_agency": "Department of Sanitation",
    "final_address": "5557 Woodlawn Pl",
    "address_councildis": "A",
    "status": "Pending",
    "rowid": "938943",
    "final_x": "3667542.86362",
    "final_y": "544498.077839",
    "longitude": "-90.11170517842685",
    "latitude": "29.991597443914134",
    "geocoded_column": {
      "latitude": "29.991597443914134",
      "longitude": "-90.11170517842685"
    }
  },
  {
    "service_request": "2022-938942",
    "request_type": "Trash/Recycling",
    "request_reason": "Request a Large Item Pick Up",
    "date_created": "2022-11-06T17:24:50.000",
    "date_modified": "2022-11-06T17:24:51.000",
    "request_status": "Pending",
    "responsible_agency": "Department of Sanitation",
    "final_address": "4512 Elba St",
    "address_councildis": "B",
    "status": "Assigned to Contractor",
    "contractor": "Richards Disposal",
    "rowid": "938942",
    "final_x": "3669394.56423",
    "final_y": "530586.260034",
    "longitude": "-90.1063266141357",
    "latitude": "29.953290203070353",
    "geocoded_column": {
      "latitude": "29.953290203070353",
      "longitude": "-90.1063266141357"
    }
  },
  {
    "service_request": "2022-938940",
    "request_type": "Abandoned Vehicles",
    "request_reason": "Abandoned/Junk Vehicles",
    "date_created": "2022-11-06T17:19:51.000",
    "date_modified": "2022-11-06T17:27:05.000",
    "request_status": "Pending",
    "responsible_agency": "Department of Public Works",
    "final_address": "1020 Philip St",
    "address_councildis": "B",
    "status": "Pending",
    "rowid": "938940",
    "final_x": "3678641.96456",
    "final_y": "521659.528377",
    "longitude": "-90.07743623392682",
    "latitude": "29.92846912328443",
    "geocoded_column": {
      "latitude": "29.92846912328443",
      "longitude": "-90.07743623392682"
    }
  },
  {
    "service_request": "2022-938939",
    "request_type": "Trash/Recycling",
    "request_reason": "Repair Trash Cart",
    "date_created": "2022-11-06T17:14:29.000",
    "date_modified": "2022-11-06T17:14:29.000",
    "request_status": "Pending",
    "responsible_agency": "Department of Sanitation",
    "final_address": "2224 Frenchmen St",
    "address_councildis": "D",
    "status": "Assigned to Contractor",
    "contractor": "IV Waste",
    "rowid": "938939",
    "final_x": "3684211.26965",
    "final_y": "540536.074123",
    "longitude": "-90.05919254917228",
    "latitude": "29.980204166482125",
    "geocoded_column": {
      "latitude": "29.980204166482125",
      "longitude": "-90.05919254917228"
    }
  },
  {
    "service_request": "2022-938938",
    "request_type": "Trash/Recycling",
    "request_reason": "Order Trash Cart",
    "date_created": "2022-11-06T17:12:09.000",
    "date_modified": "2022-11-06T17:12:10.000",
    "request_status": "Pending",
    "responsible_agency": "Department of Sanitation",
    "final_address": "2230 Frenchmen St",
    "address_councildis": "D",
    "status": "Assigned to Contractor",
    "contractor": "IV Waste",
    "rowid": "938938",
    "final_x": "3684205.70268",
    "final_y": "540586.971275",
    "longitude": "-90.05920834446388",
    "latitude": "29.98034428599038",
    "geocoded_column": {
      "latitude": "29.98034428599038",
      "longitude": "-90.05920834446388"
    }
  },
  {
    "service_request": "2022-938937",
    "request_type": "Trash/Recycling",
    "request_reason": "Order Recycling Cart",
    "date_created": "2022-11-06T17:05:30.000",
    "date_modified": "2022-11-06T17:05:30.000",
    "request_status": "Pending",
    "responsible_agency": "Department of Sanitation",
    "final_address": "5737 W Louis Prima Dr",
    "address_councildis": "E",
    "status": "Pending",
    "rowid": "938937",
    "final_x": "3715873.40498",
    "final_y": "561933.160927",
    "longitude": "-89.95838038765926",
    "latitude": "30.038031725431512",
    "geocoded_column": {
      "latitude": "30.038031725431512",
      "longitude": "-89.95838038765926"
    }
  },
  {
    "service_request": "2022-938936",
    "request_type": "Trash/Recycling",
    "request_reason": "Order Recycling Cart",
    "date_created": "2022-11-06T17:03:40.000",
    "date_modified": "2022-11-06T17:03:40.000",
    "request_status": "Pending",
    "responsible_agency": "Department of Sanitation",
    "final_address": "1929 Independence St",
    "address_councildis": "D",
    "status": "Pending",
    "rowid": "938936",
    "final_x": "3691804.63004",
    "final_y": "538758.392905",
    "longitude": "-90.03527321143048",
    "latitude": "29.97508182246552",
    "geocoded_column": {
      "latitude": "29.97508182246552",
      "longitude": "-90.03527321143048"
    }
  },
  {
    "service_request": "2022-938935",
    "request_type": "Trash/Recycling",
    "request_reason": "Request a Large Item Pick Up",
    "date_created": "2022-11-06T16:59:52.000",
    "date_modified": "2022-11-06T16:59:53.000",
    "request_status": "Pending",
    "responsible_agency": "Department of Sanitation",
    "final_address": "521 S Murat St",
    "address_councildis": "A",
    "status": "Assigned to Contractor",
    "contractor": "Richards Disposal",
    "rowid": "938935",
    "final_x": "3668582.17569",
    "final_y": "537979.211465",
    "longitude": "-90.10864229418348",
    "latitude": "29.973642263703177",
    "geocoded_column": {
      "latitude": "29.973642263703177",
      "longitude": "-90.10864229418348"
    }
  },
  {
    "service_request": "2022-938934",
    "request_type": "Trash/Recycling",
    "request_reason": "Order Recycling Cart",
    "date_created": "2022-11-06T16:59:04.000",
    "date_modified": "2022-11-06T16:59:04.000",
    "request_status": "Pending",
    "responsible_agency": "Department of Sanitation",
    "final_address": "4639 Frenchmen St",
    "address_councildis": "D",
    "status": "Pending",
    "rowid": "938934",
    "final_x": "3683549.52636",
    "final_y": "549852.580308",
    "longitude": "-90.06095586140685",
    "latitude": "30.005841460059038",
    "geocoded_column": {
      "latitude": "30.005841460059038",
      "longitude": "-90.06095586140685"
    }
  },
  {
    "service_request": "2022-938933",
    "request_type": "Roads/Drainage",
    "request_reason": "Pothole",
    "date_created": "2022-11-06T16:54:32.000",
    "date_modified": "2022-11-06T16:54:32.000",
    "request_status": "Pending",
    "responsible_agency": "Department of Public Works",
    "final_address": "1477 N Prieur St",
    "address_councildis": "D",
    "status": "Pending",
    "rowid": "938933",
    "final_x": "3680799.63189",
    "final_y": "537801.444552",
    "longitude": "-90.07006315823145",
    "latitude": "29.97278875423917",
    "geocoded_column": {
      "latitude": "29.97278875423917",
      "longitude": "-90.07006315823145"
    }
  },
  {
    "service_request": "2022-938932",
    "request_type": "Mosquito, Termite & Rodent Control",
    "request_reason": "Non-Rodent Complaint (Mice, Possums, Snakes)",
    "date_created": "2022-11-06T16:48:38.000",
    "date_modified": "2022-11-06T16:48:38.000",
    "request_status": "Pending",
    "responsible_agency": "Mosquito, Termite & Rodent Control Board",
    "final_address": "2716 St Nick Dr",
    "address_councildis": "C",
    "status": "Pending",
    "rowid": "938932",
    "final_x": "3699374.86596",
    "final_y": "520948.212153",
    "longitude": "-90.01201322115004",
    "latitude": "29.92587212431199",
    "geocoded_column": {
      "latitude": "29.92587212431199",
      "longitude": "-90.01201322115004"
    }
  },
  {
    "service_request": "2022-938931",
    "request_type": "Trash/Recycling",
    "request_reason": "Order Recycling Cart",
    "date_created": "2022-11-06T16:45:58.000",
    "date_modified": "2022-11-06T16:45:58.000",
    "request_status": "Pending",
    "responsible_agency": "Department of Sanitation",
    "final_address": "3025 N Rampart St",
    "address_councildis": "C",
    "status": "Pending",
    "rowid": "938931",
    "final_x": "3688542.37046",
    "final_y": "535681.062599",
    "longitude": "-90.04568546329527",
    "latitude": "29.96672145828179",
    "geocoded_column": {
      "latitude": "29.96672145828179",
      "longitude": "-90.04568546329527"
    }
  },
  {
    "service_request": "2022-938930",
    "request_type": "Trash/Recycling",
    "request_reason": "Repair Recycling Cart",
    "date_created": "2022-11-06T16:45:10.000",
    "date_modified": "2022-11-06T16:45:10.000",
    "request_status": "Pending",
    "responsible_agency": "Department of Sanitation",
    "final_address": "5633 Durham Dr",
    "address_councildis": "C",
    "status": "Pending",
    "rowid": "938930",
    "final_x": "3704857.58347",
    "final_y": "518707.068727",
    "longitude": "-89.99478869339266",
    "latitude": "29.919534775036315",
    "geocoded_column": {
      "latitude": "29.919534775036315",
      "longitude": "-89.99478869339266"
    }
  },
  {
    "service_request": "2022-938929",
    "request_type": "Trash/Recycling",
    "request_reason": "Request a Large Item Pick Up",
    "date_created": "2022-11-06T16:44:47.000",
    "date_modified": "2022-11-06T16:44:48.000",
    "request_status": "Pending",
    "responsible_agency": "Department of Sanitation",
    "final_address": "201 26Th St",
    "address_councildis": "A",
    "status": "Assigned to Contractor",
    "contractor": "IV Waste",
    "rowid": "938929",
    "final_x": "3665732.94061",
    "final_y": "549942.89698",
    "longitude": "-90.11723981941255",
    "latitude": "30.006621759397227",
    "geocoded_column": {
      "latitude": "30.006621759397227",
      "longitude": "-90.11723981941255"
    }
  },
  {
    "service_request": "2022-938928",
    "request_type": "Trash/Recycling",
    "request_reason": "Order Recycling Cart",
    "date_created": "2022-11-06T16:44:13.000",
    "date_modified": "2022-11-06T16:44:14.000",
    "request_status": "Pending",
    "responsible_agency": "Department of Sanitation",
    "final_address": "2649 Touro St",
    "address_councildis": "D",
    "status": "Pending",
    "rowid": "938928",
    "final_x": "3683793.86837",
    "final_y": "542241.380813",
    "longitude": "-90.06045104425208",
    "latitude": "29.984905915715913",
    "geocoded_column": {
      "latitude": "29.984905915715913",
      "longitude": "-90.06045104425208"
    }
  },
  {
    "service_request": "2022-938927",
    "request_type": "Trash/Recycling",
    "request_reason": "Order Recycling Cart",
    "date_created": "2022-11-06T16:40:27.000",
    "date_modified": "2022-11-06T16:40:28.000",
    "request_status": "Pending",
    "responsible_agency": "Department of Sanitation",
    "final_address": "5806 E Louis Prima Dr",
    "address_councildis": "E",
    "status": "Pending",
    "rowid": "938927",
    "final_x": "3715759.65439",
    "final_y": "562627.07152",
    "longitude": "-89.95871355654482",
    "latitude": "30.03994345185773",
    "geocoded_column": {
      "latitude": "30.03994345185773",
      "longitude": "-89.95871355654482"
    }
  },
  {
    "service_request": "2022-938926",
    "request_type": "Trash/Recycling",
    "request_reason": "Order Recycling Cart",
    "date_created": "2022-11-06T16:30:37.000",
    "date_modified": "2022-11-06T16:30:38.000",
    "request_status": "Pending",
    "responsible_agency": "Department of Sanitation",
    "final_address": "1744 Duels St",
    "address_councildis": "D",
    "status": "Pending",
    "rowid": "938926",
    "final_x": "3681133.80725",
    "final_y": "542260.624461",
    "longitude": "-90.0688523598294",
    "latitude": "29.985039812676053",
    "geocoded_column": {
      "latitude": "29.985039812676053",
      "longitude": "-90.0688523598294"
    }
  },
  {
    "service_request": "2022-938925",
    "request_type": "Trash/Recycling",
    "request_reason": "Order Trash Cart",
    "date_created": "2022-11-06T16:29:55.000",
    "date_modified": "2022-11-06T16:29:56.000",
    "request_status": "Pending",
    "responsible_agency": "Department of Sanitation",
    "final_address": "1744 Duels St",
    "address_councildis": "D",
    "status": "Assigned to Contractor",
    "contractor": "IV Waste",
    "rowid": "938925",
    "final_x": "3681133.80725",
    "final_y": "542260.624461",
    "longitude": "-90.0688523598294",
    "latitude": "29.985039812676053",
    "geocoded_column": {
      "latitude": "29.985039812676053",
      "longitude": "-90.0688523598294"
    }
  },
  {
    "service_request": "2022-938924",
    "request_type": "Trash/Recycling",
    "request_reason": "Order Recycling Cart",
    "date_created": "2022-11-06T16:29:54.000",
    "date_modified": "2022-11-06T16:29:54.000",
    "request_status": "Pending",
    "responsible_agency": "Department of Sanitation",
    "final_address": "4527 Shalimar Dr",
    "address_councildis": "D",
    "status": "Pending",
    "rowid": "938924",
    "final_x": "3697351.55965",
    "final_y": "553111.218263",
    "longitude": "-90.01723401247797",
    "latitude": "30.01437285689367",
    "geocoded_column": {
      "latitude": "30.01437285689367",
      "longitude": "-90.01723401247797"
    }
  },
  {
    "service_request": "2022-938923",
    "request_type": "Trash/Recycling",
    "request_reason": "Order Recycling Cart",
    "date_created": "2022-11-06T16:28:49.000",
    "date_modified": "2022-11-06T16:28:49.000",
    "request_status": "Pending",
    "responsible_agency": "Department of Sanitation",
    "final_address": "2151 Robin St",
    "address_councildis": "D",
    "status": "Pending",
    "rowid": "938923",
    "final_x": "3683433.12169",
    "final_y": "551875.888598",
    "longitude": "-90.06125264713191",
    "latitude": "30.01140837855885",
    "geocoded_column": {
      "latitude": "30.01140837855885",
      "longitude": "-90.06125264713191"
    }
  },
  {
    "service_request": "2022-938922",
    "request_type": "Traffic Signals/Signs/Striping/Streetlights",
    "request_reason": "Traffic Signal Malfunctioning/Damaged",
    "date_created": "2022-11-06T16:26:50.000",
    "date_modified": "2022-11-06T16:26:51.000",
    "request_status": "Pending",
    "responsible_agency": "Department of Public Works",
    "final_address": "CALHOUN ST & TCHOUPITOULAS ST",
    "address_councildis": "A",
    "status": "Pending",
    "rowid": "938922",
    "final_x": "3662753.2",
    "final_y": "518100.98",
    "longitude": "-90.12771209051597",
    "latitude": "29.919153515997472",
    "geocoded_column": {
      "latitude": "29.919153515997472",
      "longitude": "-90.12771209051597"
    }
  },
  {
    "service_request": "2022-938921",
    "request_type": "Abandoned Vehicles",
    "request_reason": "Abandoned/Junk Vehicles",
    "date_created": "2022-11-06T16:12:36.000",
    "date_modified": "2022-11-06T16:14:20.000",
    "request_status": "Pending",
    "responsible_agency": "Department of Public Works",
    "final_address": "102 Neil Ave",
    "address_councildis": "C",
    "status": "Pending",
    "rowid": "938921",
    "final_x": "3705698.10916",
    "final_y": "518839.246967",
    "longitude": "-89.99213071039154",
    "latitude": "29.919871194082823",
    "geocoded_column": {
      "latitude": "29.919871194082823",
      "longitude": "-89.99213071039154"
    }
  },
  {
    "service_request": "2022-938920",
    "request_type": "Trash/Recycling",
    "request_reason": "Order Recycling Cart",
    "date_created": "2022-11-06T16:12:21.000",
    "date_modified": "2022-11-06T16:12:21.000",
    "request_status": "Pending",
    "responsible_agency": "Department of Sanitation",
    "final_address": "3217 Dauphine St",
    "address_councildis": "C",
    "status": "Pending",
    "rowid": "938920",
    "final_x": "3689432.43222",
    "final_y": "534709.56871",
    "longitude": "-90.04290921228933",
    "latitude": "29.964022657257903",
    "geocoded_column": {
      "latitude": "29.964022657257903",
      "longitude": "-90.04290921228933"
    }
  },
  {
    "service_request": "2022-938919",
    "request_type": "Abandoned Vehicles",
    "request_reason": "Abandoned/Junk Vehicles",
    "date_created": "2022-11-06T16:10:58.000",
    "date_modified": "2022-11-06T16:12:06.000",
    "request_status": "Pending",
    "responsible_agency": "Department of Public Works",
    "final_address": "104 Neil Ave",
    "address_councildis": "C",
    "status": "Pending",
    "rowid": "938919",
    "final_x": "3705778.58884",
    "final_y": "518837.831671",
    "longitude": "-89.99187672963645",
    "latitude": "29.919864712043694",
    "geocoded_column": {
      "latitude": "29.919864712043694",
      "longitude": "-89.99187672963645"
    }
  },
  {
    "service_request": "2022-938918",
    "request_type": "Trash/Recycling",
    "request_reason": "Order Recycling Cart",
    "date_created": "2022-11-06T16:06:21.000",
    "date_modified": "2022-11-06T16:06:22.000",
    "request_status": "Pending",
    "responsible_agency": "Department of Sanitation",
    "final_address": "811 Austerlitz St",
    "address_councildis": "B",
    "status": "Pending",
    "rowid": "938918",
    "final_x": "3672932.59003",
    "final_y": "518695.836087",
    "longitude": "-90.09556059955891",
    "latitude": "29.920490752612288",
    "geocoded_column": {
      "latitude": "29.920490752612288",
      "longitude": "-90.09556059955891"
    }
  },
  {
    "service_request": "2022-938917",
    "request_type": "Trash/Recycling",
    "request_reason": "Order Recycling Cart",
    "date_created": "2022-11-06T16:02:59.000",
    "date_modified": "2022-11-06T16:02:59.000",
    "request_status": "Pending",
    "responsible_agency": "Department of Sanitation",
    "final_address": "7191 Queensway Dr",
    "address_councildis": "E",
    "status": "Pending",
    "rowid": "938917",
    "final_x": "3718799.139",
    "final_y": "570101.466023",
    "longitude": "-89.94882253652284",
    "latitude": "30.060394347432197",
    "geocoded_column": {
      "latitude": "30.060394347432197",
      "longitude": "-89.94882253652284"
    }
  },
  {
    "service_request": "2022-938916",
    "request_type": "Trash/Recycling",
    "request_reason": "Replace Trash Cart",
    "date_created": "2022-11-06T16:00:58.000",
    "date_modified": "2022-11-06T16:00:58.000",
    "request_status": "Pending",
    "responsible_agency": "Department of Sanitation",
    "final_address": "2131 Jackson Ave",
    "address_councildis": "B",
    "status": "Assigned to Contractor",
    "contractor": "Richards Disposal",
    "rowid": "938916",
    "final_x": "3676096.54683",
    "final_y": "525755.775101",
    "longitude": "-90.0853307389366",
    "latitude": "29.93980893165319",
    "geocoded_column": {
      "latitude": "29.93980893165319",
      "longitude": "-90.0853307389366"
    }
  },
  {
    "service_request": "2022-938915",
    "request_type": "Trash/Recycling",
    "request_reason": "Order Recycling Cart",
    "date_created": "2022-11-06T16:00:38.000",
    "date_modified": "2022-11-06T16:00:38.000",
    "request_status": "Pending",
    "responsible_agency": "Department of Sanitation",
    "final_address": "5644 Debore Dr",
    "address_councildis": "D",
    "status": "Pending",
    "rowid": "938915",
    "final_x": "3691569.32918",
    "final_y": "554826.179992",
    "longitude": "-90.03544154856972",
    "latitude": "30.01926970929877",
    "geocoded_column": {
      "latitude": "30.01926970929877",
      "longitude": "-90.03544154856972"
    }
  },
  {
    "service_request": "2022-938914",
    "request_type": "Trash/Recycling",
    "request_reason": "Order Recycling Cart",
    "date_created": "2022-11-06T15:59:54.000",
    "date_modified": "2022-11-06T15:59:55.000",
    "request_status": "Pending",
    "responsible_agency": "Department of Sanitation",
    "final_address": "819 Hidalgo St",
    "address_councildis": "A",
    "status": "Pending",
    "rowid": "938914",
    "final_x": "3668891.59386",
    "final_y": "544151.042702",
    "longitude": "-90.10745654744407",
    "latitude": "29.990603609061004",
    "geocoded_column": {
      "latitude": "29.990603609061004",
      "longitude": "-90.10745654744407"
    }
  },
  {
    "service_request": "2022-938913",
    "request_type": "Trash/Recycling",
    "request_reason": "Order Recycling Cart",
    "date_created": "2022-11-06T15:55:22.000",
    "date_modified": "2022-11-06T15:55:22.000",
    "request_status": "Pending",
    "responsible_agency": "Department of Sanitation",
    "final_address": "164 Middle Park Pl",
    "address_councildis": "A",
    "status": "Pending",
    "rowid": "938913",
    "final_x": "3669875.94862",
    "final_y": "544766.686479",
    "longitude": "-90.10432634890307",
    "latitude": "29.99226742417138",
    "geocoded_column": {
      "latitude": "29.99226742417138",
      "longitude": "-90.10432634890307"
    }
  },
  {
    "service_request": "2022-938912",
    "request_type": "Trash/Recycling",
    "request_reason": "Order Recycling Cart",
    "date_created": "2022-11-06T15:55:12.000",
    "date_modified": "2022-11-06T15:55:12.000",
    "request_status": "Pending",
    "responsible_agency": "Department of Sanitation",
    "final_address": "4941 Chantilly Dr",
    "address_councildis": "E",
    "status": "Pending",
    "rowid": "938912",
    "final_x": "3700849.88029",
    "final_y": "555357.919449",
    "longitude": "-90.0060989073631",
    "latitude": "30.020439481350152",
    "geocoded_column": {
      "latitude": "30.020439481350152",
      "longitude": "-90.0060989073631"
    }
  },
  {
    "service_request": "2022-938911",
    "request_type": "Trash/Recycling",
    "request_reason": "Order Recycling Cart",
    "date_created": "2022-11-06T15:47:11.000",
    "date_modified": "2022-11-06T15:47:11.000",
    "request_status": "Pending",
    "responsible_agency": "Department of Sanitation",
    "final_address": "4626 Venus St",
    "address_councildis": "D",
    "status": "Pending",
    "rowid": "938911",
    "final_x": "3686471.03842",
    "final_y": "549821.14242",
    "longitude": "-90.05172725338963",
    "latitude": "30.00566549158013",
    "geocoded_column": {
      "latitude": "30.00566549158013",
      "longitude": "-90.05172725338963"
    }
  },
  {
    "service_request": "2022-938910",
    "request_type": "Trash/Recycling",
    "request_reason": "Order Recycling Cart",
    "date_created": "2022-11-06T15:44:29.000",
    "date_modified": "2022-11-06T15:44:29.000",
    "request_status": "Pending",
    "responsible_agency": "Department of Sanitation",
    "final_address": "2639 Danbury Dr",
    "address_councildis": "C",
    "status": "Pending",
    "rowid": "938910",
    "final_x": "3703608.15313",
    "final_y": "521170.550969",
    "longitude": "-89.99864191773271",
    "latitude": "29.926348572527637",
    "geocoded_column": {
      "latitude": "29.926348572527637",
      "longitude": "-89.99864191773271"
    }
  },
  {
    "service_request": "2022-938909",
    "request_type": "Trash/Recycling",
    "request_reason": "Order Recycling Cart",
    "date_created": "2022-11-06T15:35:40.000",
    "date_modified": "2022-11-06T15:35:40.000",
    "request_status": "Pending",
    "responsible_agency": "Department of Sanitation",
    "final_address": "217 N Salcedo St",
    "address_councildis": "B",
    "status": "Pending",
    "rowid": "938909",
    "final_x": "3674415.8596",
    "final_y": "536578.832903",
    "longitude": "-90.09026622391171",
    "latitude": "29.969618963788392",
    "geocoded_column": {
      "latitude": "29.969618963788392",
      "longitude": "-90.09026622391171"
    }
  },
  {
    "service_request": "2022-938908",
    "request_type": "Trash/Recycling",
    "request_reason": "Replace Recycling Cart",
    "date_created": "2022-11-06T15:33:13.000",
    "date_modified": "2022-11-06T15:33:13.000",
    "request_status": "Pending",
    "responsible_agency": "Department of Sanitation",
    "final_address": "4732 Baccich St",
    "address_councildis": "D",
    "status": "Pending",
    "rowid": "938908",
    "final_x": "3687684.48527",
    "final_y": "550613.046292",
    "longitude": "-90.04786564130221",
    "latitude": "30.007805563592356",
    "geocoded_column": {
      "latitude": "30.007805563592356",
      "longitude": "-90.04786564130221"
    }
  },
  {
    "service_request": "2022-938907",
    "request_type": "Trash/Recycling",
    "request_reason": "Order Recycling Cart",
    "date_created": "2022-11-06T15:31:59.000",
    "date_modified": "2022-11-06T15:31:59.000",
    "request_status": "Pending",
    "responsible_agency": "Department of Sanitation",
    "final_address": "817 Clouet St",
    "address_councildis": "C",
    "status": "Pending",
    "rowid": "938907",
    "final_x": "3688783.42217",
    "final_y": "535017.59271",
    "longitude": "-90.04494778424073",
    "latitude": "29.964889697212396",
    "geocoded_column": {
      "latitude": "29.964889697212396",
      "longitude": "-90.04494778424073"
    }
  },
  {
    "service_request": "2022-938906",
    "request_type": "Trash/Recycling",
    "request_reason": "Order Recycling Cart",
    "date_created": "2022-11-06T15:26:28.000",
    "date_modified": "2022-11-06T15:26:28.000",
    "request_status": "Pending",
    "responsible_agency": "Department of Sanitation",
    "final_address": "7721 Poitevent Ave",
    "address_councildis": "E",
    "status": "Pending",
    "rowid": "938906",
    "final_x": "3706847.29367",
    "final_y": "564445.961185",
    "longitude": "-89.9868116227367",
    "latitude": "30.045235647285054",
    "geocoded_column": {
      "latitude": "30.045235647285054",
      "longitude": "-89.9868116227367"
    }
  },
  {
    "service_request": "2022-938905",
    "request_type": "Trash/Recycling",
    "request_reason": "Replace Trash Cart",
    "date_created": "2022-11-06T15:24:02.000",
    "date_modified": "2022-11-06T15:24:02.000",
    "request_status": "Pending",
    "responsible_agency": "Department of Sanitation",
    "final_address": "11640 Morrison Rd",
    "address_councildis": "E",
    "status": "Assigned to Contractor",
    "contractor": "Waste Pro",
    "rowid": "938905",
    "final_x": "3713035.9404",
    "final_y": "566157.422307",
    "longitude": "-89.96718823571427",
    "latitude": "30.049740052966136",
    "geocoded_column": {
      "latitude": "30.049740052966136",
      "longitude": "-89.96718823571427"
    }
  },
  {
    "service_request": "2022-938904",
    "request_type": "Trash/Recycling",
    "request_reason": "Order Recycling Cart",
    "date_created": "2022-11-06T15:21:11.000",
    "date_modified": "2022-11-06T15:21:11.000",
    "request_status": "Pending",
    "responsible_agency": "Department of Sanitation",
    "final_address": "2408 Saint Roch Ave, New Orleans, Louisiana, 70117",
    "status": "Pending",
    "rowid": "938904",
    "longitude": "0.0",
    "latitude": "0.0",
    "geocoded_column": {
      "latitude": "0.0",
      "longitude": "0.0"
    }
  },
  {
    "service_request": "2022-938903",
    "request_type": "Trash/Recycling",
    "request_reason": "Return Trash Cart",
    "date_created": "2022-11-06T15:19:09.000",
    "date_modified": "2022-11-06T15:19:09.000",
    "request_status": "Pending",
    "responsible_agency": "Department of Sanitation",
    "final_address": "3346 Trafalgar St",
    "address_councildis": "A",
    "status": "Assigned to Contractor",
    "contractor": "IV Waste",
    "rowid": "938903",
    "final_x": "3677751.58779",
    "final_y": "543145.697741",
    "longitude": "-90.07950476794628",
    "latitude": "29.987575650887152",
    "geocoded_column": {
      "latitude": "29.987575650887152",
      "longitude": "-90.07950476794628"
    }
  },
  {
    "service_request": "2022-938902",
    "request_type": "Roads/Drainage",
    "request_reason": "Damaged Sidewalk",
    "date_created": "2022-11-06T15:17:18.000",
    "date_modified": "2022-11-06T15:17:18.000",
    "request_status": "Pending",
    "responsible_agency": "Department of Public Works",
    "final_address": "829 Touro St",
    "address_councildis": "C",
    "status": "Pending",
    "rowid": "938902",
    "final_x": "3684325.21589",
    "final_y": "535411.455046",
    "longitude": "-90.05901266505654",
    "latitude": "29.966109764801487",
    "geocoded_column": {
      "latitude": "29.966109764801487",
      "longitude": "-90.05901266505654"
    }
  },
  {
    "service_request": "2022-938901",
    "request_type": "EMS",
    "request_reason": "EMS Lost & Found",
    "date_created": "2022-11-06T15:15:39.000",
    "date_modified": "2022-11-06T15:15:40.000",
    "request_status": "Pending",
    "responsible_agency": "Emergency Medical Services",
    "final_address": "1415 Tulane Ave",
    "address_councildis": "B",
    "status": "Pending",
    "rowid": "938901",
    "final_x": "3678983.77896",
    "final_y": "531479.673603",
    "longitude": "-90.07601703928408",
    "latitude": "29.95546095742283",
    "geocoded_column": {
      "latitude": "29.95546095742283",
      "longitude": "-90.07601703928408"
    }
  },
  {
    "service_request": "2022-938900",
    "request_type": "Trash/Recycling",
    "request_reason": "Order Recycling Cart",
    "date_created": "2022-11-06T15:15:13.000",
    "date_modified": "2022-11-06T15:15:13.000",
    "request_status": "Pending",
    "responsible_agency": "Department of Sanitation",
    "final_address": "15006 Emory Rd",
    "address_councildis": "E",
    "status": "Pending",
    "rowid": "938900",
    "final_x": "3720985.06681",
    "final_y": "574021.720682",
    "longitude": "-89.94176250103064",
    "latitude": "30.07110059165925",
    "geocoded_column": {
      "latitude": "30.07110059165925",
      "longitude": "-89.94176250103064"
    }
  },
  {
    "service_request": "2022-938899",
    "request_type": "Trash/Recycling",
    "request_reason": "Order Recycling Cart",
    "date_created": "2022-11-06T15:07:49.000",
    "date_modified": "2022-11-06T15:07:49.000",
    "request_status": "Pending",
    "responsible_agency": "Department of Sanitation",
    "final_address": "829 Touro St",
    "address_councildis": "C",
    "status": "Pending",
    "rowid": "938899",
    "final_x": "3684325.21589",
    "final_y": "535411.455046",
    "longitude": "-90.05901266505654",
    "latitude": "29.966109764801487",
    "geocoded_column": {
      "latitude": "29.966109764801487",
      "longitude": "-90.05901266505654"
    }
  },
  {
    "service_request": "2022-938898",
    "request_type": "Trash/Recycling",
    "request_reason": "Order Recycling Cart",
    "date_created": "2022-11-06T14:58:49.000",
    "date_modified": "2022-11-06T14:58:49.000",
    "request_status": "Pending",
    "responsible_agency": "Department of Sanitation",
    "final_address": "3621 Elysian Fields Ave",
    "address_councildis": "D",
    "status": "Pending",
    "rowid": "938898",
    "final_x": "3684389.47394",
    "final_y": "546072.501648",
    "longitude": "-90.05843514693717",
    "latitude": "29.995421930535116",
    "geocoded_column": {
      "latitude": "29.995421930535116",
      "longitude": "-90.05843514693717"
    }
  },
  {
    "service_request": "2022-938897",
    "request_type": "Trash/Recycling",
    "request_reason": "Order Recycling Cart",
    "date_created": "2022-11-06T14:54:01.000",
    "date_modified": "2022-11-06T14:54:02.000",
    "request_status": "Pending",
    "responsible_agency": "Department of Sanitation",
    "final_address": "12960 N Lake Carmel Dr",
    "address_councildis": "E",
    "status": "Pending",
    "rowid": "938897",
    "final_x": "3716442.16863",
    "final_y": "568529.653669",
    "longitude": "-89.95633245098513",
    "latitude": "30.05615060907572",
    "geocoded_column": {
      "latitude": "30.05615060907572",
      "longitude": "-89.95633245098513"
    }
  },
  {
    "service_request": "2022-938896",
    "request_type": "Traffic Signals/Signs/Striping/Streetlights",
    "request_reason": "Traffic Signal Malfunctioning/Damaged",
    "date_created": "2022-11-06T14:53:59.000",
    "date_modified": "2022-11-06T14:53:59.000",
    "request_status": "Pending",
    "responsible_agency": "Department of Public Works",
    "final_address": "KABEL DR & GENERAL DE GAULLE DR",
    "address_councildis": "C",
    "status": "Pending",
    "rowid": "938896",
    "final_x": "3700551.3",
    "final_y": "517918.48",
    "longitude": "-90.00841017987847",
    "latitude": "29.917504045436438",
    "geocoded_column": {
      "latitude": "29.917504045436438",
      "longitude": "-90.00841017987847"
    }
  },
  {
    "service_request": "2022-938895",
    "request_type": "Trash/Recycling",
    "request_reason": "Request a Large Item Pick Up",
    "date_created": "2022-11-06T14:51:53.000",
    "date_modified": "2022-11-06T14:51:54.000",
    "request_status": "Pending",
    "responsible_agency": "Department of Sanitation",
    "final_address": "5326 Venus St",
    "address_councildis": "D",
    "status": "Assigned to Contractor",
    "contractor": "IV Waste",
    "rowid": "938895",
    "final_x": "3686303.43497",
    "final_y": "552464.755414",
    "longitude": "-90.05216336820338",
    "latitude": "30.012939615938087",
    "geocoded_column": {
      "latitude": "30.012939615938087",
      "longitude": "-90.05216336820338"
    }
  },
  {
    "service_request": "2022-938894",
    "request_type": "Trash/Recycling",
    "request_reason": "Repair Recycling Cart",
    "date_created": "2022-11-06T14:49:58.000",
    "date_modified": "2022-11-06T14:49:58.000",
    "request_status": "Pending",
    "responsible_agency": "Department of Sanitation",
    "final_address": "5409 S Prieur St",
    "address_councildis": "A",
    "status": "Pending",
    "rowid": "938894",
    "final_x": "3668403.83502",
    "final_y": "526728.180094",
    "longitude": "-90.10958502580495",
    "latitude": "29.942710873148464",
    "geocoded_column": {
      "latitude": "29.942710873148464",
      "longitude": "-90.10958502580495"
    }
  },
  {
    "service_request": "2022-938893",
    "request_type": "Trash/Recycling",
    "request_reason": "Order Trash Cart",
    "date_created": "2022-11-06T14:49:10.000",
    "date_modified": "2022-11-06T14:49:10.000",
    "request_status": "Pending",
    "responsible_agency": "Department of Sanitation",
    "final_address": "5501 Montegut Dr",
    "address_councildis": "D",
    "status": "Assigned to Contractor",
    "contractor": "IV Waste",
    "rowid": "938893",
    "final_x": "3689745.97123",
    "final_y": "553477.600855",
    "longitude": "-90.04125076824013",
    "latitude": "30.015618280126112",
    "geocoded_column": {
      "latitude": "30.015618280126112",
      "longitude": "-90.04125076824013"
    }
  },
  {
    "service_request": "2022-938892",
    "request_type": "Trash/Recycling",
    "request_reason": "Order Recycling Cart",
    "date_created": "2022-11-06T14:46:50.000",
    "date_modified": "2022-11-06T14:46:51.000",
    "request_status": "Pending",
    "responsible_agency": "Department of Sanitation",
    "final_address": "4931 Pauger St",
    "address_councildis": "D",
    "status": "Pending",
    "rowid": "938892",
    "final_x": "3682740.20802",
    "final_y": "550886.836117",
    "longitude": "-90.06347647345511",
    "latitude": "30.00870997606235",
    "geocoded_column": {
      "latitude": "30.00870997606235",
      "longitude": "-90.06347647345511"
    }
  },
  {
    "service_request": "2022-938891",
    "request_type": "Trash/Recycling",
    "request_reason": "Replace Recycling Cart",
    "date_created": "2022-11-06T14:40:40.000",
    "date_modified": "2022-11-06T14:40:40.000",
    "request_status": "Pending",
    "responsible_agency": "Department of Sanitation",
    "final_address": "6255 Carlson Dr",
    "address_councildis": "D",
    "status": "Pending",
    "rowid": "938891",
    "final_x": "3679678.34082",
    "final_y": "556490.816602",
    "longitude": "-90.07295515859614",
    "latitude": "30.024211837912297",
    "geocoded_column": {
      "latitude": "30.024211837912297",
      "longitude": "-90.07295515859614"
    }
  },
  {
    "service_request": "2022-938890",
    "request_type": "Trash/Recycling",
    "request_reason": "Replace Trash Cart",
    "date_created": "2022-11-06T14:39:08.000",
    "date_modified": "2022-11-06T14:39:08.000",
    "request_status": "Pending",
    "responsible_agency": "Department of Sanitation",
    "final_address": "6255 Carlson Dr",
    "address_councildis": "D",
    "status": "Assigned to Contractor",
    "contractor": "IV Waste",
    "rowid": "938890",
    "final_x": "3679678.34082",
    "final_y": "556490.816602",
    "longitude": "-90.07295515859614",
    "latitude": "30.024211837912297",
    "geocoded_column": {
      "latitude": "30.024211837912297",
      "longitude": "-90.07295515859614"
    }
  },
  {
    "service_request": "2022-938889",
    "request_type": "Trash/Recycling",
    "request_reason": "Replace Trash Cart",
    "date_created": "2022-11-06T14:33:36.000",
    "date_modified": "2022-11-06T14:33:37.000",
    "request_status": "Pending",
    "responsible_agency": "Department of Sanitation",
    "final_address": "4001 Hamburg St",
    "address_councildis": "D",
    "status": "Assigned to Contractor",
    "contractor": "IV Waste",
    "rowid": "938889",
    "final_x": "3679229.22511",
    "final_y": "547015.038289",
    "longitude": "-90.07470317146885",
    "latitude": "29.998170433316997",
    "geocoded_column": {
      "latitude": "29.998170433316997",
      "longitude": "-90.07470317146885"
    }
  },
  {
    "service_request": "2022-938888",
    "request_type": "Roads/Drainage",
    "request_reason": "Debris in Roadway",
    "date_created": "2022-11-06T14:33:22.000",
    "date_modified": "2022-11-06T14:33:22.000",
    "request_status": "Pending",
    "responsible_agency": "Department of Public Works",
    "final_address": "321 36Th St",
    "address_councildis": "A",
    "status": "Pending",
    "rowid": "938888",
    "final_x": "3665183.80698",
    "final_y": "551968.506454",
    "longitude": "-90.11890685687914",
    "latitude": "30.012207494936295",
    "geocoded_column": {
      "latitude": "30.012207494936295",
      "longitude": "-90.11890685687914"
    }
  },
  {
    "service_request": "2022-938887",
    "request_type": "Trash/Recycling",
    "request_reason": "Replace Trash Cart",
    "date_created": "2022-11-06T14:33:21.000",
    "date_modified": "2022-11-06T14:33:21.000",
    "request_status": "Pending",
    "responsible_agency": "Department of Sanitation",
    "final_address": "4836 Laurel St",
    "address_councildis": "B",
    "status": "Assigned to Contractor",
    "contractor": "Richards Disposal",
    "rowid": "938887",
    "final_x": "3669414.39898",
    "final_y": "517842.564598",
    "longitude": "-90.10669475019908",
    "latitude": "29.91824855714265",
    "geocoded_column": {
      "latitude": "29.91824855714265",
      "longitude": "-90.10669475019908"
    }
  },
  {
    "service_request": "2022-938886",
    "request_type": "Trash/Recycling",
    "request_reason": "Replace Trash Cart",
    "date_created": "2022-11-06T14:31:24.000",
    "date_modified": "2022-11-06T14:31:25.000",
    "request_status": "Pending",
    "responsible_agency": "Department of Sanitation",
    "final_address": "4926 Lurline St",
    "address_councildis": "E",
    "status": "Assigned to Contractor",
    "contractor": "Waste Pro",
    "rowid": "938886",
    "final_x": "3711786.74488",
    "final_y": "557230.436571",
    "longitude": "-89.97147177334558",
    "latitude": "30.025235303169012",
    "geocoded_column": {
      "latitude": "30.025235303169012",
      "longitude": "-89.97147177334558"
    }
  },
  {
    "service_request": "2022-938885",
    "request_type": "Trash/Recycling",
    "request_reason": "Order Recycling Cart",
    "date_created": "2022-11-06T14:28:48.000",
    "date_modified": "2022-11-06T14:28:49.000",
    "request_status": "Pending",
    "responsible_agency": "Department of Sanitation",
    "final_address": "4926 Lurline St",
    "address_councildis": "E",
    "status": "Pending",
    "rowid": "938885",
    "final_x": "3711786.74488",
    "final_y": "557230.436571",
    "longitude": "-89.97147177334558",
    "latitude": "30.025235303169012",
    "geocoded_column": {
      "latitude": "30.025235303169012",
      "longitude": "-89.97147177334558"
    }
  },
  {
    "service_request": "2022-938884",
    "request_type": "Trash/Recycling",
    "request_reason": "Illegal Dumping",
    "date_created": "2022-11-06T14:17:44.000",
    "date_modified": "2022-11-06T14:17:44.000",
    "request_status": "Pending",
    "responsible_agency": "Department of Sanitation",
    "final_address": "3130 Marais St",
    "address_councildis": "C",
    "status": "Pending",
    "rowid": "938884",
    "final_x": "3689329.81263",
    "final_y": "536250.511431",
    "longitude": "-90.04317848441343",
    "latitude": "29.968262888007384",
    "geocoded_column": {
      "latitude": "29.968262888007384",
      "longitude": "-90.04317848441343"
    }
  },
  {
    "service_request": "2022-938883",
    "request_type": "Trash/Recycling",
    "request_reason": "Order Recycling Cart",
    "date_created": "2022-11-06T14:16:42.000",
    "date_modified": "2022-11-06T14:16:42.000",
    "request_status": "Pending",
    "responsible_agency": "Department of Sanitation",
    "final_address": "11252 Fernley Dr",
    "address_councildis": "E",
    "status": "Pending",
    "rowid": "938883",
    "final_x": "3717567.05727",
    "final_y": "559886.081693",
    "longitude": "-89.95310600788304",
    "latitude": "30.032347095041533",
    "geocoded_column": {
      "latitude": "30.032347095041533",
      "longitude": "-89.95310600788304"
    }
  },
  {
    "service_request": "2022-938882",
    "request_type": "Trash/Recycling",
    "request_reason": "Order Recycling Cart",
    "date_created": "2022-11-06T14:15:52.000",
    "date_modified": "2022-11-06T14:15:52.000",
    "request_status": "Pending",
    "responsible_agency": "Department of Sanitation",
    "final_address": "3134 Marais St",
    "address_councildis": "C",
    "status": "Pending",
    "rowid": "938882",
    "final_x": "3689361.15529",
    "final_y": "536242.282311",
    "longitude": "-90.04307979585677",
    "latitude": "29.96823929041851",
    "geocoded_column": {
      "latitude": "29.96823929041851",
      "longitude": "-90.04307979585677"
    }
  },
  {
    "service_request": "2022-938881",
    "request_type": "Trash/Recycling",
    "request_reason": "Order Recycling Cart",
    "date_created": "2022-11-06T14:03:27.000",
    "date_modified": "2022-11-06T14:03:27.000",
    "request_status": "Pending",
    "responsible_agency": "Department of Sanitation",
    "final_address": "711 Bartholomew St",
    "address_councildis": "C",
    "status": "Pending",
    "rowid": "938881",
    "final_x": "3691477.37852",
    "final_y": "533892.782725",
    "longitude": "-90.03648067348398",
    "latitude": "29.961713299484526",
    "geocoded_column": {
      "latitude": "29.961713299484526",
      "longitude": "-90.03648067348398"
    }
  },
  {
    "service_request": "2022-938880",
    "request_type": "Trash/Recycling",
    "request_reason": "Order Recycling Cart",
    "date_created": "2022-11-06T13:49:51.000",
    "date_modified": "2022-11-06T13:49:51.000",
    "request_status": "Pending",
    "responsible_agency": "Department of Sanitation",
    "final_address": "516 S Genois St",
    "address_councildis": "B",
    "status": "Pending",
    "rowid": "938880",
    "final_x": "3671559.3602",
    "final_y": "535763.243207",
    "longitude": "-90.09931505696358",
    "latitude": "29.967461265533448",
    "geocoded_column": {
      "latitude": "29.967461265533448",
      "longitude": "-90.09931505696358"
    }
  },
  {
    "service_request": "2022-938879",
    "request_type": "Trash/Recycling",
    "request_reason": "Order Recycling Cart",
    "date_created": "2022-11-06T13:49:34.000",
    "date_modified": "2022-11-06T13:49:34.000",
    "request_status": "Pending",
    "responsible_agency": "Department of Sanitation",
    "final_address": "4605 Western St",
    "address_councildis": "D",
    "status": "Pending",
    "rowid": "938879",
    "final_x": "3684293.20981",
    "final_y": "549498.701715",
    "longitude": "-90.05861883248153",
    "latitude": "30.004845694115463",
    "geocoded_column": {
      "latitude": "30.004845694115463",
      "longitude": "-90.05861883248153"
    }
  },
  {
    "service_request": "2022-938878",
    "request_type": "Trash/Recycling",
    "request_reason": "Order Recycling Cart",
    "date_created": "2022-11-06T13:47:51.000",
    "date_modified": "2022-11-06T13:47:51.000",
    "request_status": "Pending",
    "responsible_agency": "Department of Sanitation",
    "final_address": "2416 Urquhart St",
    "address_councildis": "C",
    "status": "Pending",
    "rowid": "938878",
    "final_x": "3686629.94358",
    "final_y": "537127.63188",
    "longitude": "-90.05167378694782",
    "latitude": "29.970757974020632",
    "geocoded_column": {
      "latitude": "29.970757974020632",
      "longitude": "-90.05167378694782"
    }
  },