[
  {
    "service_request": "2025-1241296",
    "request_type": "Streetlights",
    "request_reason": "Streetlight Outage/Malfunction",
    "date_created": "2025-11-19T22:57:26.000",
    "date_modified": "2025-11-19T22:57:28.000",
    "request_status": "Pending",
    "responsible_agency": "Department of Public Works",
    "final_address": "CANAL BLVD & AMETHYST ST",
    "address_councildis": "D",
    "status": "Pending",
    "rowid": "1241296",
    "final_x": "3669409.5",
    "final_y": "556744.58",
    "longitude": "-90.10539430522898",
    "latitude": "30.025216178516906",
    "geocoded_column": {
      "latitude": "30.025216178516906",
      "longitude": "-90.10539430522898"
    }
  },
  {
    "service_request": "2025-1241295",
    "request_type": "Health Related Request",
    "request_reason": "Smoke-Free Ordinance Complaint",
    "date_created": "2025-11-19T22:40:40.000",
    "date_modified": "2025-11-19T22:40:42.000",
    "request_status": "Pending",
    "responsible_agency": "Health Department",
    "final_address": "7619 Hurst St",
    "address_councildis": "A",
    "status": "Pending",
    "rowid": "1241295",
    "final_x": "3660840.97856",
    "final_y": "524705.78214",
    "longitude": "-90.13352973313323",
    "latitude": "29.93736984492393",
    "geocoded_column": {
      "latitude": "29.93736984492393",
      "longitude": "-90.13352973313323"
    }
  },
  {
    "service_request": "2025-1241294",
    "request_type": "Trash/Recycling",
    "request_reason": "Request a Large Item Pick Up",
    "date_created": "2025-11-19T22:29:51.000",
    "date_modified": "2025-11-19T22:29:54.000",
    "request_status": "Pending",
    "responsible_agency": "Department of Sanitation",
    "final_address": "3671 Almonaster Ave",
    "address_councildis": "D",
    "status": "Assigned to Contractor",
    "contractor": "IV Waste",
    "rowid": "1241294",
    "final_x": "3689857.86403",
    "final_y": "546864.590801",
    "longitude": "-90.04113286825995",
    "latitude": "29.997431458463993",
    "geocoded_column": {
      "latitude": "29.997431458463993",
      "longitude": "-90.04113286825995"
    }
  },
  {
    "service_request": "2025-1241293",
    "request_type": "Abandoned Vehicles",
    "request_reason": "Abandoned/Junk Vehicles",
    "date_created": "2025-11-19T22:17:34.000",
    "date_modified": "2025-11-19T22:17:36.000",
    "request_status": "Pending",
    "responsible_agency": "Department of Public Works",
    "final_address": "1542 Burbank Dr",
    "address_councildis": "D",
    "status": "Pending",
    "rowid": "1241293",
    "final_x": "3678696.11035",
    "final_y": "554302.672408",
    "longitude": "-90.0761346871351",
    "latitude": "30.018224908178883",
    "geocoded_column": {
      "latitude": "30.018224908178883",
      "longitude": "-90.0761346871351"
    }
  },
  {
    "service_request": "2025-1241292",
    "request_type": "General Services",
    "request_reason": "General Service Request",
    "date_created": "2025-11-19T21:43:20.000",
    "date_modified": "2025-11-19T21:43:24.000",
    "request_status": "Pending",
    "responsible_agency": "Orleans Parish Communication District",
    "final_address": "4933 Lafaye St",
    "address_councildis": "D",
    "status": "Pending",
    "rowid": "1241292",
    "final_x": "3687438.29858",
    "final_y": "551247.769749",
    "longitude": "-90.04862093284193",
    "latitude": "30.00955841282139",
    "geocoded_column": {
      "latitude": "30.00955841282139",
      "longitude": "-90.04862093284193"
    }
  },
  {
    "service_request": "2025-1241291",
    "request_type": "Trash/Recycling",
    "request_reason": "Dead Animal Pick Up",
    "date_created": "2025-11-19T20:30:22.000",
    "date_modified": "2025-11-19T20:30:23.000",
    "request_status": "Pending",
    "responsible_agency": "Department of Sanitation",
    "final_address": "8640 Chase St",
    "address_councildis": "E",
    "status": "Assigned to Contractor",
    "contractor": "Waste Pro",
    "rowid": "1241291",
    "final_x": "3703847.54154",
    "final_y": "563490.678816",
    "longitude": "-89.99632744064843",
    "latitude": "30.04270558489277",
    "geocoded_column": {
      "latitude": "30.04270558489277",
      "longitude": "-89.99632744064843"
    }
  },
  {
    "service_request": "2025-1241290",
    "request_type": "Trash/Recycling",
    "request_reason": "Missed Trash Pick-Up",
    "date_created": "2025-11-19T19:54:53.000",
    "date_modified": "2025-11-19T19:54:55.000",
    "request_status": "Pending",
    "responsible_agency": "Department of Sanitation",
    "final_address": "2029 Palmer Ave",
    "address_councildis": "A",
    "status": "Assigned to Contractor",
    "contractor": "IV Waste",
    "rowid": "1241290",
    "final_x": "3665969.06215",
    "final_y": "524494.769212",
    "longitude": "-90.11734703814584",
    "latitude": "29.936640984411206",
    "geocoded_column": {
      "latitude": "29.936640984411206",
      "longitude": "-90.11734703814584"
    }
  },
  {
    "service_request": "2025-1241289",
    "request_type": "Trash/Recycling",
    "request_reason": "Order Trash Cart",
    "date_created": "2025-11-19T19:51:06.000",
    "date_modified": "2025-11-19T19:51:09.000",
    "request_status": "Pending",
    "responsible_agency": "Department of Sanitation",
    "final_address": "1114 Henriette Delille St",
    "address_councildis": "C",
    "status": "Assigned to Contractor",
    "contractor": "IV Waste",
    "rowid": "1241289",
    "final_x": "3682051.23228",
    "final_y": "534851.31303",
    "longitude": "-90.06621340544874",
    "latitude": "29.964638908399724",
    "geocoded_column": {
      "latitude": "29.964638908399724",
      "longitude": "-90.06621340544874"
    }
  },
  {
    "service_request": "2025-1241288",
    "request_type": "Utility Poles",
    "request_reason": "Wires Sagging/Hanging Low",
    "date_created": "2025-11-19T19:12:09.000",
    "date_modified": "2025-11-19T19:12:11.000",
    "request_status": "Pending",
    "responsible_agency": "Utility Company Collective",
    "final_address": "0 BLK Acadiana Pl",
    "address_councildis": "E",
    "status": "Pending",
    "rowid": "1241288",
    "final_x": "3725131.4083",
    "final_y": "564393.680055",
    "longitude": "-89.92902788187175",
    "latitude": "30.04448842646984",
    "geocoded_column": {
      "latitude": "30.04448842646984",
      "longitude": "-89.92902788187175"
    }
  },
  {
    "service_request": "2025-1241287",
    "request_type": "Utility Poles",
    "request_reason": "Wires Sagging/Hanging Low",
    "date_created": "2025-11-19T19:12:08.000",
    "date_modified": "2025-11-19T19:12:10.000",
    "request_status": "Pending",
    "responsible_agency": "Utility Company Collective",
    "final_address": "0 BLK Acadiana Pl",
    "address_councildis": "E",
    "status": "Pending",
    "rowid": "1241287",
    "final_x": "3725131.4083",
    "final_y": "564393.680055",
    "longitude": "-89.92902788187175",
    "latitude": "30.04448842646984",
    "geocoded_column": {
      "latitude": "30.04448842646984",
      "longitude": "-89.92902788187175"
    }
  },
  {
    "service_request": "2025-1241286",
    "request_type": "Streetlights",
    "request_reason": "Streetlight Outage/Malfunction",
    "date_created": "2025-11-19T19:09:24.000",
    "date_modified": "2025-11-19T19:09:25.000",
    "request_status": "Pending",
    "responsible_agency": "Department of Public Works",
    "final_address": "7300 BLK Trapier Ave",
    "address_councildis": "E",
    "status": "Pending",
    "rowid": "1241286",
    "final_x": "3706945.632",
    "final_y": "562902.134482",
    "longitude": "-89.98655817735792",
    "latitude": "30.040987560278445",
    "geocoded_column": {
      "latitude": "30.040987560278445",
      "longitude": "-89.98655817735792"
    }
  },
  {
    "service_request": "2025-1241285",
    "request_type": "Trash/Recycling",
    "request_reason": "Order Recycling Cart",
    "date_created": "2025-11-19T18:24:25.000",
    "date_modified": "2025-11-19T18:24:27.000",
    "request_status": "Pending",
    "responsible_agency": "Department of Sanitation",
    "final_address": "1528 Westbrook Dr",
    "address_councildis": "D",
    "status": "Pending",
    "rowid": "1241285",
    "final_x": "3679049.33698",
    "final_y": "549506.143123",
    "longitude": "-90.075185029604",
    "latitude": "30.005025517715044",
    "geocoded_column": {
      "latitude": "30.005025517715044",
      "longitude": "-90.075185029604"
    }
  },
  {
    "service_request": "2025-1241284",
    "request_type": "Trash/Recycling",
    "request_reason": "Replace Trash Cart",
    "date_created": "2025-11-19T18:23:06.000",
    "date_modified": "2025-11-19T18:23:09.000",
    "request_status": "Pending",
    "responsible_agency": "Department of Sanitation",
    "final_address": "4006 Prytania St",
    "address_councildis": "B",
    "status": "Assigned to Contractor",
    "contractor": "IV Waste",
    "rowid": "1241284",
    "final_x": "3672283.82497",
    "final_y": "520418.623032",
    "longitude": "-90.09754980294974",
    "latitude": "29.92524712068099",
    "geocoded_column": {
      "latitude": "29.92524712068099",
      "longitude": "-90.09754980294974"
    }
  },
  {
    "service_request": "2025-1241283",
    "request_type": "Trash/Recycling",
    "request_reason": "Return Trash Cart",
    "date_created": "2025-11-19T18:16:06.000",
    "date_modified": "2025-11-19T18:16:09.000",
    "request_status": "Pending",
    "responsible_agency": "Department of Sanitation",
    "final_address": "3004 St Ann St",
    "address_councildis": "A",
    "status": "Assigned to Contractor",
    "contractor": "IV Waste",
    "rowid": "1241283",
    "final_x": "3675863.21659",
    "final_y": "537981.535497",
    "longitude": "-90.08564710428935",
    "latitude": "29.973432664473787",
    "geocoded_column": {
      "latitude": "29.973432664473787",
      "longitude": "-90.08564710428935"
    }
  },
  {
    "service_request": "2025-1241282",
    "request_type": "Trash/Recycling",
    "request_reason": "MIssed Recycling Pick-Up",
    "date_created": "2025-11-19T18:08:34.000",
    "date_modified": "2025-11-19T18:08:36.000",
    "request_status": "Pending",
    "responsible_agency": "Department of Sanitation",
    "final_address": "3432 Nashville Ave",
    "address_councildis": "A",
    "status": "Assigned to Contractor",
    "contractor": "IV Waste",
    "rowid": "1241282",
    "final_x": "3668056.04615",
    "final_y": "528406.144256",
    "longitude": "-90.1106265495814",
    "latitude": "29.947334939512125",
    "geocoded_column": {
      "latitude": "29.947334939512125",
      "longitude": "-90.1106265495814"
    }
  },
  {
    "service_request": "2025-1241281",
    "request_type": "Trash/Recycling",
    "request_reason": "Request a Large Item Pick Up",
    "date_created": "2025-11-19T17:43:24.000",
    "date_modified": "2025-11-19T17:43:26.000",
    "request_status": "Pending",
    "responsible_agency": "Department of Sanitation",
    "final_address": "5726 Durham Dr",
    "address_councildis": "C",
    "status": "Assigned to Contractor",
    "contractor": "Richards Disposal",
    "rowid": "1241281",
    "final_x": "3705214.46839",
    "final_y": "518879.177143",
    "longitude": "-89.99365584280964",
    "latitude": "29.919996545248093",
    "geocoded_column": {
      "latitude": "29.919996545248093",
      "longitude": "-89.99365584280964"
    }
  },
  {
    "service_request": "2025-1241280",
    "request_type": "Trash/Recycling",
    "request_reason": "Missed Trash Pick-Up",
    "date_created": "2025-11-19T17:31:59.000",
    "date_modified": "2025-11-19T17:32:01.000",
    "request_status": "Pending",
    "responsible_agency": "Department of Sanitation",
    "final_address": "1930 State St",
    "address_councildis": "A",
    "status": "Assigned to Contractor",
    "contractor": "IV Waste",
    "rowid": "1241280",
    "final_x": "3666180.63591",
    "final_y": "524024.275388",
    "longitude": "-90.11669485948651",
    "latitude": "29.935341101152154",
    "geocoded_column": {
      "latitude": "29.935341101152154",
      "longitude": "-90.11669485948651"
    }
  },
  {
    "service_request": "2025-1241279",
    "request_type": "Mosquito, Termite & Rodent Control",
    "request_reason": "Mosquito Complaint",
    "date_created": "2025-11-19T17:26:28.000",
    "date_modified": "2025-11-19T17:26:29.000",
    "request_status": "Pending",
    "responsible_agency": "Mosquito, Termite & Rodent Control Board",
    "final_address": "3521 Hyman Ct",
    "address_councildis": "C",
    "status": "Pending",
    "rowid": "1241279",
    "final_x": "3700864.94135",
    "final_y": "518044.295734",
    "longitude": "-90.00741560157614",
    "latitude": "29.917840020019778",
    "geocoded_column": {
      "latitude": "29.917840020019778",
      "longitude": "-90.00741560157614"
    }
  },
  {
    "service_request": "2025-1241278",
    "request_type": "Trash/Recycling",
    "request_reason": "MIssed Recycling Pick-Up",
    "date_created": "2025-11-19T17:24:23.000",
    "date_modified": "2025-11-19T17:24:24.000",
    "request_status": "Pending",
    "responsible_agency": "Department of Sanitation",
    "final_address": "252 Audubon Blvd",
    "address_councildis": "A",
    "status": "Assigned to Contractor",
    "contractor": "IV Waste",
    "rowid": "1241278",
    "final_x": "3666659.46881",
    "final_y": "529268.423553",
    "longitude": "-90.11500714602647",
    "latitude": "29.949746831412483",
    "geocoded_column": {
      "latitude": "29.949746831412483",
      "longitude": "-90.11500714602647"
    }
  },
  {
    "service_request": "2025-1241277",
    "request_type": "Healthy Homes",
    "request_reason": "Healthy Homes",
    "date_created": "2025-11-19T17:23:08.000",
    "date_modified": "2025-11-19T17:23:11.000",
    "request_status": "Pending",
    "responsible_agency": "Department of Code Enforcement",
    "final_address": "2025 N Johnson St",
    "address_councildis": "D",
    "status": "Pending",
    "rowid": "1241277",
    "final_x": "3683852.43695",
    "final_y": "539583.374474",
    "longitude": "-90.06035932147238",
    "latitude": "29.977595542682767",
    "geocoded_column": {
      "latitude": "29.977595542682767",
      "longitude": "-90.06035932147238"
    }
  },
  {
    "service_request": "2025-1241276",
    "request_type": "Abandoned Vehicles",
    "request_reason": "Abandoned/Junk Vehicles",
    "date_created": "2025-11-19T17:09:39.000",
    "date_modified": "2025-11-19T17:09:40.000",
    "request_status": "Pending",
    "responsible_agency": "Department of Public Works",
    "final_address": "2100 BLK Montegut St",
    "address_councildis": "D",
    "status": "Pending",
    "rowid": "1241276",
    "final_x": "3689429.03974",
    "final_y": "540101.21322",
    "longitude": "-90.04272815138883",
    "latitude": "29.978847886813796",
    "geocoded_column": {
      "latitude": "29.978847886813796",
      "longitude": "-90.04272815138883"
    }
  },
  {
    "service_request": "2025-1241275",
    "request_type": "Trash/Recycling",
    "request_reason": "Repair Trash Cart",
    "date_created": "2025-11-19T17:05:35.000",
    "date_modified": "2025-11-19T17:05:36.000",
    "request_status": "Pending",
    "responsible_agency": "Department of Sanitation",
    "final_address": "3019 Audubon St",
    "address_councildis": "B",
    "status": "Assigned to Contractor",
    "contractor": "IV Waste",
    "rowid": "1241275",
    "final_x": "3668043.80391",
    "final_y": "531772.815747",
    "longitude": "-90.11055176657815",
    "latitude": "29.95659254553186",
    "geocoded_column": {
      "latitude": "29.95659254553186",
      "longitude": "-90.11055176657815"
    }
  },
  {
    "service_request": "2025-1241274",
    "request_type": "Trash/Recycling",
    "request_reason": "Request a Large Item Pick Up",
    "date_created": "2025-11-19T17:05:02.000",
    "date_modified": "2025-11-19T17:05:09.000",
    "request_status": "Pending",
    "responsible_agency": "Department of Sanitation",
    "final_address": "509 Olivier St",
    "address_councildis": "C",
    "status": "Assigned to Contractor",
    "contractor": "Richards Disposal",
    "rowid": "1241274",
    "final_x": "3687226.60534",
    "final_y": "529834.844673",
    "longitude": "-90.05004740202222",
    "latitude": "29.950686967732675",
    "geocoded_column": {
      "latitude": "29.950686967732675",
      "longitude": "-90.05004740202222"
    }
  },
  {
    "service_request": "2025-1241273",
    "request_type": "Abandoned Vehicles",
    "request_reason": "Abandoned/Junk Vehicles",
    "date_created": "2025-11-19T16:55:44.000",
    "date_modified": "2025-11-19T16:55:45.000",
    "request_status": "Pending",
    "responsible_agency": "Department of Public Works",
    "final_address": "1430 Lizardi St",
    "address_councildis": "E",
    "status": "Pending",
    "rowid": "1241273",
    "final_x": "3696883.22269",
    "final_y": "535538.11271",
    "longitude": "-90.01935041309133",
    "latitude": "29.966068033010078",
    "geocoded_column": {
      "latitude": "29.966068033010078",
      "longitude": "-90.01935041309133"
    }
  },
  {
    "service_request": "2025-1241272",
    "request_type": "Streetlights",
    "request_reason": "Streetlight Outage/Malfunction",
    "date_created": "2025-11-19T16:54:48.000",
    "date_modified": "2025-11-19T16:54:50.000",
    "request_status": "Pending",
    "responsible_agency": "Department of Public Works",
    "final_address": "1430 Lizardi St",
    "address_councildis": "E",
    "status": "Pending",
    "rowid": "1241272",
    "final_x": "3696883.22269",
    "final_y": "535538.11271",
    "longitude": "-90.01935041309133",
    "latitude": "29.966068033010078",
    "geocoded_column": {
      "latitude": "29.966068033010078",
      "longitude": "-90.01935041309133"
    }
  },
  {
    "service_request": "2025-1241271",
    "request_type": "Trash/Recycling",
    "request_reason": "Dead Animal Pick Up",
    "date_created": "2025-11-19T16:53:15.000",
    "date_modified": "2025-11-19T16:53:16.000",
    "request_status": "Pending",
    "responsible_agency": "Department of Sanitation",
    "final_address": "3917 Urquhart St",
    "address_councildis": "D",
    "status": "Assigned to Contractor",
    "contractor": "IV Waste",
    "rowid": "1241271",
    "final_x": "3691857.29449",
    "final_y": "536181.229575",
    "longitude": "-90.03519909547717",
    "latitude": "29.967993895368746",
    "geocoded_column": {
      "latitude": "29.967993895368746",
      "longitude": "-90.03519909547717"
    }
  },
  {
    "service_request": "2025-1241270",
    "request_type": "Trash/Recycling",
    "request_reason": "Repair Trash Cart",
    "date_created": "2025-11-19T16:50:55.000",
    "date_modified": "2025-11-19T16:50:57.000",
    "request_status": "Pending",
    "responsible_agency": "Department of Sanitation",
    "final_address": "3316 Elysian Fields Ave",
    "address_councildis": "D",
    "status": "Assigned to Contractor",
    "contractor": "IV Waste",
    "rowid": "1241270",
    "final_x": "3684175.51484",
    "final_y": "544927.151247",
    "longitude": "-90.05915125506478",
    "latitude": "29.992279169426656",
    "geocoded_column": {
      "latitude": "29.992279169426656",
      "longitude": "-90.05915125506478"
    }
  },
  {
    "service_request": "2025-1241269",
    "request_type": "Trash/Recycling",
    "request_reason": "Request a Large Item Pick Up",
    "date_created": "2025-11-19T16:49:33.000",
    "date_modified": "2025-11-19T16:49:35.000",
    "request_status": "Pending",
    "responsible_agency": "Department of Sanitation",
    "final_address": "3316 Elysian Fields Ave",
    "address_councildis": "D",
    "status": "Assigned to Contractor",
    "contractor": "IV Waste",
    "rowid": "1241269",
    "final_x": "3684175.51484",
    "final_y": "544927.151247",
    "longitude": "-90.05915125506478",
    "latitude": "29.992279169426656",
    "geocoded_column": {
      "latitude": "29.992279169426656",
      "longitude": "-90.05915125506478"
    }
  },
  {
    "service_request": "2025-1241268",
    "request_type": "Trash/Recycling",
    "request_reason": "Request a Large Item Pick Up",
    "date_created": "2025-11-19T16:41:22.000",
    "date_modified": "2025-11-19T16:41:23.000",
    "request_status": "Pending",
    "responsible_agency": "Department of Sanitation",
    "final_address": "2127 St Ann St",
    "address_councildis": "D",
    "status": "Assigned to Contractor",
    "contractor": "IV Waste",
    "rowid": "1241268",
    "final_x": "3678683.52232",
    "final_y": "535918.730887",
    "longitude": "-90.07681143249759",
    "latitude": "29.96767591558673",
    "geocoded_column": {
      "latitude": "29.96767591558673",
      "longitude": "-90.07681143249759"
    }
  },
  {
    "service_request": "2025-1241267",
    "request_type": "Trash/Recycling",
    "request_reason": "Request a Large Item Pick Up",
    "date_created": "2025-11-19T16:38:18.000",
    "date_modified": "2025-11-19T16:38:19.000",
    "request_status": "Pending",
    "responsible_agency": "Department of Sanitation",
    "final_address": "1349 Moss St",
    "address_councildis": "A",
    "status": "Assigned to Contractor",
    "contractor": "IV Waste",
    "rowid": "1241267",
    "final_x": "3674694.29096",
    "final_y": "540581.517387",
    "longitude": "-90.08924966588515",
    "latitude": "29.980616672267214",
    "geocoded_column": {
      "latitude": "29.980616672267214",
      "longitude": "-90.08924966588515"
    }
  },
  {
    "service_request": "2025-1241266",
    "request_type": "Roads and Streets",
    "request_reason": "Sidewalk Damaged or Missing",
    "date_created": "2025-11-19T16:34:26.000",
    "date_modified": "2025-11-19T16:34:27.000",
    "request_status": "Pending",
    "responsible_agency": "Department of Public Works",
    "final_address": "540 Burgundy St",
    "address_councildis": "C",
    "status": "Pending",
    "rowid": "1241266",
    "final_x": "3681428.20802",
    "final_y": "532730.959428",
    "longitude": "-90.06825479779992",
    "latitude": "29.958827589490276",
    "geocoded_column": {
      "latitude": "29.958827589490276",
      "longitude": "-90.06825479779992"
    }
  },
  {
    "service_request": "2025-1241265",
    "request_type": "Trash/Recycling",
    "request_reason": "Request a Large Item Pick Up",
    "date_created": "2025-11-19T16:34:17.000",
    "date_modified": "2025-11-19T16:34:19.000",
    "request_status": "Pending",
    "responsible_agency": "Department of Sanitation",
    "final_address": "2629 Hyman Pl",
    "address_councildis": "C",
    "status": "Assigned to Contractor",
    "contractor": "Richards Disposal",
    "rowid": "1241265",
    "final_x": "3700995.98193",
    "final_y": "521358.352825",
    "longitude": "-90.00688088674787",
    "latitude": "29.926948368346782",
    "geocoded_column": {
      "latitude": "29.926948368346782",
      "longitude": "-90.00688088674787"
    }
  },
  {
    "service_request": "2025-1241264",
    "request_type": "Trash/Recycling",
    "request_reason": "Missed Trash Pick-Up",
    "date_created": "2025-11-19T16:29:39.000",
    "date_modified": "2025-11-19T16:29:41.000",
    "request_status": "Pending",
    "responsible_agency": "Department of Sanitation",
    "final_address": "4700 BLK Warren Dr",
    "address_councildis": "E",
    "status": "Assigned to Contractor",
    "contractor": "Waste Pro",
    "rowid": "1241264",
    "final_x": "3713478.21211",
    "final_y": "556083.819378",
    "longitude": "-89.96617028111261",
    "latitude": "30.02202717316371",
    "geocoded_column": {
      "latitude": "30.02202717316371",
      "longitude": "-89.96617028111261"
    }
  },
  {
    "service_request": "2025-1241263",
    "request_type": "Trash/Recycling",
    "request_reason": "Replace Trash Cart",
    "date_created": "2025-11-19T16:24:25.000",
    "date_modified": "2025-11-19T16:24:27.000",
    "request_status": "Pending",
    "responsible_agency": "Department of Sanitation",
    "final_address": "3115 Milan St",
    "address_councildis": "B",
    "status": "Assigned to Contractor",
    "contractor": "IV Waste",
    "rowid": "1241263",
    "final_x": "3671081.11297",
    "final_y": "526461.115134",
    "longitude": "-90.10114127574448",
    "latitude": "29.941897638274888",
    "geocoded_column": {
      "latitude": "29.941897638274888",
      "longitude": "-90.10114127574448"
    }
  },
  {
    "service_request": "2025-1241262",
    "request_type": "Trash/Recycling",
    "request_reason": "Repair Trash Cart",
    "date_created": "2025-11-19T16:20:28.000",
    "date_modified": "2025-11-19T16:20:30.000",
    "request_status": "Pending",
    "responsible_agency": "Department of Sanitation",
    "final_address": "1025 Terpsichore St",
    "address_councildis": "B",
    "status": "Assigned to Contractor",
    "contractor": "IV Waste",
    "rowid": "1241262",
    "final_x": "3680551.04866",
    "final_y": "524519.651452",
    "longitude": "-90.071310225742",
    "latitude": "29.93627584536459",
    "geocoded_column": {
      "latitude": "29.93627584536459",
      "longitude": "-90.071310225742"
    }
  },
  {
    "service_request": "2025-1241261",
    "request_type": "Trash/Recycling",
    "request_reason": "Request a Large Item Pick Up",
    "date_created": "2025-11-19T16:16:22.000",
    "date_modified": "2025-11-19T16:16:24.000",
    "request_status": "Pending",
    "responsible_agency": "Department of Sanitation",
    "final_address": "1900 Deslonde St",
    "address_councildis": "E",
    "status": "Assigned to Contractor",
    "contractor": "Waste Pro",
    "rowid": "1241261",
    "final_x": "3696196.5441",
    "final_y": "537440.014344",
    "longitude": "-90.02145015021996",
    "latitude": "29.97131921809821",
    "geocoded_column": {
      "latitude": "29.97131921809821",
      "longitude": "-90.02145015021996"
    }
  },
  {
    "service_request": "2025-1241260",
    "request_type": "Trash/Recycling",
    "request_reason": "Request a Large Item Pick Up",
    "date_created": "2025-11-19T16:15:48.000",
    "date_modified": "2025-11-19T16:15:50.000",
    "request_status": "Pending",
    "responsible_agency": "Department of Sanitation",
    "final_address": "12 Carriage Ln",
    "address_councildis": "C",
    "status": "Assigned to Contractor",
    "contractor": "Richards Disposal",
    "rowid": "1241260",
    "final_x": "3695940.59587",
    "final_y": "519889.315384",
    "longitude": "-90.0228923632517",
    "latitude": "29.923068964092447",
    "geocoded_column": {
      "latitude": "29.923068964092447",
      "longitude": "-90.0228923632517"
    }
  },
  {
    "service_request": "2025-1241259",
    "request_type": "Trash/Recycling",
    "request_reason": "Replace Trash Cart",
    "date_created": "2025-11-19T16:15:29.000",
    "date_modified": "2025-11-19T16:15:30.000",
    "request_status": "Pending",
    "responsible_agency": "Department of Sanitation",
    "final_address": "1222 Baronne St",
    "address_councildis": "B",
    "status": "Assigned to Contractor",
    "contractor": "IV Waste",
    "rowid": "1241259",
    "final_x": "3678883.02626",
    "final_y": "526653.975422",
    "longitude": "-90.07650231801424",
    "latitude": "29.942194940485205",
    "geocoded_column": {
      "latitude": "29.942194940485205",
      "longitude": "-90.07650231801424"
    }
  },
  {
    "service_request": "2025-1241258",
    "request_type": "Trash/Recycling",
    "request_reason": "Illegal Dumping",
    "date_created": "2025-11-19T16:14:11.000",
    "date_modified": "2025-11-19T16:14:12.000",
    "request_status": "Pending",
    "responsible_agency": "Department of Sanitation",
    "final_address": "3285 Potomac St",
    "address_councildis": "C",
    "status": "Pending",
    "rowid": "1241258",
    "final_x": "3694882.31549",
    "final_y": "517536.244342",
    "longitude": "-90.02631765520378",
    "latitude": "29.916632049428795",
    "geocoded_column": {
      "latitude": "29.916632049428795",
      "longitude": "-90.02631765520378"
    }
  },
  {
    "service_request": "2025-1241257",
    "request_type": "Trash/Recycling",
    "request_reason": "Request a Large Item Pick Up",
    "date_created": "2025-11-19T16:14:08.000",
    "date_modified": "2025-11-19T16:14:09.000",
    "request_status": "Pending",
    "responsible_agency": "Department of Sanitation",
    "final_address": "4802 Lynhuber Dr",
    "address_councildis": "D",
    "status": "Assigned to Contractor",
    "contractor": "Waste Pro",
    "rowid": "1241257",
    "final_x": "3697927.19415",
    "final_y": "554610.959384",
    "longitude": "-90.01536080104947",
    "latitude": "30.01847838578209",
    "geocoded_column": {
      "latitude": "30.01847838578209",
      "longitude": "-90.01536080104947"
    }
  },
  {
    "service_request": "2025-1241256",
    "request_type": "Trash/Recycling",
    "request_reason": "Repair Trash Cart",
    "date_created": "2025-11-19T16:13:41.000",
    "date_modified": "2025-11-19T16:13:43.000",
    "request_status": "Pending",
    "responsible_agency": "Department of Sanitation",
    "final_address": "941 N White St",
    "address_councildis": "A",
    "status": "Assigned to Contractor",
    "contractor": "IV Waste",
    "rowid": "1241256",
    "final_x": "3676876.41499",
    "final_y": "538154.662409",
    "longitude": "-90.08244124221225",
    "latitude": "29.973878329603984",
    "geocoded_column": {
      "latitude": "29.973878329603984",
      "longitude": "-90.08244124221225"
    }
  },
  {
    "service_request": "2025-1241255",
    "request_type": "Trash/Recycling",
    "request_reason": "Missed Trash Pick-Up",
    "date_created": "2025-11-19T16:11:32.000",
    "date_modified": "2025-11-19T16:37:50.000",
    "case_close_date": "2025-11-19T10:37:49.000",
    "request_status": "Closed",
    "responsible_agency": "Department of Sanitation",
    "final_address": "1610 Bordeaux St",
    "address_councildis": "B",
    "status": "Invalid Request",
    "contractor": "IV Waste",
    "contractor_action": "Invalid Request",
    "rowid": "1241255",
    "final_x": "3669332.72654",
    "final_y": "520893.159737",
    "longitude": "-90.10684947904718",
    "latitude": "29.926639131006198",
    "geocoded_column": {
      "latitude": "29.926639131006198",
      "longitude": "-90.10684947904718"
    }
  },
  {
    "service_request": "2025-1241254",
    "request_type": "Roads and Streets",
    "request_reason": "Pothole",
    "date_created": "2025-11-19T16:10:11.000",
    "date_modified": "2025-11-19T16:10:12.000",
    "request_status": "Pending",
    "responsible_agency": "Department of Public Works",
    "final_address": "3285 Potomac St",
    "address_councildis": "C",
    "status": "Pending",
    "rowid": "1241254",
    "final_x": "3694882.31549",
    "final_y": "517536.244342",
    "longitude": "-90.02631765520378",
    "latitude": "29.916632049428795",
    "geocoded_column": {
      "latitude": "29.916632049428795",
      "longitude": "-90.02631765520378"
    }
  },
  {
    "service_request": "2025-1241253",
    "request_type": "Streetlights",
    "request_reason": "Streetlight Outage/Malfunction",
    "date_created": "2025-11-19T16:04:00.000",
    "date_modified": "2025-11-19T16:04:02.000",
    "request_status": "Pending",
    "responsible_agency": "Department of Public Works",
    "final_address": "2549 Banks St",
    "address_councildis": "B",
    "status": "Pending",
    "rowid": "1241253",
    "final_x": "3675148.01403",
    "final_y": "533816.262341",
    "longitude": "-90.08804882988795",
    "latitude": "29.962000967671727",
    "geocoded_column": {
      "latitude": "29.962000967671727",
      "longitude": "-90.08804882988795"
    }
  },
  {
    "service_request": "2025-1241252",
    "request_type": "Trash/Recycling",
    "request_reason": "Request a Large Item Pick Up",
    "date_created": "2025-11-19T16:02:44.000",
    "date_modified": "2025-11-19T16:02:46.000",
    "request_status": "Pending",
    "responsible_agency": "Department of Sanitation",
    "final_address": "7856 Venice Blvd",
    "address_councildis": "E",
    "status": "Assigned to Contractor",
    "contractor": "Waste Pro",
    "rowid": "1241252",
    "final_x": "3720586.24665",
    "final_y": "574864.988331",
    "longitude": "-89.94299092887749",
    "latitude": "30.07343253181211",
    "geocoded_column": {
      "latitude": "30.07343253181211",
      "longitude": "-89.94299092887749"
    }
  },
  {
    "service_request": "2025-1241251",
    "request_type": "Trash/Recycling",
    "request_reason": "Request a Large Item Pick Up",
    "date_created": "2025-11-19T15:59:58.000",
    "date_modified": "2025-11-19T16:48:42.000",
    "request_status": "Pending",
    "responsible_agency": "Department of Sanitation",
    "final_address": "7862 Venice Blvd",
    "address_councildis": "E",
    "status": "Assigned to Contractor",
    "contractor": "Waste Pro",
    "rowid": "1241251",
    "final_x": "3720548.53305",
    "final_y": "574899.049515",
    "longitude": "-89.94310884771888",
    "latitude": "30.073527443799744",
    "geocoded_column": {
      "latitude": "30.073527443799744",
      "longitude": "-89.94310884771888"
    }
  },
  {
    "service_request": "2025-1241250",
    "request_type": "Roads and Streets",
    "request_reason": "Curb Damage",
    "date_created": "2025-11-19T15:50:43.000",
    "date_modified": "2025-11-19T15:50:45.000",
    "request_status": "Pending",
    "responsible_agency": "Department of Public Works",
    "final_address": "3915 Mistletoe St",
    "address_councildis": "A",
    "status": "Pending",
    "rowid": "1241250",
    "final_x": "3665736.59418",
    "final_y": "538151.928585",
    "longitude": "-90.1176234986958",
    "latitude": "29.974200499472207",
    "geocoded_column": {
      "latitude": "29.974200499472207",
      "longitude": "-90.1176234986958"
    }
  },
  {
    "service_request": "2025-1241249",
    "request_type": "Trash/Recycling",
    "request_reason": "Request a Large Item Pick Up",
    "date_created": "2025-11-19T15:49:22.000",
    "date_modified": "2025-11-19T15:49:23.000",
    "request_status": "Pending",
    "responsible_agency": "Department of Sanitation",
    "final_address": "4620 Lynhuber Dr",
    "address_councildis": "D",
    "status": "Assigned to Contractor",
    "contractor": "Waste Pro",
    "rowid": "1241249",
    "final_x": "3698019.75549",
    "final_y": "553677.283415",
    "longitude": "-90.01510228183413",
    "latitude": "30.015908202466523",
    "geocoded_column": {
      "latitude": "30.015908202466523",
      "longitude": "-90.01510228183413"
    }
  },
  {
    "service_request": "2025-1241248",
    "request_type": "Traffic Safety",
    "request_reason": "Request for Traffic Calming due to Speeding",
    "date_created": "2025-11-19T15:49:18.000",
    "date_modified": "2025-11-19T15:49:20.000",
    "request_status": "Pending",
    "responsible_agency": "Department of Public Works",
    "final_address": "4500 BLK Carondelet St",
    "address_councildis": "B",
    "status": "Pending",
    "rowid": "1241248",
    "final_x": "3670237.86782",
    "final_y": "521185.944292",
    "longitude": "-90.10398227134947",
    "latitude": "29.927417523954603",
    "geocoded_column": {
      "latitude": "29.927417523954603",
      "longitude": "-90.10398227134947"
    }
  },
  {
    "service_request": "2025-1241247",
    "request_type": "Roads and Streets",
    "request_reason": "Pothole",
    "date_created": "2025-11-19T15:38:52.000",
    "date_modified": "2025-11-19T15:38:53.000",
    "request_status": "Pending",
    "responsible_agency": "Department of Public Works",
    "final_address": "5200 Chamberlain Dr",
    "address_councildis": "D",
    "status": "Pending",
    "rowid": "1241247",
    "final_x": "3679462.88687",
    "final_y": "551355.285909",
    "longitude": "-90.07381432572323",
    "latitude": "30.01009750535676",
    "geocoded_column": {
      "latitude": "30.01009750535676",
      "longitude": "-90.07381432572323"
    }
  },
  {
    "service_request": "2025-1241246",
    "request_type": "Trash/Recycling",
    "request_reason": "Request a Large Item Pick Up",
    "date_created": "2025-11-19T15:38:35.000",
    "date_modified": "2025-11-19T15:38:37.000",
    "request_status": "Pending",
    "responsible_agency": "Department of Sanitation",
    "final_address": "2034 Beck St",
    "address_councildis": "C",
    "status": "Assigned to Contractor",
    "contractor": "Richards Disposal",
    "rowid": "1241246",
    "final_x": "3700512.71281",
    "final_y": "523720.256955",
    "longitude": "-90.00832021254666",
    "latitude": "29.933458161627144",
    "geocoded_column": {
      "latitude": "29.933458161627144",
      "longitude": "-90.00832021254666"
    }
  },
  {
    "service_request": "2025-1241245",
    "request_type": "Trash/Recycling",
    "request_reason": "Request a Large Item Pick Up",
    "date_created": "2025-11-19T15:28:30.000",
    "date_modified": "2025-11-19T15:28:32.000",
    "request_status": "Pending",
    "responsible_agency": "Department of Sanitation",
    "final_address": "5344 Pasteur Blvd",
    "address_councildis": "D",
    "status": "Assigned to Contractor",
    "contractor": "IV Waste",
    "rowid": "1241245",
    "final_x": "3682809.96552",
    "final_y": "552768.326934",
    "longitude": "-90.0631901963248",
    "latitude": "30.013881267198876",
    "geocoded_column": {
      "latitude": "30.013881267198876",
      "longitude": "-90.0631901963248"
    }
  },
  {
    "service_request": "2025-1241244",
    "request_type": "Trash/Recycling",
    "request_reason": "Illegal Dumping",
    "date_created": "2025-11-19T15:27:17.000",
    "date_modified": "2025-11-19T15:27:18.000",
    "request_status": "Pending",
    "responsible_agency": "Department of Sanitation",
    "final_address": "2007 Kerlerec St",
    "address_councildis": "D",
    "status": "Pending",
    "rowid": "1241244",
    "final_x": "3680336.08456",
    "final_y": "537833.098633",
    "longitude": "-90.07152602608832",
    "latitude": "29.972889836108035",
    "geocoded_column": {
      "latitude": "29.972889836108035",
      "longitude": "-90.07152602608832"
    }
  },
  {
    "service_request": "2025-1241243",
    "request_type": "Trash/Recycling",
    "request_reason": "Request a Large Item Pick Up",
    "date_created": "2025-11-19T15:26:30.000",
    "date_modified": "2025-11-19T15:27:34.000",
    "request_status": "Pending",
    "responsible_agency": "Department of Sanitation",
    "final_address": "4838 Stemway Dr",
    "address_councildis": "D",
    "status": "Assigned to Contractor",
    "contractor": "Waste Pro",
    "rowid": "1241243",
    "final_x": "3696792.52291",
    "final_y": "554737.975192",
    "longitude": "-90.01894132379844",
    "latitude": "30.01886346857524",
    "geocoded_column": {
      "latitude": "30.01886346857524",
      "longitude": "-90.01894132379844"
    }
  },
  {
    "service_request": "2025-1241242",
    "request_type": "Property Maintenance",
    "request_reason": "Property Maintenance",
    "date_created": "2025-11-19T15:25:09.000",
    "date_modified": "2025-11-19T15:25:11.000",
    "request_status": "Pending",
    "responsible_agency": "Department of Code Enforcement",
    "final_address": "7304 Colapissa St",
    "address_councildis": "B",
    "status": "Pending",
    "rowid": "1241242",
    "final_x": "3667617.86477",
    "final_y": "532362.023491",
    "longitude": "-90.11187691535063",
    "latitude": "29.958225164791013",
    "geocoded_column": {
      "latitude": "29.958225164791013",
      "longitude": "-90.11187691535063"
    }
  },
  {
    "service_request": "2025-1241241",
    "request_type": "Trash/Recycling",
    "request_reason": "Request a Large Item Pick Up",
    "date_created": "2025-11-19T15:24:41.000",
    "date_modified": "2025-11-19T15:24:42.000",
    "request_status": "Pending",
    "responsible_agency": "Department of Sanitation",
    "final_address": "4211 Vixen St",
    "address_councildis": "C",
    "status": "Assigned to Contractor",
    "contractor": "Richards Disposal",
    "rowid": "1241241",
    "final_x": "3699164.00029",
    "final_y": "520669.237177",
    "longitude": "-90.01268900714909",
    "latitude": "29.925111723205504",
    "geocoded_column": {
      "latitude": "29.925111723205504",
      "longitude": "-90.01268900714909"
    }
  },
  {
    "service_request": "2025-1241240",
    "request_type": "Trash/Recycling",
    "request_reason": "Replace Trash Cart",
    "date_created": "2025-11-19T15:23:19.000",
    "date_modified": "2025-11-19T15:23:20.000",
    "request_status": "Pending",
    "responsible_agency": "Department of Sanitation",
    "final_address": "917 N Villere St",
    "address_councildis": "C",
    "status": "Assigned to Contractor",
    "contractor": "IV Waste",
    "rowid": "1241240",
    "final_x": "3680778.88245",
    "final_y": "534922.715462",
    "longitude": "-90.0702289086545",
    "latitude": "29.96487386755611",
    "geocoded_column": {
      "latitude": "29.96487386755611",
      "longitude": "-90.0702289086545"
    }
  },
  {
    "service_request": "2025-1241239",
    "request_type": "Property Maintenance",
    "request_reason": "Property Maintenance",
    "date_created": "2025-11-19T15:23:16.000",
    "date_modified": "2025-11-19T15:23:19.000",
    "request_status": "Pending",
    "responsible_agency": "Department of Code Enforcement",
    "final_address": "2305 Gentilly Blvd",
    "address_councildis": "D",
    "status": "Pending",
    "rowid": "1241239",
    "final_x": "3680983.50511",
    "final_y": "544741.182927",
    "longitude": "-90.06924066401311",
    "latitude": "29.991865035784866",
    "geocoded_column": {
      "latitude": "29.991865035784866",
      "longitude": "-90.06924066401311"
    }
  },
  {
    "service_request": "2025-1241238",
    "request_type": "Trash/Recycling",
    "request_reason": "Request a Large Item Pick Up",
    "date_created": "2025-11-19T15:22:40.000",
    "date_modified": "2025-11-19T15:22:42.000",
    "request_status": "Pending",
    "responsible_agency": "Department of Sanitation",
    "final_address": "7169 Parkside Ct",
    "address_councildis": "E",
    "status": "Assigned to Contractor",
    "contractor": "Waste Pro",
    "rowid": "1241238",
    "final_x": "3704391.8794",
    "final_y": "560507.756126",
    "longitude": "-89.99471726024105",
    "latitude": "30.03448624598184",
    "geocoded_column": {
      "latitude": "30.03448624598184",
      "longitude": "-89.99471726024105"
    }
  },
  {
    "service_request": "2025-1241237",
    "request_type": "Trash/Recycling",
    "request_reason": "Request a Large Item Pick Up",
    "date_created": "2025-11-19T15:21:53.000",
    "date_modified": "2025-11-19T15:21:55.000",
    "request_status": "Pending",
    "responsible_agency": "Department of Sanitation",
    "final_address": "2723 Mandeville St",
    "address_councildis": "D",
    "status": "Assigned to Contractor",
    "contractor": "IV Waste",
    "rowid": "1241237",
    "final_x": "3685290.38485",
    "final_y": "542865.488845",
    "longitude": "-90.05570221966447",
    "latitude": "29.986576195610706",
    "geocoded_column": {
      "latitude": "29.986576195610706",
      "longitude": "-90.05570221966447"
    }
  },
  {
    "service_request": "2025-1241236",
    "request_type": "Property Maintenance",
    "request_reason": "Property Maintenance",
    "date_created": "2025-11-19T15:20:47.000",
    "date_modified": "2025-11-19T15:20:49.000",
    "request_status": "Pending",
    "responsible_agency": "Department of Code Enforcement",
    "final_address": "2725 Amazon St",
    "address_councildis": "C",
    "status": "Pending",
    "rowid": "1241236",
    "final_x": "3693254.12649",
    "final_y": "521608.371193",
    "longitude": "-90.03131081375462",
    "latitude": "29.927879993652425",
    "geocoded_column": {
      "latitude": "29.927879993652425",
      "longitude": "-90.03131081375462"
    }
  },
  {
    "service_request": "2025-1241235",
    "request_type": "Trash/Recycling",
    "request_reason": "Illegal Dumping",
    "date_created": "2025-11-19T15:18:59.000",
    "date_modified": "2025-11-19T15:19:01.000",
    "request_status": "Pending",
    "responsible_agency": "Department of Sanitation",
    "final_address": "8200 BLK Edinburgh St",
    "address_councildis": "A",
    "status": "Pending",
    "rowid": "1241235",
    "final_x": "3667079.3246",
    "final_y": "534798.110966",
    "longitude": "-90.11349559111014",
    "latitude": "29.964939376724672",
    "geocoded_column": {
      "latitude": "29.964939376724672",
      "longitude": "-90.11349559111014"
    }
  },
  {
    "service_request": "2025-1241234",
    "request_type": "Trash/Recycling",
    "request_reason": "Order Trash Cart",
    "date_created": "2025-11-19T15:18:18.000",
    "date_modified": "2025-11-19T15:18:20.000",
    "request_status": "Pending",
    "responsible_agency": "Department of Sanitation",
    "final_address": "3535 Almonaster Ave",
    "address_councildis": "D",
    "status": "Assigned to Contractor",
    "contractor": "IV Waste",
    "rowid": "1241234",
    "final_x": "3689649.84771",
    "final_y": "546139.330192",
    "longitude": "-90.04181580641014",
    "latitude": "29.995443703257852",
    "geocoded_column": {
      "latitude": "29.995443703257852",
      "longitude": "-90.04181580641014"
    }
  },
  {
    "service_request": "2025-1241233",
    "request_type": "Trash/Recycling",
    "request_reason": "Request a Large Item Pick Up",
    "date_created": "2025-11-19T15:13:14.000",
    "date_modified": "2025-11-19T15:13:49.000",
    "request_status": "Pending",
    "responsible_agency": "Department of Sanitation",
    "final_address": "3620 Rue Mignon",
    "address_councildis": "C",
    "status": "Assigned to Contractor",
    "contractor": "Richards Disposal",
    "rowid": "1241233",
    "final_x": "3703378.41111",
    "final_y": "517270.811381",
    "longitude": "-89.99951044240807",
    "latitude": "29.915632990983504",
    "geocoded_column": {
      "latitude": "29.915632990983504",
      "longitude": "-89.99951044240807"
    }
  },
  {
    "service_request": "2025-1241232",
    "request_type": "Road Striping",
    "request_reason": "Crosswalks",
    "date_created": "2025-11-19T15:10:25.000",
    "date_modified": "2025-11-19T15:10:27.000",
    "request_status": "Pending",
    "responsible_agency": "Department of Public Works",
    "final_address": "7400 BLK Leake Ave",
    "address_councildis": "A",
    "status": "Pending",
    "rowid": "1241232",
    "final_x": "3660818.63436",
    "final_y": "523661.673265",
    "longitude": "-90.13363478828873",
    "latitude": "29.934499517609563",
    "geocoded_column": {
      "latitude": "29.934499517609563",
      "longitude": "-90.13363478828873"
    }
  },
  {
    "service_request": "2025-1241231",
    "request_type": "Trash/Recycling",
    "request_reason": "Return Trash Cart",
    "date_created": "2025-11-19T15:06:03.000",
    "date_modified": "2025-11-19T15:06:05.000",
    "request_status": "Pending",
    "responsible_agency": "Department of Sanitation",
    "final_address": "2003 Spain St",
    "address_councildis": "D",
    "status": "Assigned to Contractor",
    "contractor": "IV Waste",
    "rowid": "1241231",
    "final_x": "3685901.45538",
    "final_y": "539766.54433",
    "longitude": "-90.05388137952299",
    "latitude": "29.97803644425867",
    "geocoded_column": {
      "latitude": "29.97803644425867",
      "longitude": "-90.05388137952299"
    }
  },
  {
    "service_request": "2025-1241230",
    "request_type": "Streetlights",
    "request_reason": "New Streetlight Request",
    "date_created": "2025-11-19T15:05:12.000",
    "date_modified": "2025-11-19T15:05:14.000",
    "request_status": "Pending",
    "responsible_agency": "Department of Public Works",
    "final_address": "4670 Arts St",
    "address_councildis": "D",
    "status": "Pending",
    "rowid": "1241230",
    "final_x": "3685870.35273",
    "final_y": "550124.293076",
    "longitude": "-90.05361425645151",
    "latitude": "30.0065175057818",
    "geocoded_column": {
      "latitude": "30.0065175057818",
      "longitude": "-90.05361425645151"
    }
  },
  {
    "service_request": "2025-1241229",
    "request_type": "Trash/Recycling",
    "request_reason": "Repair Trash Cart",
    "date_created": "2025-11-19T15:03:49.000",
    "date_modified": "2025-11-19T15:03:50.000",
    "request_status": "Pending",
    "responsible_agency": "Department of Sanitation",
    "final_address": "3903 Dumaine St",
    "address_councildis": "A",
    "status": "Assigned to Contractor",
    "contractor": "IV Waste",
    "rowid": "1241229",
    "final_x": "3673567.23348",
    "final_y": "540315.015179",
    "longitude": "-90.09281852244517",
    "latitude": "29.97991748152376",
    "geocoded_column": {
      "latitude": "29.97991748152376",
      "longitude": "-90.09281852244517"
    }
  },
  {
    "service_request": "2025-1241228",
    "request_type": "Street and Traffic Signs",
    "request_reason": "Street Name Sign Damaged or Missing",
    "date_created": "2025-11-19T15:02:32.000",
    "date_modified": "2025-11-19T15:02:34.000",
    "request_status": "Pending",
    "responsible_agency": "Department of Public Works",
    "final_address": "PRYTANIA ST & WEBSTER ST",
    "address_councildis": "A",
    "status": "Pending",
    "rowid": "1241228",
    "final_x": "3664715.3",
    "final_y": "521025.78",
    "longitude": "-90.12142106947158",
    "latitude": "29.92713888740081",
    "geocoded_column": {
      "latitude": "29.92713888740081",
      "longitude": "-90.12142106947158"
    }
  },
  {
    "service_request": "2025-1241227",
    "request_type": "Roads and Streets",
    "request_reason": "Sidewalk Damaged or Missing",
    "date_created": "2025-11-19T15:01:48.000",
    "date_modified": "2025-11-19T15:55:42.000",
    "request_status": "Pending",
    "responsible_agency": "Department of Public Works",
    "final_address": "7618 Briarwood Dr",
    "address_councildis": "E",
    "status": "Pending",
    "rowid": "1241227",
    "final_x": "3717544.46328",
    "final_y": "570771.709799",
    "longitude": "-89.95276294500813",
    "latitude": "30.06227886379369",
    "geocoded_column": {
      "latitude": "30.06227886379369",
      "longitude": "-89.95276294500813"
    }
  },
  {
    "service_request": "2025-1241226",
    "request_type": "Trash/Recycling",
    "request_reason": "Request a Large Item Pick Up",
    "date_created": "2025-11-19T14:58:43.000",
    "date_modified": "2025-11-19T14:58:44.000",
    "request_status": "Pending",
    "responsible_agency": "Department of Sanitation",
    "final_address": "4008 S Pin Oak Ave",
    "address_councildis": "C",
    "status": "Assigned to Contractor",
    "contractor": "Richards Disposal",
    "rowid": "1241226",
    "final_x": "3705034.83415",
    "final_y": "513284.162098",
    "longitude": "-89.99442922060724",
    "latitude": "29.904617949891772",
    "geocoded_column": {
      "latitude": "29.904617949891772",
      "longitude": "-89.99442922060724"
    }
  },
  {
    "service_request": "2025-1241225",
    "request_type": "Trash/Recycling",
    "request_reason": "Dead Animal Pick Up",
    "date_created": "2025-11-19T14:58:00.000",
    "date_modified": "2025-11-19T14:59:36.000",
    "request_status": "Pending",
    "responsible_agency": "Department of Sanitation",
    "final_address": "FOUNDERS RD & LEON C SIMON DR & WALDO DR & NEW YORK ST",
    "address_councildis": "D",
    "status": "Assigned to Contractor",
    "contractor": "IV Waste",
    "rowid": "1241225",
    "final_x": "3681063.6",
    "final_y": "556200.58",
    "longitude": "-90.06858812001836",
    "latitude": "30.023371823998335",
    "geocoded_column": {
      "latitude": "30.023371823998335",
      "longitude": "-90.06858812001836"
    }
  },
  {
    "service_request": "2025-1241224",
    "request_type": "Trash/Recycling",
    "request_reason": "Missed Trash Pick-Up",
    "date_created": "2025-11-19T14:56:46.000",
    "date_modified": "2025-11-19T15:48:34.000",
    "case_close_date": "2025-11-19T09:48:33.000",
    "request_status": "Closed",
    "responsible_agency": "Department of Sanitation",
    "final_address": "6325 S Tonti St",
    "address_councildis": "A",
    "status": "Invalid Request",
    "contractor": "IV Waste",
    "contractor_action": "Invalid",
    "rowid": "1241224",
    "final_x": "3667113.55879",
    "final_y": "528595.894528",
    "longitude": "-90.11359597512512",
    "latitude": "29.94788431133433",
    "geocoded_column": {
      "latitude": "29.94788431133433",
      "longitude": "-90.11359597512512"
    }
  },
  {
    "service_request": "2025-1241223",
    "request_type": "Trash/Recycling",
    "request_reason": "Request a Large Item Pick Up",
    "date_created": "2025-11-19T14:54:48.000",
    "date_modified": "2025-11-19T14:54:50.000",
    "request_status": "Pending",
    "responsible_agency": "Department of Sanitation",
    "final_address": "4808 Francisco Verrett Dr",
    "address_councildis": "E",
    "status": "Assigned to Contractor",
    "contractor": "Waste Pro",
    "rowid": "1241223",
    "final_x": "3704131.5786",
    "final_y": "555648.954329",
    "longitude": "-89.99571908377271",
    "latitude": "30.021134787568375",
    "geocoded_column": {
      "latitude": "30.021134787568375",
      "longitude": "-89.99571908377271"
    }
  },
  {
    "service_request": "2025-1241222",
    "request_type": "Streetlights",
    "request_reason": "Streetlight Outage/Malfunction",
    "date_created": "2025-11-19T14:54:02.000",
    "date_modified": "2025-11-19T14:58:25.000",
    "request_status": "Pending",
    "responsible_agency": "Department of Public Works",
    "final_address": "4827 Evangeline Dr",
    "address_councildis": "E",
    "status": "Pending",
    "rowid": "1241222",
    "final_x": "3709121.46885",
    "final_y": "556294.380378",
    "longitude": "-89.9799284973336",
    "latitude": "30.02274834684033",
    "geocoded_column": {
      "latitude": "30.02274834684033",
      "longitude": "-89.9799284973336"
    }
  },
  {
    "service_request": "2025-1241221",
    "request_type": "Trash/Recycling",
    "request_reason": "Repair Trash Cart",
    "date_created": "2025-11-19T14:51:10.000",
    "date_modified": "2025-11-19T14:51:12.000",
    "request_status": "Pending",
    "responsible_agency": "Department of Sanitation",
    "final_address": "129 N Solomon St",
    "address_councildis": "A",
    "status": "Assigned to Contractor",
    "contractor": "IV Waste",
    "rowid": "1241221",
    "final_x": "3670748.04359",
    "final_y": "539020.918666",
    "longitude": "-90.10176664140943",
    "latitude": "29.976442776663433",
    "geocoded_column": {
      "latitude": "29.976442776663433",
      "longitude": "-90.10176664140943"
    }
  },
  {
    "service_request": "2025-1241220",
    "request_type": "Parks & Parkways",
    "request_reason": "Request Tree Service (Right of Way/Public Property)",
    "date_created": "2025-11-19T14:50:05.000",
    "date_modified": "2025-11-19T14:50:07.000",
    "request_status": "Pending",
    "responsible_agency": "Department of Parks & Parkway",
    "final_address": "7532 Plum St",
    "address_councildis": "A",
    "status": "Pending",
    "rowid": "1241220",
    "final_x": "3663656.74432",
    "final_y": "527262.541311",
    "longitude": "-90.12455498012598",
    "latitude": "29.944318746161738",
    "geocoded_column": {
      "latitude": "29.944318746161738",
      "longitude": "-90.12455498012598"
    }
  },
  {
    "service_request": "2025-1241219",
    "request_type": "Trash/Recycling",
    "request_reason": "Replace Trash Cart",
    "date_created": "2025-11-19T14:38:02.000",
    "date_modified": "2025-11-19T14:38:04.000",
    "request_status": "Pending",
    "responsible_agency": "Department of Sanitation",
    "final_address": "3518 Louisiana Avenue Prkwy",
    "address_councildis": "B",
    "status": "Assigned to Contractor",
    "contractor": "IV Waste",
    "rowid": "1241219",
    "final_x": "3671526.25863",
    "final_y": "527937.733119",
    "longitude": "-90.09968566181304",
    "latitude": "29.94594468571297",
    "geocoded_column": {
      "latitude": "29.94594468571297",
      "longitude": "-90.09968566181304"
    }
  },
  {
    "service_request": "2025-1241218",
    "request_type": "Trash/Recycling",
    "request_reason": "Illegal Dumping",
    "date_created": "2025-11-19T14:36:40.000",
    "date_modified": "2025-11-19T14:36:42.000",
    "request_status": "Pending",
    "responsible_agency": "Department of Sanitation",
    "final_address": "1139 St Philip St",
    "address_councildis": "C",
    "status": "Pending",
    "rowid": "1241218",
    "final_x": "3681801.75068",
    "final_y": "534488.209285",
    "longitude": "-90.06701392226843",
    "latitude": "29.963648081136768",
    "geocoded_column": {
      "latitude": "29.963648081136768",
      "longitude": "-90.06701392226843"
    }
  },
  {
    "service_request": "2025-1241217",
    "request_type": "Parks & Parkways",
    "request_reason": "Request Tree Service (Right of Way/Public Property)",
    "date_created": "2025-11-19T14:36:16.000",
    "date_modified": "2025-11-19T14:36:17.000",
    "request_status": "Pending",
    "responsible_agency": "Department of Parks & Parkway",
    "final_address": "1331 New York St",
    "address_councildis": "D",
    "status": "Pending",
    "rowid": "1241217",
    "final_x": "3677449.11221",
    "final_y": "555642.875353",
    "longitude": "-90.0800284200911",
    "latitude": "30.021947542067206",
    "geocoded_column": {
      "latitude": "30.021947542067206",
      "longitude": "-90.0800284200911"
    }
  },
  {
    "service_request": "2025-1241216",
    "request_type": "Trash/Recycling",
    "request_reason": "Order Recycling Cart",
    "date_created": "2025-11-19T14:35:31.000",
    "date_modified": "2025-11-19T14:35:33.000",
    "request_status": "Pending",
    "responsible_agency": "Department of Sanitation",
    "final_address": "250 Wagner St",
    "address_councildis": "C",
    "status": "Pending",
    "rowid": "1241216",
    "final_x": "3690689.35267",
    "final_y": "530679.287682",
    "longitude": "-90.03908374171611",
    "latitude": "29.952901805149022",
    "geocoded_column": {
      "latitude": "29.952901805149022",
      "longitude": "-90.03908374171611"
    }
  },
  {
    "service_request": "2025-1241215",
    "request_type": "Property Maintenance",
    "request_reason": "Property Maintenance",
    "date_created": "2025-11-19T14:32:44.000",
    "date_modified": "2025-11-19T14:33:58.000",
    "request_status": "Pending",
    "responsible_agency": "Department of Code Enforcement",
    "final_address": "2501 S Rocheblave St",
    "address_councildis": "B",
    "status": "Pending",
    "rowid": "1241215",
    "final_x": "3672404.81083",
    "final_y": "529479.353217",
    "longitude": "-90.09685924594982",
    "latitude": "29.950157596499576",
    "geocoded_column": {
      "latitude": "29.950157596499576",
      "longitude": "-90.09685924594982"
    }
  },
  {
    "service_request": "2025-1241214",
    "request_type": "Property Maintenance",
    "request_reason": "Property Maintenance",
    "date_created": "2025-11-19T14:32:32.000",
    "date_modified": "2025-11-19T14:32:34.000",
    "request_status": "Pending",
    "responsible_agency": "Department of Code Enforcement",
    "final_address": "2442 Dauphine St",
    "address_councildis": "C",
    "status": "Pending",
    "rowid": "1241214",
    "final_x": "3686259.78274",
    "final_y": "535289.374534",
    "longitude": "-90.05290767104772",
    "latitude": "29.96571478550424",
    "geocoded_column": {
      "latitude": "29.96571478550424",
      "longitude": "-90.05290767104772"
    }
  },
  {
    "service_request": "2025-1241213",
    "request_type": "Trash/Recycling",
    "request_reason": "Replace Trash Cart",
    "date_created": "2025-11-19T14:31:07.000",
    "date_modified": "2025-11-19T14:31:09.000",
    "request_status": "Pending",
    "responsible_agency": "Department of Sanitation",
    "final_address": "78 Marywood Ct",
    "address_councildis": "E",
    "status": "Assigned to Contractor",
    "contractor": "Waste Pro",
    "rowid": "1241213",
    "final_x": "3712454.65483",
    "final_y": "566479.780515",
    "longitude": "-89.9690133108145",
    "latitude": "30.050645450406105",
    "geocoded_column": {
      "latitude": "30.050645450406105",
      "longitude": "-89.9690133108145"
    }
  },
  {
    "service_request": "2025-1241212",
    "request_type": "Streetlights",
    "request_reason": "New Streetlight Request",
    "date_created": "2025-11-19T14:28:01.000",
    "date_modified": "2025-11-19T14:39:06.000",
    "request_status": "Pending",
    "responsible_agency": "Department of Public Works",
    "final_address": "4115 General Ogden St",
    "address_councildis": "A",
    "status": "Pending",
    "rowid": "1241212",
    "final_x": "3666927.9145",
    "final_y": "537964.476873",
    "longitude": "-90.11386731970786",
    "latitude": "29.973650261478998",
    "geocoded_column": {
      "latitude": "29.973650261478998",
      "longitude": "-90.11386731970786"
    }
  },
  {
    "service_request": "2025-1241211",
    "request_type": "Trash/Recycling",
    "request_reason": "Request a Large Item Pick Up",
    "date_created": "2025-11-19T14:27:32.000",
    "date_modified": "2025-11-19T14:27:34.000",
    "request_status": "Pending",
    "responsible_agency": "Department of Sanitation",
    "final_address": "1224 Kerlerec St",
    "address_councildis": "C",
    "status": "Assigned to Contractor",
    "contractor": "IV Waste",
    "rowid": "1241211",
    "final_x": "3682622.28597",
    "final_y": "535947.950471",
    "longitude": "-90.0643717080448",
    "latitude": "29.967636907624925",
    "geocoded_column": {
      "latitude": "29.967636907624925",
      "longitude": "-90.0643717080448"
    }
  },
  {
    "service_request": "2025-1241210",
    "request_type": "Trash/Recycling",
    "request_reason": "Illegal Dumping",
    "date_created": "2025-11-19T14:27:13.000",
    "date_modified": "2025-11-19T14:27:15.000",
    "request_status": "Pending",
    "responsible_agency": "Department of Sanitation",
    "final_address": "704 Adams St",
    "address_councildis": "A",
    "status": "Pending",
    "rowid": "1241210",
    "final_x": "3661909.54106",
    "final_y": "526165.710334",
    "longitude": "-90.13010779375398",
    "latitude": "29.941353375655876",
    "geocoded_column": {
      "latitude": "29.941353375655876",
      "longitude": "-90.13010779375398"
    }
  },
  {
    "service_request": "2025-1241209",
    "request_type": "Streetlights",
    "request_reason": "Streetlight Outage/Malfunction",
    "date_created": "2025-11-19T14:25:33.000",
    "date_modified": "2025-11-19T14:39:15.000",
    "request_status": "Pending",
    "responsible_agency": "Department of Public Works",
    "final_address": "4127 General Ogden St",
    "address_councildis": "A",
    "status": "Pending",
    "rowid": "1241209",
    "final_x": "3666982.80685",
    "final_y": "538034.496649",
    "longitude": "-90.11369160345637",
    "latitude": "29.973841186007007",
    "geocoded_column": {
      "latitude": "29.973841186007007",
      "longitude": "-90.11369160345637"
    }
  },
  {
    "service_request": "2025-1241208",
    "request_type": "Trash/Recycling",
    "request_reason": "Request a Large Item Pick Up",
    "date_created": "2025-11-19T14:21:59.000",
    "date_modified": "2025-11-19T14:22:07.000",
    "request_status": "Pending",
    "responsible_agency": "Department of Sanitation",
    "final_address": "7508 Edward St",
    "address_councildis": "E",
    "status": "Assigned to Contractor",
    "contractor": "Waste Pro",
    "rowid": "1241208",
    "final_x": "3701114.06609",
    "final_y": "560549.391134",
    "longitude": "-90.0050740174336",
    "latitude": "30.034705609217788",
    "geocoded_column": {
      "latitude": "30.034705609217788",
      "longitude": "-90.0050740174336"
    }
  },
  {
    "service_request": "2025-1241207",
    "request_type": "Trash/Recycling",
    "request_reason": "Request a Large Item Pick Up",
    "date_created": "2025-11-19T14:18:34.000",
    "date_modified": "2025-11-19T14:18:36.000",
    "request_status": "Pending",
    "responsible_agency": "Department of Sanitation",
    "final_address": "8001 Sycamore St",
    "address_councildis": "A",
    "status": "Assigned to Contractor",
    "contractor": "IV Waste",
    "rowid": "1241207",
    "final_x": "3664654.28256",
    "final_y": "530731.804354",
    "longitude": "-90.1212895894244",
    "latitude": "29.95382912620364",
    "geocoded_column": {
      "latitude": "29.95382912620364",
      "longitude": "-90.1212895894244"
    }
  },
  {
    "service_request": "2025-1241206",
    "request_type": "Trash/Recycling",
    "request_reason": "Request a Large Item Pick Up",
    "date_created": "2025-11-19T14:16:57.000",
    "date_modified": "2025-11-19T14:16:59.000",
    "request_status": "Pending",
    "responsible_agency": "Department of Sanitation",
    "final_address": "2728 Spain St",
    "address_councildis": "D",
    "status": "Assigned to Contractor",
    "contractor": "IV Waste",
    "rowid": "1241206",
    "final_x": "3685567.0079",
    "final_y": "542919.651981",
    "longitude": "-90.05482656437084",
    "latitude": "29.98671664111775",
    "geocoded_column": {
      "latitude": "29.98671664111775",
      "longitude": "-90.05482656437084"
    }
  },
  {
    "service_request": "2025-1241204",
    "request_type": "Safety & Permits",
    "request_reason": "Zoning Enforcement",
    "date_created": "2025-11-19T14:15:27.000",
    "date_modified": "2025-11-19T14:16:45.000",
    "request_status": "Pending",
    "responsible_agency": "Safety and Permits",
    "final_address": "2100 Leon C Simon Dr",
    "address_councildis": "D",
    "status": "Pending",
    "rowid": "1241204",
    "final_x": "3682499.65724",
    "final_y": "556461.834394",
    "longitude": "-90.06404134214755",
    "latitude": "30.02404651540388",
    "geocoded_column": {
      "latitude": "30.02404651540388",
      "longitude": "-90.06404134214755"
    }
  },
  {
    "service_request": "2025-1241203",
    "request_type": "Street and Traffic Signs",
    "request_reason": "Traffic or Parking Sign Damaged or Missing",
    "date_created": "2025-11-19T14:14:45.000",
    "date_modified": "2025-11-19T14:14:46.000",
    "request_status": "Pending",
    "responsible_agency": "Department of Public Works",
    "final_address": "LAKESHORE DR & BEAUREGARD AVE & CLOVERLEAF RD",
    "address_councildis": "D",
    "status": "Pending",
    "rowid": "1241203",
    "final_x": "3675857.5",
    "final_y": "557077.98",
    "longitude": "-90.08500811076199",
    "latitude": "30.025941331416515",
    "geocoded_column": {
      "latitude": "30.025941331416515",
      "longitude": "-90.08500811076199"
    }
  },
  {
    "service_request": "2025-1241202",
    "request_type": "Utility Poles",
    "request_reason": "Utility Pole Leaning",
    "date_created": "2025-11-19T14:13:57.000",
    "date_modified": "2025-11-19T14:13:59.000",
    "request_status": "Pending",
    "responsible_agency": "Utility Company Collective",
    "final_address": "1713 Clouet St",
    "address_councildis": "D",
    "status": "Pending",
    "rowid": "1241202",
    "final_x": "3689628.80355",
    "final_y": "538360.296777",
    "longitude": "-90.04215918229787",
    "latitude": "29.97405479489997",
    "geocoded_column": {
      "latitude": "29.97405479489997",
      "longitude": "-90.04215918229787"
    }
  },
  {
    "service_request": "2025-1241201",
    "request_type": "Trash/Recycling",
    "request_reason": "Request a Large Item Pick Up",
    "date_created": "2025-11-19T14:13:07.000",
    "date_modified": "2025-11-19T14:13:09.000",
    "request_status": "Pending",
    "responsible_agency": "Department of Sanitation",
    "final_address": "1628 Numa St",
    "address_councildis": "C",
    "status": "Assigned to Contractor",
    "contractor": "Richards Disposal",
    "rowid": "1241201",
    "final_x": "3691784.25616",
    "final_y": "525267.148349",
    "longitude": "-90.03582004569495",
    "latitude": "29.937986232802643",
    "geocoded_column": {
      "latitude": "29.937986232802643",
      "longitude": "-90.03582004569495"
    }
  },
  {
    "service_request": "2025-1241200",
    "request_type": "Abandoned Vehicles",
    "request_reason": "Abandoned/Junk Vehicles",
    "date_created": "2025-11-19T14:11:26.000",
    "date_modified": "2025-11-19T14:11:27.000",
    "request_status": "Pending",
    "responsible_agency": "Department of Public Works",
    "final_address": "1700 Baronne St",
    "address_councildis": "B",
    "status": "Pending",
    "rowid": "1241200",
    "final_x": "3678102.72962",
    "final_y": "525426.395837",
    "longitude": "-90.07900831311342",
    "latitude": "29.938843013249286",
    "geocoded_column": {
      "latitude": "29.938843013249286",
      "longitude": "-90.07900831311342"
    }
  },
  {
    "service_request": "2025-1241199",
    "request_type": "Trash/Recycling",
    "request_reason": "Illegal Dumping",
    "date_created": "2025-11-19T14:10:21.000",
    "date_modified": "2025-11-19T14:10:47.000",
    "request_status": "Pending",
    "responsible_agency": "Department of Sanitation",
    "final_address": "5800 Baccich St",
    "address_councildis": "D",
    "status": "Pending",
    "rowid": "1241199",
    "final_x": "3687482.12719",
    "final_y": "554604.676568",
    "longitude": "-90.04836352931764",
    "latitude": "30.018787319740134",
    "geocoded_column": {
      "latitude": "30.018787319740134",
      "longitude": "-90.04836352931764"
    }
  },
  {
    "service_request": "2025-1241198",
    "request_type": "Property Maintenance",
    "request_reason": "Property Maintenance",
    "date_created": "2025-11-19T14:08:15.000",
    "date_modified": "2025-11-19T14:17:11.000",
    "request_status": "Pending",
    "responsible_agency": "Department of Code Enforcement",
    "final_address": "3806 Piedmont Dr",
    "address_councildis": "D",
    "status": "Pending",
    "rowid": "1241198",
    "final_x": "3685528.59036",
    "final_y": "546749.796049",
    "longitude": "-90.05481292233443",
    "latitude": "29.99724934846459",
    "geocoded_column": {
      "latitude": "29.99724934846459",
      "longitude": "-90.05481292233443"
    }
  },
  {
    "service_request": "2025-1241197",
    "request_type": "Trash/Recycling",
    "request_reason": "Request a Large Item Pick Up",
    "date_created": "2025-11-19T14:02:14.000",
    "date_modified": "2025-11-19T14:02:15.000",
    "request_status": "Pending",
    "responsible_agency": "Department of Sanitation",
    "final_address": "4674 Evangeline Dr",
    "address_councildis": "E",
    "status": "Assigned to Contractor",
    "contractor": "Waste Pro",
    "rowid": "1241197",
    "final_x": "3709078.56337",
    "final_y": "555364.542617",
    "longitude": "-89.98009876593483",
    "latitude": "30.020193049104027",
    "geocoded_column": {
      "latitude": "30.020193049104027",
      "longitude": "-89.98009876593483"
    }
  },
  {
    "service_request": "2025-1241196",
    "request_type": "Trash/Recycling",
    "request_reason": "Request a Large Item Pick Up",
    "date_created": "2025-11-19T14:00:20.000",
    "date_modified": "2025-11-19T14:00:24.000",
    "request_status": "Pending",
    "responsible_agency": "Department of Sanitation",
    "final_address": "10720 Roger Dr",
    "address_councildis": "E",
    "status": "Assigned to Contractor",
    "contractor": "Waste Pro",
    "rowid": "1241196",
    "final_x": "3711606.36325",
    "final_y": "562993.601568",
    "longitude": "-89.97182536371032",
    "latitude": "30.04108760926601",
    "geocoded_column": {
      "latitude": "30.04108760926601",
      "longitude": "-89.97182536371032"
    }
  },
  {
    "service_request": "2025-1241195",
    "request_type": "Trash/Recycling",
    "request_reason": "Request a Large Item Pick Up",
    "date_created": "2025-11-19T13:55:05.000",
    "date_modified": "2025-11-19T13:55:29.000",
    "request_status": "Pending",
    "responsible_agency": "Department of Sanitation",
    "final_address": "7041 Read Ln",
    "address_councildis": "E",
    "status": "Assigned to Contractor",
    "contractor": "Waste Pro",
    "rowid": "1241195",
    "final_x": "3710221.60485",
    "final_y": "562391.640607",
    "longitude": "-89.9762241744747",
    "latitude": "30.03947762648782",
    "geocoded_column": {
      "latitude": "30.03947762648782",
      "longitude": "-89.9762241744747"
    }
  },
  {
    "service_request": "2025-1241194",
    "request_type": "Trash/Recycling",
    "request_reason": "Order Trash Cart",
    "date_created": "2025-11-19T13:52:45.000",
    "date_modified": "2025-11-19T14:01:48.000",
    "case_close_date": "2025-11-19T08:01:48.000",
    "request_status": "Closed",
    "responsible_agency": "Department of Sanitation",
    "final_address": "3026 N Rampart St",
    "address_councildis": "C",
    "status": "Invalid Request",
    "contractor": "IV Waste",
    "contractor_action": "Invalid",
    "rowid": "1241194",
    "final_x": "3688546.33507",
    "final_y": "535619.671686",
    "longitude": "-90.04567512178262",
    "latitude": "29.96655253221309",
    "geocoded_column": {
      "latitude": "29.96655253221309",
      "longitude": "-90.04567512178262"
    }
  },
  {
    "service_request": "2025-1241193",
    "request_type": "Trash/Recycling",
    "request_reason": "Request a Large Item Pick Up",
    "date_created": "2025-11-19T13:49:28.000",
    "date_modified": "2025-11-19T13:49:30.000",
    "request_status": "Pending",
    "responsible_agency": "Department of Sanitation",
    "final_address": "2363 Prentiss Ave",
    "address_councildis": "D",
    "status": "Assigned to Contractor",
    "contractor": "IV Waste",
    "rowid": "1241193",
    "final_x": "3684886.67714",
    "final_y": "554018.725656",
    "longitude": "-90.05658484188335",
    "latitude": "30.017255945402056",
    "geocoded_column": {
      "latitude": "30.017255945402056",
      "longitude": "-90.05658484188335"
    }
  },
  {
    "service_request": "2025-1241192",
    "request_type": "Streetlights",
    "request_reason": "Streetlight Outage/Malfunction",
    "date_created": "2025-11-19T13:48:44.000",
    "date_modified": "2025-11-19T13:48:46.000",
    "request_status": "Pending",
    "responsible_agency": "Department of Public Works",
    "final_address": "7162 Bunker Hill Rd",
    "address_councildis": "E",
    "status": "Pending",
    "rowid": "1241192",
    "final_x": "3705617.58545",
    "final_y": "560917.700446",
    "longitude": "-89.99082870978096",
    "latitude": "30.03557400242723",
    "geocoded_column": {
      "latitude": "30.03557400242723",
      "longitude": "-89.99082870978096"
    }
  },
  {
    "service_request": "2025-1241191",
    "request_type": "Trash/Recycling",
    "request_reason": "Replace Trash Cart",
    "date_created": "2025-11-19T13:47:57.000",
    "date_modified": "2025-11-19T13:47:58.000",
    "request_status": "Pending",
    "responsible_agency": "Department of Sanitation",
    "final_address": "3976 Annunciation St",
    "address_councildis": "B",
    "status": "Assigned to Contractor",
    "contractor": "IV Waste",
    "rowid": "1241191",
    "final_x": "3672718.98862",
    "final_y": "517874.36095",
    "longitude": "-90.09626283537229",
    "latitude": "29.91823830049233",
    "geocoded_column": {
      "latitude": "29.91823830049233",
      "longitude": "-90.09626283537229"
    }
  },
  {
    "service_request": "2025-1241190",
    "request_type": "Trash/Recycling",
    "request_reason": "Illegal Dumping",
    "date_created": "2025-11-19T13:46:59.000",
    "date_modified": "2025-11-19T13:47:00.000",
    "request_status": "Pending",
    "responsible_agency": "Department of Sanitation",
    "final_address": "7161 Bunker Hill Rd",
    "address_councildis": "E",
    "status": "Pending",
    "rowid": "1241190",
    "final_x": "3705648.29534",
    "final_y": "561058.241246",
    "longitude": "-89.99072645793701",
    "latitude": "30.035959444968075",
    "geocoded_column": {
      "latitude": "30.035959444968075",
      "longitude": "-89.99072645793701"
    }
  },
  {
    "service_request": "2025-1241189",
    "request_type": "Trash/Recycling",
    "request_reason": "Request a Large Item Pick Up",
    "date_created": "2025-11-19T13:46:24.000",
    "date_modified": "2025-11-19T13:46:26.000",
    "request_status": "Pending",
    "responsible_agency": "Department of Sanitation",
    "final_address": "1236 Alvar St",
    "address_councildis": "D",
    "status": "Assigned to Contractor",
    "contractor": "IV Waste",
    "rowid": "1241189",
    "final_x": "3691615.8047",
    "final_y": "536049.223623",
    "longitude": "-90.03596644594789",
    "latitude": "29.967638445991263",
    "geocoded_column": {
      "latitude": "29.967638445991263",
      "longitude": "-90.03596644594789"
    }
  },
  {
    "service_request": "2025-1241188",
    "request_type": "Roads and Streets",
    "request_reason": "Abandoned Service Cut",
    "date_created": "2025-11-19T13:42:38.000",
    "date_modified": "2025-11-19T13:42:42.000",
    "request_status": "Pending",
    "responsible_agency": "Department of Public Works",
    "final_address": "6170 Marshal Foch St",
    "address_councildis": "A",
    "status": "Pending",
    "rowid": "1241188",
    "final_x": "3669871.68801",
    "final_y": "548414.56181",
    "longitude": "-90.1042162034719",
    "latitude": "30.002297943956027",
    "geocoded_column": {
      "latitude": "30.002297943956027",
      "longitude": "-90.1042162034719"
    }
  },
  {
    "service_request": "2025-1241187",
    "request_type": "Trash/Recycling",
    "request_reason": "Return Trash Cart",
    "date_created": "2025-11-19T13:39:29.000",
    "date_modified": "2025-11-19T13:39:31.000",
    "request_status": "Pending",
    "responsible_agency": "Department of Sanitation",
    "final_address": "4714 Canal St",
    "address_councildis": "A",
    "status": "Assigned to Contractor",
    "contractor": "IV Waste",
    "rowid": "1241187",
    "final_x": "3668925.06522",
    "final_y": "539877.821834",
    "longitude": "-90.107495223737",
    "latitude": "29.97885272111446",
    "geocoded_column": {
      "latitude": "29.97885272111446",
      "longitude": "-90.107495223737"
    }
  },
  {
    "service_request": "2025-1241186",
    "request_type": "Trash/Recycling",
    "request_reason": "Illegal Dumping",
    "date_created": "2025-11-19T13:37:35.000",
    "date_modified": "2025-11-19T13:37:37.000",
    "request_status": "Pending",
    "responsible_agency": "Department of Sanitation",
    "final_address": "3820 Mistletoe St",
    "address_councildis": "A",
    "status": "Pending",
    "rowid": "1241186",
    "final_x": "3665363.23783",
    "final_y": "537980.017033",
    "longitude": "-90.11880840429131",
    "latitude": "29.97373868669494",
    "geocoded_column": {
      "latitude": "29.97373868669494",
      "longitude": "-90.11880840429131"
    }
  },
  {
    "service_request": "2025-1241185",
    "request_type": "Roads and Streets",
    "request_reason": "Abandoned Service Cut",
    "date_created": "2025-11-19T13:35:51.000",
    "date_modified": "2025-11-19T13:35:52.000",
    "request_status": "Pending",
    "responsible_agency": "Department of Public Works",
    "final_address": "2327 Urquhart St",
    "address_councildis": "C",
    "status": "Pending",
    "rowid": "1241185",
    "final_x": "3685947.50684",
    "final_y": "537153.074248",
    "longitude": "-90.05382810437223",
    "latitude": "29.970848902884008",
    "geocoded_column": {
      "latitude": "29.970848902884008",
      "longitude": "-90.05382810437223"
    }
  },
  {
    "service_request": "2025-1241184",
    "request_type": "Trash/Recycling",
    "request_reason": "Order Recycling Cart",
    "date_created": "2025-11-19T13:35:50.000",
    "date_modified": "2025-11-19T13:35:52.000",
    "request_status": "Pending",
    "responsible_agency": "Department of Sanitation",
    "final_address": "14527 Tilbury Rd",
    "address_councildis": "E",
    "status": "Pending",
    "rowid": "1241184",
    "final_x": "3720694.91602",
    "final_y": "573132.638185",
    "longitude": "-89.9427138538526",
    "latitude": "30.068665676503347",
    "geocoded_column": {
      "latitude": "30.068665676503347",
      "longitude": "-89.9427138538526"
    }
  },
  {
    "service_request": "2025-1241183",
    "request_type": "Roads and Streets",
    "request_reason": "Street Subsidence (Sinking)",
    "date_created": "2025-11-19T13:35:26.000",
    "date_modified": "2025-11-19T13:35:27.000",
    "request_status": "Pending",
    "responsible_agency": "Sewerage & Water Board",
    "final_address": "1031 S Carrollton Ave",
    "address_councildis": "A",
    "status": "Pending",
    "rowid": "1241183",
    "final_x": "3661802.12902",
    "final_y": "527925.366399",
    "longitude": "-90.13038859147233",
    "latitude": "29.94619497020936",
    "geocoded_column": {
      "latitude": "29.94619497020936",
      "longitude": "-90.13038859147233"
    }
  },
  {
    "service_request": "2025-1241182",
    "request_type": "Trash/Recycling",
    "request_reason": "Replace Trash Cart",
    "date_created": "2025-11-19T13:35:23.000",
    "date_modified": "2025-11-19T13:35:24.000",
    "request_status": "Pending",
    "responsible_agency": "Department of Sanitation",
    "final_address": "3974 Annunciation St",
    "address_councildis": "B",
    "status": "Assigned to Contractor",
    "contractor": "IV Waste",
    "rowid": "1241182",
    "final_x": "3672730.44699",
    "final_y": "517875.124854",
    "longitude": "-90.09622664136563",
    "latitude": "29.918240060826783",
    "geocoded_column": {
      "latitude": "29.918240060826783",
      "longitude": "-90.09622664136563"
    }
  },
  {
    "service_request": "2025-1241181",
    "request_type": "Abandoned Vehicles",
    "request_reason": "Abandoned/Junk Vehicles",
    "date_created": "2025-11-19T13:32:57.000",
    "date_modified": "2025-11-19T13:34:55.000",
    "request_status": "Pending",
    "responsible_agency": "Department of Public Works",
    "final_address": "2024 Lowerline St",
    "address_councildis": "A",
    "status": "Inspected",
    "rowid": "1241181",
    "final_x": "3665314.16884",
    "final_y": "529418.584385",
    "longitude": "-90.11924986808575",
    "latitude": "29.950198987880896",
    "geocoded_column": {
      "latitude": "29.950198987880896",
      "longitude": "-90.11924986808575"
    }
  },
  {
    "service_request": "2025-1241180",
    "request_type": "Trash/Recycling",
    "request_reason": "Request a Large Item Pick Up",
    "date_created": "2025-11-19T13:32:42.000",
    "date_modified": "2025-11-19T13:32:44.000",
    "request_status": "Pending",
    "responsible_agency": "Department of Sanitation",
    "final_address": "4605 Stemway Dr",
    "address_councildis": "D",
    "status": "Assigned to Contractor",
    "contractor": "Waste Pro",
    "rowid": "1241180",
    "final_x": "3697057.36445",
    "final_y": "553448.589271",
    "longitude": "-90.01815128369475",
    "latitude": "30.015309788099458",
    "geocoded_column": {
      "latitude": "30.015309788099458",
      "longitude": "-90.01815128369475"
    }
  },
  {
    "service_request": "2025-1241179",
    "request_type": "Trash/Recycling",
    "request_reason": "Repair Trash Cart",
    "date_created": "2025-11-19T13:25:55.000",
    "date_modified": "2025-11-19T13:25:57.000",
    "request_status": "Pending",
    "responsible_agency": "Department of Sanitation",
    "final_address": "5616 Campus Blvd",
    "address_councildis": "D",
    "status": "Assigned to Contractor",
    "contractor": "IV Waste",
    "rowid": "1241179",
    "final_x": "3689183.80655",
    "final_y": "553925.480536",
    "longitude": "-90.04301101124062",
    "latitude": "30.016867201663",
    "geocoded_column": {
      "latitude": "30.016867201663",
      "longitude": "-90.04301101124062"
    }
  },
  {
    "service_request": "2025-1241178",
    "request_type": "Trash/Recycling",
    "request_reason": "Request a Large Item Pick Up",
    "date_created": "2025-11-19T13:24:49.000",
    "date_modified": "2025-11-19T13:24:50.000",
    "request_status": "Pending",
    "responsible_agency": "Department of Sanitation",
    "final_address": "1621 Lamanche St",
    "address_councildis": "E",
    "status": "Assigned to Contractor",
    "contractor": "Waste Pro",
    "rowid": "1241178",
    "final_x": "3698990.52618",
    "final_y": "535692.897223",
    "longitude": "-90.01269000959418",
    "latitude": "29.96642702044575",
    "geocoded_column": {
      "latitude": "29.96642702044575",
      "longitude": "-90.01269000959418"
    }
  },
  {
    "service_request": "2025-1241177",
    "request_type": "Abandoned Vehicles",
    "request_reason": "Abandoned/Junk Vehicles",
    "date_created": "2025-11-19T13:24:11.000",
    "date_modified": "2025-11-19T13:24:13.000",
    "request_status": "Pending",
    "responsible_agency": "Department of Public Works",
    "final_address": "3046 St Philip St",
    "address_councildis": "A",
    "status": "Pending",
    "rowid": "1241177",
    "final_x": "3676037.67029",
    "final_y": "538862.519369",
    "longitude": "-90.08506583232985",
    "latitude": "29.97584984440599",
    "geocoded_column": {
      "latitude": "29.97584984440599",
      "longitude": "-90.08506583232985"
    }
  },
  {
    "service_request": "2025-1241176",
    "request_type": "Streetlights",
    "request_reason": "Streetlight Outage/Malfunction",
    "date_created": "2025-11-19T13:13:57.000",
    "date_modified": "2025-11-19T13:13:58.000",
    "request_status": "Pending",
    "responsible_agency": "Department of Public Works",
    "final_address": "5825 Sutton Pl",
    "address_councildis": "C",
    "status": "Pending",
    "rowid": "1241176",
    "final_x": "3705382.77636",
    "final_y": "518730.563639",
    "longitude": "-89.99313006687862",
    "latitude": "29.919582497738293",
    "geocoded_column": {
      "latitude": "29.919582497738293",
      "longitude": "-89.99313006687862"
    }
  },
  {
    "service_request": "2025-1241175",
    "request_type": "Trash/Recycling",
    "request_reason": "Request a Large Item Pick Up",
    "date_created": "2025-11-19T13:12:56.000",
    "date_modified": "2025-11-19T13:12:59.000",
    "request_status": "Pending",
    "responsible_agency": "Department of Sanitation",
    "final_address": "6731 Manchester St",
    "address_councildis": "E",
    "status": "Assigned to Contractor",
    "contractor": "Waste Pro",
    "rowid": "1241175",
    "final_x": "3698017.06442",
    "final_y": "559843.514141",
    "longitude": "-90.01488661153907",
    "latitude": "30.03286306896019",
    "geocoded_column": {
      "latitude": "30.03286306896019",
      "longitude": "-90.01488661153907"
    }
  },
  {
    "service_request": "2025-1241174",
    "request_type": "Property Maintenance",
    "request_reason": "Property Maintenance",
    "date_created": "2025-11-19T13:12:23.000",
    "date_modified": "2025-11-19T13:12:26.000",
    "request_status": "Pending",
    "responsible_agency": "Department of Code Enforcement",
    "final_address": "2442 Dauphine St",
    "address_councildis": "C",
    "status": "Pending",
    "rowid": "1241174",
    "final_x": "3686259.78274",
    "final_y": "535289.374534",
    "longitude": "-90.05290767104772",
    "latitude": "29.96571478550424",
    "geocoded_column": {
      "latitude": "29.96571478550424",
      "longitude": "-90.05290767104772"
    }
  },
  {
    "service_request": "2025-1241173",
    "request_type": "Trash/Recycling",
    "request_reason": "Request a Large Item Pick Up",
    "date_created": "2025-11-19T13:08:51.000",
    "date_modified": "2025-11-19T13:08:53.000",
    "request_status": "Pending",
    "responsible_agency": "Department of Sanitation",
    "final_address": "10806 Curran Rd",
    "address_councildis": "E",
    "status": "Assigned to Contractor",
    "contractor": "Waste Pro",
    "rowid": "1241173",
    "final_x": "3709873.36248",
    "final_y": "565633.894562",
    "longitude": "-89.977203444661",
    "latitude": "30.04840386127021",
    "geocoded_column": {
      "latitude": "30.04840386127021",
      "longitude": "-89.977203444661"
    }
  },
  {
    "service_request": "2025-1241172",
    "request_type": "Roads and Streets",
    "request_reason": "Sidewalk Damaged or Missing",
    "date_created": "2025-11-19T13:02:42.000",
    "date_modified": "2025-11-19T13:02:43.000",
    "request_status": "Pending",
    "responsible_agency": "Department of Public Works",
    "final_address": "308 Burgundy St",
    "address_councildis": "C",
    "status": "Pending",
    "rowid": "1241172",
    "final_x": "3680883.49141",
    "final_y": "532013.446723",
    "longitude": "-90.06999985372256",
    "latitude": "29.95687119836738",
    "geocoded_column": {
      "latitude": "29.95687119836738",
      "longitude": "-90.06999985372256"
    }
  },
  {
    "service_request": "2025-1241171",
    "request_type": "Streetlights",
    "request_reason": "Streetlight Outage/Malfunction",
    "date_created": "2025-11-19T13:01:38.000",
    "date_modified": "2025-11-19T13:01:40.000",
    "request_status": "Pending",
    "responsible_agency": "Department of Public Works",
    "final_address": "6200 BLK Curie St",
    "address_councildis": "D",
    "status": "Pending",
    "rowid": "1241171",
    "final_x": "3682482.19832",
    "final_y": "556011.151217",
    "longitude": "-90.06411228309823",
    "latitude": "30.022807834230775",
    "geocoded_column": {
      "latitude": "30.022807834230775",
      "longitude": "-90.06411228309823"
    }
  },
  {
    "service_request": "2025-1241170",
    "request_type": "Drainage",
    "request_reason": "Ditch and Culvert Maintenance",
    "date_created": "2025-11-19T13:01:09.000",
    "date_modified": "2025-11-19T13:01:17.000",
    "request_status": "Pending",
    "responsible_agency": "Department of Public Works",
    "final_address": "7721 Devine Ave",
    "address_councildis": "E",
    "status": "Pending",
    "rowid": "1241170",
    "final_x": "3705552.45905",
    "final_y": "563412.62608",
    "longitude": "-89.99094215072314",
    "latitude": "30.04243616087163",
    "geocoded_column": {
      "latitude": "30.04243616087163",
      "longitude": "-89.99094215072314"
    }
  },
  {
    "service_request": "2025-1241169",
    "request_type": "Property Maintenance",
    "request_reason": "Property Maintenance",
    "date_created": "2025-11-19T12:56:03.000",
    "date_modified": "2025-11-19T12:56:04.000",
    "request_status": "Pending",
    "responsible_agency": "Department of Code Enforcement",
    "final_address": "125 S Rocheblave St",
    "address_councildis": "B",
    "status": "Pending",
    "rowid": "1241169",
    "final_x": "3675940.49576",
    "final_y": "534314.106757",
    "longitude": "-90.08552917224053",
    "latitude": "29.963346166431663",
    "geocoded_column": {
      "latitude": "29.963346166431663",
      "longitude": "-90.08552917224053"
    }
  },
  {
    "service_request": "2025-1241168",
    "request_type": "Trash/Recycling",
    "request_reason": "Return Trash Cart",
    "date_created": "2025-11-19T12:55:38.000",
    "date_modified": "2025-11-19T12:55:39.000",
    "request_status": "Pending",
    "responsible_agency": "Department of Sanitation",
    "final_address": "13726 N Lemans St",
    "address_councildis": "E",
    "status": "Assigned to Contractor",
    "contractor": "Waste Pro",
    "rowid": "1241168",
    "final_x": "3726788.91181",
    "final_y": "563566.63056",
    "longitude": "-89.92382164443553",
    "latitude": "30.042158425147097",
    "geocoded_column": {
      "latitude": "30.042158425147097",
      "longitude": "-89.92382164443553"
    }
  },
  {
    "service_request": "2025-1241167",
    "request_type": "Trash/Recycling",
    "request_reason": "Return Recycling Cart",
    "date_created": "2025-11-19T12:54:06.000",
    "date_modified": "2025-11-19T12:54:08.000",
    "request_status": "Pending",
    "responsible_agency": "Department of Sanitation",
    "final_address": "13726 N Lemans St",
    "address_councildis": "E",
    "status": "Pending",
    "rowid": "1241167",
    "final_x": "3726788.91181",
    "final_y": "563566.63056",
    "longitude": "-89.92382164443553",
    "latitude": "30.042158425147097",
    "geocoded_column": {
      "latitude": "30.042158425147097",
      "longitude": "-89.92382164443553"
    }
  },
  {
    "service_request": "2025-1241166",
    "request_type": "Street and Traffic Signs",
    "request_reason": "Additional Signage Request",
    "date_created": "2025-11-19T12:51:58.000",
    "date_modified": "2025-11-19T12:55:08.000",
    "request_status": "Pending",
    "responsible_agency": "Department of Public Works",
    "final_address": "6100 Perlita St",
    "address_councildis": "D",
    "status": "Pending",
    "rowid": "1241166",
    "final_x": "3678202.15694",
    "final_y": "554929.506136",
    "longitude": "-90.07767369182848",
    "latitude": "30.01996336639502",
    "geocoded_column": {
      "latitude": "30.01996336639502",
      "longitude": "-90.07767369182848"
    }
  },
  {
    "service_request": "2025-1241165",
    "request_type": "Trash/Recycling",
    "request_reason": "Request a Large Item Pick Up",
    "date_created": "2025-11-19T12:49:31.000",
    "date_modified": "2025-11-19T12:49:33.000",
    "request_status": "Pending",
    "responsible_agency": "Department of Sanitation",
    "final_address": "7812 Lucerne St",
    "address_councildis": "E",
    "status": "Assigned to Contractor",
    "contractor": "Waste Pro",
    "rowid": "1241165",
    "final_x": "3710314.41592",
    "final_y": "566551.473955",
    "longitude": "-89.9757751133436",
    "latitude": "30.05091247367522",
    "geocoded_column": {
      "latitude": "30.05091247367522",
      "longitude": "-89.9757751133436"
    }
  },
  {
    "service_request": "2025-1241164",
    "request_type": "Trash/Recycling",
    "request_reason": "Illegal Dumping",
    "date_created": "2025-11-19T12:49:06.000",
    "date_modified": "2025-11-19T12:49:07.000",
    "request_status": "Pending",
    "responsible_agency": "Department of Sanitation",
    "final_address": "7918 Colapissa St",
    "address_councildis": "B",
    "status": "Pending",
    "rowid": "1241164",
    "final_x": "3666936.78785",
    "final_y": "532899.681028",
    "longitude": "-90.11400951112105",
    "latitude": "29.959723492027273",
    "geocoded_column": {
      "latitude": "29.959723492027273",
      "longitude": "-90.11400951112105"
    }
  },
  {
    "service_request": "2025-1241163",
    "request_type": "Trash/Recycling",
    "request_reason": "Repair Recycling Cart",
    "date_created": "2025-11-19T12:48:36.000",
    "date_modified": "2025-11-19T12:48:37.000",
    "request_status": "Pending",
    "responsible_agency": "Department of Sanitation",
    "final_address": "4439 Mandeville St",
    "address_councildis": "D",
    "status": "Pending",
    "rowid": "1241163",
    "final_x": "3684884.39631",
    "final_y": "549198.379603",
    "longitude": "-90.05676172829828",
    "latitude": "30.004001819895226",
    "geocoded_column": {
      "latitude": "30.004001819895226",
      "longitude": "-90.05676172829828"
    }
  },
  {
    "service_request": "2025-1241162",
    "request_type": "Trash/Recycling",
    "request_reason": "Request a Large Item Pick Up",
    "date_created": "2025-11-19T12:46:14.000",
    "date_modified": "2025-11-19T12:46:15.000",
    "request_status": "Pending",
    "responsible_agency": "Department of Sanitation",
    "final_address": "402 First St",
    "address_councildis": "B",
    "status": "Assigned to Contractor",
    "contractor": "IV Waste",
    "rowid": "1241162",
    "final_x": "3679491.8349",
    "final_y": "519300.189687",
    "longitude": "-90.07483517816813",
    "latitude": "29.921956070920054",
    "geocoded_column": {
      "latitude": "29.921956070920054",
      "longitude": "-90.07483517816813"
    }
  },
  {
    "service_request": "2025-1241161",
    "request_type": "Trash/Recycling",
    "request_reason": "Request a Large Item Pick Up",
    "date_created": "2025-11-19T12:42:27.000",
    "date_modified": "2025-11-19T12:46:06.000",
    "request_status": "Pending",
    "responsible_agency": "Department of Sanitation",
    "final_address": "2327 N Villere St",
    "address_councildis": "C",
    "status": "Assigned to Contractor",
    "contractor": "IV Waste",
    "rowid": "1241161",
    "final_x": "3685904.27938",
    "final_y": "537525.922504",
    "longitude": "-90.05395147452697",
    "latitude": "29.97187543266191",
    "geocoded_column": {
      "latitude": "29.97187543266191",
      "longitude": "-90.05395147452697"
    }
  },
  {
    "service_request": "2025-1241160",
    "request_type": "Trash/Recycling",
    "request_reason": "Repair Trash Cart",
    "date_created": "2025-11-19T12:42:00.000",
    "date_modified": "2025-11-19T12:42:02.000",
    "request_status": "Pending",
    "responsible_agency": "Department of Sanitation",
    "final_address": "13726 N Lemans St",
    "address_councildis": "E",
    "status": "Assigned to Contractor",
    "contractor": "Waste Pro",
    "rowid": "1241160",
    "final_x": "3726788.91181",
    "final_y": "563566.63056",
    "longitude": "-89.92382164443553",
    "latitude": "30.042158425147097",
    "geocoded_column": {
      "latitude": "30.042158425147097",
      "longitude": "-89.92382164443553"
    }
  },
  {
    "service_request": "2025-1241159",
    "request_type": "Trash/Recycling",
    "request_reason": "Missed Trash Pick-Up",
    "date_created": "2025-11-19T12:40:31.000",
    "date_modified": "2025-11-19T12:43:15.000",
    "case_close_date": "2025-11-19T06:43:14.000",
    "request_status": "Closed",
    "responsible_agency": "Department of Sanitation",
    "final_address": "2016 Erato St",
    "address_councildis": "B",
    "status": "Invalid Request",
    "contractor": "IV Waste",
    "contractor_action": "Invalid",
    "rowid": "1241159",
    "final_x": "3677939.83669",
    "final_y": "527020.828798",
    "longitude": "-90.07946750097476",
    "latitude": "29.943232078740028",
    "geocoded_column": {
      "latitude": "29.943232078740028",
      "longitude": "-90.07946750097476"
    }
  },
  {
    "service_request": "2025-1241158",
    "request_type": "Trash/Recycling",
    "request_reason": "Order Recycling Cart",
    "date_created": "2025-11-19T12:39:14.000",
    "date_modified": "2025-11-19T12:39:16.000",
    "request_status": "Pending",
    "responsible_agency": "Department of Sanitation",
    "final_address": "4431 General Pershing St",
    "address_councildis": "B",
    "status": "Pending",
    "rowid": "1241158",
    "final_x": "3669246.5074",
    "final_y": "529933.959681",
    "longitude": "-90.10681616240181",
    "latitude": "29.951500949539902",
    "geocoded_column": {
      "latitude": "29.951500949539902",
      "longitude": "-90.10681616240181"
    }
  },
  {
    "service_request": "2025-1241157",
    "request_type": "Trash/Recycling",
    "request_reason": "Repair Recycling Cart",
    "date_created": "2025-11-19T12:38:17.000",
    "date_modified": "2025-11-19T12:38:19.000",
    "request_status": "Pending",
    "responsible_agency": "Department of Sanitation",
    "final_address": "33 Neron Pl",
    "address_councildis": "A",
    "status": "Pending",
    "rowid": "1241157",
    "final_x": "3665256.63988",
    "final_y": "530666.96653",
    "longitude": "-90.1193897547875",
    "latitude": "29.95363330974564",
    "geocoded_column": {
      "latitude": "29.95363330974564",
      "longitude": "-90.1193897547875"
    }
  },