[
  {
    "service_request": "2022-900885",
    "request_type": "Trash/Recycling",
    "request_reason": "Request a Large Item Pick Up",
    "date_created": "2022-07-18T01:02:05.000",
    "date_modified": "2022-07-18T01:02:06.000",
    "request_status": "Pending",
    "responsible_agency": "Department of Sanitation",
    "final_address": "4600 S Carrollton Ave",
    "address_councildis": "A",
    "status": "Assigned to Contractor",
    "contractor": "Richards Disposal",
    "rowid": "900885",
    "final_x": "3670699.83188",
    "final_y": "537699.072712",
    "longitude": "-90.10196377310788",
    "latitude": "29.97280957135734",
    "geocoded_column": {
      "latitude": "29.97280957135734",
      "longitude": "-90.10196377310788"
    }
  },
  {
    "service_request": "2022-900884",
    "request_type": "Trash/Recycling",
    "request_reason": "Request a Large Item Pick Up",
    "date_created": "2022-07-18T00:49:40.000",
    "date_modified": "2022-07-18T00:49:41.000",
    "request_status": "Pending",
    "responsible_agency": "Department of Sanitation",
    "final_address": "4600 S Carrollton Ave",
    "address_councildis": "A",
    "status": "Assigned to Contractor",
    "contractor": "Richards Disposal",
    "rowid": "900884",
    "final_x": "3670699.83188",
    "final_y": "537699.072712",
    "longitude": "-90.10196377310788",
    "latitude": "29.97280957135734",
    "geocoded_column": {
      "latitude": "29.97280957135734",
      "longitude": "-90.10196377310788"
    }
  },
  {
    "service_request": "2022-900883",
    "request_type": "Health Related Questions",
    "request_reason": "Noise Ordinance Complaint",
    "date_created": "2022-07-18T00:27:20.000",
    "date_modified": "2022-07-18T00:27:20.000",
    "request_status": "Pending",
    "responsible_agency": "Health Department",
    "final_address": "1775 Mcshane Pl",
    "address_councildis": "C",
    "status": "Pending",
    "rowid": "900883",
    "final_x": "3683462.43785",
    "final_y": "536121.270855",
    "longitude": "-90.06171241725919",
    "latitude": "29.96808786850646",
    "geocoded_column": {
      "latitude": "29.96808786850646",
      "longitude": "-90.06171241725919"
    }
  },
  {
    "service_request": "2022-900882",
    "request_type": "Abandoned Vehicles",
    "request_reason": "Abandoned/Junk Vehicles",
    "date_created": "2022-07-18T00:18:27.000",
    "date_modified": "2022-07-18T00:18:27.000",
    "request_status": "Pending",
    "responsible_agency": "Department of Public Works",
    "final_address": "6840 Tara Ln",
    "address_councildis": "E",
    "status": "Pending",
    "rowid": "900882",
    "final_x": "3707109.41086",
    "final_y": "559504.525277",
    "longitude": "-89.98616682587848",
    "latitude": "30.031640182856755",
    "geocoded_column": {
      "latitude": "30.031640182856755",
      "longitude": "-89.98616682587848"
    }
  },
  {
    "service_request": "2022-900881",
    "request_type": "Abandoned Vehicles",
    "request_reason": "Abandoned/Junk Vehicles",
    "date_created": "2022-07-18T00:17:13.000",
    "date_modified": "2022-07-18T00:17:13.000",
    "request_status": "Pending",
    "responsible_agency": "Department of Public Works",
    "final_address": "6840 Tara Ln",
    "address_councildis": "E",
    "status": "Pending",
    "rowid": "900881",
    "final_x": "3707109.41086",
    "final_y": "559504.525277",
    "longitude": "-89.98616682587848",
    "latitude": "30.031640182856755",
    "geocoded_column": {
      "latitude": "30.031640182856755",
      "longitude": "-89.98616682587848"
    }
  },
  {
    "service_request": "2022-900880",
    "request_type": "Traffic Signals/Signs/Striping/Streetlights",
    "request_reason": "Traffic Sign Missing/Damaged",
    "date_created": "2022-07-18T00:05:07.000",
    "date_modified": "2022-07-18T00:05:07.000",
    "request_status": "Pending",
    "responsible_agency": "Department of Public Works",
    "final_address": "2601 N Villere St",
    "address_councildis": "C",
    "status": "Pending",
    "rowid": "900880",
    "final_x": "3687439.5839",
    "final_y": "537598.566792",
    "longitude": "-90.04910018077213",
    "latitude": "29.972027954112672",
    "geocoded_column": {
      "latitude": "29.972027954112672",
      "longitude": "-90.04910018077213"
    }
  },
  {
    "service_request": "2022-900879",
    "request_type": "Traffic Signals/Signs/Striping/Streetlights",
    "request_reason": "Request for Stop Sign",
    "date_created": "2022-07-17T23:54:33.000",
    "date_modified": "2022-07-17T23:54:33.000",
    "request_status": "Pending",
    "responsible_agency": "Department of Public Works",
    "final_address": "6873 Tara Ln",
    "address_councildis": "E",
    "status": "Pending",
    "rowid": "900879",
    "final_x": "3707166.23736",
    "final_y": "559810.943645",
    "longitude": "-89.98597586693984",
    "latitude": "30.032480875745335",
    "geocoded_column": {
      "latitude": "30.032480875745335",
      "longitude": "-89.98597586693984"
    }
  },
  {
    "service_request": "2022-900878",
    "request_type": "Trash/Recycling",
    "request_reason": "Illegal Dumping",
    "date_created": "2022-07-17T23:50:27.000",
    "date_modified": "2022-07-17T23:50:27.000",
    "request_status": "Pending",
    "responsible_agency": "Department of Sanitation",
    "final_address": "7701 Tricia Ct",
    "address_councildis": "E",
    "status": "Pending",
    "rowid": "900878",
    "final_x": "3717529.14316",
    "final_y": "571412.890152",
    "longitude": "-89.95278695237737",
    "latitude": "30.06404235005179",
    "geocoded_column": {
      "latitude": "30.06404235005179",
      "longitude": "-89.95278695237737"
    }
  },
  {
    "service_request": "2022-900877",
    "request_type": "Property Maintenance",
    "request_reason": "Property Maintenance",
    "date_created": "2022-07-17T23:49:22.000",
    "date_modified": "2022-07-17T23:49:22.000",
    "request_status": "Pending",
    "responsible_agency": "Department of Code Enforcement",
    "final_address": "7701 Tricia Ct",
    "address_councildis": "E",
    "status": "Pending",
    "rowid": "900877",
    "final_x": "3717529.14316",
    "final_y": "571412.890152",
    "longitude": "-89.95278695237737",
    "latitude": "30.06404235005179",
    "geocoded_column": {
      "latitude": "30.06404235005179",
      "longitude": "-89.95278695237737"
    }
  },
  {
    "service_request": "2022-900876",
    "request_type": "Trash/Recycling",
    "request_reason": "Illegal Dumping",
    "date_created": "2022-07-17T23:14:26.000",
    "date_modified": "2022-07-17T23:14:26.000",
    "request_status": "Pending",
    "responsible_agency": "Department of Sanitation",
    "final_address": "3535 Canal St",
    "address_councildis": "B",
    "status": "Pending",
    "rowid": "900876",
    "final_x": "3672720.67451",
    "final_y": "537248.124808",
    "longitude": "-90.09559694405112",
    "latitude": "29.971509748526593",
    "geocoded_column": {
      "latitude": "29.971509748526593",
      "longitude": "-90.09559694405112"
    }
  },
  {
    "service_request": "2022-900875",
    "request_type": "Abandoned Vehicles",
    "request_reason": "Abandoned/Junk Vehicles",
    "date_created": "2022-07-17T22:45:12.000",
    "date_modified": "2022-07-17T22:45:12.000",
    "request_status": "Pending",
    "responsible_agency": "Department of Public Works",
    "final_address": "4808 St Claude Ave",
    "address_councildis": "E",
    "status": "Pending",
    "rowid": "900875",
    "final_x": "3695140.33008",
    "final_y": "534421.409861",
    "longitude": "-90.0248946657472",
    "latitude": "29.963052336513883",
    "geocoded_column": {
      "latitude": "29.963052336513883",
      "longitude": "-90.0248946657472"
    }
  },
  {
    "service_request": "2022-900873",
    "request_type": "Health Related Questions",
    "request_reason": "Noise Ordinance Complaint",
    "date_created": "2022-07-17T22:26:16.000",
    "date_modified": "2022-07-17T22:26:16.000",
    "request_status": "Pending",
    "responsible_agency": "Health Department",
    "final_address": "5723 Eads St. NOLA 70122",
    "status": "Pending",
    "rowid": "900873",
    "longitude": "0.0",
    "latitude": "0.0",
    "geocoded_column": {
      "latitude": "0.0",
      "longitude": "0.0"
    }
  },
  {
    "service_request": "2022-900872",
    "request_type": "Property Maintenance",
    "request_reason": "Property Maintenance",
    "date_created": "2022-07-17T22:22:55.000",
    "date_modified": "2022-07-17T22:22:55.000",
    "request_status": "Pending",
    "responsible_agency": "Department of Code Enforcement",
    "final_address": "1605 N Rocheblave St",
    "address_councildis": "D",
    "status": "Pending",
    "rowid": "900872",
    "final_x": "3679955.78299",
    "final_y": "539581.246986",
    "longitude": "-90.07266634804654",
    "latitude": "29.97770814982995",
    "geocoded_column": {
      "latitude": "29.97770814982995",
      "longitude": "-90.07266634804654"
    }
  },
  {
    "service_request": "2022-900871",
    "request_type": "Roads/Drainage",
    "request_reason": "Catch Basin - Clogged",
    "date_created": "2022-07-17T22:11:13.000",
    "date_modified": "2022-07-17T22:11:13.000",
    "request_status": "Pending",
    "responsible_agency": "Department of Public Works",
    "final_address": "2422 Nashville Ave",
    "address_councildis": "A",
    "status": "Pending",
    "rowid": "900871",
    "final_x": "3667035.22938",
    "final_y": "525038.460989",
    "longitude": "-90.1139628236199",
    "latitude": "29.938104808763356",
    "geocoded_column": {
      "latitude": "29.938104808763356",
      "longitude": "-90.1139628236199"
    }
  },
  {
    "service_request": "2022-900870",
    "request_type": "Health Related Questions",
    "request_reason": "Noise Ordinance Complaint",
    "date_created": "2022-07-17T22:05:34.000",
    "date_modified": "2022-07-17T22:05:34.000",
    "request_status": "Pending",
    "responsible_agency": "Health Department",
    "final_address": "1775 Mcshane Pl",
    "address_councildis": "C",
    "status": "Pending",
    "rowid": "900870",
    "final_x": "3683462.43785",
    "final_y": "536121.270855",
    "longitude": "-90.06171241725919",
    "latitude": "29.96808786850646",
    "geocoded_column": {
      "latitude": "29.96808786850646",
      "longitude": "-90.06171241725919"
    }
  },
  {
    "service_request": "2022-900869",
    "request_type": "Trash/Recycling",
    "request_reason": "Missed Trash Pick-Up",
    "date_created": "2022-07-17T21:40:05.000",
    "date_modified": "2022-07-17T21:40:06.000",
    "request_status": "Pending",
    "responsible_agency": "Department of Sanitation",
    "final_address": "81 Spanish Fort Blvd",
    "address_councildis": "D",
    "status": "Assigned to Contractor",
    "contractor": "Metro Disposal",
    "rowid": "900869",
    "final_x": "3673999.01038",
    "final_y": "555688.771801",
    "longitude": "-90.0909283030542",
    "latitude": "30.022177051843574",
    "geocoded_column": {
      "latitude": "30.022177051843574",
      "longitude": "-90.0909283030542"
    }
  },
  {
    "service_request": "2022-900868",
    "request_type": "Traffic Signals/Signs/Striping/Streetlights",
    "request_reason": "Traffic Signal Malfunctioning/Damaged",
    "date_created": "2022-07-17T21:13:06.000",
    "date_modified": "2022-07-17T21:13:07.000",
    "request_status": "Pending",
    "responsible_agency": "Department of Public Works",
    "final_address": "MYSTERY ST & ESPLANADE AVE",
    "address_councildis": "A",
    "status": "Pending",
    "rowid": "900868",
    "final_x": "3676102.17",
    "final_y": "540588.74",
    "longitude": "-90.08480271877924",
    "latitude": "29.98059442593613",
    "geocoded_column": {
      "latitude": "29.98059442593613",
      "longitude": "-90.08480271877924"
    }
  },
  {
    "service_request": "2022-900867",
    "request_type": "Traffic Signals/Signs/Striping/Streetlights",
    "request_reason": "Street Light Outage/Malfunction",
    "date_created": "2022-07-17T21:12:29.000",
    "date_modified": "2022-07-17T21:12:30.000",
    "request_status": "Pending",
    "responsible_agency": "Department of Public Works",
    "final_address": "FORTIN ST & MYSTERY ST",
    "address_councildis": "A",
    "status": "Pending",
    "contractor": "Royal Engineering",
    "rowid": "900867",
    "final_x": "3676112.6",
    "final_y": "540963.98",
    "longitude": "-90.08475686194268",
    "latitude": "29.981625894098187",
    "geocoded_column": {
      "latitude": "29.981625894098187",
      "longitude": "-90.08475686194268"
    }
  },
  {
    "service_request": "2022-900866",
    "request_type": "Trash/Recycling",
    "request_reason": "Request a Large Item Pick Up",
    "date_created": "2022-07-17T20:22:01.000",
    "date_modified": "2022-07-17T20:22:01.000",
    "request_status": "Pending",
    "responsible_agency": "Department of Sanitation",
    "final_address": "1811 Camp St",
    "address_councildis": "B",
    "status": "Assigned to Contractor",
    "contractor": "Richards Disposal",
    "rowid": "900866",
    "final_x": "3679549.62351",
    "final_y": "523278.194811",
    "longitude": "-90.07451481411721",
    "latitude": "29.932892538724165",
    "geocoded_column": {
      "latitude": "29.932892538724165",
      "longitude": "-90.07451481411721"
    }
  },
  {
    "service_request": "2022-900865",
    "request_type": "Abandoned Vehicles",
    "request_reason": "Abandoned/Junk Vehicles",
    "date_created": "2022-07-17T20:20:26.000",
    "date_modified": "2022-07-17T20:20:26.000",
    "request_status": "Pending",
    "responsible_agency": "Department of Public Works",
    "final_address": "626 Congress St",
    "address_councildis": "C",
    "status": "Pending",
    "rowid": "900865",
    "final_x": "3690277.351",
    "final_y": "533945.833733",
    "longitude": "-90.04026826097889",
    "latitude": "29.961896462005882",
    "geocoded_column": {
      "latitude": "29.961896462005882",
      "longitude": "-90.04026826097889"
    }
  },
  {
    "service_request": "2022-900864",
    "request_type": "Abandoned Vehicles",
    "request_reason": "Abandoned/Junk Vehicles",
    "date_created": "2022-07-17T20:10:45.000",
    "date_modified": "2022-07-17T20:10:45.000",
    "request_status": "Pending",
    "responsible_agency": "Department of Public Works",
    "final_address": "2424 Hollygrove St",
    "address_councildis": "A",
    "status": "Pending",
    "rowid": "900864",
    "final_x": "3662635.14368",
    "final_y": "533895.095301",
    "longitude": "-90.12756011947071",
    "latitude": "29.962585722023558",
    "geocoded_column": {
      "latitude": "29.962585722023558",
      "longitude": "-90.12756011947071"
    }
  },
  {
    "service_request": "2022-900863",
    "request_type": "Abandoned Vehicles",
    "request_reason": "Abandoned/Junk Vehicles",
    "date_created": "2022-07-17T20:08:27.000",
    "date_modified": "2022-07-17T20:08:27.000",
    "request_status": "Pending",
    "responsible_agency": "Department of Public Works",
    "final_address": "2424 Hollygrove St",
    "address_councildis": "A",
    "status": "Pending",
    "rowid": "900863",
    "final_x": "3662635.14368",
    "final_y": "533895.095301",
    "longitude": "-90.12756011947071",
    "latitude": "29.962585722023558",
    "geocoded_column": {
      "latitude": "29.962585722023558",
      "longitude": "-90.12756011947071"
    }
  },
  {
    "service_request": "2022-900862",
    "request_type": "Roads/Drainage",
    "request_reason": "Street Subsidence (Sinking)",
    "date_created": "2022-07-17T20:03:10.000",
    "date_modified": "2022-07-17T20:03:10.000",
    "request_status": "Pending",
    "responsible_agency": "Department of Public Works",
    "final_address": "2424 Hollygrove St",
    "address_councildis": "A",
    "status": "Pending",
    "rowid": "900862",
    "final_x": "3662635.14368",
    "final_y": "533895.095301",
    "longitude": "-90.12756011947071",
    "latitude": "29.962585722023558",
    "geocoded_column": {
      "latitude": "29.962585722023558",
      "longitude": "-90.12756011947071"
    }
  },
  {
    "service_request": "2022-900861",
    "request_type": "Trash/Recycling",
    "request_reason": "Missed Trash Pick-Up",
    "date_created": "2022-07-17T19:50:24.000",
    "date_modified": "2022-07-17T19:50:25.000",
    "request_status": "Pending",
    "responsible_agency": "Department of Sanitation",
    "final_address": "1124 Adams St, New Orleans, Louisiana, 70118",
    "address_councildis": "A",
    "status": "Assigned to Contractor",
    "contractor": "Richards Disposal",
    "rowid": "900861",
    "final_x": "3662931.17331",
    "final_y": "527311.957247",
    "longitude": "-90.12684418378998",
    "latitude": "29.94447565090557",
    "geocoded_column": {
      "latitude": "29.94447565090557",
      "longitude": "-90.12684418378998"
    }
  },
  {
    "service_request": "2022-900860",
    "request_type": "Roads/Drainage",
    "request_reason": "Damaged Sidewalk",
    "date_created": "2022-07-17T19:46:50.000",
    "date_modified": "2022-07-17T19:46:50.000",
    "request_status": "Pending",
    "responsible_agency": "Department of Public Works",
    "final_address": "2060 Mirabeau Ave",
    "address_councildis": "D",
    "status": "Pending",
    "rowid": "900860",
    "final_x": "3682928.00898",
    "final_y": "550549.8253",
    "longitude": "-90.06289495497816",
    "latitude": "30.00777759411963",
    "geocoded_column": {
      "latitude": "30.00777759411963",
      "longitude": "-90.06289495497816"
    }
  },
  {
    "service_request": "2022-900859",
    "request_type": "Trash/Recycling",
    "request_reason": "Missed Trash Pick-Up",
    "date_created": "2022-07-17T19:45:21.000",
    "date_modified": "2022-07-17T19:45:22.000",
    "request_status": "Pending",
    "responsible_agency": "Department of Sanitation",
    "final_address": "4843 Chrysler St",
    "address_councildis": "E",
    "status": "Assigned to Contractor",
    "contractor": "Metro Disposal",
    "rowid": "900859",
    "final_x": "3715337.28485",
    "final_y": "557329.737563",
    "longitude": "-89.96024897473912",
    "latitude": "30.025391831821544",
    "geocoded_column": {
      "latitude": "30.025391831821544",
      "longitude": "-89.96024897473912"
    }
  },
  {
    "service_request": "2022-900858",
    "request_type": "Trash/Recycling",
    "request_reason": "Request a Large Item Pick Up",
    "date_created": "2022-07-17T19:43:17.000",
    "date_modified": "2022-07-17T19:43:18.000",
    "request_status": "Pending",
    "responsible_agency": "Department of Sanitation",
    "final_address": "5329 Douglass St",
    "address_councildis": "E",
    "status": "Assigned to Contractor",
    "contractor": "Metro Disposal",
    "rowid": "900858",
    "final_x": "3696478.01936",
    "final_y": "531902.595587",
    "longitude": "-90.0207615423317",
    "latitude": "29.956084418340833",
    "geocoded_column": {
      "latitude": "29.956084418340833",
      "longitude": "-90.0207615423317"
    }
  },
  {
    "service_request": "2022-900857",
    "request_type": "Roads/Drainage",
    "request_reason": "Catch Basin - Broken/Damage",
    "date_created": "2022-07-17T19:41:46.000",
    "date_modified": "2022-07-17T19:41:46.000",
    "request_status": "Pending",
    "responsible_agency": "Department of Public Works",
    "final_address": "511 Marigny St",
    "address_councildis": "C",
    "status": "Pending",
    "rowid": "900857",
    "final_x": "3685685.18006",
    "final_y": "534303.235909",
    "longitude": "-90.05475699102634",
    "latitude": "29.963020888370004",
    "geocoded_column": {
      "latitude": "29.963020888370004",
      "longitude": "-90.05475699102634"
    }
  },
  {
    "service_request": "2022-900856",
    "request_type": "Property Maintenance",
    "request_reason": "Property Maintenance",
    "date_created": "2022-07-17T19:35:31.000",
    "date_modified": "2022-07-17T19:35:31.000",
    "request_status": "Pending",
    "responsible_agency": "Department of Code Enforcement",
    "final_address": "1800 St Philip St",
    "address_councildis": "D",
    "status": "Pending",
    "rowid": "900856",
    "final_x": "3680091.38875",
    "final_y": "535694.293255",
    "longitude": "-90.07237315570845",
    "latitude": "29.967016263046936",
    "geocoded_column": {
      "latitude": "29.967016263046936",
      "longitude": "-90.07237315570845"
    }
  },
  {
    "service_request": "2022-900855",
    "request_type": "Trash/Recycling",
    "request_reason": "Missed Trash Pick-Up",
    "date_created": "2022-07-17T19:34:21.000",
    "date_modified": "2022-07-17T19:34:22.000",
    "request_status": "Pending",
    "responsible_agency": "Department of Sanitation",
    "final_address": "13520 Trappers Ct",
    "address_councildis": "E",
    "status": "Assigned to Contractor",
    "contractor": "Metro Disposal",
    "rowid": "900855",
    "final_x": "3724468.7774",
    "final_y": "569107.39159",
    "longitude": "-89.93093973934774",
    "latitude": "30.057471478246814",
    "geocoded_column": {
      "latitude": "30.057471478246814",
      "longitude": "-89.93093973934774"
    }
  },
  {
    "service_request": "2022-900854",
    "request_type": "Trash/Recycling",
    "request_reason": "Missed Trash Pick-Up",
    "date_created": "2022-07-17T19:31:56.000",
    "date_modified": "2022-07-17T19:31:56.000",
    "request_status": "Pending",
    "responsible_agency": "Department of Sanitation",
    "final_address": "13511 Dwyer Blvd",
    "address_councildis": "E",
    "status": "Assigned to Contractor",
    "contractor": "Metro Disposal",
    "rowid": "900854",
    "final_x": "3725954.58809",
    "final_y": "562107.552031",
    "longitude": "-89.92651500341378",
    "latitude": "30.03817475627309",
    "geocoded_column": {
      "latitude": "30.03817475627309",
      "longitude": "-89.92651500341378"
    }
  },
  {
    "service_request": "2022-900852",
    "request_type": "Health Related Questions",
    "request_reason": "Noise Ordinance Complaint",
    "date_created": "2022-07-17T19:27:26.000",
    "date_modified": "2022-07-17T19:27:26.000",
    "request_status": "Pending",
    "responsible_agency": "Health Department",
    "final_address": "8111 Lomond Rd, New Orleans, Louisiana, 70126",
    "address_councildis": "E",
    "status": "Pending",
    "rowid": "900852",
    "final_x": "3702570.04663",
    "final_y": "561598.305119",
    "longitude": "-90.0004343782748",
    "latitude": "30.03754322492026",
    "geocoded_column": {
      "latitude": "30.03754322492026",
      "longitude": "-90.0004343782748"
    }
  },
  {
    "service_request": "2022-900851",
    "request_type": "Trash/Recycling",
    "request_reason": "Missed Trash Pick-Up",
    "date_created": "2022-07-17T19:13:59.000",
    "date_modified": "2022-07-17T19:13:59.000",
    "request_status": "Pending",
    "responsible_agency": "Department of Sanitation",
    "final_address": "5416 Grand Bayou Dr",
    "address_councildis": "E",
    "status": "Assigned to Contractor",
    "contractor": "Metro Disposal",
    "rowid": "900851",
    "final_x": "3725942.59379",
    "final_y": "563949.187105",
    "longitude": "-89.9264814503644",
    "latitude": "30.043238894988793",
    "geocoded_column": {
      "latitude": "30.043238894988793",
      "longitude": "-89.9264814503644"
    }
  },
  {
    "service_request": "2022-900850",
    "request_type": "Trash/Recycling",
    "request_reason": "Request a Large Item Pick Up",
    "date_created": "2022-07-17T18:43:37.000",
    "date_modified": "2022-07-17T18:43:38.000",
    "request_status": "Pending",
    "responsible_agency": "Department of Sanitation",
    "final_address": "5140 Warrington Dr, New Orleans, Louisiana, 70122",
    "address_councildis": "D",
    "status": "Assigned to Contractor",
    "contractor": "Metro Disposal",
    "rowid": "900850",
    "final_x": "3680925.83669",
    "final_y": "551461.548437",
    "longitude": "-90.06918862668834",
    "latitude": "30.01034539117859",
    "geocoded_column": {
      "latitude": "30.01034539117859",
      "longitude": "-90.06918862668834"
    }
  },
  {
    "service_request": "2022-900848",
    "request_type": "Property Maintenance",
    "request_reason": "Property Maintenance",
    "date_created": "2022-07-17T18:39:55.000",
    "date_modified": "2022-07-17T18:39:55.000",
    "request_status": "Pending",
    "responsible_agency": "Department of Code Enforcement",
    "final_address": "4619 Sandalwood St",
    "address_councildis": "E",
    "status": "Pending",
    "rowid": "900848",
    "final_x": "3712386.04158",
    "final_y": "555376.499609",
    "longitude": "-89.96964782540226",
    "latitude": "30.020118107593838",
    "geocoded_column": {
      "latitude": "30.020118107593838",
      "longitude": "-89.96964782540226"
    }
  },
  {
    "service_request": "2022-900847",
    "request_type": "Property Maintenance",
    "request_reason": "Property Maintenance",
    "date_created": "2022-07-17T18:35:58.000",
    "date_modified": "2022-07-17T18:35:58.000",
    "request_status": "Pending",
    "responsible_agency": "Department of Code Enforcement",
    "final_address": "4611 Sandalwood St",
    "address_councildis": "E",
    "status": "Pending",
    "rowid": "900847",
    "final_x": "3712391.80517",
    "final_y": "555316.881113",
    "longitude": "-89.96963185637077",
    "latitude": "30.019953991519216",
    "geocoded_column": {
      "latitude": "30.019953991519216",
      "longitude": "-89.96963185637077"
    }
  },
  {
    "service_request": "2022-900846",
    "request_type": "Trash/Recycling",
    "request_reason": "Missed Trash Pick-Up",
    "date_created": "2022-07-17T18:07:58.000",
    "date_modified": "2022-07-17T18:07:59.000",
    "request_status": "Pending",
    "responsible_agency": "Department of Sanitation",
    "final_address": "13118 Dwyer Blvd",
    "address_councildis": "E",
    "status": "Assigned to Contractor",
    "contractor": "Metro Disposal",
    "rowid": "900846",
    "final_x": "3724198.54828",
    "final_y": "561238.55683",
    "longitude": "-89.93209804600616",
    "latitude": "30.035844541176957",
    "geocoded_column": {
      "latitude": "30.035844541176957",
      "longitude": "-89.93209804600616"
    }
  },
  {
    "service_request": "2022-900844",
    "request_type": "Abandoned Vehicles",
    "request_reason": "Abandoned/Junk Vehicles",
    "date_created": "2022-07-17T17:10:49.000",
    "date_modified": "2022-07-17T17:10:49.000",
    "request_status": "Pending",
    "responsible_agency": "Department of Public Works",
    "final_address": "2613 Touro St",
    "address_councildis": "D",
    "status": "Pending",
    "rowid": "900844",
    "final_x": "3683803.72098",
    "final_y": "541944.795532",
    "longitude": "-90.06043033078504",
    "latitude": "29.984090109782247",
    "geocoded_column": {
      "latitude": "29.984090109782247",
      "longitude": "-90.06043033078504"
    }
  },
  {
    "service_request": "2022-900843",
    "request_type": "Trash/Recycling",
    "request_reason": "Replace Trash Cart",
    "date_created": "2022-07-17T16:59:12.000",
    "date_modified": "2022-07-17T16:59:13.000",
    "request_status": "Pending",
    "responsible_agency": "Department of Sanitation",
    "final_address": "938 St Ann St",
    "address_councildis": "C",
    "status": "Assigned to Contractor",
    "contractor": "Empire Services",
    "rowid": "900843",
    "final_x": "3681949.97333",
    "final_y": "533360.266436",
    "longitude": "-90.06658522843976",
    "latitude": "29.960542119085208",
    "geocoded_column": {
      "latitude": "29.960542119085208",
      "longitude": "-90.06658522843976"
    }
  },
  {
    "service_request": "2022-900842",
    "request_type": "Trash/Recycling",
    "request_reason": "Order Recycling Cart",
    "date_created": "2022-07-17T16:58:00.000",
    "date_modified": "2022-07-17T16:58:00.000",
    "request_status": "Pending",
    "responsible_agency": "Department of Sanitation",
    "final_address": "7427 Pitt St",
    "address_councildis": "A",
    "status": "Pending",
    "rowid": "900842",
    "final_x": "3661193.14042",
    "final_y": "523574.383099",
    "longitude": "-90.13245536356102",
    "latitude": "29.93424871007761",
    "geocoded_column": {
      "latitude": "29.93424871007761",
      "longitude": "-90.13245536356102"
    }
  },
  {
    "service_request": "2022-900841",
    "request_type": "Trash/Recycling",
    "request_reason": "Replace Trash Cart",
    "date_created": "2022-07-17T16:57:51.000",
    "date_modified": "2022-07-17T16:57:52.000",
    "request_status": "Pending",
    "responsible_agency": "Department of Sanitation",
    "final_address": "934 St Ann St",
    "address_councildis": "C",
    "status": "Assigned to Contractor",
    "contractor": "Empire Services",
    "rowid": "900841",
    "final_x": "3681964.75394",
    "final_y": "533349.226308",
    "longitude": "-90.06653893970035",
    "latitude": "29.960511313193027",
    "geocoded_column": {
      "latitude": "29.960511313193027",
      "longitude": "-90.06653893970035"
    }
  },
  {
    "service_request": "2022-900840",
    "request_type": "Trash/Recycling",
    "request_reason": "Replace Trash Cart",
    "date_created": "2022-07-17T16:55:08.000",
    "date_modified": "2022-07-17T16:55:09.000",
    "request_status": "Pending",
    "responsible_agency": "Department of Sanitation",
    "final_address": "815 Patterson St",
    "address_councildis": "C",
    "status": "Assigned to Contractor",
    "contractor": "Richards Disposal",
    "rowid": "900840",
    "final_x": "3688114.80079",
    "final_y": "531386.581955",
    "longitude": "-90.04718794814806",
    "latitude": "29.95492633026841",
    "geocoded_column": {
      "latitude": "29.95492633026841",
      "longitude": "-90.04718794814806"
    }
  },
  {
    "service_request": "2022-900839",
    "request_type": "Trash/Recycling",
    "request_reason": "Request a Large Item Pick Up",
    "date_created": "2022-07-17T16:34:06.000",
    "date_modified": "2022-07-17T16:34:07.000",
    "request_status": "Pending",
    "responsible_agency": "Department of Sanitation",
    "final_address": "415 Socrates St, New Orleans, Louisiana, 70114",
    "address_councildis": "C",
    "status": "Assigned to Contractor",
    "contractor": "Richards Disposal",
    "rowid": "900839",
    "final_x": "3686807.14178",
    "final_y": "526355.438462",
    "longitude": "-90.05149475108507",
    "latitude": "29.941132694045432",
    "geocoded_column": {
      "latitude": "29.941132694045432",
      "longitude": "-90.05149475108507"
    }
  },
  {
    "service_request": "2022-900838",
    "request_type": "Trash/Recycling",
    "request_reason": "Request a Large Item Pick Up",
    "date_created": "2022-07-17T16:32:34.000",
    "date_modified": "2022-07-17T16:32:35.000",
    "request_status": "Pending",
    "responsible_agency": "Department of Sanitation",
    "final_address": "601 Austerlitz St, New Orleans, Louisiana, 70115",
    "address_councildis": "B",
    "status": "Assigned to Contractor",
    "contractor": "Richards Disposal",
    "rowid": "900838",
    "final_x": "3673002.22747",
    "final_y": "517971.59647",
    "longitude": "-90.09536548521714",
    "latitude": "29.91849725593638",
    "geocoded_column": {
      "latitude": "29.91849725593638",
      "longitude": "-90.09536548521714"
    }
  },
  {
    "service_request": "2022-900837",
    "request_type": "Trash/Recycling",
    "request_reason": "Missed Trash Pick-Up",
    "date_created": "2022-07-17T16:20:04.000",
    "date_modified": "2022-07-17T16:20:04.000",
    "request_status": "Pending",
    "responsible_agency": "Department of Sanitation",
    "final_address": "4827 Friar Tuck Dr",
    "address_councildis": "E",
    "status": "Assigned to Contractor",
    "contractor": "Metro Disposal",
    "rowid": "900837",
    "final_x": "3717786.22969",
    "final_y": "557399.841179",
    "longitude": "-89.95250809430375",
    "latitude": "30.025503670340008",
    "geocoded_column": {
      "latitude": "30.025503670340008",
      "longitude": "-89.95250809430375"
    }
  },
  {
    "service_request": "2022-900836",
    "request_type": "Trash/Recycling",
    "request_reason": "Missed Trash Pick-Up",
    "date_created": "2022-07-17T16:13:37.000",
    "date_modified": "2022-07-17T16:13:38.000",
    "request_status": "Pending",
    "responsible_agency": "Department of Sanitation",
    "final_address": "4241 San Remo St",
    "address_councildis": "E",
    "status": "Assigned to Contractor",
    "contractor": "Metro Disposal",
    "rowid": "900836",
    "final_x": "3760417.51497",
    "final_y": "572856.584361",
    "longitude": "-89.81715671748809",
    "latitude": "30.066521275770587",
    "geocoded_column": {
      "latitude": "30.066521275770587",
      "longitude": "-89.81715671748809"
    }
  },
  {
    "service_request": "2022-900835",
    "request_type": "Roads/Drainage",
    "request_reason": "Street Flooding / Drainage",
    "date_created": "2022-07-17T16:13:29.000",
    "date_modified": "2022-07-17T16:13:29.000",
    "request_status": "Pending",
    "responsible_agency": "Department of Public Works",
    "final_address": "2023 Camp St",
    "address_councildis": "B",
    "status": "Pending",
    "rowid": "900835",
    "final_x": "3679100.98427",
    "final_y": "522771.108794",
    "longitude": "-90.07594870122844",
    "latitude": "29.931511763496797",
    "geocoded_column": {
      "latitude": "29.931511763496797",
      "longitude": "-90.07594870122844"
    }
  },
  {
    "service_request": "2022-900834",
    "request_type": "Trash/Recycling",
    "request_reason": "Missed Trash Pick-Up",
    "date_created": "2022-07-17T16:12:29.000",
    "date_modified": "2022-07-17T16:12:30.000",
    "request_status": "Pending",
    "responsible_agency": "Department of Sanitation",
    "final_address": "4900 Nottingham Dr",
    "address_councildis": "E",
    "status": "Assigned to Contractor",
    "contractor": "Metro Disposal",
    "rowid": "900834",
    "final_x": "3716252.18584",
    "final_y": "557544.817499",
    "longitude": "-89.9573498948114",
    "latitude": "30.02595303886343",
    "geocoded_column": {
      "latitude": "30.02595303886343",
      "longitude": "-89.9573498948114"
    }
  },
  {
    "service_request": "2022-900833",
    "request_type": "Trash/Recycling",
    "request_reason": "Order Recycling Cart",
    "date_created": "2022-07-17T15:56:13.000",
    "date_modified": "2022-07-17T15:56:13.000",
    "request_status": "Pending",
    "responsible_agency": "Department of Sanitation",
    "final_address": "139 N Murat St",
    "address_councildis": "A",
    "status": "Pending",
    "rowid": "900833",
    "final_x": "3669909.57633",
    "final_y": "539746.963082",
    "longitude": "-90.10439018852466",
    "latitude": "29.978463906496135",
    "geocoded_column": {
      "latitude": "29.978463906496135",
      "longitude": "-90.10439018852466"
    }
  },
  {
    "service_request": "2022-900832",
    "request_type": "Roads/Drainage",
    "request_reason": "Pothole",
    "date_created": "2022-07-17T15:55:56.000",
    "date_modified": "2022-07-17T15:55:56.000",
    "request_status": "Pending",
    "responsible_agency": "Department of Public Works",
    "final_address": "516 S Tonti St",
    "address_councildis": "B",
    "status": "Pending",
    "rowid": "900832",
    "final_x": "3675474.85678",
    "final_y": "532950.162372",
    "longitude": "-90.08704645740725",
    "latitude": "29.959609712795167",
    "geocoded_column": {
      "latitude": "29.959609712795167",
      "longitude": "-90.08704645740725"
    }
  },
  {
    "service_request": "2022-900831",
    "request_type": "Trash/Recycling",
    "request_reason": "Missed Trash Pick-Up",
    "date_created": "2022-07-17T15:47:39.000",
    "date_modified": "2022-07-17T15:47:39.000",
    "request_status": "Pending",
    "responsible_agency": "Department of Sanitation",
    "final_address": "4837 Nottingham Dr",
    "address_councildis": "E",
    "status": "Assigned to Contractor",
    "contractor": "Metro Disposal",
    "rowid": "900831",
    "final_x": "3716424.3324",
    "final_y": "557384.970011",
    "longitude": "-89.95681200815142",
    "latitude": "30.025507836780207",
    "geocoded_column": {
      "latitude": "30.025507836780207",
      "longitude": "-89.95681200815142"
    }
  },
  {
    "service_request": "2022-900830",
    "request_type": "Trash/Recycling",
    "request_reason": "Missed Trash Pick-Up",
    "date_created": "2022-07-17T15:21:24.000",
    "date_modified": "2022-07-17T15:21:25.000",
    "request_status": "Pending",
    "responsible_agency": "Department of Sanitation",
    "final_address": "1813 Annunciation St, New Orleans, Louisiana, 70130",
    "address_councildis": "B",
    "status": "Assigned to Contractor",
    "contractor": "Richards Disposal",
    "rowid": "900830",
    "final_x": "3680613.80975",
    "final_y": "522281.449722",
    "longitude": "-90.07118991986677",
    "latitude": "29.930119628374513",
    "geocoded_column": {
      "latitude": "29.930119628374513",
      "longitude": "-90.07118991986677"
    }
  },
  {
    "service_request": "2022-900829",
    "request_type": "Abandoned Vehicles",
    "request_reason": "Abandoned/Junk Vehicles",
    "date_created": "2022-07-17T15:10:44.000",
    "date_modified": "2022-07-17T15:10:44.000",
    "request_status": "Pending",
    "responsible_agency": "Department of Public Works",
    "final_address": "418 Wallace Dr",
    "address_councildis": "D",
    "status": "Pending",
    "rowid": "900829",
    "final_x": "3681623.76098",
    "final_y": "548441.416274",
    "longitude": "-90.06708906645922",
    "latitude": "30.002019923823312",
    "geocoded_column": {
      "latitude": "30.002019923823312",
      "longitude": "-90.06708906645922"
    }
  },
  {
    "service_request": "2022-900828",
    "request_type": "Trash/Recycling",
    "request_reason": "MIssed Recycling Pick-Up",
    "date_created": "2022-07-17T15:00:33.000",
    "date_modified": "2022-07-17T15:00:34.000",
    "request_status": "Pending",
    "responsible_agency": "Department of Sanitation",
    "final_address": "1507 Upperline St",
    "address_councildis": "B",
    "status": "Assigned to Contractor",
    "contractor": "Richards Disposal",
    "rowid": "900828",
    "final_x": "3669127.65575",
    "final_y": "520479.239608",
    "longitude": "-90.10751081191844",
    "latitude": "29.925507016314405",
    "geocoded_column": {
      "latitude": "29.925507016314405",
      "longitude": "-90.10751081191844"
    }
  },
  {
    "service_request": "2022-900827",
    "request_type": "Trash/Recycling",
    "request_reason": "Request a Large Item Pick Up",
    "date_created": "2022-07-17T14:56:50.000",
    "date_modified": "2022-07-17T14:56:51.000",
    "request_status": "Pending",
    "responsible_agency": "Department of Sanitation",
    "final_address": "232 N Olympia St",
    "address_councildis": "A",
    "status": "Assigned to Contractor",
    "contractor": "Richards Disposal",
    "rowid": "900827",
    "final_x": "3669926.88935",
    "final_y": "540126.986891",
    "longitude": "-90.10432263374871",
    "latitude": "29.979508332645683",
    "geocoded_column": {
      "latitude": "29.979508332645683",
      "longitude": "-90.10432263374871"
    }
  },
  {
    "service_request": "2022-900826",
    "request_type": "Property Maintenance",
    "request_reason": "Property Maintenance",
    "date_created": "2022-07-17T14:55:16.000",
    "date_modified": "2022-07-17T14:55:16.000",
    "request_status": "Pending",
    "responsible_agency": "Department of Code Enforcement",
    "final_address": "923 Constance St",
    "address_councildis": "B",
    "status": "Pending",
    "rowid": "900826",
    "final_x": "3681231.46927",
    "final_y": "526965.338814",
    "longitude": "-90.0690769270892",
    "latitude": "29.94298004760233",
    "geocoded_column": {
      "latitude": "29.94298004760233",
      "longitude": "-90.0690769270892"
    }
  },
  {
    "service_request": "2022-900825",
    "request_type": "Trash/Recycling",
    "request_reason": "Order Recycling Cart",
    "date_created": "2022-07-17T14:47:45.000",
    "date_modified": "2022-07-17T14:47:45.000",
    "request_status": "Pending",
    "responsible_agency": "Department of Sanitation",
    "final_address": "3032 St Peter St",
    "address_councildis": "A",
    "status": "Pending",
    "rowid": "900825",
    "final_x": "3675404.16341",
    "final_y": "537754.798024",
    "longitude": "-90.08710467938063",
    "latitude": "29.972822950037493",
    "geocoded_column": {
      "latitude": "29.972822950037493",
      "longitude": "-90.08710467938063"
    }
  },
  {
    "service_request": "2022-900824",
    "request_type": "Trash/Recycling",
    "request_reason": "Missed Trash Pick-Up",
    "date_created": "2022-07-17T14:38:18.000",
    "date_modified": "2022-07-17T14:38:19.000",
    "request_status": "Pending",
    "responsible_agency": "Department of Sanitation",
    "final_address": "4501 Veronese Rd",
    "address_councildis": "E",
    "status": "Assigned to Contractor",
    "contractor": "Metro Disposal",
    "rowid": "900824",
    "final_x": "3763301.13821",
    "final_y": "573483.719786",
    "longitude": "-89.80801499923398",
    "latitude": "30.06814037891258",
    "geocoded_column": {
      "latitude": "30.06814037891258",
      "longitude": "-89.80801499923398"
    }
  },
  {
    "service_request": "2022-900822",
    "request_type": "Roads/Drainage",
    "request_reason": "Catch Basin - Clogged",
    "date_created": "2022-07-17T14:07:35.000",
    "date_modified": "2022-07-17T14:07:35.000",
    "request_status": "Pending",
    "responsible_agency": "Department of Public Works",
    "final_address": "3152 St Bernard Ave",
    "address_councildis": "D",
    "status": "Pending",
    "rowid": "900822",
    "final_x": "3678917.49877",
    "final_y": "543965.949902",
    "longitude": "-90.0757936221622",
    "latitude": "29.98979592585871",
    "geocoded_column": {
      "latitude": "29.98979592585871",
      "longitude": "-90.0757936221622"
    }
  },
  {
    "service_request": "2022-900821",
    "request_type": "Parks & Parkways",
    "request_reason": "Request Tree Service (Right of Way/Public Property)",
    "date_created": "2022-07-17T14:01:52.000",
    "date_modified": "2022-07-17T14:01:52.000",
    "request_status": "Pending",
    "responsible_agency": "Department of Parks & Parkway",
    "final_address": "5419 Paris Ave",
    "address_councildis": "D",
    "status": "Pending",
    "rowid": "900821",
    "final_x": "3679250.22978",
    "final_y": "552415.08079",
    "longitude": "-90.07444940173463",
    "latitude": "30.013017985442477",
    "geocoded_column": {
      "latitude": "30.013017985442477",
      "longitude": "-90.07444940173463"
    }
  },
  {
    "service_request": "2022-900820",
    "request_type": "Trash/Recycling",
    "request_reason": "Request a Large Item Pick Up",
    "date_created": "2022-07-17T13:57:25.000",
    "date_modified": "2022-07-17T13:57:26.000",
    "request_status": "Pending",
    "responsible_agency": "Department of Sanitation",
    "final_address": "7319 Nelson St",
    "address_councildis": "A",
    "status": "Assigned to Contractor",
    "contractor": "Richards Disposal",
    "rowid": "900820",
    "final_x": "3666494.20506",
    "final_y": "530716.13965",
    "longitude": "-90.11548037746647",
    "latitude": "29.95373241033176",
    "geocoded_column": {
      "latitude": "29.95373241033176",
      "longitude": "-90.11548037746647"
    }
  },
  {
    "service_request": "2022-900819",
    "request_type": "Parks & Parkways",
    "request_reason": "Request Grass Cutting Service (City Owned Property)",
    "date_created": "2022-07-17T13:45:53.000",
    "date_modified": "2022-07-17T13:45:53.000",
    "request_status": "Pending",
    "responsible_agency": "Department of Parks & Parkway",
    "final_address": "EMMETT W BASHFUL BLVD & PRESS DR",
    "address_councildis": "D",
    "status": "Pending",
    "rowid": "900819",
    "final_x": "3688873.4",
    "final_y": "556121.98",
    "longitude": "-90.04391366725072",
    "latitude": "30.02291636625397",
    "geocoded_column": {
      "latitude": "30.02291636625397",
      "longitude": "-90.04391366725072"
    }
  },
  {
    "service_request": "2022-900818",
    "request_type": "Trash/Recycling",
    "request_reason": "Request a Large Item Pick Up",
    "date_created": "2022-07-17T13:44:53.000",
    "date_modified": "2022-07-17T13:44:53.000",
    "request_status": "Pending",
    "responsible_agency": "Department of Sanitation",
    "final_address": "4409 S Liberty St",
    "address_councildis": "B",
    "status": "Assigned to Contractor",
    "contractor": "Richards Disposal",
    "rowid": "900818",
    "final_x": "3670381.80225",
    "final_y": "523381.613627",
    "longitude": "-90.1034535094637",
    "latitude": "29.933450663796457",
    "geocoded_column": {
      "latitude": "29.933450663796457",
      "longitude": "-90.1034535094637"
    }
  },
  {
    "service_request": "2022-900817",
    "request_type": "Property Maintenance",
    "request_reason": "Property Maintenance",
    "date_created": "2022-07-17T13:33:13.000",
    "date_modified": "2022-07-17T13:33:13.000",
    "request_status": "Pending",
    "responsible_agency": "Department of Code Enforcement",
    "final_address": "6238 Marshal Foch St",
    "address_councildis": "A",
    "status": "Pending",
    "rowid": "900817",
    "final_x": "3669881.15322",
    "final_y": "548784.542611",
    "longitude": "-90.10417376358896",
    "latitude": "30.00331498301849",
    "geocoded_column": {
      "latitude": "30.00331498301849",
      "longitude": "-90.10417376358896"
    }
  },
  {
    "service_request": "2022-900816",
    "request_type": "Property Maintenance",
    "request_reason": "Property Maintenance",
    "date_created": "2022-07-17T13:28:18.000",
    "date_modified": "2022-07-17T15:42:34.000",
    "request_status": "Pending",
    "responsible_agency": "Department of Code Enforcement",
    "final_address": "4901 Friar Tuck Dr., New Orleans, LA 70128",
    "address_councildis": "E",
    "status": "Pending",
    "rowid": "900816",
    "final_x": "3717756.92773",
    "final_y": "557699.564571",
    "longitude": "-89.9525892708059",
    "latitude": "30.026328760694202",
    "geocoded_column": {
      "latitude": "30.026328760694202",
      "longitude": "-89.9525892708059"
    }
  },
  {
    "service_request": "2022-900815",
    "request_type": "Trash/Recycling",
    "request_reason": "Missed Trash Pick-Up",
    "date_created": "2022-07-17T13:23:07.000",
    "date_modified": "2022-07-17T13:23:08.000",
    "request_status": "Pending",
    "responsible_agency": "Department of Sanitation",
    "final_address": "5445 Grand Bayou Dr",
    "address_councildis": "E",
    "status": "Assigned to Contractor",
    "contractor": "Metro Disposal",
    "rowid": "900815",
    "final_x": "3725782.70931",
    "final_y": "563918.063905",
    "longitude": "-89.9269879519494",
    "latitude": "30.043158715755137",
    "geocoded_column": {
      "latitude": "30.043158715755137",
      "longitude": "-89.9269879519494"
    }
  },
  {
    "service_request": "2022-900812",
    "request_type": "Trash/Recycling",
    "request_reason": "Replace Trash Cart",
    "date_created": "2022-07-17T13:17:02.000",
    "date_modified": "2022-07-17T13:17:02.000",
    "request_status": "Pending",
    "responsible_agency": "Department of Sanitation",
    "final_address": "5618 Chatham Dr",
    "address_councildis": "D",
    "status": "Assigned to Contractor",
    "contractor": "Metro Disposal",
    "rowid": "900812",
    "final_x": "3679620.91151",
    "final_y": "553154.506391",
    "longitude": "-90.07325255636334",
    "latitude": "30.01503993547229",
    "geocoded_column": {
      "latitude": "30.01503993547229",
      "longitude": "-90.07325255636334"
    }
  },
  {
    "service_request": "2022-900811",
    "request_type": "Trash/Recycling",
    "request_reason": "Missed Trash Pick-Up",
    "date_created": "2022-07-17T13:14:35.000",
    "date_modified": "2022-07-17T13:14:35.000",
    "request_status": "Pending",
    "responsible_agency": "Department of Sanitation",
    "final_address": "1507 Upperline St",
    "address_councildis": "B",
    "status": "Assigned to Contractor",
    "contractor": "Richards Disposal",
    "rowid": "900811",
    "final_x": "3669127.65575",
    "final_y": "520479.239608",
    "longitude": "-90.10751081191844",
    "latitude": "29.925507016314405",
    "geocoded_column": {
      "latitude": "29.925507016314405",
      "longitude": "-90.10751081191844"
    }
  },
  {
    "service_request": "2022-900810",
    "request_type": "Trash/Recycling",
    "request_reason": "Missed Trash Pick-Up",
    "date_created": "2022-07-17T13:10:17.000",
    "date_modified": "2022-07-17T13:10:17.000",
    "request_status": "Pending",
    "responsible_agency": "Department of Sanitation",
    "final_address": "4396 Genoa St",
    "address_councildis": "E",
    "status": "Assigned to Contractor",
    "contractor": "Metro Disposal",
    "rowid": "900810",
    "final_x": "3761094.55267",
    "final_y": "574282.897578",
    "longitude": "-89.81495680729091",
    "latitude": "30.070418329632293",
    "geocoded_column": {
      "latitude": "30.070418329632293",
      "longitude": "-89.81495680729091"
    }
  },
  {
    "service_request": "2022-900809",
    "request_type": "Roads/Drainage",
    "request_reason": "Pothole",
    "date_created": "2022-07-17T12:56:25.000",
    "date_modified": "2022-07-17T12:56:25.000",
    "request_status": "Pending",
    "responsible_agency": "Department of Public Works",
    "final_address": "915 Polk St",
    "address_councildis": "A",
    "status": "Pending",
    "rowid": "900809",
    "final_x": "3669958.63585",
    "final_y": "547238.544273",
    "longitude": "-90.10398138349275",
    "latitude": "29.99906173986664",
    "geocoded_column": {
      "latitude": "29.99906173986664",
      "longitude": "-90.10398138349275"
    }
  },
  {
    "service_request": "2022-900808",
    "request_type": "Trash/Recycling",
    "request_reason": "Request a Large Item Pick Up",
    "date_created": "2022-07-17T12:50:58.000",
    "date_modified": "2022-07-17T12:50:59.000",
    "request_status": "Pending",
    "responsible_agency": "Department of Sanitation",
    "final_address": "917 Lesseps St",
    "address_councildis": "C",
    "status": "Assigned to Contractor",
    "contractor": "Metro Disposal",
    "rowid": "900808",
    "final_x": "3692568.44726",
    "final_y": "534440.097669",
    "longitude": "-90.03301565746055",
    "latitude": "29.963184223805737",
    "geocoded_column": {
      "latitude": "29.963184223805737",
      "longitude": "-90.03301565746055"
    }
  },
  {
    "service_request": "2022-900807",
    "request_type": "Trash/Recycling",
    "request_reason": "Request a Large Item Pick Up",
    "date_created": "2022-07-17T12:49:11.000",
    "date_modified": "2022-07-17T12:49:11.000",
    "request_status": "Pending",
    "responsible_agency": "Department of Sanitation",
    "final_address": "1315 France St, New Orleans, Louisiana, 70117",
    "address_councildis": "D",
    "status": "Assigned to Contractor",
    "contractor": "Metro Disposal",
    "rowid": "900807",
    "final_x": "3692644.89494",
    "final_y": "536013.299655",
    "longitude": "-90.03271785527657",
    "latitude": "29.96750758928346",
    "geocoded_column": {
      "latitude": "29.96750758928346",
      "longitude": "-90.03271785527657"
    }
  },
  {
    "service_request": "2022-900806",
    "request_type": "Trash/Recycling",
    "request_reason": "Illegal Dumping",
    "date_created": "2022-07-17T12:43:27.000",
    "date_modified": "2022-07-17T12:43:27.000",
    "request_status": "Pending",
    "responsible_agency": "Department of Sanitation",
    "final_address": "3504 Banks St",
    "address_councildis": "B",
    "status": "Pending",
    "rowid": "900806",
    "final_x": "3672031.51559",
    "final_y": "536017.131335",
    "longitude": "-90.09781533293128",
    "latitude": "29.96814538237838",
    "geocoded_column": {
      "latitude": "29.96814538237838",
      "longitude": "-90.09781533293128"
    }
  },
  {
    "service_request": "2022-900805",
    "request_type": "Trash/Recycling",
    "request_reason": "Missed Trash Pick-Up",
    "date_created": "2022-07-17T12:42:39.000",
    "date_modified": "2022-07-17T12:42:39.000",
    "request_status": "Pending",
    "responsible_agency": "Department of Sanitation",
    "final_address": "13020 Dwyer Blvd, New Orleans, Louisiana, 70129",
    "address_councildis": "E",
    "status": "Assigned to Contractor",
    "contractor": "Metro Disposal",
    "rowid": "900805",
    "final_x": "3723916.45196",
    "final_y": "561135.879902",
    "longitude": "-89.93299347505851",
    "latitude": "30.035571704118507",
    "geocoded_column": {
      "latitude": "30.035571704118507",
      "longitude": "-89.93299347505851"
    }
  },
  {
    "service_request": "2022-900804",
    "request_type": "Trash/Recycling",
    "request_reason": "Request a Large Item Pick Up",
    "date_created": "2022-07-17T12:34:58.000",
    "date_modified": "2022-07-17T12:35:52.000",
    "request_status": "Pending",
    "responsible_agency": "Department of Sanitation",
    "final_address": "1915 Louisa St",
    "address_councildis": "D",
    "status": "Assigned to Contractor",
    "contractor": "Metro Disposal",
    "rowid": "900804",
    "final_x": "3690384.18204",
    "final_y": "538981.270538",
    "longitude": "-90.03975139313985",
    "latitude": "29.97573882647679",
    "geocoded_column": {
      "latitude": "29.97573882647679",
      "longitude": "-90.03975139313985"
    }
  },
  {
    "service_request": "2022-900803",
    "request_type": "Traffic Signals/Signs/Striping/Streetlights",
    "request_reason": "Request for Stop Sign",
    "date_created": "2022-07-17T12:34:50.000",
    "date_modified": "2022-07-17T12:34:50.000",
    "request_status": "Pending",
    "responsible_agency": "Department of Public Works",
    "final_address": "2219 Soniat St",
    "address_councildis": "B",
    "status": "Pending",
    "rowid": "900803",
    "final_x": "3668550.86881",
    "final_y": "523731.250363",
    "longitude": "-90.10922188765346",
    "latitude": "29.93446596294852",
    "geocoded_column": {
      "latitude": "29.93446596294852",
      "longitude": "-90.10922188765346"
    }
  },
  {
    "service_request": "2022-900802",
    "request_type": "Trash/Recycling",
    "request_reason": "Order Recycling Cart",
    "date_created": "2022-07-17T12:23:52.000",
    "date_modified": "2022-07-17T12:23:52.000",
    "request_status": "Pending",
    "responsible_agency": "Department of Sanitation",
    "final_address": "2746 Bienville Ave",
    "address_councildis": "B",
    "status": "Pending",
    "rowid": "900802",
    "final_x": "3675445.53697",
    "final_y": "535944.172103",
    "longitude": "-90.08703621001261",
    "latitude": "29.967843106697433",
    "geocoded_column": {
      "latitude": "29.967843106697433",
      "longitude": "-90.08703621001261"
    }
  },
  {
    "service_request": "2022-900801",
    "request_type": "Trash/Recycling",
    "request_reason": "Missed Trash Pick-Up",
    "date_created": "2022-07-17T12:07:03.000",
    "date_modified": "2022-07-17T12:07:04.000",
    "request_status": "Pending",
    "responsible_agency": "Department of Sanitation",
    "final_address": "502 S Hennessey St",
    "address_councildis": "A",
    "status": "Assigned to Contractor",
    "contractor": "Richards Disposal",
    "rowid": "900801",
    "final_x": "3669321.49063",
    "final_y": "537616.0594",
    "longitude": "-90.10631965397508",
    "latitude": "29.972621969260963",
    "geocoded_column": {
      "latitude": "29.972621969260963",
      "longitude": "-90.10631965397508"
    }
  },
  {
    "service_request": "2022-900800",
    "request_type": "Traffic Signals/Signs/Striping/Streetlights",
    "request_reason": "Street Light Outage/Malfunction",
    "date_created": "2022-07-17T12:05:00.000",
    "date_modified": "2022-07-17T12:05:01.000",
    "request_status": "Pending",
    "responsible_agency": "Department of Public Works",
    "final_address": "435 Fairway Dr",
    "address_councildis": "A",
    "status": "Pending",
    "contractor": "Royal Engineering",
    "rowid": "900800",
    "final_x": "3664355.15258",
    "final_y": "542571.825805",
    "longitude": "-90.12183884170813",
    "latitude": "29.98639396580439",
    "geocoded_column": {
      "latitude": "29.98639396580439",
      "longitude": "-90.12183884170813"
    }
  },
  {
    "service_request": "2022-900799",
    "request_type": "Trash/Recycling",
    "request_reason": "Request a Large Item Pick Up",
    "date_created": "2022-07-17T12:00:00.000",
    "date_modified": "2022-07-17T12:00:01.000",
    "request_status": "Pending",
    "responsible_agency": "Department of Sanitation",
    "final_address": "3125 N Villere St",
    "address_councildis": "C",
    "status": "Assigned to Contractor",
    "contractor": "Metro Disposal",
    "rowid": "900799",
    "final_x": "3689496.02499",
    "final_y": "537095.01172",
    "longitude": "-90.04262353861344",
    "latitude": "29.97057982024269",
    "geocoded_column": {
      "latitude": "29.97057982024269",
      "longitude": "-90.04262353861344"
    }
  },
  {
    "service_request": "2022-900798",
    "request_type": "Roads/Drainage",
    "request_reason": "Pothole",
    "date_created": "2022-07-17T11:55:32.000",
    "date_modified": "2022-07-17T11:55:32.000",
    "request_status": "Pending",
    "responsible_agency": "Department of Public Works",
    "final_address": "3320 Law St",
    "address_councildis": "D",
    "status": "Pending",
    "rowid": "900798",
    "final_x": "3691386.2902",
    "final_y": "541353.490636",
    "longitude": "-90.03650167240794",
    "latitude": "29.982230440264917",
    "geocoded_column": {
      "latitude": "29.982230440264917",
      "longitude": "-90.03650167240794"
    }
  },
  {
    "service_request": "2022-900797",
    "request_type": "Abandoned Vehicles",
    "request_reason": "Abandoned/Junk Vehicles",
    "date_created": "2022-07-17T11:48:28.000",
    "date_modified": "2022-07-17T11:48:28.000",
    "request_status": "Pending",
    "responsible_agency": "Department of Public Works",
    "final_address": "3637 Forest Park Ln",
    "address_councildis": "C",
    "status": "Pending",
    "rowid": "900797",
    "final_x": "3702933.05111",
    "final_y": "511126.116912",
    "longitude": "-90.00114164894929",
    "latitude": "29.898751417589548",
    "geocoded_column": {
      "latitude": "29.898751417589548",
      "longitude": "-90.00114164894929"
    }
  },
  {
    "service_request": "2022-900796",
    "request_type": "Abandoned Vehicles",
    "request_reason": "Abandoned/Junk Vehicles",
    "date_created": "2022-07-17T11:47:28.000",
    "date_modified": "2022-07-17T11:47:28.000",
    "request_status": "Pending",
    "responsible_agency": "Department of Public Works",
    "final_address": "5131 Forest Park Ln",
    "address_councildis": "C",
    "status": "Pending",
    "rowid": "900796",
    "final_x": "3703128.9025",
    "final_y": "510842.707823",
    "longitude": "-90.00053398007837",
    "latitude": "29.897965875583797",
    "geocoded_column": {
      "latitude": "29.897965875583797",
      "longitude": "-90.00053398007837"
    }
  },
  {
    "service_request": "2022-900795",
    "request_type": "Abandoned Vehicles",
    "request_reason": "Abandoned/Junk Vehicles",
    "date_created": "2022-07-17T11:46:45.000",
    "date_modified": "2022-07-17T11:46:45.000",
    "request_status": "Pending",
    "responsible_agency": "Department of Public Works",
    "final_address": "3739 Timber Bluff Ln",
    "address_councildis": "C",
    "status": "Pending",
    "rowid": "900795",
    "final_x": "3703887.64894",
    "final_y": "510633.918511",
    "longitude": "-89.99814720861391",
    "latitude": "29.897367486499814",
    "geocoded_column": {
      "latitude": "29.897367486499814",
      "longitude": "-89.99814720861391"
    }
  },
  {
    "service_request": "2022-900794",
    "request_type": "Abandoned Vehicles",
    "request_reason": "Abandoned/Junk Vehicles",
    "date_created": "2022-07-17T11:45:31.000",
    "date_modified": "2022-07-17T11:45:31.000",
    "request_status": "Pending",
    "responsible_agency": "Department of Public Works",
    "final_address": "3739 Timber Bluff Ln",
    "address_councildis": "C",
    "status": "Pending",
    "rowid": "900794",
    "final_x": "3703887.64894",
    "final_y": "510633.918511",
    "longitude": "-89.99814720861391",
    "latitude": "29.897367486499814",
    "geocoded_column": {
      "latitude": "29.897367486499814",
      "longitude": "-89.99814720861391"
    }
  },
  {
    "service_request": "2022-900793",
    "request_type": "Abandoned Vehicles",
    "request_reason": "Abandoned/Junk Vehicles",
    "date_created": "2022-07-17T11:44:36.000",
    "date_modified": "2022-07-17T11:44:36.000",
    "request_status": "Pending",
    "responsible_agency": "Department of Public Works",
    "final_address": "3642 Timber Bluff Ln",
    "address_councildis": "C",
    "status": "Pending",
    "rowid": "900793",
    "final_x": "3704126.90417",
    "final_y": "510905.510383",
    "longitude": "-89.99738217950392",
    "latitude": "29.898106604381624",
    "geocoded_column": {
      "latitude": "29.898106604381624",
      "longitude": "-89.99738217950392"
    }
  },
  {
    "service_request": "2022-900792",
    "request_type": "Traffic Signals/Signs/Striping/Streetlights",
    "request_reason": "Street Light Outage/Malfunction",
    "date_created": "2022-07-17T11:24:04.000",
    "date_modified": "2022-07-17T11:24:05.000",
    "request_status": "Pending",
    "responsible_agency": "Department of Public Works",
    "final_address": "6942 Milne Blvd",
    "address_councildis": "A",
    "status": "Pending",
    "contractor": "Royal Engineering",
    "rowid": "900792",
    "final_x": "3667540.98772",
    "final_y": "553947.271832",
    "longitude": "-90.11139280086218",
    "latitude": "30.01757949930885",
    "geocoded_column": {
      "latitude": "30.01757949930885",
      "longitude": "-90.11139280086218"
    }
  },
  {
    "service_request": "2022-900791",
    "request_type": "Trash/Recycling",
    "request_reason": "Order Recycling Cart",
    "date_created": "2022-07-17T11:23:45.000",
    "date_modified": "2022-07-17T11:23:45.000",
    "request_status": "Pending",
    "responsible_agency": "Department of Sanitation",
    "final_address": "634 Toledano St",
    "address_councildis": "B",
    "status": "Pending",
    "rowid": "900791",
    "final_x": "3676020.78747",
    "final_y": "518269.09887",
    "longitude": "-90.08582725923878",
    "latitude": "29.919225272884006",
    "geocoded_column": {
      "latitude": "29.919225272884006",
      "longitude": "-90.08582725923878"
    }
  },
  {
    "service_request": "2022-900790",
    "request_type": "Traffic Signals/Signs/Striping/Streetlights",
    "request_reason": "Street Light Outage/Malfunction",
    "date_created": "2022-07-17T11:14:39.000",
    "date_modified": "2022-07-17T11:14:39.000",
    "request_status": "Pending",
    "responsible_agency": "Department of Public Works",
    "final_address": "4645 Western St",
    "address_councildis": "D",
    "status": "Pending",
    "contractor": "Royal Engineering",
    "rowid": "900790",
    "final_x": "3684248.41167",
    "final_y": "549794.033748",
    "longitude": "-90.05874998021028",
    "latitude": "30.00565912069592",
    "geocoded_column": {
      "latitude": "30.00565912069592",
      "longitude": "-90.05874998021028"
    }
  },
  {
    "service_request": "2022-900789",
    "request_type": "Mosquito, Termite & Rodent Control",
    "request_reason": "Mosquito Complaint",
    "date_created": "2022-07-17T11:11:35.000",
    "date_modified": "2022-07-17T11:11:35.000",
    "request_status": "Pending",
    "responsible_agency": "Mosquito, Termite & Rodent Control Board",
    "final_address": "8627 Jeannette St",
    "address_councildis": "A",
    "status": "Pending",
    "rowid": "900789",
    "final_x": "3661219.88077",
    "final_y": "530531.94093",
    "longitude": "-90.13214068588952",
    "latitude": "29.953379010033096",
    "geocoded_column": {
      "latitude": "29.953379010033096",
      "longitude": "-90.13214068588952"
    }
  },
  {
    "service_request": "2022-900787",
    "request_type": "Parks & Parkways",
    "request_reason": "Request Tree Service (Right of Way/Public Property)",
    "date_created": "2022-07-17T11:09:57.000",
    "date_modified": "2022-07-17T11:09:57.000",
    "request_status": "Pending",
    "responsible_agency": "Department of Parks & Parkway",
    "final_address": "4411 St Roch Ave",
    "address_councildis": "D",
    "status": "Pending",
    "rowid": "900787",
    "final_x": "3685528.51324",
    "final_y": "549144.840915",
    "longitude": "-90.05472874119296",
    "latitude": "30.003834860579662",
    "geocoded_column": {
      "latitude": "30.003834860579662",
      "longitude": "-90.05472874119296"
    }
  },
  {
    "service_request": "2022-900786",
    "request_type": "Trash/Recycling",
    "request_reason": "Order Trash Cart",
    "date_created": "2022-07-17T11:02:13.000",
    "date_modified": "2022-07-17T11:02:14.000",
    "request_status": "Pending",
    "responsible_agency": "Department of Sanitation",
    "final_address": "933 Picheloup Pl",
    "address_councildis": "A",
    "status": "Assigned to Contractor",
    "contractor": "Richards Disposal",
    "rowid": "900786",
    "final_x": "3673580.73819",
    "final_y": "540521.436619",
    "longitude": "-90.09276881031441",
    "latitude": "29.980484667816725",
    "geocoded_column": {
      "latitude": "29.980484667816725",
      "longitude": "-90.09276881031441"
    }
  },
  {
    "service_request": "2022-900785",
    "request_type": "Abandoned Vehicles",
    "request_reason": "Abandoned/Junk Vehicles",
    "date_created": "2022-07-17T10:58:26.000",
    "date_modified": "2022-07-17T10:58:26.000",
    "request_status": "Pending",
    "responsible_agency": "Department of Public Works",
    "final_address": "ESPLANADE AVE & N VILLERE ST",
    "address_councildis": "C",
    "status": "Pending",
    "rowid": "900785",
    "final_x": "3681802.7",
    "final_y": "536125.68",
    "longitude": "-90.06695377507187",
    "latitude": "29.968150534500122",
    "geocoded_column": {
      "latitude": "29.968150534500122",
      "longitude": "-90.06695377507187"
    }
  },
  {
    "service_request": "2022-900784",
    "request_type": "Trash/Recycling",
    "request_reason": "Request a Large Item Pick Up",
    "date_created": "2022-07-17T10:57:14.000",
    "date_modified": "2022-07-17T10:57:15.000",
    "request_status": "Pending",
    "responsible_agency": "Department of Sanitation",
    "final_address": "5742 Cameron Blvd",
    "address_councildis": "D",
    "status": "Assigned to Contractor",
    "contractor": "Metro Disposal",
    "rowid": "900784",
    "final_x": "3682330.09896",
    "final_y": "554282.907608",
    "longitude": "-90.06465334464043",
    "latitude": "30.01806042922872",
    "geocoded_column": {
      "latitude": "30.01806042922872",
      "longitude": "-90.06465334464043"
    }
  },
  {
    "service_request": "2022-900783",
    "request_type": "Property Maintenance",
    "request_reason": "Property Maintenance",
    "date_created": "2022-07-17T10:27:48.000",
    "date_modified": "2022-07-17T10:27:48.000",
    "request_status": "Pending",
    "responsible_agency": "Department of Code Enforcement",
    "final_address": "2039 Burdette St",
    "address_councildis": "A",
    "status": "Pending",
    "rowid": "900783",
    "final_x": "3664935.84672",
    "final_y": "529887.554433",
    "longitude": "-90.12042874048392",
    "latitude": "29.95149952042086",
    "geocoded_column": {
      "latitude": "29.95149952042086",
      "longitude": "-90.12042874048392"
    }
  },
  {
    "service_request": "2022-900782",
    "request_type": "Trash/Recycling",
    "request_reason": "Request a Large Item Pick Up",
    "date_created": "2022-07-17T10:20:58.000",
    "date_modified": "2022-07-17T10:20:59.000",
    "request_status": "Pending",
    "responsible_agency": "Department of Sanitation",
    "final_address": "7506 Briarheath Dr",
    "address_councildis": "E",
    "status": "Assigned to Contractor",
    "contractor": "Metro Disposal",
    "rowid": "900782",
    "final_x": "3714806.03429",
    "final_y": "567117.040036",
    "longitude": "-89.96155738607433",
    "latitude": "30.052320462402502",
    "geocoded_column": {
      "latitude": "30.052320462402502",
      "longitude": "-89.96155738607433"
    }
  },
  {
    "service_request": "2022-900781",
    "request_type": "Trash/Recycling",
    "request_reason": "Request a Large Item Pick Up",
    "date_created": "2022-07-17T10:18:33.000",
    "date_modified": "2022-07-17T10:18:34.000",
    "request_status": "Pending",
    "responsible_agency": "Department of Sanitation",
    "final_address": "7808 Edward St",
    "address_councildis": "E",
    "status": "Assigned to Contractor",
    "contractor": "Metro Disposal",
    "rowid": "900781",
    "final_x": "3700775.25565",
    "final_y": "561420.14563",
    "longitude": "-90.00611282857383",
    "latitude": "30.037110639991226",
    "geocoded_column": {
      "latitude": "30.037110639991226",
      "longitude": "-90.00611282857383"
    }
  },
  {
    "service_request": "2022-900780",
    "request_type": "Trash/Recycling",
    "request_reason": "Missed Trash Pick-Up",
    "date_created": "2022-07-17T10:17:32.000",
    "date_modified": "2022-07-17T10:17:33.000",
    "request_status": "Pending",
    "responsible_agency": "Department of Sanitation",
    "final_address": "7732 Swift St",
    "address_councildis": "E",
    "status": "Assigned to Contractor",
    "contractor": "Metro Disposal",
    "rowid": "900780",
    "final_x": "3695260.65469",
    "final_y": "559152.992284",
    "longitude": "-90.02362201240666",
    "latitude": "30.031051317865092",
    "geocoded_column": {
      "latitude": "30.031051317865092",
      "longitude": "-90.02362201240666"
    }
  },
  {
    "service_request": "2022-900779",
    "request_type": "Trash/Recycling",
    "request_reason": "Missed Trash Pick-Up",
    "date_created": "2022-07-17T10:15:53.000",
    "date_modified": "2022-07-17T10:15:53.000",
    "request_status": "Pending",
    "responsible_agency": "Department of Sanitation",
    "final_address": "7730 Swift St",
    "address_councildis": "E",
    "status": "Assigned to Contractor",
    "contractor": "Metro Disposal",
    "rowid": "900779",
    "final_x": "3695270.65469",
    "final_y": "559134.242268",
    "longitude": "-90.02359108949773",
    "latitude": "30.030999448196816",
    "geocoded_column": {
      "latitude": "30.030999448196816",
      "longitude": "-90.02359108949773"
    }
  },
  {
    "service_request": "2022-900778",
    "request_type": "Trash/Recycling",
    "request_reason": "Order Trash Cart",
    "date_created": "2022-07-17T10:15:19.000",
    "date_modified": "2022-07-17T10:15:19.000",
    "request_status": "Pending",
    "responsible_agency": "Department of Sanitation",
    "final_address": "New Orleans,LA",
    "status": "Assigned to Contractor",
    "rowid": "900778",
    "longitude": "0.0",
    "latitude": "0.0",
    "geocoded_column": {
      "latitude": "0.0",
      "longitude": "0.0"
    }
  },
  {
    "service_request": "2022-900777",
    "request_type": "Trash/Recycling",
    "request_reason": "Replace Trash Cart",
    "date_created": "2022-07-17T10:00:29.000",
    "date_modified": "2022-07-17T10:00:30.000",
    "request_status": "Pending",
    "responsible_agency": "Department of Sanitation",
    "final_address": "2822 Louisiana Ave",
    "address_councildis": "B",
    "status": "Assigned to Contractor",
    "contractor": "Richards Disposal",
    "rowid": "900777",
    "final_x": "3672343.00961",
    "final_y": "525649.298173",
    "longitude": "-90.09718484605824",
    "latitude": "29.939628033053264",
    "geocoded_column": {
      "latitude": "29.939628033053264",
      "longitude": "-90.09718484605824"
    }
  },
  {
    "service_request": "2022-900774",
    "request_type": "Trash/Recycling",
    "request_reason": "Repair Trash Cart",
    "date_created": "2022-07-17T09:32:32.000",
    "date_modified": "2022-07-17T09:32:33.000",
    "request_status": "Pending",
    "responsible_agency": "Department of Sanitation",
    "final_address": "4518 St Peter St",
    "address_councildis": "A",
    "status": "Assigned to Contractor",
    "contractor": "Richards Disposal",
    "rowid": "900774",
    "final_x": "3670831.8571",
    "final_y": "541176.308172",
    "longitude": "-90.1014287454914",
    "latitude": "29.98236688840851",
    "geocoded_column": {
      "latitude": "29.98236688840851",
      "longitude": "-90.1014287454914"
    }
  },
  {
    "service_request": "2022-900773",
    "request_type": "Trash/Recycling",
    "request_reason": "Missed Trash Pick-Up",
    "date_created": "2022-07-17T09:31:10.000",
    "date_modified": "2022-07-17T09:31:11.000",
    "request_status": "Pending",
    "responsible_agency": "Department of Sanitation",
    "final_address": "4600 Hauck Dr",
    "address_councildis": "E",
    "status": "Assigned to Contractor",
    "contractor": "Metro Disposal",
    "rowid": "900773",
    "final_x": "3714574.42341",
    "final_y": "555918.087257",
    "longitude": "-89.96271283409652",
    "latitude": "30.021535466100076",
    "geocoded_column": {
      "latitude": "30.021535466100076",
      "longitude": "-89.96271283409652"
    }
  },
  {
    "service_request": "2022-900772",
    "request_type": "Trash/Recycling",
    "request_reason": "Request a Large Item Pick Up",
    "date_created": "2022-07-17T09:23:56.000",
    "date_modified": "2022-07-17T09:23:57.000",
    "request_status": "Pending",
    "responsible_agency": "Department of Sanitation",
    "final_address": "215 Fairfax Pl",
    "address_councildis": "C",
    "status": "Assigned to Contractor",
    "contractor": "Richards Disposal",
    "rowid": "900772",
    "final_x": "3706591.88113",
    "final_y": "517362.233013",
    "longitude": "-89.98936421507268",
    "latitude": "29.91578112194171",
    "geocoded_column": {
      "latitude": "29.91578112194171",
      "longitude": "-89.98936421507268"
    }
  },
  {
    "service_request": "2022-900771",
    "request_type": "Abandoned Vehicles",
    "request_reason": "Abandoned/Junk Vehicles",
    "date_created": "2022-07-17T09:21:07.000",
    "date_modified": "2022-07-17T09:21:07.000",
    "request_status": "Pending",
    "responsible_agency": "Department of Public Works",
    "final_address": "4518 LaSalle St",
    "address_councildis": "B",
    "status": "Pending",
    "rowid": "900771",
    "final_x": "3670007.9689",
    "final_y": "523603.660411",
    "longitude": "-90.10462616626022",
    "latitude": "29.934072248879055",
    "geocoded_column": {
      "latitude": "29.934072248879055",
      "longitude": "-90.10462616626022"
    }
  },
  {
    "service_request": "2022-900770",
    "request_type": "Abandoned Vehicles",
    "request_reason": "Abandoned/Junk Vehicles",
    "date_created": "2022-07-17T09:18:36.000",
    "date_modified": "2022-07-17T09:18:36.000",
    "request_status": "Pending",
    "responsible_agency": "Department of Public Works",
    "final_address": "4419 Loyola Ave",
    "address_councildis": "B",
    "status": "Pending",
    "rowid": "900770",
    "final_x": "3670433.73703",
    "final_y": "523017.038395",
    "longitude": "-90.10330190901752",
    "latitude": "29.93244666625337",
    "geocoded_column": {
      "latitude": "29.93244666625337",
      "longitude": "-90.10330190901752"
    }
  },
  {
    "service_request": "2022-900769",
    "request_type": "Traffic Signals/Signs/Striping/Streetlights",
    "request_reason": "Street Light Knocked Down/Leaning",
    "date_created": "2022-07-17T09:07:32.000",
    "date_modified": "2022-07-17T09:07:32.000",
    "request_status": "Pending",
    "responsible_agency": "Department of Public Works",
    "final_address": "315 Decatur St",
    "address_councildis": "C",
    "status": "Pending",
    "contractor": "Royal Engineering",
    "rowid": "900769",
    "final_x": "3682332.13967",
    "final_y": "530970.484162",
    "longitude": "-90.06546192627788",
    "latitude": "29.953959408807965",
    "geocoded_column": {
      "latitude": "29.953959408807965",
      "longitude": "-90.06546192627788"
    }
  },
  {
    "service_request": "2022-900768",
    "request_type": "Traffic Signals/Signs/Striping/Streetlights",
    "request_reason": "Traffic Signal Malfunctioning/Damaged",
    "date_created": "2022-07-17T09:03:55.000",
    "date_modified": "2022-07-17T09:03:55.000",
    "request_status": "Pending",
    "responsible_agency": "Department of Public Works",
    "final_address": "1700 BLK N Viller St",
    "address_councildis": "C",
    "status": "Pending",
    "rowid": "900768",
    "final_x": "3683242.71123",
    "final_y": "537271.393093",
    "longitude": "-90.06236603389894",
    "latitude": "29.971257009753938",
    "geocoded_column": {
      "latitude": "29.971257009753938",
      "longitude": "-90.06236603389894"
    }
  },
  {
    "service_request": "2022-900767",
    "request_type": "Trash/Recycling",
    "request_reason": "Missed Trash Pick-Up",
    "date_created": "2022-07-17T08:57:12.000",
    "date_modified": "2022-07-17T08:57:13.000",
    "request_status": "Pending",
    "responsible_agency": "Department of Sanitation",
    "final_address": "6101 Chartres St, New Orleans, Louisiana, 70117",
    "address_councildis": "E",
    "status": "Assigned to Contractor",
    "contractor": "Metro Disposal",
    "rowid": "900767",
    "final_x": "3698851.81213",
    "final_y": "531611.163651",
    "longitude": "-90.01327656255016",
    "latitude": "29.95520810140405",
    "geocoded_column": {
      "latitude": "29.95520810140405",
      "longitude": "-90.01327656255016"
    }
  },
  {
    "service_request": "2022-900766",
    "request_type": "Trash/Recycling",
    "request_reason": "Replace Trash Cart",
    "date_created": "2022-07-17T08:19:15.000",
    "date_modified": "2022-07-17T08:19:16.000",
    "request_status": "Pending",
    "responsible_agency": "Department of Sanitation",
    "final_address": "2436 Fern St",
    "address_councildis": "A",
    "status": "Assigned to Contractor",
    "contractor": "Richards Disposal",
    "rowid": "900766",
    "final_x": "3665550.57095",
    "final_y": "531215.357826",
    "longitude": "-90.11844328046703",
    "latitude": "29.955132641506385",
    "geocoded_column": {
      "latitude": "29.955132641506385",
      "longitude": "-90.11844328046703"
    }
  },
  {
    "service_request": "2022-900765",
    "request_type": "Trash/Recycling",
    "request_reason": "Illegal Dumping",
    "date_created": "2022-07-17T08:18:04.000",
    "date_modified": "2022-07-17T08:18:04.000",
    "request_status": "Pending",
    "responsible_agency": "Department of Sanitation",
    "final_address": "2613 S Miro St",
    "address_councildis": "B",
    "status": "Pending",
    "rowid": "900765",
    "final_x": "3672425.25044",
    "final_y": "528707.028672",
    "longitude": "-90.09682102397343",
    "latitude": "29.948033351711388",
    "geocoded_column": {
      "latitude": "29.948033351711388",
      "longitude": "-90.09682102397343"
    }
  },
  {
    "service_request": "2022-900763",
    "request_type": "Trash/Recycling",
    "request_reason": "Missed Trash Pick-Up",
    "date_created": "2022-07-17T07:04:17.000",
    "date_modified": "2022-07-17T07:04:18.000",
    "request_status": "Pending",
    "responsible_agency": "Department of Sanitation",
    "final_address": "4351 San Remo St",
    "address_councildis": "E",
    "status": "Assigned to Contractor",
    "contractor": "Metro Disposal",
    "rowid": "900763",
    "final_x": "3760526.57974",
    "final_y": "573623.996714",
    "longitude": "-89.81677984866538",
    "latitude": "30.068627338119175",
    "geocoded_column": {
      "latitude": "30.068627338119175",
      "longitude": "-89.81677984866538"
    }
  },
  {
    "service_request": "2022-900762",
    "request_type": "Trash/Recycling",
    "request_reason": "Order Trash Cart",
    "date_created": "2022-07-17T05:13:48.000",
    "date_modified": "2022-07-17T05:13:49.000",
    "request_status": "Pending",
    "responsible_agency": "Department of Sanitation",
    "final_address": "New Orleans,LA",
    "status": "Assigned to Contractor",
    "rowid": "900762",
    "longitude": "0.0",
    "latitude": "0.0",
    "geocoded_column": {
      "latitude": "0.0",
      "longitude": "0.0"
    }
  },
  {
    "service_request": "2022-900761",
    "request_type": "Traffic Signals/Signs/Striping/Streetlights",
    "request_reason": "Street Light Outage/Malfunction",
    "date_created": "2022-07-17T05:07:04.000",
    "date_modified": "2022-07-17T05:07:05.000",
    "request_status": "Pending",
    "responsible_agency": "Department of Public Works",
    "final_address": "4337 Vixen St",
    "address_councildis": "C",
    "status": "Pending",
    "contractor": "Royal Engineering",
    "rowid": "900761",
    "final_x": "3699623.03645",
    "final_y": "520649.401657",
    "longitude": "-90.0112407090589",
    "latitude": "29.92504262683599",
    "geocoded_column": {
      "latitude": "29.92504262683599",
      "longitude": "-90.0112407090589"
    }
  },
  {
    "service_request": "2022-900760",
    "request_type": "Health Related Questions",
    "request_reason": "Noise Ordinance Complaint",
    "date_created": "2022-07-17T03:15:03.000",
    "date_modified": "2022-07-17T03:15:03.000",
    "request_status": "Pending",
    "responsible_agency": "Health Department",
    "final_address": "1775 Mcshane Pl",
    "address_councildis": "C",
    "status": "Pending",
    "rowid": "900760",
    "final_x": "3683462.43785",
    "final_y": "536121.270855",
    "longitude": "-90.06171241725919",
    "latitude": "29.96808786850646",
    "geocoded_column": {
      "latitude": "29.96808786850646",
      "longitude": "-90.06171241725919"
    }
  },
  {
    "service_request": "2022-900759",
    "request_type": "Property Maintenance",
    "request_reason": "Property Maintenance",
    "date_created": "2022-07-16T23:57:55.000",
    "date_modified": "2022-07-16T23:57:55.000",
    "request_status": "Pending",
    "responsible_agency": "Department of Code Enforcement",
    "final_address": "6224 Wainwright Dr",
    "address_councildis": "D",
    "status": "Pending",
    "rowid": "900759",
    "final_x": "3681300.14031",
    "final_y": "555909.710745",
    "longitude": "-90.06785085352074",
    "latitude": "30.022564859165335",
    "geocoded_column": {
      "latitude": "30.022564859165335",
      "longitude": "-90.06785085352074"
    }
  },
  {
    "service_request": "2022-900758",
    "request_type": "Abandoned Vehicles",
    "request_reason": "Vehicle Blocking Your Driveway",
    "date_created": "2022-07-16T23:34:39.000",
    "date_modified": "2022-07-16T23:34:39.000",
    "request_status": "Pending",
    "responsible_agency": "Department of Public Works",
    "final_address": "2502 Ursulines Ave A",
    "address_councildis": "D",
    "status": "Pending",
    "rowid": "900758",
    "final_x": "3678358.2852",
    "final_y": "537489.401864",
    "longitude": "-90.07778418846151",
    "latitude": "29.972004526261475",
    "geocoded_column": {
      "latitude": "29.972004526261475",
      "longitude": "-90.07778418846151"
    }
  },
  {
    "service_request": "2022-900757",
    "request_type": "Health Related Questions",
    "request_reason": "Noise Ordinance Complaint",
    "date_created": "2022-07-16T23:27:47.000",
    "date_modified": "2022-07-16T23:27:47.000",
    "request_status": "Pending",
    "responsible_agency": "Health Department",
    "final_address": "1775 McShane Pl, New Orleans, Louisiana, 70116",
    "address_councildis": "C",
    "status": "Pending",
    "rowid": "900757",
    "final_x": "3683462.43785",
    "final_y": "536121.270855",
    "longitude": "-90.06171241725919",
    "latitude": "29.96808786850646",
    "geocoded_column": {
      "latitude": "29.96808786850646",
      "longitude": "-90.06171241725919"
    }
  },
  {
    "service_request": "2022-900756",
    "request_type": "Abandoned Vehicles",
    "request_reason": "Abandoned/Junk Vehicles",
    "date_created": "2022-07-16T23:05:05.000",
    "date_modified": "2022-07-16T23:05:05.000",
    "request_status": "Pending",
    "responsible_agency": "Department of Public Works",
    "final_address": "8201 Edinburgh St",
    "address_councildis": "A",
    "status": "Pending",
    "rowid": "900756",
    "final_x": "3667223.19265",
    "final_y": "534724.903366",
    "longitude": "-90.1130437250619",
    "latitude": "29.964733867916205",
    "geocoded_column": {
      "latitude": "29.964733867916205",
      "longitude": "-90.1130437250619"
    }
  },
  {
    "service_request": "2022-900754",
    "request_type": "Safety & Permits",
    "request_reason": "Licenses & Permits",
    "date_created": "2022-07-16T22:58:26.000",
    "date_modified": "2022-07-16T22:58:26.000",
    "request_status": "Pending",
    "responsible_agency": "Safety and Permits",
    "final_address": "4523 Magazine St",
    "address_councildis": "B",
    "status": "Pending",
    "rowid": "900754",
    "final_x": "3670459.91399",
    "final_y": "518764.599223",
    "longitude": "-90.10336337284775",
    "latitude": "29.920753043460966",
    "geocoded_column": {
      "latitude": "29.920753043460966",
      "longitude": "-90.10336337284775"
    }
  },
  {
    "service_request": "2022-900753",
    "request_type": "Trash/Recycling",
    "request_reason": "Order Recycling Cart",
    "date_created": "2022-07-16T22:25:50.000",
    "date_modified": "2022-07-16T22:25:50.000",
    "request_status": "Pending",
    "responsible_agency": "Department of Sanitation",
    "final_address": "6925 Canal Blvd",
    "address_councildis": "A",
    "status": "Pending",
    "rowid": "900753",
    "final_x": "3669175.56577",
    "final_y": "553525.448087",
    "longitude": "-90.10624243655968",
    "latitude": "30.016371602061792",
    "geocoded_column": {
      "latitude": "30.016371602061792",
      "longitude": "-90.10624243655968"
    }
  },
  {
    "service_request": "2022-900752",
    "request_type": "Property Maintenance",
    "request_reason": "Property Maintenance",
    "date_created": "2022-07-16T22:18:51.000",
    "date_modified": "2022-07-16T22:18:51.000",
    "request_status": "Pending",
    "responsible_agency": "Department of Code Enforcement",
    "final_address": "2408 George Nick Connor Dr",
    "address_councildis": "D",
    "status": "Pending",
    "rowid": "900752",
    "final_x": "3681123.26696",
    "final_y": "540902.058379",
    "longitude": "-90.06893300345267",
    "latitude": "29.98130455086035",
    "geocoded_column": {
      "latitude": "29.98130455086035",
      "longitude": "-90.06893300345267"
    }
  },
  {
    "service_request": "2022-900751",
    "request_type": "Property Maintenance",
    "request_reason": "Property Maintenance",
    "date_created": "2022-07-16T22:10:45.000",
    "date_modified": "2022-07-16T22:10:45.000",
    "request_status": "Pending",
    "responsible_agency": "Department of Code Enforcement",
    "final_address": "2501 George Nick Connor Dr",
    "address_councildis": "D",
    "status": "Pending",
    "rowid": "900751",
    "final_x": "3681214.20392",
    "final_y": "541224.523724",
    "longitude": "-90.06863454176275",
    "latitude": "29.982188458472294",
    "geocoded_column": {
      "latitude": "29.982188458472294",
      "longitude": "-90.06863454176275"
    }
  },
  {
    "service_request": "2022-900750",
    "request_type": "Roads/Drainage",
    "request_reason": "Debris in Roadway",
    "date_created": "2022-07-16T22:06:13.000",
    "date_modified": "2022-07-16T22:06:13.000",
    "request_status": "Pending",
    "responsible_agency": "Department of Public Works",
    "final_address": "438 S Hennessey St",
    "address_councildis": "A",
    "status": "Pending",
    "rowid": "900750",
    "final_x": "3669364.80999",
    "final_y": "537681.719752",
    "longitude": "-90.10618062232486",
    "latitude": "29.972801237592563",
    "geocoded_column": {
      "latitude": "29.972801237592563",
      "longitude": "-90.10618062232486"
    }
  },
  {
    "service_request": "2022-900749",
    "request_type": "Traffic Signals/Signs/Striping/Streetlights",
    "request_reason": "Street Name Sign Damaged or Missing",
    "date_created": "2022-07-16T22:05:44.000",
    "date_modified": "2022-07-16T22:05:44.000",
    "request_status": "Pending",
    "responsible_agency": "Department of Public Works",
    "final_address": "6700 Chef Menteur Hwy",
    "address_councildis": "E",
    "status": "Pending",
    "rowid": "900749",
    "final_x": "3699512.73316",
    "final_y": "551797.942934",
    "longitude": "-90.01045372307892",
    "latitude": "30.010693414603885",
    "geocoded_column": {
      "latitude": "30.010693414603885",
      "longitude": "-90.01045372307892"
    }
  },
  {
    "service_request": "2022-900748",
    "request_type": "Abandoned Vehicles",
    "request_reason": "Abandoned/Junk Vehicles",
    "date_created": "2022-07-16T21:39:45.000",
    "date_modified": "2022-07-16T21:39:45.000",
    "request_status": "Pending",
    "responsible_agency": "Department of Public Works",
    "final_address": "2404 Ap Tureaud Ave",
    "address_councildis": "D",
    "status": "Pending",
    "rowid": "900748",
    "final_x": "3681543.74895",
    "final_y": "540909.840907",
    "longitude": "-90.06760465869583",
    "latitude": "29.981313185305673",
    "geocoded_column": {
      "latitude": "29.981313185305673",
      "longitude": "-90.06760465869583"
    }
  },
  {
    "service_request": "2022-900747",
    "request_type": "Abandoned Vehicles",
    "request_reason": "Abandoned/Junk Vehicles",
    "date_created": "2022-07-16T21:35:01.000",
    "date_modified": "2022-07-16T21:35:01.000",
    "request_status": "Pending",
    "responsible_agency": "Department of Public Works",
    "final_address": "1881 N Rocheblave St",
    "address_councildis": "D",
    "status": "Pending",
    "rowid": "900747",
    "final_x": "3681452.39484",
    "final_y": "540873.715211",
    "longitude": "-90.06789445663705",
    "latitude": "29.981216626680418",
    "geocoded_column": {
      "latitude": "29.981216626680418",
      "longitude": "-90.06789445663705"
    }
  },
  {
    "service_request": "2022-900746",
    "request_type": "Traffic Signals/Signs/Striping/Streetlights",
    "request_reason": "Street Light Outage/Malfunction",
    "date_created": "2022-07-16T21:19:19.000",
    "date_modified": "2022-07-16T21:19:20.000",
    "request_status": "Pending",
    "responsible_agency": "Department of Public Works",
    "final_address": "1515 Poydras St",
    "address_councildis": "B",
    "status": "Pending",
    "contractor": "Royal Engineering",
    "rowid": "900746",
    "final_x": "3678184.39451",
    "final_y": "530270.944065",
    "longitude": "-90.07858300247496",
    "latitude": "29.952161451520414",
    "geocoded_column": {
      "latitude": "29.952161451520414",
      "longitude": "-90.07858300247496"
    }
  },
  {
    "service_request": "2022-900745",
    "request_type": "Traffic Signals/Signs/Striping/Streetlights",
    "request_reason": "Street Light Outage/Malfunction",
    "date_created": "2022-07-16T21:19:17.000",
    "date_modified": "2022-07-16T21:19:18.000",
    "request_status": "Pending",
    "responsible_agency": "Department of Public Works",
    "final_address": "1515 Poydras St",
    "address_councildis": "B",
    "status": "Pending",
    "contractor": "Royal Engineering",
    "rowid": "900745",
    "final_x": "3678184.39451",
    "final_y": "530270.944065",
    "longitude": "-90.07858300247496",
    "latitude": "29.952161451520414",
    "geocoded_column": {
      "latitude": "29.952161451520414",
      "longitude": "-90.07858300247496"
    }
  },
  {
    "service_request": "2022-900744",
    "request_type": "Traffic Signals/Signs/Striping/Streetlights",
    "request_reason": "Traffic Signal Malfunctioning/Damaged",
    "date_created": "2022-07-16T21:08:56.000",
    "date_modified": "2022-07-16T21:08:56.000",
    "request_status": "Pending",
    "responsible_agency": "Department of Public Works",
    "final_address": "300 Poydras St",
    "address_councildis": "B",
    "status": "Pending",
    "rowid": "900744",
    "final_x": "3682130.82364",
    "final_y": "528855.199296",
    "longitude": "-90.06617146342124",
    "latitude": "29.9481492137223",
    "geocoded_column": {
      "latitude": "29.9481492137223",
      "longitude": "-90.06617146342124"
    }
  },
  {
    "service_request": "2022-900743",
    "request_type": "Traffic Signals/Signs/Striping/Streetlights",
    "request_reason": "Street Light Knocked Down/Leaning",
    "date_created": "2022-07-16T20:56:41.000",
    "date_modified": "2022-07-16T20:56:42.000",
    "request_status": "Pending",
    "responsible_agency": "Department of Public Works",
    "final_address": "9215 Stroelitz St",
    "address_councildis": "A",
    "status": "Pending",
    "contractor": "Royal Engineering",
    "rowid": "900743",
    "final_x": "3664986.79047",
    "final_y": "537753.59028",
    "longitude": "-90.12000488410222",
    "latitude": "29.973127054539724",
    "geocoded_column": {
      "latitude": "29.973127054539724",
      "longitude": "-90.12000488410222"
    }
  },
  {
    "service_request": "2022-900742",
    "request_type": "Traffic Signals/Signs/Striping/Streetlights",
    "request_reason": "Street Light Outage/Malfunction",
    "date_created": "2022-07-16T20:47:26.000",
    "date_modified": "2022-07-16T20:47:27.000",
    "request_status": "Pending",
    "responsible_agency": "Department of Public Works",
    "final_address": "435 Fairway Dr",
    "address_councildis": "A",
    "status": "Pending",
    "contractor": "Royal Engineering",
    "rowid": "900742",
    "final_x": "3664355.15258",
    "final_y": "542571.825805",
    "longitude": "-90.12183884170813",
    "latitude": "29.98639396580439",
    "geocoded_column": {
      "latitude": "29.98639396580439",
      "longitude": "-90.12183884170813"
    }
  },
  {
    "service_request": "2022-900741",
    "request_type": "Traffic Signals/Signs/Striping/Streetlights",
    "request_reason": "Street Light Outage/Malfunction",
    "date_created": "2022-07-16T20:46:48.000",
    "date_modified": "2022-07-16T20:46:48.000",
    "request_status": "Pending",
    "responsible_agency": "Department of Public Works",
    "final_address": "4800 America St",
    "address_councildis": "E",
    "status": "Pending",
    "contractor": "Royal Engineering",
    "rowid": "900741",
    "final_x": "3699703.06512",
    "final_y": "554780.431576",
    "longitude": "-90.00974354913437",
    "latitude": "30.018888084952803",
    "geocoded_column": {
      "latitude": "30.018888084952803",
      "longitude": "-90.00974354913437"
    }
  },
  {
    "service_request": "2022-900740",
    "request_type": "Property Maintenance",
    "request_reason": "Property Maintenance",
    "date_created": "2022-07-16T20:35:04.000",
    "date_modified": "2022-07-16T20:35:04.000",
    "request_status": "Pending",
    "responsible_agency": "Department of Code Enforcement",
    "final_address": "1202 Marengo St",
    "address_councildis": "B",
    "status": "Pending",
    "rowid": "900740",
    "final_x": "3671958.78644",
    "final_y": "519964.080248",
    "longitude": "-90.0985913105435",
    "latitude": "29.924006908430712",
    "geocoded_column": {
      "latitude": "29.924006908430712",
      "longitude": "-90.0985913105435"
    }
  },
  {
    "service_request": "2022-900739",
    "request_type": "Property Maintenance",
    "request_reason": "Property Maintenance",
    "date_created": "2022-07-16T20:32:00.000",
    "date_modified": "2022-07-16T20:32:00.000",
    "request_status": "Pending",
    "responsible_agency": "Department of Code Enforcement",
    "final_address": "1302 Constantinople St",
    "address_councildis": "B",
    "status": "Pending",
    "rowid": "900739",
    "final_x": "3672316.43828",
    "final_y": "520252.107512",
    "longitude": "-90.09745252227002",
    "latitude": "29.924788289127164",
    "geocoded_column": {
      "latitude": "29.924788289127164",
      "longitude": "-90.09745252227002"
    }
  },
  {
    "service_request": "2022-900738",
    "request_type": "Trash/Recycling",
    "request_reason": "Request a Large Item Pick Up",
    "date_created": "2022-07-16T20:29:15.000",
    "date_modified": "2022-07-16T20:29:15.000",
    "request_status": "Pending",
    "responsible_agency": "Department of Sanitation",
    "final_address": "3422 Freret St",
    "address_councildis": "B",
    "status": "Assigned to Contractor",
    "contractor": "Richards Disposal",
    "rowid": "900738",
    "final_x": "3672757.60788",
    "final_y": "524295.303164",
    "longitude": "-90.09592206332448",
    "latitude": "29.93589268199111",
    "geocoded_column": {
      "latitude": "29.93589268199111",
      "longitude": "-90.09592206332448"
    }
  },
  {
    "service_request": "2022-900737",
    "request_type": "Abandoned Vehicles",
    "request_reason": "Abandoned/Junk Vehicles",
    "date_created": "2022-07-16T20:20:22.000",
    "date_modified": "2022-07-16T20:20:22.000",
    "request_status": "Pending",
    "responsible_agency": "Department of Public Works",
    "final_address": "2514 Iberville St",
    "address_councildis": "B",
    "status": "Pending",
    "rowid": "900737",
    "final_x": "3676242.83221",
    "final_y": "534893.567686",
    "longitude": "-90.0845544840156",
    "latitude": "29.96493043164816",
    "geocoded_column": {
      "latitude": "29.96493043164816",
      "longitude": "-90.0845544840156"
    }
  },
  {
    "service_request": "2022-900736",
    "request_type": "Trash/Recycling",
    "request_reason": "Missed Trash Pick-Up",
    "date_created": "2022-07-16T20:17:51.000",
    "date_modified": "2022-07-16T20:17:52.000",
    "request_status": "Pending",
    "responsible_agency": "Department of Sanitation",
    "final_address": "4600 Hauck Dr",
    "address_councildis": "E",
    "status": "Assigned to Contractor",
    "contractor": "Metro Disposal",
    "rowid": "900736",
    "final_x": "3714574.42341",
    "final_y": "555918.087257",
    "longitude": "-89.96271283409652",
    "latitude": "30.021535466100076",
    "geocoded_column": {
      "latitude": "30.021535466100076",
      "longitude": "-89.96271283409652"
    }
  },
  {
    "service_request": "2022-900735",
    "request_type": "Trash/Recycling",
    "request_reason": "Missed Trash Pick-Up",
    "date_created": "2022-07-16T20:07:37.000",
    "date_modified": "2022-07-16T20:07:37.000",
    "request_status": "Pending",
    "responsible_agency": "Department of Sanitation",
    "final_address": "5540 Norgate Dr",
    "address_councildis": "E",
    "status": "Assigned to Contractor",
    "contractor": "Metro Disposal",
    "rowid": "900735",
    "final_x": "3707087.62084",
    "final_y": "558121.129115",
    "longitude": "-89.98628707511972",
    "latitude": "30.02783709007401",
    "geocoded_column": {
      "latitude": "30.02783709007401",
      "longitude": "-89.98628707511972"
    }
  },