[
  {
    "service_request": "2022-875809",
    "request_type": "Parks & Parkways",
    "request_reason": "Request Grass Cutting Service (City Owned Property)",
    "date_created": "2022-04-19T01:35:05.000",
    "date_modified": "2022-04-19T01:35:05.000",
    "request_status": "Pending",
    "responsible_agency": "Department of Parks & Parkway",
    "final_address": "431 Tricou street New Orleans, LA 70117",
    "address_councildis": "E",
    "status": "Pending",
    "rowid": "875809",
    "final_x": "3699314.52202",
    "final_y": "530905.70989",
    "longitude": "-90.01184119497452",
    "latitude": "29.953253687700595",
    "geocoded_column": {
      "latitude": "29.953253687700595",
      "longitude": "-90.01184119497452"
    }
  },
  {
    "service_request": "2022-875808",
    "request_type": "Property Maintenance",
    "request_reason": "Property Maintenance",
    "date_created": "2022-04-19T01:33:00.000",
    "date_modified": "2022-04-19T01:33:00.000",
    "request_status": "Pending",
    "responsible_agency": "Department of Code Enforcement",
    "final_address": "431 Tricou street New Orleans, LA 70117",
    "address_councildis": "E",
    "status": "Pending",
    "rowid": "875808",
    "final_x": "3699314.52202",
    "final_y": "530905.70989",
    "longitude": "-90.01184119497452",
    "latitude": "29.953253687700595",
    "geocoded_column": {
      "latitude": "29.953253687700595",
      "longitude": "-90.01184119497452"
    }
  },
  {
    "service_request": "2022-875807",
    "request_type": "Parks & Parkways",
    "request_reason": "Request Grass Cutting Service (City Owned Property)",
    "date_created": "2022-04-19T01:28:14.000",
    "date_modified": "2022-04-19T01:28:14.000",
    "request_status": "Pending",
    "responsible_agency": "Department of Parks & Parkway",
    "final_address": "1414 Kerlerec st",
    "address_councildis": "C",
    "status": "Pending",
    "rowid": "875807",
    "final_x": "3681922.26223",
    "final_y": "536518.016199",
    "longitude": "-90.06656249526621",
    "latitude": "29.969225689928702",
    "geocoded_column": {
      "latitude": "29.969225689928702",
      "longitude": "-90.06656249526621"
    }
  },
  {
    "service_request": "2022-875806",
    "request_type": "Property Maintenance",
    "request_reason": "Property Maintenance",
    "date_created": "2022-04-19T01:25:21.000",
    "date_modified": "2022-04-19T01:25:21.000",
    "request_status": "Pending",
    "responsible_agency": "Department of Code Enforcement",
    "final_address": "1414 Kerlerec st",
    "address_councildis": "C",
    "status": "Pending",
    "rowid": "875806",
    "final_x": "3681922.26223",
    "final_y": "536518.016199",
    "longitude": "-90.06656249526621",
    "latitude": "29.969225689928702",
    "geocoded_column": {
      "latitude": "29.969225689928702",
      "longitude": "-90.06656249526621"
    }
  },
  {
    "service_request": "2022-875805",
    "request_type": "Parks & Parkways",
    "request_reason": "Request Grass Cutting Service (City Owned Property)",
    "date_created": "2022-04-19T01:14:29.000",
    "date_modified": "2022-04-19T01:14:29.000",
    "request_status": "Pending",
    "responsible_agency": "Department of Parks & Parkway",
    "final_address": "3101 rue Parc Fontaine 70131",
    "status": "Pending",
    "rowid": "875805",
    "longitude": "0.0",
    "latitude": "0.0",
    "geocoded_column": {
      "latitude": "0.0",
      "longitude": "0.0"
    }
  },
  {
    "service_request": "2022-875804",
    "request_type": "Property Maintenance",
    "request_reason": "Property Maintenance",
    "date_created": "2022-04-19T01:08:39.000",
    "date_modified": "2022-04-19T01:08:39.000",
    "request_status": "Pending",
    "responsible_agency": "Department of Code Enforcement",
    "final_address": "3101 rue Parc Fontaine 70131",
    "status": "Pending",
    "rowid": "875804",
    "longitude": "0.0",
    "latitude": "0.0",
    "geocoded_column": {
      "latitude": "0.0",
      "longitude": "0.0"
    }
  },
  {
    "service_request": "2022-875803",
    "request_type": "Property Maintenance",
    "request_reason": "Property Maintenance",
    "date_created": "2022-04-19T00:02:51.000",
    "date_modified": "2022-04-19T00:02:51.000",
    "request_status": "Pending",
    "responsible_agency": "Department of Code Enforcement",
    "final_address": "1641 Hollygrove St",
    "address_councildis": "A",
    "status": "Pending",
    "rowid": "875803",
    "final_x": "3660797.21062",
    "final_y": "531751.273731",
    "longitude": "-90.13343498717845",
    "latitude": "29.956743959245436",
    "geocoded_column": {
      "latitude": "29.956743959245436",
      "longitude": "-90.13343498717845"
    }
  },
  {
    "service_request": "2022-875802",
    "request_type": "Trash/Recycling",
    "request_reason": "Request a Large Item Pick Up",
    "date_created": "2022-04-18T23:54:24.000",
    "date_modified": "2022-04-18T23:54:24.000",
    "request_status": "Pending",
    "responsible_agency": "Department of Sanitation",
    "final_address": "214 Porteous St",
    "address_councildis": "A",
    "status": "Assigned to Contractor",
    "contractor": "Metro Disposal",
    "rowid": "875802",
    "final_x": "3667369.57978",
    "final_y": "551619.140373",
    "longitude": "-90.11201278973255",
    "latitude": "30.011182981097097",
    "geocoded_column": {
      "latitude": "30.011182981097097",
      "longitude": "-90.11201278973255"
    }
  },
  {
    "service_request": "2022-875801",
    "request_type": "Health Related Questions",
    "request_reason": "Noise Ordinance Complaint",
    "date_created": "2022-04-18T23:46:24.000",
    "date_modified": "2022-04-18T23:46:24.000",
    "request_status": "Pending",
    "responsible_agency": "Health Department",
    "final_address": "718 Bourbon St, New Orleans, Louisiana, 70116",
    "address_councildis": "C",
    "status": "Pending",
    "rowid": "875801",
    "final_x": "3682364.17781",
    "final_y": "532746.008004",
    "longitude": "-90.06529872053143",
    "latitude": "29.95884052062511",
    "geocoded_column": {
      "latitude": "29.95884052062511",
      "longitude": "-90.06529872053143"
    }
  },
  {
    "service_request": "2022-875800",
    "request_type": "Abandoned Vehicles",
    "request_reason": "Abandoned/Junk Vehicles",
    "date_created": "2022-04-18T22:08:51.000",
    "date_modified": "2022-04-18T22:08:51.000",
    "request_status": "Pending",
    "responsible_agency": "Department of Public Works",
    "final_address": "1101 Ninth St",
    "address_councildis": "B",
    "status": "Pending",
    "rowid": "875800",
    "final_x": "3675846.90817",
    "final_y": "520122.703608",
    "longitude": "-90.0863124331371",
    "latitude": "29.924327293337363",
    "geocoded_column": {
      "latitude": "29.924327293337363",
      "longitude": "-90.0863124331371"
    }
  },
  {
    "service_request": "2022-875799",
    "request_type": "Health Related Questions",
    "request_reason": "Noise Ordinance Complaint",
    "date_created": "2022-04-18T21:37:45.000",
    "date_modified": "2022-04-18T21:37:45.000",
    "request_status": "Pending",
    "responsible_agency": "Health Department",
    "final_address": "718 Bourbon St, New Orleans, Louisiana, 70116",
    "address_councildis": "C",
    "status": "Pending",
    "rowid": "875799",
    "final_x": "3682364.17781",
    "final_y": "532746.008004",
    "longitude": "-90.06529872053143",
    "latitude": "29.95884052062511",
    "geocoded_column": {
      "latitude": "29.95884052062511",
      "longitude": "-90.06529872053143"
    }
  },
  {
    "service_request": "2022-875798",
    "request_type": "Roads/Drainage",
    "request_reason": "Catch Basin - Clogged",
    "date_created": "2022-04-18T21:28:08.000",
    "date_modified": "2022-04-18T21:28:08.000",
    "request_status": "Pending",
    "responsible_agency": "Department of Public Works",
    "final_address": "120 Baronne St",
    "address_councildis": "B",
    "status": "Pending",
    "rowid": "875798",
    "final_x": "3680470.54562",
    "final_y": "530902.56397",
    "longitude": "-90.07134243922778",
    "latitude": "29.95382915890137",
    "geocoded_column": {
      "latitude": "29.95382915890137",
      "longitude": "-90.07134243922778"
    }
  },
  {
    "service_request": "2022-875797",
    "request_type": "Traffic Signals/Signs/Striping/Streetlights",
    "request_reason": "Street Light Outage/Malfunction",
    "date_created": "2022-04-18T21:24:37.000",
    "date_modified": "2022-04-18T21:24:39.000",
    "request_status": "Pending",
    "responsible_agency": "Department of Public Works",
    "final_address": "4917 Magazine St",
    "address_councildis": "B",
    "status": "Pending",
    "contractor": "Royal Engineering",
    "rowid": "875797",
    "final_x": "3668835.84775",
    "final_y": "518651.935991",
    "longitude": "-90.10849362182188",
    "latitude": "29.92049109061308",
    "geocoded_column": {
      "latitude": "29.92049109061308",
      "longitude": "-90.10849362182188"
    }
  },
  {
    "service_request": "2022-875796",
    "request_type": "Trash/Recycling",
    "request_reason": "Request a Large Item Pick Up",
    "date_created": "2022-04-18T21:21:37.000",
    "date_modified": "2022-04-18T21:21:38.000",
    "request_status": "Pending",
    "responsible_agency": "Department of Sanitation",
    "final_address": "1703 S Gayoso St",
    "address_councildis": "B",
    "status": "Assigned to Contractor",
    "contractor": "Richards Disposal",
    "rowid": "875796",
    "final_x": "3670426.73242",
    "final_y": "530283.766465",
    "longitude": "-90.103077717256",
    "latitude": "29.952428013315444",
    "geocoded_column": {
      "latitude": "29.952428013315444",
      "longitude": "-90.103077717256"
    }
  },
  {
    "service_request": "2022-875794",
    "request_type": "Trash/Recycling",
    "request_reason": "Request a Large Item Pick Up",
    "date_created": "2022-04-18T20:44:20.000",
    "date_modified": "2022-04-18T20:46:10.000",
    "request_status": "Pending",
    "responsible_agency": "Department of Sanitation",
    "final_address": "251 Pine St",
    "address_councildis": "A",
    "status": "Assigned to Contractor",
    "contractor": "Richards Disposal",
    "rowid": "875794",
    "final_x": "3661486.23955",
    "final_y": "522979.761019",
    "longitude": "-90.13154974276887",
    "latitude": "29.93260523673373",
    "geocoded_column": {
      "latitude": "29.93260523673373",
      "longitude": "-90.13154974276887"
    }
  },
  {
    "service_request": "2022-875793",
    "request_type": "Trash/Recycling",
    "request_reason": "Replace Trash Cart",
    "date_created": "2022-04-18T20:43:55.000",
    "date_modified": "2022-04-18T20:46:00.000",
    "request_status": "Pending",
    "responsible_agency": "Department of Sanitation",
    "final_address": "1121 N White St",
    "address_councildis": "A",
    "status": "Assigned to Contractor",
    "contractor": "Richards Disposal",
    "rowid": "875793",
    "final_x": "3677199.65774",
    "final_y": "538982.99809",
    "longitude": "-90.08139178626736",
    "latitude": "29.9761462616033",
    "geocoded_column": {
      "latitude": "29.9761462616033",
      "longitude": "-90.08139178626736"
    }
  },
  {
    "service_request": "2022-875792",
    "request_type": "Trash/Recycling",
    "request_reason": "Order Recycling Cart",
    "date_created": "2022-04-18T20:42:05.000",
    "date_modified": "2022-04-18T20:42:05.000",
    "request_status": "Pending",
    "responsible_agency": "Department of Sanitation",
    "final_address": "1123 N White St",
    "address_councildis": "A",
    "status": "Pending",
    "rowid": "875792",
    "final_x": "3677199.65774",
    "final_y": "538982.99809",
    "longitude": "-90.08139178626736",
    "latitude": "29.9761462616033",
    "geocoded_column": {
      "latitude": "29.9761462616033",
      "longitude": "-90.08139178626736"
    }
  },
  {
    "service_request": "2022-875791",
    "request_type": "Trash/Recycling",
    "request_reason": "Missed Trash Pick-Up",
    "date_created": "2022-04-18T20:40:46.000",
    "date_modified": "2022-04-18T20:41:06.000",
    "request_status": "Pending",
    "responsible_agency": "Department of Sanitation",
    "final_address": "2033 Annette St",
    "address_councildis": "D",
    "status": "Assigned to Contractor",
    "contractor": "Metro Disposal",
    "rowid": "875791",
    "final_x": "3682891.53538",
    "final_y": "539762.87745",
    "longitude": "-90.06338788793204",
    "latitude": "29.97811843120311",
    "geocoded_column": {
      "latitude": "29.97811843120311",
      "longitude": "-90.06338788793204"
    }
  },
  {
    "service_request": "2022-875790",
    "request_type": "Trash/Recycling",
    "request_reason": "Order Recycling Cart",
    "date_created": "2022-04-18T20:38:55.000",
    "date_modified": "2022-04-18T20:38:55.000",
    "request_status": "Pending",
    "responsible_agency": "Department of Sanitation",
    "final_address": "1121 N White St",
    "address_councildis": "A",
    "status": "Pending",
    "rowid": "875790",
    "final_x": "3677199.65774",
    "final_y": "538982.99809",
    "longitude": "-90.08139178626736",
    "latitude": "29.9761462616033",
    "geocoded_column": {
      "latitude": "29.9761462616033",
      "longitude": "-90.08139178626736"
    }
  },
  {
    "service_request": "2022-875789",
    "request_type": "Property Maintenance",
    "request_reason": "Property Maintenance",
    "date_created": "2022-04-18T20:32:55.000",
    "date_modified": "2022-04-18T20:32:55.000",
    "request_status": "Pending",
    "responsible_agency": "Department of Code Enforcement",
    "final_address": "2542 Hamilton St",
    "address_councildis": "A",
    "status": "Pending",
    "rowid": "875789",
    "final_x": "3662691.18035",
    "final_y": "534471.333509",
    "longitude": "-90.12736401066417",
    "latitude": "29.964168567274776",
    "geocoded_column": {
      "latitude": "29.964168567274776",
      "longitude": "-90.12736401066417"
    }
  },
  {
    "service_request": "2022-875788",
    "request_type": "Health Related Questions",
    "request_reason": "Noise Ordinance Complaint",
    "date_created": "2022-04-18T20:27:48.000",
    "date_modified": "2022-04-18T20:27:48.000",
    "request_status": "Pending",
    "responsible_agency": "Health Department",
    "final_address": "4815 Conti St, New Orleans, Louisiana, 70119",
    "address_councildis": "A",
    "status": "Pending",
    "rowid": "875788",
    "final_x": "3669430.72007",
    "final_y": "541136.787212",
    "longitude": "-90.10585557344139",
    "latitude": "29.98229956494876",
    "geocoded_column": {
      "latitude": "29.98229956494876",
      "longitude": "-90.10585557344139"
    }
  },
  {
    "service_request": "2022-875787",
    "request_type": "Trash/Recycling",
    "request_reason": "Missed Trash Pick-Up",
    "date_created": "2022-04-18T20:22:03.000",
    "date_modified": "2022-04-18T20:22:17.000",
    "request_status": "Pending",
    "responsible_agency": "Department of Sanitation",
    "final_address": "307 S Pierce St",
    "address_councildis": "A",
    "status": "Assigned to Contractor",
    "contractor": "Richards Disposal",
    "rowid": "875787",
    "final_x": "3670901.54734",
    "final_y": "537369.43956",
    "longitude": "-90.10133790940915",
    "latitude": "29.971897229209855",
    "geocoded_column": {
      "latitude": "29.971897229209855",
      "longitude": "-90.10133790940915"
    }
  },
  {
    "service_request": "2022-875786",
    "request_type": "Health Related Questions",
    "request_reason": "Noise Ordinance Complaint",
    "date_created": "2022-04-18T20:14:01.000",
    "date_modified": "2022-04-18T20:14:01.000",
    "request_status": "Pending",
    "responsible_agency": "Health Department",
    "final_address": "4815 Conti St, New Orleans, Louisiana, 70119",
    "address_councildis": "A",
    "status": "Pending",
    "rowid": "875786",
    "final_x": "3669430.72007",
    "final_y": "541136.787212",
    "longitude": "-90.10585557344139",
    "latitude": "29.98229956494876",
    "geocoded_column": {
      "latitude": "29.98229956494876",
      "longitude": "-90.10585557344139"
    }
  },
  {
    "service_request": "2022-875785",
    "request_type": "Trash/Recycling",
    "request_reason": "Request a Large Item Pick Up",
    "date_created": "2022-04-18T20:10:12.000",
    "date_modified": "2022-04-18T20:11:43.000",
    "request_status": "Pending",
    "responsible_agency": "Department of Sanitation",
    "final_address": "2016 Foucher St",
    "address_councildis": "B",
    "status": "Assigned to Contractor",
    "contractor": "Richards Disposal",
    "rowid": "875785",
    "final_x": "3672932.01339",
    "final_y": "522777.443642",
    "longitude": "-90.09542323015846",
    "latitude": "29.93171387992932",
    "geocoded_column": {
      "latitude": "29.93171387992932",
      "longitude": "-90.09542323015846"
    }
  },
  {
    "service_request": "2022-875784",
    "request_type": "Trash/Recycling",
    "request_reason": "Request a Large Item Pick Up",
    "date_created": "2022-04-18T20:09:12.000",
    "date_modified": "2022-04-18T20:09:12.000",
    "request_status": "Pending",
    "responsible_agency": "Department of Sanitation",
    "final_address": "1504 Sauvage St",
    "address_councildis": "A",
    "status": "Pending",
    "rowid": "875784",
    "final_x": "3677176.98549",
    "final_y": "540340.024587",
    "longitude": "-90.08141656537525",
    "latitude": "29.97987829832666",
    "geocoded_column": {
      "latitude": "29.97987829832666",
      "longitude": "-90.08141656537525"
    }
  },
  {
    "service_request": "2022-875783",
    "request_type": "Health Related Questions",
    "request_reason": "Noise Ordinance Complaint",
    "date_created": "2022-04-18T20:02:19.000",
    "date_modified": "2022-04-18T20:02:19.000",
    "request_status": "Pending",
    "responsible_agency": "Health Department",
    "final_address": "N Bernadotte St, New Orleans, Louisiana, 70119",
    "address_councildis": "A",
    "status": "Pending",
    "rowid": "875783",
    "final_x": "3669112.22266",
    "final_y": "540539.987275",
    "longitude": "-90.10688172278532",
    "latitude": "29.98066794519062",
    "geocoded_column": {
      "latitude": "29.98066794519062",
      "longitude": "-90.10688172278532"
    }
  },
  {
    "service_request": "2022-875782",
    "request_type": "Traffic Signals/Signs/Striping/Streetlights",
    "request_reason": "Street Name Sign Damaged or Missing",
    "date_created": "2022-04-18T19:47:47.000",
    "date_modified": "2022-04-18T19:47:47.000",
    "request_status": "Pending",
    "responsible_agency": "Department of Public Works",
    "final_address": "CAPDEVILLE ST & MAGAZINE ST",
    "address_councildis": "B",
    "status": "Pending",
    "rowid": "875782",
    "final_x": "3681347.7",
    "final_y": "528508.98",
    "longitude": "-90.06865616752432",
    "latitude": "29.947221016966704",
    "geocoded_column": {
      "latitude": "29.947221016966704",
      "longitude": "-90.06865616752432"
    }
  },
  {
    "service_request": "2022-875781",
    "request_type": "Abandoned Vehicles",
    "request_reason": "Abandoned/Junk Vehicles",
    "date_created": "2022-04-18T19:47:42.000",
    "date_modified": "2022-04-18T19:47:42.000",
    "request_status": "Pending",
    "responsible_agency": "Department of Public Works",
    "final_address": "3718 S Johnson St",
    "address_councildis": "B",
    "status": "Pending",
    "rowid": "875781",
    "final_x": "3671325.75297",
    "final_y": "527301.171903",
    "longitude": "-90.10034035447862",
    "latitude": "29.944200284557304",
    "geocoded_column": {
      "latitude": "29.944200284557304",
      "longitude": "-90.10034035447862"
    }
  },
  {
    "service_request": "2022-875780",
    "request_type": "Traffic Signals/Signs/Striping/Streetlights",
    "request_reason": "Street Name Sign Damaged or Missing",
    "date_created": "2022-04-18T19:45:45.000",
    "date_modified": "2022-04-18T19:45:45.000",
    "request_status": "Pending",
    "responsible_agency": "Department of Public Works",
    "final_address": "CAMP ST & CAPDEVILLE ST",
    "address_councildis": "B",
    "status": "Pending",
    "rowid": "875780",
    "final_x": "3680956.4",
    "final_y": "528604.88",
    "longitude": "-90.0698883102205",
    "latitude": "29.94749657930519",
    "geocoded_column": {
      "latitude": "29.94749657930519",
      "longitude": "-90.0698883102205"
    }
  },
  {
    "service_request": "2022-875779",
    "request_type": "Trash/Recycling",
    "request_reason": "Request a Large Item Pick Up",
    "date_created": "2022-04-18T19:44:50.000",
    "date_modified": "2022-04-18T19:44:51.000",
    "request_status": "Pending",
    "responsible_agency": "Department of Sanitation",
    "final_address": "1459 Granada Dr",
    "address_councildis": "D",
    "status": "Assigned to Contractor",
    "contractor": "Metro Disposal",
    "rowid": "875779",
    "final_x": "3678032.09538",
    "final_y": "550672.954644",
    "longitude": "-90.07835833549942",
    "latitude": "30.008264505741064",
    "geocoded_column": {
      "latitude": "30.008264505741064",
      "longitude": "-90.07835833549942"
    }
  },
  {
    "service_request": "2022-875778",
    "request_type": "Traffic Signals/Signs/Striping/Streetlights",
    "request_reason": "Street Name Sign Damaged or Missing",
    "date_created": "2022-04-18T19:42:30.000",
    "date_modified": "2022-04-18T19:42:30.000",
    "request_status": "Pending",
    "responsible_agency": "Department of Public Works",
    "final_address": "CAPDEVILLE ST & MAGAZINE ST",
    "address_councildis": "B",
    "status": "Pending",
    "rowid": "875778",
    "final_x": "3681347.7",
    "final_y": "528508.98",
    "longitude": "-90.06865616752432",
    "latitude": "29.947221016966704",
    "geocoded_column": {
      "latitude": "29.947221016966704",
      "longitude": "-90.06865616752432"
    }
  },
  {
    "service_request": "2022-875777",
    "request_type": "Roads/Drainage",
    "request_reason": "Pothole",
    "date_created": "2022-04-18T19:41:48.000",
    "date_modified": "2022-04-18T19:41:48.000",
    "request_status": "Pending",
    "responsible_agency": "Department of Public Works",
    "final_address": "225 Whitney Ave",
    "address_councildis": "C",
    "status": "Pending",
    "rowid": "875777",
    "final_x": "3690212.01193",
    "final_y": "530834.475202",
    "longitude": "-90.04058543924532",
    "latitude": "29.953343333803574",
    "geocoded_column": {
      "latitude": "29.953343333803574",
      "longitude": "-90.04058543924532"
    }
  },
  {
    "service_request": "2022-875776",
    "request_type": "Mosquito, Termite & Rodent Control",
    "request_reason": "Rodent Complaint (Rats)",
    "date_created": "2022-04-18T19:40:56.000",
    "date_modified": "2022-04-18T19:40:56.000",
    "request_status": "Pending",
    "responsible_agency": "Mosquito, Termite & Rodent Control Board",
    "final_address": "1209 Annette St",
    "address_councildis": "C",
    "status": "Pending",
    "rowid": "875776",
    "final_x": "3683169.46031",
    "final_y": "536257.085319",
    "longitude": "-90.06263289401691",
    "latitude": "29.968470248294057",
    "geocoded_column": {
      "latitude": "29.968470248294057",
      "longitude": "-90.06263289401691"
    }
  },
  {
    "service_request": "2022-875775",
    "request_type": "Trash/Recycling",
    "request_reason": "MIssed Recycling Pick-Up",
    "date_created": "2022-04-18T19:39:24.000",
    "date_modified": "2022-04-18T19:39:25.000",
    "request_status": "Pending",
    "responsible_agency": "Department of Sanitation",
    "final_address": "410 Dearmas St",
    "address_councildis": "C",
    "status": "Assigned to Contractor",
    "contractor": "Richards Disposal",
    "rowid": "875775",
    "final_x": "3686728.55599",
    "final_y": "527206.563327",
    "longitude": "-90.05171280462834",
    "latitude": "29.94347541639722",
    "geocoded_column": {
      "latitude": "29.94347541639722",
      "longitude": "-90.05171280462834"
    }
  },
  {
    "service_request": "2022-875774",
    "request_type": "Trash/Recycling",
    "request_reason": "Illegal Dumping",
    "date_created": "2022-04-18T19:38:42.000",
    "date_modified": "2022-04-18T19:38:42.000",
    "request_status": "Pending",
    "responsible_agency": "Department of Sanitation",
    "final_address": "716 Peniston St",
    "address_councildis": "B",
    "status": "Pending",
    "rowid": "875774",
    "final_x": "3673485.12014",
    "final_y": "518469.724342",
    "longitude": "-90.09382423794936",
    "latitude": "29.91985259424551",
    "geocoded_column": {
      "latitude": "29.91985259424551",
      "longitude": "-90.09382423794936"
    }
  },
  {
    "service_request": "2022-875773",
    "request_type": "Roads/Drainage",
    "request_reason": "Damaged Sidewalk",
    "date_created": "2022-04-18T19:38:38.000",
    "date_modified": "2022-04-18T19:38:38.000",
    "request_status": "Pending",
    "responsible_agency": "Department of Public Works",
    "final_address": "630 Magazine St",
    "address_councildis": "B",
    "status": "Pending",
    "rowid": "875773",
    "final_x": "3681387.39656",
    "final_y": "528450.308864",
    "longitude": "-90.06853287534858",
    "latitude": "29.947058486259742",
    "geocoded_column": {
      "latitude": "29.947058486259742",
      "longitude": "-90.06853287534858"
    }
  },
  {
    "service_request": "2022-875772",
    "request_type": "Traffic Signals/Signs/Striping/Streetlights",
    "request_reason": "Street Light Outage/Malfunction",
    "date_created": "2022-04-18T19:37:19.000",
    "date_modified": "2022-04-18T19:37:28.000",
    "request_status": "Pending",
    "responsible_agency": "Department of Public Works",
    "final_address": "630 Magazine St",
    "address_councildis": "B",
    "status": "Pending",
    "contractor": "Royal Engineering",
    "rowid": "875772",
    "final_x": "3681387.39656",
    "final_y": "528450.308864",
    "longitude": "-90.06853287534858",
    "latitude": "29.947058486259742",
    "geocoded_column": {
      "latitude": "29.947058486259742",
      "longitude": "-90.06853287534858"
    }
  },
  {
    "service_request": "2022-875771",
    "request_type": "Trash/Recycling",
    "request_reason": "Request a Large Item Pick Up",
    "date_created": "2022-04-18T19:36:43.000",
    "date_modified": "2022-04-18T19:36:44.000",
    "request_status": "Pending",
    "responsible_agency": "Department of Sanitation",
    "final_address": "13118 Dwyer Blvd",
    "address_councildis": "E",
    "status": "Assigned to Contractor",
    "contractor": "Metro Disposal",
    "rowid": "875771",
    "final_x": "3724198.54828",
    "final_y": "561238.55683",
    "longitude": "-89.93209804600616",
    "latitude": "30.035844541176957",
    "geocoded_column": {
      "latitude": "30.035844541176957",
      "longitude": "-89.93209804600616"
    }
  },
  {
    "service_request": "2022-875770",
    "request_type": "Traffic Signals/Signs/Striping/Streetlights",
    "request_reason": "Street Light Outage/Malfunction",
    "date_created": "2022-04-18T19:33:02.000",
    "date_modified": "2022-04-18T19:33:03.000",
    "request_status": "Pending",
    "responsible_agency": "Department of Public Works",
    "final_address": "400 St Charles Ave",
    "address_councildis": "B",
    "status": "Pending",
    "contractor": "Royal Engineering",
    "rowid": "875770",
    "final_x": "3680841.04437",
    "final_y": "529671.332417",
    "longitude": "-90.07021541401092",
    "latitude": "29.950432462014902",
    "geocoded_column": {
      "latitude": "29.950432462014902",
      "longitude": "-90.07021541401092"
    }
  },
  {
    "service_request": "2022-875769",
    "request_type": "Trash/Recycling",
    "request_reason": "MIssed Recycling Pick-Up",
    "date_created": "2022-04-18T19:31:49.000",
    "date_modified": "2022-04-18T19:31:50.000",
    "request_status": "Pending",
    "responsible_agency": "Department of Sanitation",
    "final_address": "410 Dearmas St",
    "address_councildis": "C",
    "status": "Assigned to Contractor",
    "contractor": "Richards Disposal",
    "rowid": "875769",
    "final_x": "3686728.55599",
    "final_y": "527206.563327",
    "longitude": "-90.05171280462834",
    "latitude": "29.94347541639722",
    "geocoded_column": {
      "latitude": "29.94347541639722",
      "longitude": "-90.05171280462834"
    }
  },
  {
    "service_request": "2022-875768",
    "request_type": "Traffic Signals/Signs/Striping/Streetlights",
    "request_reason": "Street Light Outage/Malfunction",
    "date_created": "2022-04-18T19:28:25.000",
    "date_modified": "2022-04-18T19:28:26.000",
    "request_status": "Pending",
    "responsible_agency": "Department of Public Works",
    "final_address": "401 Carondelet St Ste A",
    "address_councildis": "B",
    "status": "Pending",
    "contractor": "Royal Engineering",
    "rowid": "875768",
    "final_x": "3680359.60655",
    "final_y": "529736.114369",
    "longitude": "-90.0717332915012",
    "latitude": "29.950625174653197",
    "geocoded_column": {
      "latitude": "29.950625174653197",
      "longitude": "-90.0717332915012"
    }
  },
  {
    "service_request": "2022-875767",
    "request_type": "Traffic Signals/Signs/Striping/Streetlights",
    "request_reason": "Street Light Outage/Malfunction",
    "date_created": "2022-04-18T19:25:57.000",
    "date_modified": "2022-04-18T19:25:58.000",
    "request_status": "Pending",
    "responsible_agency": "Department of Public Works",
    "final_address": "401 Carondelet St",
    "address_councildis": "B",
    "status": "Pending",
    "contractor": "Royal Engineering",
    "rowid": "875767",
    "final_x": "3680362.54466",
    "final_y": "529748.363137",
    "longitude": "-90.07172358863542",
    "latitude": "29.95065876569597",
    "geocoded_column": {
      "latitude": "29.95065876569597",
      "longitude": "-90.07172358863542"
    }
  },
  {
    "service_request": "2022-875766",
    "request_type": "Trash/Recycling",
    "request_reason": "Missed Trash Pick-Up",
    "date_created": "2022-04-18T19:24:56.000",
    "date_modified": "2022-04-18T19:24:57.000",
    "request_status": "Pending",
    "responsible_agency": "Department of Sanitation",
    "final_address": "101 Sherwood Forest Dr",
    "address_councildis": "A",
    "status": "Assigned to Contractor",
    "contractor": "Richards Disposal",
    "rowid": "875766",
    "final_x": "3673257.85006",
    "final_y": "541313.731212",
    "longitude": "-90.09376156084629",
    "latitude": "29.982672814865065",
    "geocoded_column": {
      "latitude": "29.982672814865065",
      "longitude": "-90.09376156084629"
    }
  },
  {
    "service_request": "2022-875765",
    "request_type": "Trash/Recycling",
    "request_reason": "Request a Large Item Pick Up",
    "date_created": "2022-04-18T19:21:29.000",
    "date_modified": "2022-04-18T19:21:29.000",
    "request_status": "Pending",
    "responsible_agency": "Department of Sanitation",
    "final_address": "5445 Chartres St",
    "address_councildis": "E",
    "status": "Assigned to Contractor",
    "contractor": "Metro Disposal",
    "rowid": "875765",
    "final_x": "3697009.75139",
    "final_y": "532086.957507",
    "longitude": "-90.01907584623862",
    "latitude": "29.95657458961224",
    "geocoded_column": {
      "latitude": "29.95657458961224",
      "longitude": "-90.01907584623862"
    }
  },
  {
    "service_request": "2022-875764",
    "request_type": "Roads/Drainage",
    "request_reason": "Pothole",
    "date_created": "2022-04-18T19:19:07.000",
    "date_modified": "2022-04-18T19:19:07.000",
    "request_status": "Pending",
    "responsible_agency": "Department of Public Works",
    "final_address": "509 Iberville St",
    "address_councildis": "C",
    "status": "Pending",
    "rowid": "875764",
    "final_x": "3682000.48392",
    "final_y": "530646.381762",
    "longitude": "-90.06652047296353",
    "latitude": "29.953078323452285",
    "geocoded_column": {
      "latitude": "29.953078323452285",
      "longitude": "-90.06652047296353"
    }
  },
  {
    "service_request": "2022-875763",
    "request_type": "Property Maintenance",
    "request_reason": "Property Maintenance",
    "date_created": "2022-04-18T19:18:48.000",
    "date_modified": "2022-04-18T19:18:48.000",
    "request_status": "Pending",
    "responsible_agency": "Department of Code Enforcement",
    "final_address": "4409 Eden St",
    "address_councildis": "B",
    "status": "Pending",
    "rowid": "875763",
    "final_x": "3669919.50094",
    "final_y": "530702.337986",
    "longitude": "-90.10466515487335",
    "latitude": "29.953593912389938",
    "geocoded_column": {
      "latitude": "29.953593912389938",
      "longitude": "-90.10466515487335"
    }
  },
  {
    "service_request": "2022-875762",
    "request_type": "Roads/Drainage",
    "request_reason": "Damaged Sidewalk",
    "date_created": "2022-04-18T19:17:20.000",
    "date_modified": "2022-04-18T19:17:20.000",
    "request_status": "Pending",
    "responsible_agency": "Department of Public Works",
    "final_address": "401 Carondelet St Ste A",
    "address_councildis": "B",
    "status": "Pending",
    "rowid": "875762",
    "final_x": "3680359.60655",
    "final_y": "529736.114369",
    "longitude": "-90.0717332915012",
    "latitude": "29.950625174653197",
    "geocoded_column": {
      "latitude": "29.950625174653197",
      "longitude": "-90.0717332915012"
    }
  },
  {
    "service_request": "2022-875761",
    "request_type": "Roads/Drainage",
    "request_reason": "Accessibility Ramps, Curbs and Sidewalk Repair",
    "date_created": "2022-04-18T19:14:20.000",
    "date_modified": "2022-04-18T19:14:20.000",
    "request_status": "Pending",
    "responsible_agency": "Department of Public Works",
    "final_address": "802 Canal St",
    "address_councildis": "B",
    "status": "Pending",
    "rowid": "875761",
    "final_x": "3680836.47042",
    "final_y": "530857.422338",
    "longitude": "-90.07018857165345",
    "latitude": "29.953693947968514",
    "geocoded_column": {
      "latitude": "29.953693947968514",
      "longitude": "-90.07018857165345"
    }
  },
  {
    "service_request": "2022-875760",
    "request_type": "Traffic Signals/Signs/Striping/Streetlights",
    "request_reason": "Street Light Outage/Malfunction",
    "date_created": "2022-04-18T19:13:44.000",
    "date_modified": "2022-04-18T19:13:44.000",
    "request_status": "Pending",
    "responsible_agency": "Department of Public Works",
    "final_address": "401 Carondelet St Ste A",
    "address_councildis": "B",
    "status": "Pending",
    "contractor": "Royal Engineering",
    "rowid": "875760",
    "final_x": "3680359.60655",
    "final_y": "529736.114369",
    "longitude": "-90.0717332915012",
    "latitude": "29.950625174653197",
    "geocoded_column": {
      "latitude": "29.950625174653197",
      "longitude": "-90.0717332915012"
    }
  },
  {
    "service_request": "2022-875759",
    "request_type": "Roads/Drainage",
    "request_reason": "Accessibility Ramps, Curbs and Sidewalk Repair",
    "date_created": "2022-04-18T19:08:52.000",
    "date_modified": "2022-04-18T19:08:52.000",
    "request_status": "Pending",
    "responsible_agency": "Department of Public Works",
    "final_address": "401 Carondelet St",
    "address_councildis": "B",
    "status": "Pending",
    "rowid": "875759",
    "final_x": "3680362.54466",
    "final_y": "529748.363137",
    "longitude": "-90.07172358863542",
    "latitude": "29.95065876569597",
    "geocoded_column": {
      "latitude": "29.95065876569597",
      "longitude": "-90.07172358863542"
    }
  },
  {
    "service_request": "2022-875756",
    "request_type": "Mosquito, Termite & Rodent Control",
    "request_reason": "Rodent Complaint (Rats)",
    "date_created": "2022-04-18T18:52:16.000",
    "date_modified": "2022-04-18T18:52:17.000",
    "request_status": "Pending",
    "responsible_agency": "Mosquito, Termite & Rodent Control Board",
    "final_address": "2902 Louisiana Ave",
    "address_councildis": "B",
    "status": "Pending",
    "rowid": "875756",
    "final_x": "3672261.84814",
    "final_y": "525759.161341",
    "longitude": "-90.09743734340746",
    "latitude": "29.939932528312326",
    "geocoded_column": {
      "latitude": "29.939932528312326",
      "longitude": "-90.09743734340746"
    }
  },
  {
    "service_request": "2022-875755",
    "request_type": "Abandoned Vehicles",
    "request_reason": "Abandoned/Junk Vehicles",
    "date_created": "2022-04-18T18:49:32.000",
    "date_modified": "2022-04-18T18:49:32.000",
    "request_status": "Pending",
    "responsible_agency": "Department of Public Works",
    "final_address": "1412 Louisa St Apt A",
    "address_councildis": "C",
    "status": "Pending",
    "rowid": "875755",
    "final_x": "3689834.09308",
    "final_y": "537098.117192",
    "longitude": "-90.0415557728609",
    "latitude": "29.970577883902415",
    "geocoded_column": {
      "latitude": "29.970577883902415",
      "longitude": "-90.0415557728609"
    }
  },
  {
    "service_request": "2022-875754",
    "request_type": "Abandoned Vehicles",
    "request_reason": "Abandoned/Junk Vehicles",
    "date_created": "2022-04-18T18:48:07.000",
    "date_modified": "2022-04-18T18:48:07.000",
    "request_status": "Pending",
    "responsible_agency": "Department of Public Works",
    "final_address": "1412 Louisa St Apt A",
    "address_councildis": "C",
    "status": "Pending",
    "rowid": "875754",
    "final_x": "3689834.09308",
    "final_y": "537098.117192",
    "longitude": "-90.0415557728609",
    "latitude": "29.970577883902415",
    "geocoded_column": {
      "latitude": "29.970577883902415",
      "longitude": "-90.0415557728609"
    }
  },
  {
    "service_request": "2022-875753",
    "request_type": "Abandoned Vehicles",
    "request_reason": "Abandoned/Junk Vehicles",
    "date_created": "2022-04-18T18:43:54.000",
    "date_modified": "2022-04-18T18:43:54.000",
    "request_status": "Pending",
    "responsible_agency": "Department of Public Works",
    "final_address": "1412 Louisa St Apt B",
    "address_councildis": "C",
    "status": "Pending",
    "rowid": "875753",
    "final_x": "3689817.91913",
    "final_y": "537102.99412",
    "longitude": "-90.04160667829588",
    "latitude": "29.970591795097146",
    "geocoded_column": {
      "latitude": "29.970591795097146",
      "longitude": "-90.04160667829588"
    }
  },
  {
    "service_request": "2022-875752",
    "request_type": "Trash/Recycling",
    "request_reason": "Replace Trash Cart",
    "date_created": "2022-04-18T18:43:35.000",
    "date_modified": "2022-04-18T18:43:35.000",
    "request_status": "Pending",
    "responsible_agency": "Department of Sanitation",
    "final_address": "1312 Robert St",
    "address_councildis": "B",
    "status": "Assigned to Contractor",
    "contractor": "Richards Disposal",
    "rowid": "875752",
    "final_x": "3668657.47335",
    "final_y": "520043.988664",
    "longitude": "-90.1090097179081",
    "latitude": "29.924324036834264",
    "geocoded_column": {
      "latitude": "29.924324036834264",
      "longitude": "-90.1090097179081"
    }
  },
  {
    "service_request": "2022-875751",
    "request_type": "Roads/Drainage",
    "request_reason": "Pothole",
    "date_created": "2022-04-18T18:40:40.000",
    "date_modified": "2022-04-18T18:40:40.000",
    "request_status": "Pending",
    "responsible_agency": "Department of Public Works",
    "final_address": "1442 Louisa St",
    "address_councildis": "C",
    "status": "Pending",
    "rowid": "875751",
    "final_x": "3689890.12803",
    "final_y": "537323.821896",
    "longitude": "-90.04137077149866",
    "latitude": "29.97119675522851",
    "geocoded_column": {
      "latitude": "29.97119675522851",
      "longitude": "-90.04137077149866"
    }
  },
  {
    "service_request": "2022-875750",
    "request_type": "Abandoned Vehicles",
    "request_reason": "Abandoned/Junk Vehicles",
    "date_created": "2022-04-18T18:40:35.000",
    "date_modified": "2022-04-18T18:40:35.000",
    "request_status": "Pending",
    "responsible_agency": "Department of Public Works",
    "final_address": "740 Seventh St",
    "address_councildis": "B",
    "status": "Pending",
    "rowid": "875750",
    "final_x": "3676982.25781",
    "final_y": "519374.479671",
    "longitude": "-90.0827543025212",
    "latitude": "29.92223589558456",
    "geocoded_column": {
      "latitude": "29.92223589558456",
      "longitude": "-90.0827543025212"
    }
  },
  {
    "service_request": "2022-875749",
    "request_type": "Trash/Recycling",
    "request_reason": "Request a Large Item Pick Up",
    "date_created": "2022-04-18T18:33:54.000",
    "date_modified": "2022-04-18T18:33:55.000",
    "request_status": "Pending",
    "responsible_agency": "Department of Sanitation",
    "final_address": "2347 N Claiborne Ave",
    "address_councildis": "D",
    "status": "Assigned to Contractor",
    "contractor": "Metro Disposal",
    "rowid": "875749",
    "final_x": "3686060.05225",
    "final_y": "538277.770057",
    "longitude": "-90.05343299762539",
    "latitude": "29.973937967176425",
    "geocoded_column": {
      "latitude": "29.973937967176425",
      "longitude": "-90.05343299762539"
    }
  },
  {
    "service_request": "2022-875748",
    "request_type": "Trash/Recycling",
    "request_reason": "Request a Large Item Pick Up",
    "date_created": "2022-04-18T18:29:11.000",
    "date_modified": "2022-04-18T18:29:11.000",
    "request_status": "Pending",
    "responsible_agency": "Department of Sanitation",
    "final_address": "523 Robert E Lee Blvd",
    "address_councildis": "D",
    "status": "Assigned to Contractor",
    "contractor": "Metro Disposal",
    "rowid": "875748",
    "final_x": "3668302.06273",
    "final_y": "554878.386648",
    "longitude": "-90.10895666020626",
    "latitude": "30.020117396655262",
    "geocoded_column": {
      "latitude": "30.020117396655262",
      "longitude": "-90.10895666020626"
    }
  },
  {
    "service_request": "2022-875747",
    "request_type": "Trash/Recycling",
    "request_reason": "Missed Trash Pick-Up",
    "date_created": "2022-04-18T18:27:42.000",
    "date_modified": "2022-04-18T18:27:43.000",
    "request_status": "Pending",
    "responsible_agency": "Department of Sanitation",
    "final_address": "2107 Annunciation St",
    "address_councildis": "B",
    "status": "Assigned to Contractor",
    "contractor": "Richards Disposal",
    "rowid": "875747",
    "final_x": "3679758.14146",
    "final_y": "521431.067449",
    "longitude": "-90.073920630889",
    "latitude": "29.927807244285876",
    "geocoded_column": {
      "latitude": "29.927807244285876",
      "longitude": "-90.073920630889"
    }
  },
  {
    "service_request": "2022-875746",
    "request_type": "Abandoned Vehicles",
    "request_reason": "Abandoned/Junk Vehicles",
    "date_created": "2022-04-18T18:16:22.000",
    "date_modified": "2022-04-18T18:16:22.000",
    "request_status": "Pending",
    "responsible_agency": "Department of Public Works",
    "final_address": "1915 Chestnut St",
    "address_councildis": "B",
    "status": "Pending",
    "rowid": "875746",
    "final_x": "3679149.3725",
    "final_y": "523300.292411",
    "longitude": "-90.0757776108899",
    "latitude": "29.932965384512816",
    "geocoded_column": {
      "latitude": "29.932965384512816",
      "longitude": "-90.0757776108899"
    }
  },
  {
    "service_request": "2022-875745",
    "request_type": "Abandoned Vehicles",
    "request_reason": "Abandoned/Junk Vehicles",
    "date_created": "2022-04-18T18:11:49.000",
    "date_modified": "2022-04-18T18:11:49.000",
    "request_status": "Pending",
    "responsible_agency": "Department of Public Works",
    "final_address": "1915 Chestnut St",
    "address_councildis": "B",
    "status": "Pending",
    "rowid": "875745",
    "final_x": "3679149.3725",
    "final_y": "523300.292411",
    "longitude": "-90.0757776108899",
    "latitude": "29.932965384512816",
    "geocoded_column": {
      "latitude": "29.932965384512816",
      "longitude": "-90.0757776108899"
    }
  },
  {
    "service_request": "2022-875743",
    "request_type": "Trash/Recycling",
    "request_reason": "Missed Trash Pick-Up",
    "date_created": "2022-04-18T18:06:21.000",
    "date_modified": "2022-04-18T18:06:22.000",
    "request_status": "Pending",
    "responsible_agency": "Department of Sanitation",
    "final_address": "749 S Genois St",
    "address_councildis": "B",
    "status": "Assigned to Contractor",
    "contractor": "Richards Disposal",
    "rowid": "875743",
    "final_x": "3670881.31438",
    "final_y": "535010.131846",
    "longitude": "-90.10148191227124",
    "latitude": "29.96541052252787",
    "geocoded_column": {
      "latitude": "29.96541052252787",
      "longitude": "-90.10148191227124"
    }
  },
  {
    "service_request": "2022-875742",
    "request_type": "Roads/Drainage",
    "request_reason": "Bicycle Hazardous Incident Reporting",
    "date_created": "2022-04-18T18:05:16.000",
    "date_modified": "2022-04-18T18:05:16.000",
    "request_status": "Pending",
    "responsible_agency": "Health Department",
    "final_address": "2017 N Galvez St",
    "address_councildis": "D",
    "status": "Pending",
    "rowid": "875742",
    "final_x": "3683747.41858",
    "final_y": "539950.731338",
    "longitude": "-90.06067811820884",
    "latitude": "29.97860885315275",
    "geocoded_column": {
      "latitude": "29.97860885315275",
      "longitude": "-90.06067811820884"
    }
  },
  {
    "service_request": "2022-875741",
    "request_type": "Trash/Recycling",
    "request_reason": "Missed Trash Pick-Up",
    "date_created": "2022-04-18T18:05:08.000",
    "date_modified": "2022-04-18T18:05:09.000",
    "request_status": "Pending",
    "responsible_agency": "Department of Sanitation",
    "final_address": "228 S Scott St",
    "address_councildis": "A",
    "status": "Assigned to Contractor",
    "contractor": "Richards Disposal",
    "rowid": "875741",
    "final_x": "3671403.54267",
    "final_y": "537257.894728",
    "longitude": "-90.09975631715963",
    "latitude": "29.971575667962984",
    "geocoded_column": {
      "latitude": "29.971575667962984",
      "longitude": "-90.09975631715963"
    }
  },
  {
    "service_request": "2022-875740",
    "request_type": "Trash/Recycling",
    "request_reason": "Missed Trash Pick-Up",
    "date_created": "2022-04-18T18:03:55.000",
    "date_modified": "2022-04-18T18:03:56.000",
    "request_status": "Pending",
    "responsible_agency": "Department of Sanitation",
    "final_address": "228 S Murat St",
    "address_councildis": "A",
    "status": "Assigned to Contractor",
    "contractor": "Richards Disposal",
    "rowid": "875740",
    "final_x": "3669320.09178",
    "final_y": "538836.526921",
    "longitude": "-90.10628279538435",
    "latitude": "29.975977885571204",
    "geocoded_column": {
      "latitude": "29.975977885571204",
      "longitude": "-90.10628279538435"
    }
  },
  {
    "service_request": "2022-875739",
    "request_type": "Property Maintenance",
    "request_reason": "Property Maintenance",
    "date_created": "2022-04-18T18:00:50.000",
    "date_modified": "2022-04-18T18:00:50.000",
    "request_status": "Pending",
    "responsible_agency": "Department of Code Enforcement",
    "final_address": "1716 Spain St",
    "address_councildis": "D",
    "status": "Pending",
    "rowid": "875739",
    "final_x": "3685908.48508",
    "final_y": "538754.772233",
    "longitude": "-90.05389485840311",
    "latitude": "29.97525421037777",
    "geocoded_column": {
      "latitude": "29.97525421037777",
      "longitude": "-90.05389485840311"
    }
  },
  {
    "service_request": "2022-875738",
    "request_type": "Trash/Recycling",
    "request_reason": "Missed Trash Pick-Up",
    "date_created": "2022-04-18T18:00:46.000",
    "date_modified": "2022-04-18T18:00:46.000",
    "request_status": "Pending",
    "responsible_agency": "Department of Sanitation",
    "final_address": "304 S Scott St",
    "address_councildis": "A",
    "status": "Assigned to Contractor",
    "contractor": "Richards Disposal",
    "rowid": "875738",
    "final_x": "3671279.47367",
    "final_y": "537116.431176",
    "longitude": "-90.10015295462188",
    "latitude": "29.97119036295034",
    "geocoded_column": {
      "latitude": "29.97119036295034",
      "longitude": "-90.10015295462188"
    }
  },
  {
    "service_request": "2022-875737",
    "request_type": "Abandoned Vehicles",
    "request_reason": "Abandoned/Junk Vehicles",
    "date_created": "2022-04-18T17:59:41.000",
    "date_modified": "2022-04-18T17:59:41.000",
    "request_status": "Pending",
    "responsible_agency": "Department of Public Works",
    "final_address": "724 Desire St",
    "address_councildis": "C",
    "status": "Pending",
    "rowid": "875737",
    "final_x": "3689815.99401",
    "final_y": "534405.553157",
    "longitude": "-90.0417087847128",
    "latitude": "29.963174837668397",
    "geocoded_column": {
      "latitude": "29.963174837668397",
      "longitude": "-90.0417087847128"
    }
  },
  {
    "service_request": "2022-875736",
    "request_type": "Trash/Recycling",
    "request_reason": "Replace Trash Cart",
    "date_created": "2022-04-18T17:58:05.000",
    "date_modified": "2022-04-18T17:58:06.000",
    "request_status": "Pending",
    "responsible_agency": "Department of Sanitation",
    "final_address": "323 N Lopez St",
    "address_councildis": "B",
    "status": "Assigned to Contractor",
    "contractor": "Richards Disposal",
    "rowid": "875736",
    "final_x": "3674439.83086",
    "final_y": "537066.069064",
    "longitude": "-90.09017382624873",
    "latitude": "29.970957982987535",
    "geocoded_column": {
      "latitude": "29.970957982987535",
      "longitude": "-90.09017382624873"
    }
  },
  {
    "service_request": "2022-875735",
    "request_type": "Property Maintenance",
    "request_reason": "Property Maintenance",
    "date_created": "2022-04-18T17:56:26.000",
    "date_modified": "2022-04-18T17:56:26.000",
    "request_status": "Pending",
    "responsible_agency": "Department of Code Enforcement",
    "final_address": "4 Grand Teton Ct",
    "address_councildis": "C",
    "status": "Pending",
    "rowid": "875735",
    "final_x": "3699088.80112",
    "final_y": "516689.045813",
    "longitude": "-90.01307115228269",
    "latitude": "29.914169936821537",
    "geocoded_column": {
      "latitude": "29.914169936821537",
      "longitude": "-90.01307115228269"
    }
  },
  {
    "service_request": "2022-875734",
    "request_type": "Trash/Recycling",
    "request_reason": "Replace Trash Cart",
    "date_created": "2022-04-18T17:55:17.000",
    "date_modified": "2022-04-18T17:55:18.000",
    "request_status": "Pending",
    "responsible_agency": "Department of Sanitation",
    "final_address": "1224 Teche St",
    "address_councildis": "C",
    "status": "Assigned to Contractor",
    "contractor": "Richards Disposal",
    "rowid": "875734",
    "final_x": "3686681.23612",
    "final_y": "526921.184126",
    "longitude": "-90.05187228199054",
    "latitude": "29.942692175503023",
    "geocoded_column": {
      "latitude": "29.942692175503023",
      "longitude": "-90.05187228199054"
    }
  },
  {
    "service_request": "2022-875733",
    "request_type": "Trash/Recycling",
    "request_reason": "Missed Trash Pick-Up",
    "date_created": "2022-04-18T17:53:18.000",
    "date_modified": "2022-04-18T17:53:19.000",
    "request_status": "Pending",
    "responsible_agency": "Department of Sanitation",
    "final_address": "1009 N Dorgenois St",
    "address_councildis": "D",
    "status": "Assigned to Contractor",
    "contractor": "Richards Disposal",
    "rowid": "875733",
    "final_x": "3677856.61013",
    "final_y": "537603.51636",
    "longitude": "-90.07936461641404",
    "latitude": "29.972333407581882",
    "geocoded_column": {
      "latitude": "29.972333407581882",
      "longitude": "-90.07936461641404"
    }
  },
  {
    "service_request": "2022-875732",
    "request_type": "Roads/Drainage",
    "request_reason": "Man hole cover issue",
    "date_created": "2022-04-18T17:49:40.000",
    "date_modified": "2022-04-18T17:49:40.000",
    "request_status": "Pending",
    "responsible_agency": "Department of Public Works",
    "final_address": "2017 N Galvez St",
    "address_councildis": "D",
    "status": "Pending",
    "rowid": "875732",
    "final_x": "3683747.41858",
    "final_y": "539950.731338",
    "longitude": "-90.06067811820884",
    "latitude": "29.97860885315275",
    "geocoded_column": {
      "latitude": "29.97860885315275",
      "longitude": "-90.06067811820884"
    }
  },
  {
    "service_request": "2022-875731",
    "request_type": "Trash/Recycling",
    "request_reason": "Replace Trash Cart",
    "date_created": "2022-04-18T17:48:25.000",
    "date_modified": "2022-04-18T17:48:26.000",
    "request_status": "Pending",
    "responsible_agency": "Department of Sanitation",
    "final_address": "1373 Magazine St",
    "address_councildis": "B",
    "status": "Assigned to Contractor",
    "contractor": "Richards Disposal",
    "rowid": "875731",
    "final_x": "3680350.98754",
    "final_y": "524640.560444",
    "longitude": "-90.071937622773",
    "latitude": "29.936614362355204",
    "geocoded_column": {
      "latitude": "29.936614362355204",
      "longitude": "-90.071937622773"
    }
  },
  {
    "service_request": "2022-875730",
    "request_type": "Trash/Recycling",
    "request_reason": "Request a Large Item Pick Up",
    "date_created": "2022-04-18T17:48:24.000",
    "date_modified": "2022-04-18T17:48:25.000",
    "request_status": "Pending",
    "responsible_agency": "Department of Sanitation",
    "final_address": "618 Belleville St",
    "address_councildis": "C",
    "status": "Assigned to Contractor",
    "contractor": "Richards Disposal",
    "rowid": "875730",
    "final_x": "3687880.14159",
    "final_y": "529309.657857",
    "longitude": "-90.04800247619666",
    "latitude": "29.949222742028123",
    "geocoded_column": {
      "latitude": "29.949222742028123",
      "longitude": "-90.04800247619666"
    }
  },
  {
    "service_request": "2022-875729",
    "request_type": "Roads/Drainage",
    "request_reason": "Bicycle Hazardous Incident Reporting",
    "date_created": "2022-04-18T17:46:38.000",
    "date_modified": "2022-04-18T17:46:38.000",
    "request_status": "Pending",
    "responsible_agency": "Health Department",
    "final_address": "2017 N Galvez St",
    "address_councildis": "D",
    "status": "Pending",
    "rowid": "875729",
    "final_x": "3683747.41858",
    "final_y": "539950.731338",
    "longitude": "-90.06067811820884",
    "latitude": "29.97860885315275",
    "geocoded_column": {
      "latitude": "29.97860885315275",
      "longitude": "-90.06067811820884"
    }
  },
  {
    "service_request": "2022-875728",
    "request_type": "Trash/Recycling",
    "request_reason": "Replace Trash Cart",
    "date_created": "2022-04-18T17:36:03.000",
    "date_modified": "2022-04-18T17:36:04.000",
    "request_status": "Pending",
    "responsible_agency": "Department of Sanitation",
    "final_address": "1619 Eighth St",
    "address_councildis": "B",
    "status": "Assigned to Contractor",
    "contractor": "Richards Disposal",
    "rowid": "875728",
    "final_x": "3674882.57531",
    "final_y": "522130.592506",
    "longitude": "-90.0892876879156",
    "latitude": "29.92987716137391",
    "geocoded_column": {
      "latitude": "29.92987716137391",
      "longitude": "-90.0892876879156"
    }
  },
  {
    "service_request": "2022-875727",
    "request_type": "Property Maintenance",
    "request_reason": "Property Maintenance",
    "date_created": "2022-04-18T17:35:10.000",
    "date_modified": "2022-04-18T17:35:10.000",
    "request_status": "Pending",
    "responsible_agency": "Department of Code Enforcement",
    "final_address": "3101 St Peter St",
    "address_councildis": "A",
    "status": "Pending",
    "rowid": "875727",
    "final_x": "3675182.81461",
    "final_y": "538013.927689",
    "longitude": "-90.08779484553858",
    "latitude": "29.97354208602482",
    "geocoded_column": {
      "latitude": "29.97354208602482",
      "longitude": "-90.08779484553858"
    }
  },
  {
    "service_request": "2022-875726",
    "request_type": "Trash/Recycling",
    "request_reason": "Request a Large Item Pick Up",
    "date_created": "2022-04-18T17:29:28.000",
    "date_modified": "2022-04-18T17:29:29.000",
    "request_status": "Pending",
    "responsible_agency": "Department of Sanitation",
    "final_address": "1110 Robert St",
    "address_councildis": "B",
    "status": "Assigned to Contractor",
    "contractor": "Richards Disposal",
    "rowid": "875726",
    "final_x": "3668628.62465",
    "final_y": "519436.038711",
    "longitude": "-90.10912128704456",
    "latitude": "29.922653214521343",
    "geocoded_column": {
      "latitude": "29.922653214521343",
      "longitude": "-90.10912128704456"
    }
  },
  {
    "service_request": "2022-875725",
    "request_type": "Trash/Recycling",
    "request_reason": "Replace Trash Cart",
    "date_created": "2022-04-18T17:20:19.000",
    "date_modified": "2022-04-18T17:20:20.000",
    "request_status": "Pending",
    "responsible_agency": "Department of Sanitation",
    "final_address": "745 S Genois St",
    "address_councildis": "B",
    "status": "Assigned to Contractor",
    "contractor": "Richards Disposal",
    "rowid": "875725",
    "final_x": "3670907.48359",
    "final_y": "535033.38247",
    "longitude": "-90.1013984815006",
    "latitude": "29.965473680370117",
    "geocoded_column": {
      "latitude": "29.965473680370117",
      "longitude": "-90.1013984815006"
    }
  },
  {
    "service_request": "2022-875724",
    "request_type": "Abandoned Vehicles",
    "request_reason": "Abandoned/Junk Vehicles",
    "date_created": "2022-04-18T17:19:06.000",
    "date_modified": "2022-04-18T17:19:06.000",
    "request_status": "Pending",
    "responsible_agency": "Department of Public Works",
    "final_address": "7026 Fleur-De-Lis Dr",
    "address_councildis": "A",
    "status": "Pending",
    "rowid": "875724",
    "final_x": "3665456.63904",
    "final_y": "554465.04924",
    "longitude": "-90.11796119495077",
    "latitude": "30.01906415884048",
    "geocoded_column": {
      "latitude": "30.01906415884048",
      "longitude": "-90.11796119495077"
    }
  },
  {
    "service_request": "2022-875723",
    "request_type": "Trash/Recycling",
    "request_reason": "Missed Trash Pick-Up",
    "date_created": "2022-04-18T17:09:54.000",
    "date_modified": "2022-04-18T17:09:55.000",
    "request_status": "Pending",
    "responsible_agency": "Department of Sanitation",
    "final_address": "6146 General Diaz St",
    "address_councildis": "A",
    "status": "Assigned to Contractor",
    "contractor": "Metro Disposal",
    "rowid": "875723",
    "final_x": "3669508.66708",
    "final_y": "548226.41877",
    "longitude": "-90.10536940367778",
    "latitude": "30.00179131830701",
    "geocoded_column": {
      "latitude": "30.00179131830701",
      "longitude": "-90.10536940367778"
    }
  },
  {
    "service_request": "2022-875722",
    "request_type": "Trash/Recycling",
    "request_reason": "Illegal Dumping",
    "date_created": "2022-04-18T17:01:30.000",
    "date_modified": "2022-04-18T17:01:30.000",
    "request_status": "Pending",
    "responsible_agency": "Department of Sanitation",
    "final_address": "2747 St Peter St",
    "address_councildis": "A",
    "status": "Pending",
    "rowid": "875722",
    "final_x": "3676357.00232",
    "final_y": "537130.67156",
    "longitude": "-90.08411692153695",
    "latitude": "29.971078285629744",
    "geocoded_column": {
      "latitude": "29.971078285629744",
      "longitude": "-90.08411692153695"
    }
  },
  {
    "service_request": "2022-875721",
    "request_type": "Traffic Signals/Signs/Striping/Streetlights",
    "request_reason": "Street Name Sign Damaged or Missing",
    "date_created": "2022-04-18T17:00:55.000",
    "date_modified": "2022-04-18T17:00:55.000",
    "request_status": "Pending",
    "responsible_agency": "Department of Public Works",
    "final_address": "5300 Vermillion Blvd",
    "address_councildis": "D",
    "status": "Pending",
    "rowid": "875721",
    "final_x": "3683242.06095",
    "final_y": "552305.441558",
    "longitude": "-90.06184122605703",
    "latitude": "30.01259532392382",
    "geocoded_column": {
      "latitude": "30.01259532392382",
      "longitude": "-90.06184122605703"
    }
  },
  {
    "service_request": "2022-875720",
    "request_type": "Abandoned Vehicles",
    "request_reason": "Abandoned/Junk Vehicles",
    "date_created": "2022-04-18T16:59:58.000",
    "date_modified": "2022-04-18T17:00:49.000",
    "request_status": "Pending",
    "responsible_agency": "Department of Public Works",
    "final_address": "2747 St Peter St",
    "address_councildis": "A",
    "status": "Pending",
    "rowid": "875720",
    "final_x": "3676357.00232",
    "final_y": "537130.67156",
    "longitude": "-90.08411692153695",
    "latitude": "29.971078285629744",
    "geocoded_column": {
      "latitude": "29.971078285629744",
      "longitude": "-90.08411692153695"
    }
  },
  {
    "service_request": "2022-875719",
    "request_type": "Traffic Signals/Signs/Striping/Streetlights",
    "request_reason": "Street Name Sign Damaged or Missing",
    "date_created": "2022-04-18T16:56:15.000",
    "date_modified": "2022-04-18T16:56:15.000",
    "request_status": "Pending",
    "responsible_agency": "Department of Public Works",
    "final_address": "5445 Vermillion Blvd",
    "address_councildis": "D",
    "status": "Pending",
    "rowid": "875719",
    "final_x": "3683370.62063",
    "final_y": "552966.631959",
    "longitude": "-90.06141186044097",
    "latitude": "30.01440943346699",
    "geocoded_column": {
      "latitude": "30.01440943346699",
      "longitude": "-90.06141186044097"
    }
  },
  {
    "service_request": "2022-875718",
    "request_type": "Traffic Signals/Signs/Striping/Streetlights",
    "request_reason": "Street Name Sign Damaged or Missing",
    "date_created": "2022-04-18T16:52:33.000",
    "date_modified": "2022-04-18T16:52:33.000",
    "request_status": "Pending",
    "responsible_agency": "Department of Public Works",
    "final_address": "5797 Vermillion Blvd",
    "address_councildis": "D",
    "status": "Pending",
    "rowid": "875718",
    "final_x": "3683233.6212",
    "final_y": "554685.30268",
    "longitude": "-90.0617844515054",
    "latitude": "30.019139330369896",
    "geocoded_column": {
      "latitude": "30.019139330369896",
      "longitude": "-90.0617844515054"
    }
  },
  {
    "service_request": "2022-875717",
    "request_type": "Trash/Recycling",
    "request_reason": "Start Trash Service",
    "date_created": "2022-04-18T16:51:45.000",
    "date_modified": "2022-04-18T16:51:46.000",
    "request_status": "Pending",
    "responsible_agency": "Department of Sanitation",
    "final_address": "7610 Fieldston Rd",
    "address_councildis": "E",
    "status": "Assigned to Contractor",
    "contractor": "Metro Disposal",
    "rowid": "875717",
    "final_x": "3700425.876",
    "final_y": "560586.376798",
    "longitude": "-90.00724743309055",
    "latitude": "30.034829222613446",
    "geocoded_column": {
      "latitude": "30.034829222613446",
      "longitude": "-90.00724743309055"
    }
  },
  {
    "service_request": "2022-875716",
    "request_type": "Trash/Recycling",
    "request_reason": "Request a Large Item Pick Up",
    "date_created": "2022-04-18T16:51:10.000",
    "date_modified": "2022-04-18T16:51:11.000",
    "request_status": "Pending",
    "responsible_agency": "Department of Sanitation",
    "final_address": "6036 Kuebel Dr",
    "address_councildis": "E",
    "status": "Assigned to Contractor",
    "contractor": "Metro Disposal",
    "rowid": "875716",
    "final_x": "3695144.13194",
    "final_y": "559710.080477",
    "longitude": "-90.02397010983198",
    "latitude": "30.032586758991627",
    "geocoded_column": {
      "latitude": "30.032586758991627",
      "longitude": "-90.02397010983198"
    }
  },
  {
    "service_request": "2022-875715",
    "request_type": "Traffic Signals/Signs/Striping/Streetlights",
    "request_reason": "Street Light Outage/Malfunction",
    "date_created": "2022-04-18T16:48:09.000",
    "date_modified": "2022-04-18T16:48:32.000",
    "request_status": "Pending",
    "responsible_agency": "Department of Public Works",
    "final_address": "1114 Royal St",
    "address_councildis": "C",
    "status": "Pending",
    "contractor": "Royal Engineering",
    "rowid": "875715",
    "final_x": "3683533.28105",
    "final_y": "533701.059461",
    "longitude": "-90.06157352239644",
    "latitude": "29.961430958669293",
    "geocoded_column": {
      "latitude": "29.961430958669293",
      "longitude": "-90.06157352239644"
    }
  },
  {
    "service_request": "2022-875714",
    "request_type": "Trash/Recycling",
    "request_reason": "Repair Trash Cart",
    "date_created": "2022-04-18T16:46:29.000",
    "date_modified": "2022-04-18T16:46:29.000",
    "request_status": "Pending",
    "responsible_agency": "Department of Sanitation",
    "final_address": "1724 Joliet St",
    "address_councildis": "A",
    "status": "Assigned to Contractor",
    "contractor": "Richards Disposal",
    "rowid": "875714",
    "final_x": "3662214.52979",
    "final_y": "530834.78893",
    "longitude": "-90.12898994237032",
    "latitude": "29.95418303610503",
    "geocoded_column": {
      "latitude": "29.95418303610503",
      "longitude": "-90.12898994237032"
    }
  },
  {
    "service_request": "2022-875713",
    "request_type": "Traffic Signals/Signs/Striping/Streetlights",
    "request_reason": "Street Light Outage/Malfunction",
    "date_created": "2022-04-18T16:45:56.000",
    "date_modified": "2022-04-18T16:46:22.000",
    "request_status": "Pending",
    "responsible_agency": "Department of Public Works",
    "final_address": "1134 Royal St",
    "address_councildis": "C",
    "status": "Pending",
    "contractor": "Royal Engineering",
    "rowid": "875713",
    "final_x": "3683632.05538",
    "final_y": "533828.968901",
    "longitude": "-90.06125712635365",
    "latitude": "29.961779650936577",
    "geocoded_column": {
      "latitude": "29.961779650936577",
      "longitude": "-90.06125712635365"
    }
  },
  {
    "service_request": "2022-875710",
    "request_type": "Trash/Recycling",
    "request_reason": "Replace Trash Cart",
    "date_created": "2022-04-18T16:41:49.000",
    "date_modified": "2022-04-18T16:41:49.000",
    "request_status": "Pending",
    "responsible_agency": "Department of Sanitation",
    "final_address": "2310 George Nick Connor Dr",
    "address_councildis": "D",
    "status": "Assigned to Contractor",
    "contractor": "Metro Disposal",
    "rowid": "875710",
    "final_x": "3681190.42773",
    "final_y": "540547.245323",
    "longitude": "-90.06873324730833",
    "latitude": "29.98032690077863",
    "geocoded_column": {
      "latitude": "29.98032690077863",
      "longitude": "-90.06873324730833"
    }
  },
  {
    "service_request": "2022-875709",
    "request_type": "Trash/Recycling",
    "request_reason": "Replace Trash Cart",
    "date_created": "2022-04-18T16:40:51.000",
    "date_modified": "2022-04-18T16:40:51.000",
    "request_status": "Pending",
    "responsible_agency": "Department of Sanitation",
    "final_address": "2717 Octavia St",
    "address_councildis": "A",
    "status": "Assigned to Contractor",
    "contractor": "Richards Disposal",
    "rowid": "875709",
    "final_x": "3667962.965",
    "final_y": "525516.454461",
    "longitude": "-90.11101777133044",
    "latitude": "29.939391957783464",
    "geocoded_column": {
      "latitude": "29.939391957783464",
      "longitude": "-90.11101777133044"
    }
  },
  {
    "service_request": "2022-875708",
    "request_type": "Trash/Recycling",
    "request_reason": "Request a Large Item Pick Up",
    "date_created": "2022-04-18T16:39:49.000",
    "date_modified": "2022-04-18T16:39:49.000",
    "request_status": "Pending",
    "responsible_agency": "Department of Sanitation",
    "final_address": "3211 Louisiana Avenue Prkwy",
    "address_councildis": "B",
    "status": "Assigned to Contractor",
    "contractor": "Richards Disposal",
    "rowid": "875708",
    "final_x": "3671998.09575",
    "final_y": "527027.973182",
    "longitude": "-90.09822687140662",
    "latitude": "29.943429166895452",
    "geocoded_column": {
      "latitude": "29.943429166895452",
      "longitude": "-90.09822687140662"
    }
  },
  {
    "service_request": "2022-875707",
    "request_type": "Trash/Recycling",
    "request_reason": "Request a Large Item Pick Up",
    "date_created": "2022-04-18T16:34:33.000",
    "date_modified": "2022-04-18T16:34:33.000",
    "request_status": "Pending",
    "responsible_agency": "Department of Sanitation",
    "final_address": "3816 Jena St",
    "address_councildis": "B",
    "status": "Assigned to Contractor",
    "contractor": "Richards Disposal",
    "rowid": "875707",
    "final_x": "3669635.5723",
    "final_y": "528583.205312",
    "longitude": "-90.10563337845794",
    "latitude": "29.947775359864256",
    "geocoded_column": {
      "latitude": "29.947775359864256",
      "longitude": "-90.10563337845794"
    }
  },
  {
    "service_request": "2022-875706",
    "request_type": "Trash/Recycling",
    "request_reason": "Return Recycling Cart",
    "date_created": "2022-04-18T16:32:04.000",
    "date_modified": "2022-04-18T16:32:05.000",
    "request_status": "Pending",
    "responsible_agency": "Department of Sanitation",
    "final_address": "2851 Hyman Pl",
    "address_councildis": "C",
    "status": "Pending",
    "rowid": "875706",
    "final_x": "3700955.87453",
    "final_y": "520506.449592",
    "longitude": "-90.00703862185206",
    "latitude": "29.924607204722527",
    "geocoded_column": {
      "latitude": "29.924607204722527",
      "longitude": "-90.00703862185206"
    }
  },
  {
    "service_request": "2022-875705",
    "request_type": "Trash/Recycling",
    "request_reason": "Request a Large Item Pick Up",
    "date_created": "2022-04-18T16:32:01.000",
    "date_modified": "2022-04-18T16:32:01.000",
    "request_status": "Pending",
    "responsible_agency": "Department of Sanitation",
    "final_address": "6527 West End Blvd",
    "address_councildis": "A",
    "status": "Assigned to Contractor",
    "contractor": "Metro Disposal",
    "rowid": "875705",
    "final_x": "3666726.08122",
    "final_y": "551104.866517",
    "longitude": "-90.11406315775392",
    "latitude": "30.00978775139419",
    "geocoded_column": {
      "latitude": "30.00978775139419",
      "longitude": "-90.11406315775392"
    }
  },
  {
    "service_request": "2022-875704",
    "request_type": "Trash/Recycling",
    "request_reason": "Request a Large Item Pick Up",
    "date_created": "2022-04-18T16:31:06.000",
    "date_modified": "2022-04-18T16:31:06.000",
    "request_status": "Pending",
    "responsible_agency": "Department of Sanitation",
    "final_address": "336 S Alexander St, New Orleans, Louisiana, 70119",
    "status": "Assigned to Contractor",
    "rowid": "875704",
    "longitude": "0.0",
    "latitude": "0.0",
    "geocoded_column": {
      "latitude": "0.0",
      "longitude": "0.0"
    }
  },
  {
    "service_request": "2022-875703",
    "request_type": "Trash/Recycling",
    "request_reason": "Order Recycling Cart",
    "date_created": "2022-04-18T16:24:56.000",
    "date_modified": "2022-04-18T16:24:56.000",
    "request_status": "Pending",
    "responsible_agency": "Department of Sanitation",
    "final_address": "4209 Magazine St",
    "address_councildis": "B",
    "status": "Pending",
    "rowid": "875703",
    "final_x": "3671707.22625",
    "final_y": "518893.638199",
    "longitude": "-90.09942178548827",
    "latitude": "29.921070985441094",
    "geocoded_column": {
      "latitude": "29.921070985441094",
      "longitude": "-90.09942178548827"
    }
  },
  {
    "service_request": "2022-875702",
    "request_type": "Trash/Recycling",
    "request_reason": "Missed Trash Pick-Up",
    "date_created": "2022-04-18T16:23:42.000",
    "date_modified": "2022-04-18T16:23:43.000",
    "request_status": "Pending",
    "responsible_agency": "Department of Sanitation",
    "final_address": "7925 Willow St",
    "address_councildis": "A",
    "status": "Assigned to Contractor",
    "contractor": "Richards Disposal",
    "rowid": "875702",
    "final_x": "3662901.82093",
    "final_y": "528532.627328",
    "longitude": "-90.12689627992172",
    "latitude": "29.94783295237911",
    "geocoded_column": {
      "latitude": "29.94783295237911",
      "longitude": "-90.12689627992172"
    }
  },
  {
    "service_request": "2022-875701",
    "request_type": "Roads/Drainage",
    "request_reason": "Damaged Sidewalk",
    "date_created": "2022-04-18T16:20:14.000",
    "date_modified": "2022-04-18T16:20:14.000",
    "request_status": "Pending",
    "responsible_agency": "Department of Public Works",
    "final_address": "620 Conti St",
    "address_councildis": "C",
    "status": "Pending",
    "rowid": "875701",
    "final_x": "3681994.49474",
    "final_y": "531467.546051",
    "longitude": "-90.06651071772971",
    "latitude": "29.955336428937557",
    "geocoded_column": {
      "latitude": "29.955336428937557",
      "longitude": "-90.06651071772971"
    }
  },
  {
    "service_request": "2022-875700",
    "request_type": "Trash/Recycling",
    "request_reason": "Request a Large Item Pick Up",
    "date_created": "2022-04-18T16:19:33.000",
    "date_modified": "2022-04-18T16:19:34.000",
    "request_status": "Pending",
    "responsible_agency": "Department of Sanitation",
    "final_address": "4126 St Peter St",
    "address_councildis": "A",
    "status": "Assigned to Contractor",
    "contractor": "Richards Disposal",
    "rowid": "875700",
    "final_x": "3672328.19643",
    "final_y": "540062.503819",
    "longitude": "-90.09674052805214",
    "latitude": "29.97925998739931",
    "geocoded_column": {
      "latitude": "29.97925998739931",
      "longitude": "-90.09674052805214"
    }
  },
  {
    "service_request": "2022-875699",
    "request_type": "Property Maintenance",
    "request_reason": "Property Maintenance",
    "date_created": "2022-04-18T16:17:45.000",
    "date_modified": "2022-04-18T16:17:45.000",
    "request_status": "Pending",
    "responsible_agency": "Department of Code Enforcement",
    "final_address": "1620 Dumaine St",
    "address_councildis": "C",
    "status": "Pending",
    "rowid": "875699",
    "final_x": "3680371.10152",
    "final_y": "535010.807494",
    "longitude": "-90.07151359108283",
    "latitude": "29.96512844429875",
    "geocoded_column": {
      "latitude": "29.96512844429875",
      "longitude": "-90.07151359108283"
    }
  },
  {
    "service_request": "2022-875698",
    "request_type": "Trash/Recycling",
    "request_reason": "Order Recycling Cart",
    "date_created": "2022-04-18T16:17:00.000",
    "date_modified": "2022-04-18T16:17:00.000",
    "request_status": "Pending",
    "responsible_agency": "Department of Sanitation",
    "final_address": "4824 Dixon St",
    "address_councildis": "B",
    "status": "Pending",
    "rowid": "875698",
    "final_x": "3670021.54746",
    "final_y": "534142.899077",
    "longitude": "-90.10422640081383",
    "latitude": "29.963051308425126",
    "geocoded_column": {
      "latitude": "29.963051308425126",
      "longitude": "-90.10422640081383"
    }
  },
  {
    "service_request": "2022-875697",
    "request_type": "Abandoned Vehicles",
    "request_reason": "Abandoned/Junk Vehicles",
    "date_created": "2022-04-18T16:13:12.000",
    "date_modified": "2022-04-18T16:15:06.000",
    "request_status": "Pending",
    "responsible_agency": "Department of Public Works",
    "final_address": "7221 Beauvoir Ct",
    "address_councildis": "E",
    "status": "Pending",
    "rowid": "875697",
    "final_x": "3716346.4581",
    "final_y": "567768.126308",
    "longitude": "-89.95666389140375",
    "latitude": "30.054059884748618",
    "geocoded_column": {
      "latitude": "30.054059884748618",
      "longitude": "-89.95666389140375"
    }
  },
  {
    "service_request": "2022-875696",
    "request_type": "Traffic Signals/Signs/Striping/Streetlights",
    "request_reason": "Street Light Outage/Malfunction",
    "date_created": "2022-04-18T16:11:47.000",
    "date_modified": "2022-04-18T16:11:48.000",
    "request_status": "Pending",
    "responsible_agency": "Department of Public Works",
    "final_address": "4859 Lancelot Dr",
    "address_councildis": "E",
    "status": "Pending",
    "contractor": "Royal Engineering",
    "rowid": "875696",
    "final_x": "3707429.42174",
    "final_y": "556404.858778",
    "longitude": "-89.9852708215675",
    "latitude": "30.023106963687262",
    "geocoded_column": {
      "latitude": "30.023106963687262",
      "longitude": "-89.9852708215675"
    }
  },
  {
    "service_request": "2022-875695",
    "request_type": "Trash/Recycling",
    "request_reason": "Request a Large Item Pick Up",
    "date_created": "2022-04-18T16:07:10.000",
    "date_modified": "2022-04-18T16:07:11.000",
    "request_status": "Pending",
    "responsible_agency": "Department of Sanitation",
    "final_address": "819 Dublin St",
    "address_councildis": "A",
    "status": "Assigned to Contractor",
    "contractor": "Richards Disposal",
    "rowid": "875695",
    "final_x": "3660902.30515",
    "final_y": "527678.706815",
    "longitude": "-90.13323781848418",
    "latitude": "29.945542679530153",
    "geocoded_column": {
      "latitude": "29.945542679530153",
      "longitude": "-90.13323781848418"
    }
  },
  {
    "service_request": "2022-875694",
    "request_type": "Trash/Recycling",
    "request_reason": "Request a Large Item Pick Up",
    "date_created": "2022-04-18T16:06:52.000",
    "date_modified": "2022-04-18T16:06:53.000",
    "request_status": "Pending",
    "responsible_agency": "Department of Sanitation",
    "final_address": "432 Calhoun St, New Orleans, Louisiana, 70118",
    "address_councildis": "A",
    "status": "Assigned to Contractor",
    "contractor": "Richards Disposal",
    "rowid": "875694",
    "final_x": "3662958.84058",
    "final_y": "518679.226359",
    "longitude": "-90.12704376964851",
    "latitude": "29.92073756267605",
    "geocoded_column": {
      "latitude": "29.92073756267605",
      "longitude": "-90.12704376964851"
    }
  },
  {
    "service_request": "2022-875693",
    "request_type": "Trash/Recycling",
    "request_reason": "Request a Large Item Pick Up",
    "date_created": "2022-04-18T16:05:36.000",
    "date_modified": "2022-04-18T16:05:37.000",
    "request_status": "Pending",
    "responsible_agency": "Department of Sanitation",
    "final_address": "6041 Oxford Pl",
    "address_councildis": "C",
    "status": "Assigned to Contractor",
    "contractor": "Richards Disposal",
    "rowid": "875693",
    "final_x": "3706387.87236",
    "final_y": "519713.85932",
    "longitude": "-89.98992111497537",
    "latitude": "29.92225385593534",
    "geocoded_column": {
      "latitude": "29.92225385593534",
      "longitude": "-89.98992111497537"
    }
  },
  {
    "service_request": "2022-875692",
    "request_type": "Health Related Questions",
    "request_reason": "Noise Ordinance Complaint",
    "date_created": "2022-04-18T16:04:01.000",
    "date_modified": "2022-04-18T16:04:01.000",
    "request_status": "Pending",
    "responsible_agency": "Health Department",
    "final_address": "4516 Desire Dr",
    "address_councildis": "D",
    "status": "Pending",
    "rowid": "875692",
    "final_x": "3691930.02973",
    "final_y": "550952.096533",
    "longitude": "-90.0344406201684",
    "latitude": "30.008606181080733",
    "geocoded_column": {
      "latitude": "30.008606181080733",
      "longitude": "-90.0344406201684"
    }
  },
  {
    "service_request": "2022-875691",
    "request_type": "Trash/Recycling",
    "request_reason": "Order Trash Cart",
    "date_created": "2022-04-18T15:56:42.000",
    "date_modified": "2022-04-18T15:56:43.000",
    "request_status": "Pending",
    "responsible_agency": "Department of Sanitation",
    "final_address": "1308 Lark St",
    "address_councildis": "D",
    "status": "Assigned to Contractor",
    "contractor": "Metro Disposal",
    "rowid": "875691",
    "final_x": "3677422.10312",
    "final_y": "556577.691418",
    "longitude": "-90.08008145526246",
    "latitude": "30.02451875864686",
    "geocoded_column": {
      "latitude": "30.02451875864686",
      "longitude": "-90.08008145526246"
    }
  },
  {
    "service_request": "2022-875690",
    "request_type": "Trash/Recycling",
    "request_reason": "Order Recycling Cart",
    "date_created": "2022-04-18T15:54:06.000",
    "date_modified": "2022-04-18T15:54:06.000",
    "request_status": "Pending",
    "responsible_agency": "Department of Sanitation",
    "final_address": "149 Cherokee St",
    "address_councildis": "A",
    "status": "Pending",
    "rowid": "875690",
    "final_x": "3660936.08954",
    "final_y": "524006.971644",
    "longitude": "-90.13325256611529",
    "latitude": "29.93544559754732",
    "geocoded_column": {
      "latitude": "29.93544559754732",
      "longitude": "-90.13325256611529"
    }
  },
  {
    "service_request": "2022-875689",
    "request_type": "Trash/Recycling",
    "request_reason": "Order Trash Cart",
    "date_created": "2022-04-18T15:53:50.000",
    "date_modified": "2022-04-18T15:53:53.000",
    "request_status": "Pending",
    "responsible_agency": "Department of Sanitation",
    "final_address": "4209 Magazine St, New Orleans, Louisiana, 70115",
    "address_councildis": "B",
    "status": "Assigned to Contractor",
    "contractor": "Richards Disposal",
    "rowid": "875689",
    "final_x": "3671707.22625",
    "final_y": "518893.638199",
    "longitude": "-90.09942178548827",
    "latitude": "29.921070985441094",
    "geocoded_column": {
      "latitude": "29.921070985441094",
      "longitude": "-90.09942178548827"
    }
  },
  {
    "service_request": "2022-875688",
    "request_type": "Trash/Recycling",
    "request_reason": "Request a Large Item Pick Up",
    "date_created": "2022-04-18T15:52:54.000",
    "date_modified": "2022-04-18T15:52:57.000",
    "request_status": "Pending",
    "responsible_agency": "Department of Sanitation",
    "final_address": "5623 Abbey Dr",
    "address_councildis": "C",
    "status": "Assigned to Contractor",
    "contractor": "Richards Disposal",
    "rowid": "875688",
    "final_x": "3704422.26769",
    "final_y": "521179.799225",
    "longitude": "-89.99607166721397",
    "latitude": "29.926347902034088",
    "geocoded_column": {
      "latitude": "29.926347902034088",
      "longitude": "-89.99607166721397"
    }
  },
  {
    "service_request": "2022-875687",
    "request_type": "Trash/Recycling",
    "request_reason": "Request a Large Item Pick Up",
    "date_created": "2022-04-18T15:51:28.000",
    "date_modified": "2022-04-18T15:51:29.000",
    "request_status": "Pending",
    "responsible_agency": "Department of Sanitation",
    "final_address": "4501 Camp St",
    "address_councildis": "B",
    "status": "Assigned to Contractor",
    "contractor": "Richards Disposal",
    "rowid": "875687",
    "final_x": "3670575.07534",
    "final_y": "519160.215351",
    "longitude": "-90.10298645161019",
    "latitude": "29.921837462659674",
    "geocoded_column": {
      "latitude": "29.921837462659674",
      "longitude": "-90.10298645161019"
    }
  },
  {
    "service_request": "2022-875686",
    "request_type": "Trash/Recycling",
    "request_reason": "Request a Large Item Pick Up",
    "date_created": "2022-04-18T15:49:14.000",
    "date_modified": "2022-04-18T15:49:15.000",
    "request_status": "Pending",
    "responsible_agency": "Department of Sanitation",
    "final_address": "737 Pontalba St",
    "address_councildis": "A",
    "status": "Assigned to Contractor",
    "contractor": "Metro Disposal",
    "rowid": "875686",
    "final_x": "3668659.17127",
    "final_y": "544460.739407",
    "longitude": "-90.10818025519349",
    "latitude": "29.991462004040333",
    "geocoded_column": {
      "latitude": "29.991462004040333",
      "longitude": "-90.10818025519349"
    }
  },
  {
    "service_request": "2022-875685",
    "request_type": "Roads/Drainage",
    "request_reason": "Pothole",
    "date_created": "2022-04-18T15:48:55.000",
    "date_modified": "2022-04-18T15:48:55.000",
    "request_status": "Pending",
    "responsible_agency": "Department of Public Works",
    "final_address": "7642 Briarwood Dr",
    "address_councildis": "E",
    "status": "Pending",
    "rowid": "875685",
    "final_x": "3717389.63519",
    "final_y": "570920.098343",
    "longitude": "-89.95324670463351",
    "latitude": "30.06269199885867",
    "geocoded_column": {
      "latitude": "30.06269199885867",
      "longitude": "-89.95324670463351"
    }
  },
  {
    "service_request": "2022-875684",
    "request_type": "Traffic Signals/Signs/Striping/Streetlights",
    "request_reason": "Street Name Sign Damaged or Missing",
    "date_created": "2022-04-18T15:42:05.000",
    "date_modified": "2022-04-18T15:42:05.000",
    "request_status": "Pending",
    "responsible_agency": "Department of Public Works",
    "final_address": "INDUSTRY ST & BRUXELLES ST",
    "address_councildis": "D",
    "status": "Pending",
    "rowid": "875684",
    "final_x": "3680325.6",
    "final_y": "542599.68",
    "longitude": "-90.07139334774686",
    "latitude": "29.98599659582468",
    "geocoded_column": {
      "latitude": "29.98599659582468",
      "longitude": "-90.07139334774686"
    }
  },
  {
    "service_request": "2022-875683",
    "request_type": "Traffic Signals/Signs/Striping/Streetlights",
    "request_reason": "Traffic Sign Missing/Damaged",
    "date_created": "2022-04-18T15:41:08.000",
    "date_modified": "2022-04-18T15:42:38.000",
    "request_status": "Pending",
    "responsible_agency": "Department of Public Works",
    "final_address": "INDUSTRY ST & BRUXELLES ST",
    "address_councildis": "D",
    "status": "Pending",
    "rowid": "875683",
    "final_x": "3680325.6",
    "final_y": "542599.68",
    "longitude": "-90.07139334774686",
    "latitude": "29.98599659582468",
    "geocoded_column": {
      "latitude": "29.98599659582468",
      "longitude": "-90.07139334774686"
    }
  },
  {
    "service_request": "2022-875682",
    "request_type": "Roads/Drainage",
    "request_reason": "Catch Basin - Clogged",
    "date_created": "2022-04-18T15:39:24.000",
    "date_modified": "2022-04-18T15:39:24.000",
    "request_status": "Pending",
    "responsible_agency": "Department of Public Works",
    "final_address": "312 Royal St",
    "address_councildis": "C",
    "status": "Pending",
    "rowid": "875682",
    "final_x": "3681755.15112",
    "final_y": "531375.624066",
    "longitude": "-90.0672696840041",
    "latitude": "29.955090948489833",
    "geocoded_column": {
      "latitude": "29.955090948489833",
      "longitude": "-90.0672696840041"
    }
  },
  {
    "service_request": "2022-875681",
    "request_type": "Property Maintenance",
    "request_reason": "Property Maintenance",
    "date_created": "2022-04-18T15:36:18.000",
    "date_modified": "2022-04-18T15:36:18.000",
    "request_status": "Pending",
    "responsible_agency": "Department of Code Enforcement",
    "final_address": "8229 Apricot St",
    "address_councildis": "A",
    "status": "Pending",
    "rowid": "875681",
    "final_x": "3665417.45236",
    "final_y": "533046.643076",
    "longitude": "-90.11880232947473",
    "latitude": "29.960171957840895",
    "geocoded_column": {
      "latitude": "29.960171957840895",
      "longitude": "-90.11880232947473"
    }
  },
  {
    "service_request": "2022-875680",
    "request_type": "Traffic Signals/Signs/Striping/Streetlights",
    "request_reason": "Traffic Signal Malfunctioning/Damaged",
    "date_created": "2022-04-18T15:35:34.000",
    "date_modified": "2022-04-18T15:35:34.000",
    "request_status": "Pending",
    "responsible_agency": "Department of Public Works",
    "final_address": "Commerce St, New Orleans, Louisiana, 70130",
    "address_councildis": "B",
    "status": "Pending",
    "rowid": "875680",
    "final_x": "3681926.89404",
    "final_y": "528442.343744",
    "longitude": "-90.06682975997106",
    "latitude": "29.947020199366598",
    "geocoded_column": {
      "latitude": "29.947020199366598",
      "longitude": "-90.06682975997106"
    }
  },
  {
    "service_request": "2022-875679",
    "request_type": "Parks & Parkways",
    "request_reason": "Request Grass Cutting Service (City Owned Property)",
    "date_created": "2022-04-18T15:35:02.000",
    "date_modified": "2022-04-18T15:35:02.000",
    "request_status": "Pending",
    "responsible_agency": "Department of Parks & Parkway",
    "final_address": "8531 Morrison Rd",
    "address_councildis": "E",
    "status": "Pending",
    "rowid": "875679",
    "final_x": "3704497.59031",
    "final_y": "561396.104094",
    "longitude": "-89.99435039652768",
    "latitude": "30.036925458256487",
    "geocoded_column": {
      "latitude": "30.036925458256487",
      "longitude": "-89.99435039652768"
    }
  },
  {
    "service_request": "2022-875678",
    "request_type": "Roads/Drainage",
    "request_reason": "Pothole",
    "date_created": "2022-04-18T15:33:57.000",
    "date_modified": "2022-04-18T15:33:57.000",
    "request_status": "Pending",
    "responsible_agency": "Department of Public Works",
    "final_address": "2011 N Derbigny St",
    "address_councildis": "D",
    "status": "Pending",
    "rowid": "875678",
    "final_x": "3684183.53525",
    "final_y": "538492.008009",
    "longitude": "-90.05935192603418",
    "latitude": "29.974584547909373",
    "geocoded_column": {
      "latitude": "29.974584547909373",
      "longitude": "-90.05935192603418"
    }
  },
  {
    "service_request": "2022-875677",
    "request_type": "Abandoned Vehicles",
    "request_reason": "Abandoned/Junk Vehicles",
    "date_created": "2022-04-18T15:33:07.000",
    "date_modified": "2022-04-18T15:33:07.000",
    "request_status": "Pending",
    "responsible_agency": "Department of Public Works",
    "final_address": "1300 BLK Foy St",
    "address_councildis": "D",
    "status": "Pending",
    "rowid": "875677",
    "final_x": "3677530.28729",
    "final_y": "546451.157213",
    "longitude": "-90.08008958569155",
    "latitude": "29.99667116287503",
    "geocoded_column": {
      "latitude": "29.99667116287503",
      "longitude": "-90.08008958569155"
    }
  },
  {
    "service_request": "2022-875676",
    "request_type": "Property Maintenance",
    "request_reason": "Property Maintenance",
    "date_created": "2022-04-18T15:32:57.000",
    "date_modified": "2022-04-18T15:32:57.000",
    "request_status": "Pending",
    "responsible_agency": "Department of Code Enforcement",
    "final_address": "2620 Cambronne St",
    "address_councildis": "A",
    "status": "Pending",
    "rowid": "875676",
    "final_x": "3664659.20378",
    "final_y": "532990.89146",
    "longitude": "-90.12119859036899",
    "latitude": "29.960040736510347",
    "geocoded_column": {
      "latitude": "29.960040736510347",
      "longitude": "-90.12119859036899"
    }
  },
  {
    "service_request": "2022-875675",
    "request_type": "Trash/Recycling",
    "request_reason": "Repair Recycling Cart",
    "date_created": "2022-04-18T15:29:40.000",
    "date_modified": "2022-04-18T15:29:40.000",
    "request_status": "Pending",
    "responsible_agency": "Department of Sanitation",
    "final_address": "931 Picheloup Pl",
    "address_councildis": "A",
    "status": "Pending",
    "rowid": "875675",
    "final_x": "3673579.4427",
    "final_y": "540509.125707",
    "longitude": "-90.09277332301102",
    "latitude": "29.98045085558954",
    "geocoded_column": {
      "latitude": "29.98045085558954",
      "longitude": "-90.09277332301102"
    }
  },
  {
    "service_request": "2022-875674",
    "request_type": "Roads/Drainage",
    "request_reason": "Catch Basin - Broken/Damage",
    "date_created": "2022-04-18T15:22:03.000",
    "date_modified": "2022-04-18T15:22:03.000",
    "request_status": "Pending",
    "responsible_agency": "Department of Public Works",
    "final_address": "2144 Delery St",
    "address_councildis": "E",
    "status": "Pending",
    "rowid": "875674",
    "final_x": "3701909.95588",
    "final_y": "536728.711239",
    "longitude": "-90.00343259195475",
    "latitude": "29.969182291399804",
    "geocoded_column": {
      "latitude": "29.969182291399804",
      "longitude": "-90.00343259195475"
    }
  },
  {
    "service_request": "2022-875673",
    "request_type": "Trash/Recycling",
    "request_reason": "Request a Large Item Pick Up",
    "date_created": "2022-04-18T15:21:57.000",
    "date_modified": "2022-04-18T15:21:58.000",
    "request_status": "Pending",
    "responsible_agency": "Department of Sanitation",
    "final_address": "108 Brunswick Ct",
    "address_councildis": "C",
    "status": "Assigned to Contractor",
    "contractor": "Richards Disposal",
    "rowid": "875673",
    "final_x": "3705893.72683",
    "final_y": "517178.154869",
    "longitude": "-89.99157464325008",
    "latitude": "29.91529746847961",
    "geocoded_column": {
      "latitude": "29.91529746847961",
      "longitude": "-89.99157464325008"
    }
  },
  {
    "service_request": "2022-875672",
    "request_type": "Roads/Drainage",
    "request_reason": "Street Subsidence (Sinking)",
    "date_created": "2022-04-18T15:21:26.000",
    "date_modified": "2022-04-18T15:21:26.000",
    "request_status": "Pending",
    "responsible_agency": "Department of Public Works",
    "final_address": "4607 Downman Rd",
    "address_councildis": "D",
    "status": "Pending",
    "rowid": "875672",
    "final_x": "3696081.95018",
    "final_y": "553890.937047",
    "longitude": "-90.02121711757867",
    "latitude": "30.0165568260351",
    "geocoded_column": {
      "latitude": "30.0165568260351",
      "longitude": "-90.02121711757867"
    }
  },
  {
    "service_request": "2022-875671",
    "request_type": "Abandoned Vehicles",
    "request_reason": "Abandoned/Junk Vehicles",
    "date_created": "2022-04-18T15:21:08.000",
    "date_modified": "2022-04-18T15:22:19.000",
    "request_status": "Pending",
    "responsible_agency": "Department of Public Works",
    "final_address": "FOUCHER ST & ST CHARLES AVE",
    "address_councildis": "B",
    "status": "Pending",
    "rowid": "875671",
    "final_x": "3673513.6",
    "final_y": "521201.48",
    "longitude": "-90.09364104984931",
    "latitude": "29.927363199139325",
    "geocoded_column": {
      "latitude": "29.927363199139325",
      "longitude": "-90.09364104984931"
    }
  },
  {
    "service_request": "2022-875670",
    "request_type": "Trash/Recycling",
    "request_reason": "Missed Trash Pick-Up",
    "date_created": "2022-04-18T15:19:32.000",
    "date_modified": "2022-04-18T15:19:37.000",
    "request_status": "Pending",
    "responsible_agency": "Department of Sanitation",
    "final_address": "605 S Pierce St",
    "address_councildis": "A",
    "status": "Assigned to Contractor",
    "contractor": "Richards Disposal",
    "rowid": "875670",
    "final_x": "3670211.92769",
    "final_y": "536445.700423",
    "longitude": "-90.10354715418748",
    "latitude": "29.96937762657473",
    "geocoded_column": {
      "latitude": "29.96937762657473",
      "longitude": "-90.10354715418748"
    }
  },
  {
    "service_request": "2022-875669",
    "request_type": "Trash/Recycling",
    "request_reason": "Illegal Dumping",
    "date_created": "2022-04-18T15:19:29.000",
    "date_modified": "2022-04-18T15:19:29.000",
    "request_status": "Pending",
    "responsible_agency": "Department of Sanitation",
    "final_address": "200 Brunswick Ct",
    "address_councildis": "C",
    "status": "Pending",
    "rowid": "875669",
    "final_x": "3706029.53156",
    "final_y": "517165.027061",
    "longitude": "-89.99114648243537",
    "latitude": "29.915256998184713",
    "geocoded_column": {
      "latitude": "29.915256998184713",
      "longitude": "-89.99114648243537"
    }
  },
  {
    "service_request": "2022-875668",
    "request_type": "Traffic Signals/Signs/Striping/Streetlights",
    "request_reason": "Traffic Sign Missing/Damaged",
    "date_created": "2022-04-18T15:18:56.000",
    "date_modified": "2022-04-18T15:18:56.000",
    "request_status": "Pending",
    "responsible_agency": "Department of Public Works",
    "final_address": "SHARON DR & FLEUR DE LIS DR",
    "address_councildis": "A",
    "status": "Pending",
    "rowid": "875668",
    "final_x": "3665091.5",
    "final_y": "547112.78",
    "longitude": "-90.11936103180825",
    "latitude": "29.998858616281087",
    "geocoded_column": {
      "latitude": "29.998858616281087",
      "longitude": "-90.11936103180825"
    }
  },
  {
    "service_request": "2022-875667",
    "request_type": "Trash/Recycling",
    "request_reason": "Return Trash Cart",
    "date_created": "2022-04-18T15:17:15.000",
    "date_modified": "2022-04-18T15:17:16.000",
    "request_status": "Pending",
    "responsible_agency": "Department of Sanitation",
    "final_address": "2705 Dante St",
    "address_councildis": "A",
    "status": "Assigned to Contractor",
    "contractor": "Richards Disposal",
    "rowid": "875667",
    "final_x": "3665125.07271",
    "final_y": "532869.996868",
    "longitude": "-90.11973151424455",
    "latitude": "29.959694756766186",
    "geocoded_column": {
      "latitude": "29.959694756766186",
      "longitude": "-90.11973151424455"
    }
  },
  {
    "service_request": "2022-875666",
    "request_type": "Roads/Drainage",
    "request_reason": "Catch Basin - Clogged",
    "date_created": "2022-04-18T15:17:13.000",
    "date_modified": "2022-04-18T15:17:13.000",
    "request_status": "Pending",
    "responsible_agency": "Department of Public Works",
    "final_address": "322 S Hennessey St",
    "address_councildis": "A",
    "status": "Pending",
    "rowid": "875666",
    "final_x": "3669711.96186",
    "final_y": "538111.430793",
    "longitude": "-90.10506970119857",
    "latitude": "29.973972570987755",
    "geocoded_column": {
      "latitude": "29.973972570987755",
      "longitude": "-90.10506970119857"
    }
  },
  {
    "service_request": "2022-875665",
    "request_type": "Property Maintenance",
    "request_reason": "Property Maintenance",
    "date_created": "2022-04-18T15:15:26.000",
    "date_modified": "2022-04-18T15:15:26.000",
    "request_status": "Pending",
    "responsible_agency": "Department of Code Enforcement",
    "final_address": "3320 First St",
    "address_councildis": "B",
    "status": "Pending",
    "rowid": "875665",
    "final_x": "3673496.98753",
    "final_y": "528387.297536",
    "longitude": "-90.0934480351769",
    "latitude": "29.947122351763255",
    "geocoded_column": {
      "latitude": "29.947122351763255",
      "longitude": "-90.0934480351769"
    }
  },