[
  {
    "service_request": "2023-991857",
    "request_type": "Trash/Recycling",
    "request_reason": "Request a Large Item Pick Up",
    "date_created": "2023-04-17T23:02:43.000",
    "date_modified": "2023-04-17T23:02:44.000",
    "request_status": "Pending",
    "responsible_agency": "Department of Sanitation",
    "status": "Assigned to Contractor",
    "rowid": "991857",
    "longitude": "0.0",
    "latitude": "0.0",
    "geocoded_column": {
      "latitude": "0.0",
      "longitude": "0.0"
    }
  },
  {
    "service_request": "2023-991856",
    "request_type": "Trash/Recycling",
    "request_reason": "MIssed Recycling Pick-Up",
    "date_created": "2023-04-17T22:01:40.000",
    "date_modified": "2023-04-17T22:01:41.000",
    "request_status": "Pending",
    "responsible_agency": "Department of Sanitation",
    "final_address": "13118 Dwyer Blvd",
    "address_councildis": "E",
    "status": "Assigned to Contractor",
    "contractor": "Waste Pro",
    "rowid": "991856",
    "final_x": "3724198.54828",
    "final_y": "561238.55683",
    "longitude": "-89.93209804600616",
    "latitude": "30.035844541176957",
    "geocoded_column": {
      "latitude": "30.035844541176957",
      "longitude": "-89.93209804600616"
    }
  },
  {
    "service_request": "2023-991855",
    "request_type": "Trash/Recycling",
    "request_reason": "Start Trash Service",
    "date_created": "2023-04-17T21:57:00.000",
    "date_modified": "2023-04-17T21:57:01.000",
    "request_status": "Pending",
    "responsible_agency": "Department of Sanitation",
    "final_address": "8523 Belfast St",
    "address_councildis": "A",
    "status": "Assigned to Contractor",
    "contractor": "Richards Disposal",
    "rowid": "991855",
    "final_x": "3664417.94298",
    "final_y": "533488.153092",
    "longitude": "-90.12194384239338",
    "latitude": "29.96141505881015",
    "geocoded_column": {
      "latitude": "29.96141505881015",
      "longitude": "-90.12194384239338"
    }
  },
  {
    "service_request": "2023-991853",
    "request_type": "Health Related Request",
    "request_reason": "Noise Ordinance Complaint",
    "date_created": "2023-04-17T21:24:30.000",
    "date_modified": "2023-04-17T21:24:30.000",
    "request_status": "Pending",
    "responsible_agency": "Health Department",
    "final_address": "2242 St Claude Ave",
    "address_councildis": "C",
    "status": "Pending",
    "rowid": "991853",
    "final_x": "3685492.26748",
    "final_y": "536310.755783",
    "longitude": "-90.05529547528458",
    "latitude": "29.968546790060884",
    "geocoded_column": {
      "latitude": "29.968546790060884",
      "longitude": "-90.05529547528458"
    }
  },
  {
    "service_request": "2023-991852",
    "request_type": "Trash/Recycling",
    "request_reason": "Return Recycling Cart",
    "date_created": "2023-04-17T21:16:33.000",
    "date_modified": "2023-04-17T21:16:33.000",
    "request_status": "Pending",
    "responsible_agency": "Department of Sanitation",
    "final_address": "8523 Belfast St",
    "address_councildis": "A",
    "status": "Pending",
    "rowid": "991852",
    "final_x": "3664417.94298",
    "final_y": "533488.153092",
    "longitude": "-90.12194384239338",
    "latitude": "29.96141505881015",
    "geocoded_column": {
      "latitude": "29.96141505881015",
      "longitude": "-90.12194384239338"
    }
  },
  {
    "service_request": "2023-991851",
    "request_type": "Trash/Recycling",
    "request_reason": "Return Trash Cart",
    "date_created": "2023-04-17T21:15:49.000",
    "date_modified": "2023-04-17T21:15:49.000",
    "request_status": "Pending",
    "responsible_agency": "Department of Sanitation",
    "final_address": "8523 Belfast St",
    "address_councildis": "A",
    "status": "Assigned to Contractor",
    "contractor": "Richards Disposal",
    "rowid": "991851",
    "final_x": "3664417.94298",
    "final_y": "533488.153092",
    "longitude": "-90.12194384239338",
    "latitude": "29.96141505881015",
    "geocoded_column": {
      "latitude": "29.96141505881015",
      "longitude": "-90.12194384239338"
    }
  },
  {
    "service_request": "2023-991850",
    "request_type": "Traffic Signals/Signs/Striping/Streetlights",
    "request_reason": "Street Light Outage/Malfunction",
    "date_created": "2023-04-17T21:05:44.000",
    "date_modified": "2023-04-17T21:05:45.000",
    "request_status": "Pending",
    "responsible_agency": "Department of Public Works",
    "final_address": "823 Exposition Blvd",
    "address_councildis": "A",
    "status": "Assigned to Contractor",
    "contractor": "Legacy Professional Services",
    "rowid": "991850",
    "final_x": "3663272.97984",
    "final_y": "520022.931832",
    "longitude": "-90.12600748104524",
    "latitude": "29.924423236203097",
    "geocoded_column": {
      "latitude": "29.924423236203097",
      "longitude": "-90.12600748104524"
    }
  },
  {
    "service_request": "2023-991849",
    "request_type": "Roads/Drainage",
    "request_reason": "Accessibility Ramps, Curbs and Sidewalk Repair",
    "date_created": "2023-04-17T21:04:57.000",
    "date_modified": "2023-04-17T21:04:57.000",
    "request_status": "Pending",
    "responsible_agency": "Department of Public Works",
    "final_address": "5402 Peoples Ave",
    "address_councildis": "D",
    "status": "Pending",
    "rowid": "991849",
    "final_x": "3687943.84233",
    "final_y": "553074.316119",
    "longitude": "-90.04695896219448",
    "latitude": "30.01456514897774",
    "geocoded_column": {
      "latitude": "30.01456514897774",
      "longitude": "-90.04695896219448"
    }
  },
  {
    "service_request": "2023-991848",
    "request_type": "Traffic Signals/Signs/Striping/Streetlights",
    "request_reason": "Street Light Outage/Malfunction",
    "date_created": "2023-04-17T20:49:19.000",
    "date_modified": "2023-04-17T20:49:20.000",
    "request_status": "Pending",
    "responsible_agency": "Department of Public Works",
    "final_address": "3735 Fairmont Dr",
    "address_councildis": "D",
    "status": "Assigned to Contractor",
    "contractor": "Legacy Professional Services",
    "rowid": "991848",
    "final_x": "3685276.99349",
    "final_y": "546359.050448",
    "longitude": "-90.05562146978443",
    "latitude": "29.996182654927082",
    "geocoded_column": {
      "latitude": "29.996182654927082",
      "longitude": "-90.05562146978443"
    }
  },
  {
    "service_request": "2023-991846",
    "request_type": "Parks & Parkways",
    "request_reason": "Request Tree Service (Right of Way/Public Property)",
    "date_created": "2023-04-17T20:48:34.000",
    "date_modified": "2023-04-17T20:48:34.000",
    "request_status": "Pending",
    "responsible_agency": "Department of Parks & Parkway",
    "final_address": "10626 Old Gentilly Rd",
    "address_councildis": "E",
    "status": "Pending",
    "rowid": "991846",
    "final_x": "3716018.64997",
    "final_y": "554708.546968",
    "longitude": "-89.95819538608315",
    "latitude": "30.018162128869907",
    "geocoded_column": {
      "latitude": "30.018162128869907",
      "longitude": "-89.95819538608315"
    }
  },
  {
    "service_request": "2023-991845",
    "request_type": "Trash/Recycling",
    "request_reason": "Illegal Dumping",
    "date_created": "2023-04-17T20:44:05.000",
    "date_modified": "2023-04-17T20:44:05.000",
    "request_status": "Pending",
    "responsible_agency": "Department of Sanitation",
    "status": "Pending",
    "rowid": "991845",
    "longitude": "0.0",
    "latitude": "0.0",
    "geocoded_column": {
      "latitude": "0.0",
      "longitude": "0.0"
    }
  },
  {
    "service_request": "2023-991844",
    "request_type": "Traffic Signals/Signs/Striping/Streetlights",
    "request_reason": "Additional signage",
    "date_created": "2023-04-17T20:41:45.000",
    "date_modified": "2023-04-17T20:41:45.000",
    "request_status": "Pending",
    "responsible_agency": "Department of Public Works",
    "status": "Pending",
    "rowid": "991844",
    "longitude": "0.0",
    "latitude": "0.0",
    "geocoded_column": {
      "latitude": "0.0",
      "longitude": "0.0"
    }
  },
  {
    "service_request": "2023-991843",
    "request_type": "Roads/Drainage",
    "request_reason": "Pothole",
    "date_created": "2023-04-17T20:40:01.000",
    "date_modified": "2023-04-17T20:40:01.000",
    "request_status": "Pending",
    "responsible_agency": "Department of Public Works",
    "final_address": "16 Old Gentilly Rd",
    "address_councildis": "E",
    "status": "Pending",
    "rowid": "991843",
    "final_x": "3716425.45196",
    "final_y": "554712.06812",
    "longitude": "-89.95690992628313",
    "latitude": "30.018158380466815",
    "geocoded_column": {
      "latitude": "30.018158380466815",
      "longitude": "-89.95690992628313"
    }
  },
  {
    "service_request": "2023-991842",
    "request_type": "Roads/Drainage",
    "request_reason": "Unpermitted work in ROW",
    "date_created": "2023-04-17T20:32:40.000",
    "date_modified": "2023-04-17T20:32:40.000",
    "request_status": "Pending",
    "responsible_agency": "Department of Public Works",
    "final_address": "10700 Old Gentilly Rd",
    "address_councildis": "E",
    "status": "Pending",
    "rowid": "991842",
    "final_x": "3716126.53567",
    "final_y": "554769.5766",
    "longitude": "-89.95785219707206",
    "latitude": "30.01832637572727",
    "geocoded_column": {
      "latitude": "30.01832637572727",
      "longitude": "-89.95785219707206"
    }
  },
  {
    "service_request": "2023-991841",
    "request_type": "Roads/Drainage",
    "request_reason": "Street Flooding / Drainage",
    "date_created": "2023-04-17T20:22:28.000",
    "date_modified": "2023-04-17T20:22:28.000",
    "request_status": "Pending",
    "responsible_agency": "Department of Public Works",
    "final_address": "10626 Old Gentilly Rd",
    "address_councildis": "E",
    "status": "Pending",
    "rowid": "991841",
    "final_x": "3716018.64997",
    "final_y": "554708.546968",
    "longitude": "-89.95819538608315",
    "latitude": "30.018162128869907",
    "geocoded_column": {
      "latitude": "30.018162128869907",
      "longitude": "-89.95819538608315"
    }
  },
  {
    "service_request": "2023-991840",
    "request_type": "Trash/Recycling",
    "request_reason": "Request a Large Item Pick Up",
    "date_created": "2023-04-17T20:21:58.000",
    "date_modified": "2023-04-17T20:21:59.000",
    "request_status": "Pending",
    "responsible_agency": "Department of Sanitation",
    "status": "Assigned to Contractor",
    "rowid": "991840",
    "longitude": "0.0",
    "latitude": "0.0",
    "geocoded_column": {
      "latitude": "0.0",
      "longitude": "0.0"
    }
  },
  {
    "service_request": "2023-991839",
    "request_type": "Roads/Drainage",
    "request_reason": "Culvert Issue",
    "date_created": "2023-04-17T20:18:49.000",
    "date_modified": "2023-04-17T20:18:49.000",
    "request_status": "Pending",
    "responsible_agency": "Department of Public Works",
    "final_address": "10626 Old Gentilly Rd",
    "address_councildis": "E",
    "status": "Pending",
    "rowid": "991839",
    "final_x": "3716018.64997",
    "final_y": "554708.546968",
    "longitude": "-89.95819538608315",
    "latitude": "30.018162128869907",
    "geocoded_column": {
      "latitude": "30.018162128869907",
      "longitude": "-89.95819538608315"
    }
  },
  {
    "service_request": "2023-991838",
    "request_type": "Traffic Signals/Signs/Striping/Streetlights",
    "request_reason": "Street Light Outage/Malfunction",
    "date_created": "2023-04-17T20:18:12.000",
    "date_modified": "2023-04-17T20:18:12.000",
    "request_status": "Pending",
    "responsible_agency": "Department of Public Works",
    "final_address": "2353 Mendez St",
    "address_councildis": "D",
    "status": "Assigned to Contractor",
    "contractor": "Legacy Professional Services",
    "rowid": "991838",
    "final_x": "3684893.27157",
    "final_y": "553552.749847",
    "longitude": "-90.05658041122986",
    "latitude": "30.015974480868735",
    "geocoded_column": {
      "latitude": "30.015974480868735",
      "longitude": "-90.05658041122986"
    }
  },
  {
    "service_request": "2023-991837",
    "request_type": "Traffic Signals/Signs/Striping/Streetlights",
    "request_reason": "Street Light Outage/Malfunction",
    "date_created": "2023-04-17T20:17:42.000",
    "date_modified": "2023-04-17T20:17:42.000",
    "request_status": "Pending",
    "responsible_agency": "Department of Public Works",
    "final_address": "3651 Rue Delphine",
    "address_councildis": "C",
    "status": "Assigned to Contractor",
    "contractor": "Legacy Professional Services",
    "rowid": "991837",
    "final_x": "3702975.40465",
    "final_y": "517120.951925",
    "longitude": "-90.00078797501861",
    "latitude": "29.915233822022515",
    "geocoded_column": {
      "latitude": "29.915233822022515",
      "longitude": "-90.00078797501861"
    }
  },
  {
    "service_request": "2023-991836",
    "request_type": "Trash/Recycling",
    "request_reason": "Request a Large Item Pick Up",
    "date_created": "2023-04-17T19:40:20.000",
    "date_modified": "2023-04-17T19:41:07.000",
    "case_close_date": "2023-04-17T14:41:07.000",
    "request_status": "Closed",
    "responsible_agency": "Department of Sanitation",
    "final_address": "914 Washington Ave",
    "address_councildis": "B",
    "status": "Assigned to Contractor",
    "contractor": "Richards Disposal",
    "contractor_action": "Completed",
    "rowid": "991836",
    "final_x": "3677346.58325",
    "final_y": "520301.333944",
    "longitude": "-90.08157231514767",
    "latitude": "29.924773506229528",
    "geocoded_column": {
      "latitude": "29.924773506229528",
      "longitude": "-90.08157231514767"
    }
  },
  {
    "service_request": "2023-991835",
    "request_type": "Traffic Signals/Signs/Striping/Streetlights",
    "request_reason": "Road Surface Marking Maintenance-Traffic Control",
    "date_created": "2023-04-17T19:36:12.000",
    "date_modified": "2023-04-17T19:36:44.000",
    "case_close_date": "2023-04-17T14:36:44.000",
    "request_status": "Closed",
    "responsible_agency": "Department of Public Works",
    "final_address": "118 City Park Ave",
    "address_councildis": "A",
    "status": "Pending",
    "contractor_action": "Completed",
    "rowid": "991835",
    "final_x": "3667651.43245",
    "final_y": "540854.232907",
    "longitude": "-90.1114849682831",
    "latitude": "29.98157492613766",
    "geocoded_column": {
      "latitude": "29.98157492613766",
      "longitude": "-90.1114849682831"
    }
  },
  {
    "service_request": "2023-991834",
    "request_type": "Trash/Recycling",
    "request_reason": "Illegal Dumping",
    "date_created": "2023-04-17T19:34:21.000",
    "date_modified": "2023-04-17T19:35:02.000",
    "case_close_date": "2023-04-17T14:35:02.000",
    "request_status": "Closed",
    "responsible_agency": "Department of Sanitation",
    "final_address": "118 City Park Ave",
    "address_councildis": "A",
    "status": "Pending",
    "contractor_action": "Completed",
    "rowid": "991834",
    "final_x": "3667651.43245",
    "final_y": "540854.232907",
    "longitude": "-90.1114849682831",
    "latitude": "29.98157492613766",
    "geocoded_column": {
      "latitude": "29.98157492613766",
      "longitude": "-90.1114849682831"
    }
  },
  {
    "service_request": "2023-991833",
    "request_type": "Roads/Drainage",
    "request_reason": "Pothole",
    "date_created": "2023-04-17T19:30:46.000",
    "date_modified": "2023-04-17T19:31:34.000",
    "case_close_date": "2023-04-17T14:31:34.000",
    "request_status": "Closed",
    "responsible_agency": "Department of Public Works",
    "final_address": "118 City Park Ave",
    "address_councildis": "A",
    "status": "Pending",
    "contractor_action": "Completed",
    "rowid": "991833",
    "final_x": "3667651.43245",
    "final_y": "540854.232907",
    "longitude": "-90.1114849682831",
    "latitude": "29.98157492613766",
    "geocoded_column": {
      "latitude": "29.98157492613766",
      "longitude": "-90.1114849682831"
    }
  },
  {
    "service_request": "2023-991832",
    "request_type": "Trash/Recycling",
    "request_reason": "Missed Trash Pick-Up",
    "date_created": "2023-04-17T19:28:37.000",
    "date_modified": "2023-04-17T19:28:38.000",
    "request_status": "Pending",
    "responsible_agency": "Department of Sanitation",
    "final_address": "3031 St Peter St",
    "address_councildis": "A",
    "status": "Assigned to Contractor",
    "contractor": "Richards Disposal",
    "rowid": "991832",
    "final_x": "3675477.8571",
    "final_y": "537805.816265",
    "longitude": "-90.08687018782751",
    "latitude": "29.97296102875179",
    "geocoded_column": {
      "latitude": "29.97296102875179",
      "longitude": "-90.08687018782751"
    }
  },
  {
    "service_request": "2023-991830",
    "request_type": "Trash/Recycling",
    "request_reason": "Missed Trash Pick-Up",
    "date_created": "2023-04-17T19:21:28.000",
    "date_modified": "2023-04-17T19:21:29.000",
    "request_status": "Pending",
    "responsible_agency": "Department of Sanitation",
    "final_address": "5670 New England Dr",
    "address_councildis": "E",
    "status": "Assigned to Contractor",
    "contractor": "Waste Pro",
    "rowid": "991830",
    "final_x": "3723553.15507",
    "final_y": "564478.714849",
    "longitude": "-89.9340125325536",
    "latitude": "30.04477532708266",
    "geocoded_column": {
      "latitude": "30.04477532708266",
      "longitude": "-89.9340125325536"
    }
  },
  {
    "service_request": "2023-991829",
    "request_type": "Trash/Recycling",
    "request_reason": "Dead Animal Pick Up",
    "date_created": "2023-04-17T19:19:06.000",
    "date_modified": "2023-04-17T19:19:07.000",
    "request_status": "Pending",
    "responsible_agency": "Department of Sanitation",
    "final_address": "11900 BLK Levy Dr",
    "address_councildis": "E",
    "status": "Assigned to Contractor",
    "contractor": "Waste Pro",
    "rowid": "991829",
    "final_x": "3716507.07909",
    "final_y": "563892.562619",
    "longitude": "-89.95630342505879",
    "latitude": "30.043398362987983",
    "geocoded_column": {
      "latitude": "30.043398362987983",
      "longitude": "-89.95630342505879"
    }
  },
  {
    "service_request": "2023-991828",
    "request_type": "Property Maintenance",
    "request_reason": "Property Maintenance",
    "date_created": "2023-04-17T19:14:27.000",
    "date_modified": "2023-04-17T19:14:27.000",
    "request_status": "Pending",
    "responsible_agency": "Department of Code Enforcement",
    "final_address": "2655 Prentiss Ave",
    "address_councildis": "D",
    "status": "Pending",
    "rowid": "991828",
    "final_x": "3687035.82185",
    "final_y": "554171.295384",
    "longitude": "-90.0497890307537",
    "latitude": "30.01760943586043",
    "geocoded_column": {
      "latitude": "30.01760943586043",
      "longitude": "-90.0497890307537"
    }
  },
  {
    "service_request": "2023-991827",
    "request_type": "Property Maintenance",
    "request_reason": "Property Maintenance",
    "date_created": "2023-04-17T19:13:16.000",
    "date_modified": "2023-04-17T19:13:16.000",
    "request_status": "Pending",
    "responsible_agency": "Department of Code Enforcement",
    "final_address": "6219 Providence Pl",
    "address_councildis": "D",
    "status": "Pending",
    "rowid": "991827",
    "final_x": "3688301.31324",
    "final_y": "556393.771162",
    "longitude": "-90.04571167681564",
    "latitude": "30.023681379593313",
    "geocoded_column": {
      "latitude": "30.023681379593313",
      "longitude": "-90.04571167681564"
    }
  },
  {
    "service_request": "2023-991826",
    "request_type": "Property Maintenance",
    "request_reason": "Property Maintenance",
    "date_created": "2023-04-17T19:12:18.000",
    "date_modified": "2023-04-17T19:12:18.000",
    "request_status": "Pending",
    "responsible_agency": "Department of Code Enforcement",
    "final_address": "6309 Franklin Ave",
    "address_councildis": "D",
    "status": "Pending",
    "rowid": "991826",
    "final_x": "3686412.98492",
    "final_y": "556481.809498",
    "longitude": "-90.05167528977196",
    "latitude": "30.023981663832885",
    "geocoded_column": {
      "latitude": "30.023981663832885",
      "longitude": "-90.05167528977196"
    }
  },
  {
    "service_request": "2023-991825",
    "request_type": "Property Maintenance",
    "request_reason": "Property Maintenance",
    "date_created": "2023-04-17T19:11:00.000",
    "date_modified": "2023-04-17T19:11:00.000",
    "request_status": "Pending",
    "responsible_agency": "Department of Code Enforcement",
    "final_address": "5924 Press Dr",
    "address_councildis": "D",
    "status": "Pending",
    "rowid": "991825",
    "final_x": "3688789.0038",
    "final_y": "555248.207513",
    "longitude": "-90.04421140104489",
    "latitude": "30.02051642846343",
    "geocoded_column": {
      "latitude": "30.02051642846343",
      "longitude": "-90.04421140104489"
    }
  },
  {
    "service_request": "2023-991824",
    "request_type": "Property Maintenance",
    "request_reason": "Property Maintenance",
    "date_created": "2023-04-17T19:10:17.000",
    "date_modified": "2023-04-17T19:10:17.000",
    "request_status": "Pending",
    "responsible_agency": "Department of Code Enforcement",
    "final_address": "6440 Peoples Ave",
    "address_councildis": "D",
    "status": "Pending",
    "rowid": "991824",
    "final_x": "3687616.09244",
    "final_y": "557165.801627",
    "longitude": "-90.04784946358055",
    "latitude": "30.025825330110873",
    "geocoded_column": {
      "latitude": "30.025825330110873",
      "longitude": "-90.04784946358055"
    }
  },
  {
    "service_request": "2023-991823",
    "request_type": "Abandoned Vehicles",
    "request_reason": "Abandoned/Junk Vehicles",
    "date_created": "2023-04-17T19:07:32.000",
    "date_modified": "2023-04-17T19:07:32.000",
    "request_status": "Pending",
    "responsible_agency": "Department of Public Works",
    "final_address": "2513 Dryades St",
    "address_councildis": "B",
    "status": "Pending",
    "rowid": "991823",
    "final_x": "3675990.71285",
    "final_y": "523920.797692",
    "longitude": "-90.08572795039144",
    "latitude": "29.934766514162057",
    "geocoded_column": {
      "latitude": "29.934766514162057",
      "longitude": "-90.08572795039144"
    }
  },
  {
    "service_request": "2023-991822",
    "request_type": "Trash/Recycling",
    "request_reason": "Request a Large Item Pick Up",
    "date_created": "2023-04-17T19:02:27.000",
    "date_modified": "2023-04-17T19:02:28.000",
    "request_status": "Pending",
    "responsible_agency": "Department of Sanitation",
    "final_address": "4729 Odin St",
    "address_councildis": "D",
    "status": "Assigned to Contractor",
    "contractor": "IV Waste",
    "rowid": "991822",
    "final_x": "3691155.94992",
    "final_y": "553894.267479",
    "longitude": "-90.03678099944771",
    "latitude": "30.016720165610412",
    "geocoded_column": {
      "latitude": "30.016720165610412",
      "longitude": "-90.03678099944771"
    }
  },
  {
    "service_request": "2023-991821",
    "request_type": "Trash/Recycling",
    "request_reason": "Missed Trash Pick-Up",
    "date_created": "2023-04-17T18:51:42.000",
    "date_modified": "2023-04-17T18:51:43.000",
    "request_status": "Pending",
    "responsible_agency": "Department of Sanitation",
    "final_address": "11200 Chef Menteur Hwy",
    "address_councildis": "E",
    "status": "Assigned to Contractor",
    "contractor": "Waste Pro",
    "rowid": "991821",
    "final_x": "3716501.04197",
    "final_y": "555743.655193",
    "longitude": "-89.95663193198165",
    "latitude": "30.020992339521815",
    "geocoded_column": {
      "latitude": "30.020992339521815",
      "longitude": "-89.95663193198165"
    }
  },
  {
    "service_request": "2023-991820",
    "request_type": "Trash/Recycling",
    "request_reason": "Illegal Dumping",
    "date_created": "2023-04-17T18:11:59.000",
    "date_modified": "2023-04-17T18:12:00.000",
    "request_status": "Pending",
    "responsible_agency": "Department of Sanitation",
    "final_address": "S DUPRE ST & EUPHROSINE ST",
    "address_councildis": "B",
    "status": "Pending",
    "rowid": "991820",
    "final_x": "3671996.5",
    "final_y": "532082.08",
    "longitude": "-90.0980598837412",
    "latitude": "29.957326343722016",
    "geocoded_column": {
      "latitude": "29.957326343722016",
      "longitude": "-90.0980598837412"
    }
  },
  {
    "service_request": "2023-991819",
    "request_type": "Trash/Recycling",
    "request_reason": "Request a Large Item Pick Up",
    "date_created": "2023-04-17T18:10:42.000",
    "date_modified": "2023-04-17T18:10:42.000",
    "request_status": "Pending",
    "responsible_agency": "Department of Sanitation",
    "final_address": "346 Broadway St",
    "address_councildis": "A",
    "status": "Assigned to Contractor",
    "contractor": "Richards Disposal",
    "rowid": "991819",
    "final_x": "3661668.62624",
    "final_y": "522890.859963",
    "longitude": "-90.130976905323",
    "latitude": "29.93235552562028",
    "geocoded_column": {
      "latitude": "29.93235552562028",
      "longitude": "-90.130976905323"
    }
  },
  {
    "service_request": "2023-991818",
    "request_type": "Trash/Recycling",
    "request_reason": "MIssed Recycling Pick-Up",
    "date_created": "2023-04-17T18:08:35.000",
    "date_modified": "2023-04-17T18:08:36.000",
    "request_status": "Pending",
    "responsible_agency": "Department of Sanitation",
    "final_address": "4956 Lafon Dr",
    "address_councildis": "E",
    "status": "Assigned to Contractor",
    "contractor": "Waste Pro",
    "rowid": "991818",
    "final_x": "3700954.74634",
    "final_y": "555484.395929",
    "longitude": "-90.00576293468272",
    "latitude": "30.02078390298004",
    "geocoded_column": {
      "latitude": "30.02078390298004",
      "longitude": "-90.00576293468272"
    }
  },
  {
    "service_request": "2023-991817",
    "request_type": "Trash/Recycling",
    "request_reason": "Request a Large Item Pick Up",
    "date_created": "2023-04-17T18:04:25.000",
    "date_modified": "2023-04-17T18:04:26.000",
    "request_status": "Pending",
    "responsible_agency": "Department of Sanitation",
    "final_address": "8417 Apple St",
    "address_councildis": "A",
    "status": "Assigned to Contractor",
    "contractor": "Richards Disposal",
    "rowid": "991817",
    "final_x": "3664473.40365",
    "final_y": "532958.049924",
    "longitude": "-90.12178640609676",
    "latitude": "29.95995583617637",
    "geocoded_column": {
      "latitude": "29.95995583617637",
      "longitude": "-90.12178640609676"
    }
  },
  {
    "service_request": "2023-991816",
    "request_type": "Trash/Recycling",
    "request_reason": "Repair Trash Cart",
    "date_created": "2023-04-17T18:00:23.000",
    "date_modified": "2023-04-17T18:00:23.000",
    "request_status": "Pending",
    "responsible_agency": "Department of Sanitation",
    "final_address": "13600 N Lemans St",
    "address_councildis": "E",
    "status": "Assigned to Contractor",
    "contractor": "Waste Pro",
    "rowid": "991816",
    "final_x": "3725866.179",
    "final_y": "563134.137952",
    "longitude": "-89.92675456979147",
    "latitude": "30.041000427309378",
    "geocoded_column": {
      "latitude": "30.041000427309378",
      "longitude": "-89.92675456979147"
    }
  },
  {
    "service_request": "2023-991815",
    "request_type": "Trash/Recycling",
    "request_reason": "Order Recycling Cart",
    "date_created": "2023-04-17T17:44:12.000",
    "date_modified": "2023-04-17T17:44:12.000",
    "request_status": "Pending",
    "responsible_agency": "Department of Sanitation",
    "final_address": "3424 Mistletoe St",
    "address_councildis": "A",
    "status": "Pending",
    "rowid": "991815",
    "final_x": "3664496.07892",
    "final_y": "536969.154696",
    "longitude": "-90.12158085419301",
    "latitude": "29.970984395296387",
    "geocoded_column": {
      "latitude": "29.970984395296387",
      "longitude": "-90.12158085419301"
    }
  },
  {
    "service_request": "2023-991814",
    "request_type": "Trash/Recycling",
    "request_reason": "Order Trash Cart",
    "date_created": "2023-04-17T17:42:47.000",
    "date_modified": "2023-04-17T17:42:48.000",
    "request_status": "Pending",
    "responsible_agency": "Department of Sanitation",
    "final_address": "3424 Mistletoe St",
    "address_councildis": "A",
    "status": "Assigned to Contractor",
    "contractor": "Richards Disposal",
    "rowid": "991814",
    "final_x": "3664496.07892",
    "final_y": "536969.154696",
    "longitude": "-90.12158085419301",
    "latitude": "29.970984395296387",
    "geocoded_column": {
      "latitude": "29.970984395296387",
      "longitude": "-90.12158085419301"
    }
  },
  {
    "service_request": "2023-991813",
    "request_type": "Trash/Recycling",
    "request_reason": "Order Recycling Cart",
    "date_created": "2023-04-17T17:41:48.000",
    "date_modified": "2023-04-17T17:41:48.000",
    "request_status": "Pending",
    "responsible_agency": "Department of Sanitation",
    "final_address": "3422 Mistletoe St",
    "address_councildis": "A",
    "status": "Pending",
    "rowid": "991813",
    "final_x": "3664485.32442",
    "final_y": "536958.470856",
    "longitude": "-90.12161517525999",
    "latitude": "29.970955330992695",
    "geocoded_column": {
      "latitude": "29.970955330992695",
      "longitude": "-90.12161517525999"
    }
  },
  {
    "service_request": "2023-991812",
    "request_type": "Mosquito, Termite & Rodent Control",
    "request_reason": "Non-Rodent Complaint (Mice, Possums, Snakes)",
    "date_created": "2023-04-17T17:41:47.000",
    "date_modified": "2023-04-17T17:41:47.000",
    "request_status": "Pending",
    "responsible_agency": "Mosquito, Termite & Rodent Control Board",
    "status": "Pending",
    "rowid": "991812",
    "longitude": "0.0",
    "latitude": "0.0",
    "geocoded_column": {
      "latitude": "0.0",
      "longitude": "0.0"
    }
  },
  {
    "service_request": "2023-991811",
    "request_type": "Trash/Recycling",
    "request_reason": "Order Trash Cart",
    "date_created": "2023-04-17T17:40:42.000",
    "date_modified": "2023-04-17T17:40:43.000",
    "request_status": "Pending",
    "responsible_agency": "Department of Sanitation",
    "final_address": "3422 Mistletoe St",
    "address_councildis": "A",
    "status": "Assigned to Contractor",
    "contractor": "Richards Disposal",
    "rowid": "991811",
    "final_x": "3664485.32442",
    "final_y": "536958.470856",
    "longitude": "-90.12161517525999",
    "latitude": "29.970955330992695",
    "geocoded_column": {
      "latitude": "29.970955330992695",
      "longitude": "-90.12161517525999"
    }
  },
  {
    "service_request": "2023-991810",
    "request_type": "Trash/Recycling",
    "request_reason": "Order Trash Cart",
    "date_created": "2023-04-17T17:33:54.000",
    "date_modified": "2023-04-17T17:33:55.000",
    "request_status": "Pending",
    "responsible_agency": "Department of Sanitation",
    "final_address": "6877 Mayo Rd Apt A",
    "address_councildis": "E",
    "status": "Assigned to Contractor",
    "contractor": "Waste Pro",
    "rowid": "991810",
    "final_x": "3702002.20689",
    "final_y": "557790.816219",
    "longitude": "-90.00236863979654",
    "latitude": "30.02709226028954",
    "geocoded_column": {
      "latitude": "30.02709226028954",
      "longitude": "-90.00236863979654"
    }
  },
  {
    "service_request": "2023-991809",
    "request_type": "Roads/Drainage",
    "request_reason": "Alley Way",
    "date_created": "2023-04-17T17:32:49.000",
    "date_modified": "2023-04-17T17:32:49.000",
    "request_status": "Pending",
    "responsible_agency": "Department of Public Works",
    "final_address": "6438 General Haig St",
    "address_councildis": "A",
    "status": "Pending",
    "rowid": "991809",
    "final_x": "3670740.66471",
    "final_y": "550189.61282",
    "longitude": "-90.10141070474316",
    "latitude": "30.007153053889468",
    "geocoded_column": {
      "latitude": "30.007153053889468",
      "longitude": "-90.10141070474316"
    }
  },
  {
    "service_request": "2023-991808",
    "request_type": "Trash/Recycling",
    "request_reason": "Replace Trash Cart",
    "date_created": "2023-04-17T17:32:43.000",
    "date_modified": "2023-04-17T17:32:44.000",
    "request_status": "Pending",
    "responsible_agency": "Department of Sanitation",
    "final_address": "532 Esplanade Ave",
    "address_councildis": "C",
    "status": "Assigned to Contractor",
    "contractor": "Empire Services",
    "rowid": "991808",
    "final_x": "3684399.29513",
    "final_y": "534057.169733",
    "longitude": "-90.05882629538173",
    "latitude": "29.96238368175882",
    "geocoded_column": {
      "latitude": "29.96238368175882",
      "longitude": "-90.05882629538173"
    }
  },
  {
    "service_request": "2023-991807",
    "request_type": "Traffic Signals/Signs/Striping/Streetlights",
    "request_reason": "Street Light Outage/Malfunction",
    "date_created": "2023-04-17T17:31:53.000",
    "date_modified": "2023-04-17T17:31:54.000",
    "request_status": "Pending",
    "responsible_agency": "Department of Public Works",
    "final_address": "3660 White Oak Ave",
    "address_councildis": "C",
    "status": "Assigned to Contractor",
    "contractor": "Legacy Professional Services",
    "rowid": "991807",
    "final_x": "3703896.65118",
    "final_y": "514218.644723",
    "longitude": "-89.99798696345063",
    "latitude": "29.907223979450258",
    "geocoded_column": {
      "latitude": "29.907223979450258",
      "longitude": "-89.99798696345063"
    }
  },
  {
    "service_request": "2023-991806",
    "request_type": "Trash/Recycling",
    "request_reason": "Replace Trash Cart",
    "date_created": "2023-04-17T17:26:01.000",
    "date_modified": "2023-04-17T17:26:01.000",
    "request_status": "Pending",
    "responsible_agency": "Department of Sanitation",
    "final_address": "1820 St. Charles Avenue",
    "address_councildis": "B",
    "status": "Assigned to Contractor",
    "contractor": "Richards Disposal",
    "rowid": "991806",
    "final_x": "3678455.51029",
    "final_y": "524277.733372",
    "longitude": "-90.07793427637144",
    "latitude": "29.935673946766894",
    "geocoded_column": {
      "latitude": "29.935673946766894",
      "longitude": "-90.07793427637144"
    }
  },
  {
    "service_request": "2023-991805",
    "request_type": "Abandoned Vehicles",
    "request_reason": "Abandoned/Junk Vehicles",
    "date_created": "2023-04-17T17:25:59.000",
    "date_modified": "2023-04-17T17:25:59.000",
    "request_status": "Pending",
    "responsible_agency": "Department of Public Works",
    "final_address": "1444 Josephine St",
    "address_councildis": "B",
    "status": "Pending",
    "rowid": "991805",
    "final_x": "3678285.49954",
    "final_y": "523397.835707",
    "longitude": "-90.07850142339558",
    "latitude": "29.933259637873643",
    "geocoded_column": {
      "latitude": "29.933259637873643",
      "longitude": "-90.07850142339558"
    }
  },
  {
    "service_request": "2023-991804",
    "request_type": "Roads/Drainage",
    "request_reason": "Accessibility Ramps, Curbs and Sidewalk Repair",
    "date_created": "2023-04-17T17:21:53.000",
    "date_modified": "2023-04-17T17:21:54.000",
    "request_status": "Pending",
    "responsible_agency": "Department of Public Works",
    "final_address": "4710 Evangeline Dr",
    "address_councildis": "E",
    "status": "Pending",
    "rowid": "991804",
    "final_x": "3709060.3498",
    "final_y": "555545.995673",
    "longitude": "-89.9801495438019",
    "latitude": "30.020692565745186",
    "geocoded_column": {
      "latitude": "30.020692565745186",
      "longitude": "-89.9801495438019"
    }
  },
  {
    "service_request": "2023-991803",
    "request_type": "Roads/Drainage",
    "request_reason": "Catch Basin - Clogged",
    "date_created": "2023-04-17T17:18:52.000",
    "date_modified": "2023-04-17T17:18:52.000",
    "request_status": "Pending",
    "responsible_agency": "Department of Public Works",
    "final_address": "4611 Lurline St",
    "address_councildis": "E",
    "status": "Pending",
    "rowid": "991803",
    "final_x": "3712135.56472",
    "final_y": "555288.797593",
    "longitude": "-89.97044254141136",
    "latitude": "30.01988515562522",
    "geocoded_column": {
      "latitude": "30.01988515562522",
      "longitude": "-89.97044254141136"
    }
  },
  {
    "service_request": "2023-991802",
    "request_type": "Abandoned Vehicles",
    "request_reason": "Abandoned/Junk Vehicles",
    "date_created": "2023-04-17T17:17:31.000",
    "date_modified": "2023-04-17T17:17:31.000",
    "request_status": "Pending",
    "responsible_agency": "Department of Public Works",
    "final_address": "1444 Josephine St",
    "address_councildis": "B",
    "status": "Pending",
    "rowid": "991802",
    "final_x": "3678285.49954",
    "final_y": "523397.835707",
    "longitude": "-90.07850142339558",
    "latitude": "29.933259637873643",
    "geocoded_column": {
      "latitude": "29.933259637873643",
      "longitude": "-90.07850142339558"
    }
  },
  {
    "service_request": "2023-991801",
    "request_type": "Trash/Recycling",
    "request_reason": "Repair Trash Cart",
    "date_created": "2023-04-17T17:16:35.000",
    "date_modified": "2023-04-17T17:16:36.000",
    "request_status": "Pending",
    "responsible_agency": "Department of Sanitation",
    "final_address": "5741 Eastover Dr",
    "address_councildis": "E",
    "status": "Assigned to Contractor",
    "contractor": "Waste Pro",
    "rowid": "991801",
    "final_x": "3719091.91807",
    "final_y": "563349.687776",
    "longitude": "-89.94815508310782",
    "latitude": "30.04182001253432",
    "geocoded_column": {
      "latitude": "30.04182001253432",
      "longitude": "-89.94815508310782"
    }
  },
  {
    "service_request": "2023-991799",
    "request_type": "Trash/Recycling",
    "request_reason": "Illegal Dumping",
    "date_created": "2023-04-17T17:10:05.000",
    "date_modified": "2023-04-17T17:10:05.000",
    "request_status": "Pending",
    "responsible_agency": "Department of Code Enforcement",
    "final_address": "522 Burgundy St",
    "address_councildis": "C",
    "status": "Pending",
    "rowid": "991799",
    "final_x": "3681395.27394",
    "final_y": "532641.538948",
    "longitude": "-90.06836191241045",
    "latitude": "29.95858271336377",
    "geocoded_column": {
      "latitude": "29.95858271336377",
      "longitude": "-90.06836191241045"
    }
  },
  {
    "service_request": "2023-991798",
    "request_type": "Trash/Recycling",
    "request_reason": "Request a Large Item Pick Up",
    "date_created": "2023-04-17T17:08:53.000",
    "date_modified": "2023-04-17T17:08:54.000",
    "request_status": "Pending",
    "responsible_agency": "Department of Sanitation",
    "final_address": "6071 Annunciation St",
    "address_councildis": "A",
    "status": "Assigned to Contractor",
    "contractor": "Richards Disposal",
    "rowid": "991798",
    "final_x": "3663697.18919",
    "final_y": "518090.197878",
    "longitude": "-90.12473274296295",
    "latitude": "29.919096523868866",
    "geocoded_column": {
      "latitude": "29.919096523868866",
      "longitude": "-90.12473274296295"
    }
  },
  {
    "service_request": "2023-991797",
    "request_type": "Parks & Parkways",
    "request_reason": "Request Tree Service (Right of Way/Public Property)",
    "date_created": "2023-04-17T17:08:51.000",
    "date_modified": "2023-04-17T17:08:51.000",
    "request_status": "Pending",
    "responsible_agency": "Department of Parks & Parkway",
    "final_address": "6462 General Diaz St",
    "address_councildis": "A",
    "status": "Pending",
    "rowid": "991797",
    "final_x": "3669720.19143",
    "final_y": "550367.993364",
    "longitude": "-90.1046286267855",
    "latitude": "30.00767366577779",
    "geocoded_column": {
      "latitude": "30.00767366577779",
      "longitude": "-90.1046286267855"
    }
  },
  {
    "service_request": "2023-991796",
    "request_type": "Trash/Recycling",
    "request_reason": "Request a Large Item Pick Up",
    "date_created": "2023-04-17T17:06:25.000",
    "date_modified": "2023-04-17T17:06:25.000",
    "request_status": "Pending",
    "responsible_agency": "Department of Sanitation",
    "final_address": "4500 Arthur Dr",
    "address_councildis": "E",
    "status": "Assigned to Contractor",
    "contractor": "Waste Pro",
    "rowid": "991796",
    "final_x": "3707769.40913",
    "final_y": "553962.837336",
    "longitude": "-89.98428739200858",
    "latitude": "30.016381350041613",
    "geocoded_column": {
      "latitude": "30.016381350041613",
      "longitude": "-89.98428739200858"
    }
  },
  {
    "service_request": "2023-991795",
    "request_type": "Trash/Recycling",
    "request_reason": "Request a Large Item Pick Up",
    "date_created": "2023-04-17T16:38:50.000",
    "date_modified": "2023-04-17T16:39:23.000",
    "request_status": "Pending",
    "responsible_agency": "Department of Sanitation",
    "final_address": "4925 Laurel St",
    "address_councildis": "B",
    "status": "Assigned to Contractor",
    "contractor": "Richards Disposal",
    "rowid": "991795",
    "final_x": "3668762.98535",
    "final_y": "517930.168246",
    "longitude": "-90.10874796363831",
    "latitude": "29.918508598333798",
    "geocoded_column": {
      "latitude": "29.918508598333798",
      "longitude": "-90.10874796363831"
    }
  },
  {
    "service_request": "2023-991794",
    "request_type": "Abandoned Vehicles",
    "request_reason": "Abandoned/Junk Vehicles",
    "date_created": "2023-04-17T16:37:23.000",
    "date_modified": "2023-04-17T16:37:23.000",
    "request_status": "Pending",
    "responsible_agency": "Department of Public Works",
    "final_address": "1827 Industry St",
    "address_councildis": "D",
    "status": "Pending",
    "rowid": "991794",
    "final_x": "3681692.18274",
    "final_y": "542749.067981",
    "longitude": "-90.06707164107743",
    "latitude": "29.986365905933173",
    "geocoded_column": {
      "latitude": "29.986365905933173",
      "longitude": "-90.06707164107743"
    }
  },
  {
    "service_request": "2023-991793",
    "request_type": "Roads/Drainage",
    "request_reason": "Pothole",
    "date_created": "2023-04-17T16:36:05.000",
    "date_modified": "2023-04-17T16:36:05.000",
    "request_status": "Pending",
    "responsible_agency": "Department of Public Works",
    "final_address": "7212 Oak St",
    "address_councildis": "A",
    "status": "Pending",
    "rowid": "991793",
    "final_x": "3664061.09351",
    "final_y": "526511.73779",
    "longitude": "-90.12330336123041",
    "latitude": "29.94224254171489",
    "geocoded_column": {
      "latitude": "29.94224254171489",
      "longitude": "-90.12330336123041"
    }
  },
  {
    "service_request": "2023-991792",
    "request_type": "Roads/Drainage",
    "request_reason": "Man hole cover issue",
    "date_created": "2023-04-17T16:35:47.000",
    "date_modified": "2023-04-17T16:35:47.000",
    "request_status": "Pending",
    "responsible_agency": "Department of Public Works",
    "final_address": "171 Broadway St",
    "address_councildis": "A",
    "status": "Pending",
    "rowid": "991792",
    "final_x": "3661067.37562",
    "final_y": "521783.531386",
    "longitude": "-90.13291163090585",
    "latitude": "29.929328053069167",
    "geocoded_column": {
      "latitude": "29.929328053069167",
      "longitude": "-90.13291163090585"
    }
  },
  {
    "service_request": "2023-991791",
    "request_type": "Trash/Recycling",
    "request_reason": "Request a Large Item Pick Up",
    "date_created": "2023-04-17T16:26:48.000",
    "date_modified": "2023-04-17T16:26:49.000",
    "request_status": "Pending",
    "responsible_agency": "Department of Sanitation",
    "final_address": "2401 Annunciation St",
    "address_councildis": "B",
    "status": "Assigned to Contractor",
    "contractor": "Richards Disposal",
    "rowid": "991791",
    "final_x": "3678625.94293",
    "final_y": "520600.33036",
    "longitude": "-90.07752345638342",
    "latitude": "29.925557157001553",
    "geocoded_column": {
      "latitude": "29.925557157001553",
      "longitude": "-90.07752345638342"
    }
  },
  {
    "service_request": "2023-991790",
    "request_type": "Abandoned Vehicles",
    "request_reason": "Abandoned/Junk Vehicles",
    "date_created": "2023-04-17T16:18:55.000",
    "date_modified": "2023-04-17T16:34:20.000",
    "request_status": "Pending",
    "responsible_agency": "Department of Public Works",
    "final_address": "5022 LaSalle St",
    "address_councildis": "B",
    "status": "Pending",
    "rowid": "991790",
    "final_x": "3668601.27188",
    "final_y": "523531.551483",
    "longitude": "-90.10906950187342",
    "latitude": "29.933915374343787",
    "geocoded_column": {
      "latitude": "29.933915374343787",
      "longitude": "-90.10906950187342"
    }
  },
  {
    "service_request": "2023-991789",
    "request_type": "Trash/Recycling",
    "request_reason": "Request a Large Item Pick Up",
    "date_created": "2023-04-17T16:18:46.000",
    "date_modified": "2023-04-17T16:18:47.000",
    "request_status": "Pending",
    "responsible_agency": "Department of Sanitation",
    "final_address": "1019 Bellecastle St",
    "address_councildis": "B",
    "status": "Assigned to Contractor",
    "contractor": "Richards Disposal",
    "rowid": "991789",
    "final_x": "3667756.11169",
    "final_y": "519158.815479",
    "longitude": "-90.11188480005455",
    "latitude": "29.921916541490138",
    "geocoded_column": {
      "latitude": "29.921916541490138",
      "longitude": "-90.11188480005455"
    }
  },
  {
    "service_request": "2023-991788",
    "request_type": "Trash/Recycling",
    "request_reason": "Order Recycling Cart",
    "date_created": "2023-04-17T16:11:22.000",
    "date_modified": "2023-04-17T16:11:23.000",
    "request_status": "Pending",
    "responsible_agency": "Department of Sanitation",
    "final_address": "614 S Scott St",
    "address_councildis": "B",
    "status": "Pending",
    "rowid": "991788",
    "final_x": "3670516.23847",
    "final_y": "536113.710855",
    "longitude": "-90.10259737544212",
    "latitude": "29.968455782521275",
    "geocoded_column": {
      "latitude": "29.968455782521275",
      "longitude": "-90.10259737544212"
    }
  },
  {
    "service_request": "2023-991786",
    "request_type": "Trash/Recycling",
    "request_reason": "Order Recycling Cart",
    "date_created": "2023-04-17T16:06:07.000",
    "date_modified": "2023-04-17T16:52:05.000",
    "request_status": "Pending",
    "responsible_agency": "Department of Sanitation",
    "final_address": "2764 Orleans Avenue, New Orleans LA 70119",
    "address_councildis": "A",
    "rowid": "991786",
    "final_x": "3676305.53217",
    "final_y": "537276.924168",
    "longitude": "-90.08427443633565",
    "latitude": "29.971481973276305",
    "geocoded_column": {
      "latitude": "29.971481973276305",
      "longitude": "-90.08427443633565"
    }
  },
  {
    "service_request": "2023-991785",
    "request_type": "Trash/Recycling",
    "request_reason": "Order Recycling Cart",
    "date_created": "2023-04-17T16:05:50.000",
    "date_modified": "2023-04-17T16:50:36.000",
    "request_status": "Pending",
    "responsible_agency": "Department of Sanitation",
    "final_address": "4755 Eastern St",
    "address_councildis": "D",
    "rowid": "991785",
    "final_x": "3688041.25091",
    "final_y": "550839.066325",
    "longitude": "-90.04673049828601",
    "latitude": "30.008416026005538",
    "geocoded_column": {
      "latitude": "30.008416026005538",
      "longitude": "-90.04673049828601"
    }
  },
  {
    "service_request": "2023-991784",
    "request_type": "Trash/Recycling",
    "request_reason": "Order Trash Cart",
    "date_created": "2023-04-17T16:04:00.000",
    "date_modified": "2023-04-17T16:08:48.000",
    "request_status": "Pending",
    "responsible_agency": "Department of Sanitation",
    "final_address": "1925 Joliet Street, 70118",
    "address_councildis": "A",
    "status": "Assigned to Contractor",
    "contractor": "Richards Disposal",
    "rowid": "991784",
    "final_x": "3662729.2409",
    "final_y": "531282.36717",
    "longitude": "-90.12734980892895",
    "latitude": "29.955398846005004",
    "geocoded_column": {
      "latitude": "29.955398846005004",
      "longitude": "-90.12734980892895"
    }
  },
  {
    "service_request": "2023-991783",
    "request_type": "Trash/Recycling",
    "request_reason": "Repair Trash Cart",
    "date_created": "2023-04-17T16:01:49.000",
    "date_modified": "2023-04-17T16:01:50.000",
    "request_status": "Pending",
    "responsible_agency": "Department of Sanitation",
    "final_address": "7626 Alabama St",
    "address_councildis": "D",
    "status": "Assigned to Contractor",
    "contractor": "Waste Pro",
    "rowid": "991783",
    "final_x": "3694846.05341",
    "final_y": "558509.396828",
    "longitude": "-90.02495538226144",
    "latitude": "30.02929469966849",
    "geocoded_column": {
      "latitude": "30.02929469966849",
      "longitude": "-90.02495538226144"
    }
  },
  {
    "service_request": "2023-991782",
    "request_type": "Trash/Recycling",
    "request_reason": "Repair Recycling Cart",
    "date_created": "2023-04-17T16:01:29.000",
    "date_modified": "2023-04-17T16:03:47.000",
    "request_status": "Pending",
    "responsible_agency": "Department of Sanitation",
    "final_address": "1925 Joliet Street 70118",
    "address_councildis": "A",
    "status": "Pending",
    "rowid": "991782",
    "final_x": "3662729.2409",
    "final_y": "531282.36717",
    "longitude": "-90.12734980892895",
    "latitude": "29.955398846005004",
    "geocoded_column": {
      "latitude": "29.955398846005004",
      "longitude": "-90.12734980892895"
    }
  },
  {
    "service_request": "2023-991781",
    "request_type": "Trash/Recycling",
    "request_reason": "Order Recycling Cart",
    "date_created": "2023-04-17T15:55:17.000",
    "date_modified": "2023-04-17T15:56:04.000",
    "request_status": "Pending",
    "responsible_agency": "Department of Sanitation",
    "final_address": "5788 Tullis Dr",
    "address_councildis": "C",
    "status": "Pending",
    "rowid": "991781",
    "final_x": "3705389.38929",
    "final_y": "513002.046961",
    "longitude": "-89.99332065518455",
    "latitude": "29.903830832989346",
    "geocoded_column": {
      "latitude": "29.903830832989346",
      "longitude": "-89.99332065518455"
    }
  },
  {
    "service_request": "2023-991779",
    "request_type": "Trash/Recycling",
    "request_reason": "Replace Trash Cart",
    "date_created": "2023-04-17T15:49:36.000",
    "date_modified": "2023-04-17T15:49:37.000",
    "request_status": "Pending",
    "responsible_agency": "Department of Sanitation",
    "final_address": "4125 Dhemecourt St, New Orleans, Louisiana, 70119",
    "address_councildis": "A",
    "status": "Assigned to Contractor",
    "contractor": "Richards Disposal",
    "rowid": "991779",
    "final_x": "3669595.71905",
    "final_y": "537038.992008",
    "longitude": "-90.10547311765356",
    "latitude": "29.971027150249995",
    "geocoded_column": {
      "latitude": "29.971027150249995",
      "longitude": "-90.10547311765356"
    }
  },
  {
    "service_request": "2023-991778",
    "request_type": "Trash/Recycling",
    "request_reason": "Missed Trash Pick-Up",
    "date_created": "2023-04-17T15:47:49.000",
    "date_modified": "2023-04-17T15:48:13.000",
    "request_status": "Pending",
    "responsible_agency": "Department of Sanitation",
    "final_address": "4708 Bonita Dr",
    "address_councildis": "E",
    "status": "Assigned to Contractor",
    "contractor": "Waste Pro",
    "rowid": "991778",
    "final_x": "3704470.64369",
    "final_y": "555042.767897",
    "longitude": "-89.99467011904031",
    "latitude": "30.019457120811442",
    "geocoded_column": {
      "latitude": "30.019457120811442",
      "longitude": "-89.99467011904031"
    }
  },
  {
    "service_request": "2023-991777",
    "request_type": "Trash/Recycling",
    "request_reason": "Request a Large Item Pick Up",
    "date_created": "2023-04-17T15:46:20.000",
    "date_modified": "2023-04-17T15:46:38.000",
    "request_status": "Pending",
    "responsible_agency": "Department of Sanitation",
    "final_address": "4745 St Ferdinand Dr",
    "address_councildis": "D",
    "status": "Assigned to Contractor",
    "contractor": "IV Waste",
    "rowid": "991777",
    "final_x": "3689377.64227",
    "final_y": "550870.254101",
    "longitude": "-90.04250731985687",
    "latitude": "30.00846045319722",
    "geocoded_column": {
      "latitude": "30.00846045319722",
      "longitude": "-90.04250731985687"
    }
  },
  {
    "service_request": "2023-991776",
    "request_type": "Trash/Recycling",
    "request_reason": "Order Trash Cart",
    "date_created": "2023-04-17T15:44:58.000",
    "date_modified": "2023-04-17T15:44:59.000",
    "request_status": "Pending",
    "responsible_agency": "Department of Sanitation",
    "final_address": "1508 Tennessee St",
    "address_councildis": "E",
    "status": "Assigned to Contractor",
    "contractor": "Waste Pro",
    "rowid": "991776",
    "final_x": "3696092.32694",
    "final_y": "535946.082887",
    "longitude": "-90.02183328241927",
    "latitude": "29.967214720190725",
    "geocoded_column": {
      "latitude": "29.967214720190725",
      "longitude": "-90.02183328241927"
    }
  },
  {
    "service_request": "2023-991775",
    "request_type": "Roads/Drainage",
    "request_reason": "Pothole",
    "date_created": "2023-04-17T15:40:08.000",
    "date_modified": "2023-04-17T15:41:14.000",
    "request_status": "Pending",
    "responsible_agency": "Department of Public Works",
    "final_address": "3137 Orleans Ave, New Orleans, Louisiana, 70119",
    "address_councildis": "A",
    "rowid": "991775",
    "final_x": "3675086.00885",
    "final_y": "538360.268233",
    "longitude": "-90.08808869185481",
    "latitude": "29.974497297491975",
    "geocoded_column": {
      "latitude": "29.974497297491975",
      "longitude": "-90.08808869185481"
    }
  },
  {
    "service_request": "2023-991774",
    "request_type": "Trash/Recycling",
    "request_reason": "Repair Recycling Cart",
    "date_created": "2023-04-17T15:39:32.000",
    "date_modified": "2023-04-17T15:39:32.000",
    "request_status": "Pending",
    "responsible_agency": "Department of Sanitation",
    "final_address": "2820 General Ogden St",
    "address_councildis": "A",
    "status": "Pending",
    "rowid": "991774",
    "final_x": "3663844.78695",
    "final_y": "534692.447686",
    "longitude": "-90.12371363195767",
    "latitude": "29.964743123440464",
    "geocoded_column": {
      "latitude": "29.964743123440464",
      "longitude": "-90.12371363195767"
    }
  },
  {
    "service_request": "2023-991773",
    "request_type": "Trash/Recycling",
    "request_reason": "Request a Large Item Pick Up",
    "date_created": "2023-04-17T15:38:45.000",
    "date_modified": "2023-04-17T15:38:46.000",
    "request_status": "Pending",
    "responsible_agency": "Department of Sanitation",
    "final_address": "5001 Sierra Madre Dr",
    "address_councildis": "E",
    "status": "Assigned to Contractor",
    "contractor": "Waste Pro",
    "rowid": "991773",
    "final_x": "3713840.1036",
    "final_y": "557705.282651",
    "longitude": "-89.96496562449137",
    "latitude": "30.026473678069284",
    "geocoded_column": {
      "latitude": "30.026473678069284",
      "longitude": "-89.96496562449137"
    }
  },
  {
    "service_request": "2023-991772",
    "request_type": "Abandoned Vehicles",
    "request_reason": "Abandoned/Junk Vehicles",
    "date_created": "2023-04-17T15:31:54.000",
    "date_modified": "2023-04-17T15:31:55.000",
    "request_status": "Pending",
    "responsible_agency": "Department of Public Works",
    "final_address": "1848 Lauradale Dr",
    "address_councildis": "C",
    "status": "Pending",
    "rowid": "991772",
    "final_x": "3692770.98237",
    "final_y": "524319.285244",
    "longitude": "-90.03273884557241",
    "latitude": "29.935349173102022",
    "geocoded_column": {
      "latitude": "29.935349173102022",
      "longitude": "-90.03273884557241"
    }
  },
  {
    "service_request": "2023-991771",
    "request_type": "Trash/Recycling",
    "request_reason": "Return Trash Cart",
    "date_created": "2023-04-17T15:29:28.000",
    "date_modified": "2023-04-17T15:29:57.000",
    "request_status": "Pending",
    "responsible_agency": "Department of Sanitation",
    "final_address": "4656 Lafon Dr",
    "address_councildis": "E",
    "status": "Assigned to Contractor",
    "contractor": "Waste Pro",
    "rowid": "991771",
    "final_x": "3701114.74237",
    "final_y": "553788.283479",
    "longitude": "-90.0053195100323",
    "latitude": "30.016115143171458",
    "geocoded_column": {
      "latitude": "30.016115143171458",
      "longitude": "-90.0053195100323"
    }
  },
  {
    "service_request": "2023-991770",
    "request_type": "Traffic Signals/Signs/Striping/Streetlights",
    "request_reason": "Street Light Outage/Malfunction",
    "date_created": "2023-04-17T15:29:15.000",
    "date_modified": "2023-04-17T15:29:16.000",
    "request_status": "Pending",
    "responsible_agency": "Department of Public Works",
    "final_address": "2110 Octavia St",
    "address_councildis": "A",
    "status": "Assigned to Contractor",
    "contractor": "Legacy Professional Services",
    "rowid": "991770",
    "final_x": "3667412.88372",
    "final_y": "523503.218043",
    "longitude": "-90.1128221584101",
    "latitude": "29.93387232619676",
    "geocoded_column": {
      "latitude": "29.93387232619676",
      "longitude": "-90.1128221584101"
    }
  },
  {
    "service_request": "2023-991769",
    "request_type": "Trash/Recycling",
    "request_reason": "Order Recycling Cart",
    "date_created": "2023-04-17T15:29:03.000",
    "date_modified": "2023-04-17T15:29:04.000",
    "request_status": "Pending",
    "responsible_agency": "Department of Sanitation",
    "final_address": "5438 St Bernard Ave",
    "address_councildis": "D",
    "status": "Pending",
    "rowid": "991769",
    "final_x": "3676823.13493",
    "final_y": "552376.884566",
    "longitude": "-90.08211903662273",
    "latitude": "30.01298605649098",
    "geocoded_column": {
      "latitude": "30.01298605649098",
      "longitude": "-90.08211903662273"
    }
  },
  {
    "service_request": "2023-991768",
    "request_type": "Trash/Recycling",
    "request_reason": "Order Trash Cart",
    "date_created": "2023-04-17T15:28:22.000",
    "date_modified": "2023-04-17T15:28:22.000",
    "request_status": "Pending",
    "responsible_agency": "Department of Sanitation",
    "final_address": "5438 St Bernard Ave",
    "address_councildis": "D",
    "status": "Assigned to Contractor",
    "contractor": "IV Waste",
    "rowid": "991768",
    "final_x": "3676823.13493",
    "final_y": "552376.884566",
    "longitude": "-90.08211903662273",
    "latitude": "30.01298605649098",
    "geocoded_column": {
      "latitude": "30.01298605649098",
      "longitude": "-90.08211903662273"
    }
  },
  {
    "service_request": "2023-991767",
    "request_type": "Roads/Drainage",
    "request_reason": "Catch Basin - Clogged",
    "date_created": "2023-04-17T15:24:21.000",
    "date_modified": "2023-04-17T15:24:22.000",
    "request_status": "Pending",
    "responsible_agency": "Department of Public Works",
    "final_address": "933 State St",
    "address_councildis": "A",
    "status": "Pending",
    "rowid": "991767",
    "final_x": "3664946.14471",
    "final_y": "519781.965624",
    "longitude": "-90.1207339006601",
    "latitude": "29.923712073382895",
    "geocoded_column": {
      "latitude": "29.923712073382895",
      "longitude": "-90.1207339006601"
    }
  },
  {
    "service_request": "2023-991766",
    "request_type": "Trash/Recycling",
    "request_reason": "Request a Large Item Pick Up",
    "date_created": "2023-04-17T15:20:27.000",
    "date_modified": "2023-04-17T15:20:28.000",
    "request_status": "Pending",
    "responsible_agency": "Department of Sanitation",
    "final_address": "4643 Lurline St",
    "address_councildis": "E",
    "status": "Assigned to Contractor",
    "contractor": "Waste Pro",
    "rowid": "991766",
    "final_x": "3712111.66386",
    "final_y": "555526.625177",
    "longitude": "-89.97050912209524",
    "latitude": "30.0205398698373",
    "geocoded_column": {
      "latitude": "30.0205398698373",
      "longitude": "-89.97050912209524"
    }
  },
  {
    "service_request": "2023-991765",
    "request_type": "Trash/Recycling",
    "request_reason": "Missed Trash Pick-Up",
    "date_created": "2023-04-17T15:19:03.000",
    "date_modified": "2023-04-17T15:19:04.000",
    "request_status": "Pending",
    "responsible_agency": "Department of Sanitation",
    "final_address": "1205 St Philip St",
    "address_councildis": "C",
    "status": "Assigned to Contractor",
    "contractor": "Richards Disposal",
    "rowid": "991765",
    "final_x": "3681704.65487",
    "final_y": "534558.858309",
    "longitude": "-90.06731807567628",
    "latitude": "29.96384529192134",
    "geocoded_column": {
      "latitude": "29.96384529192134",
      "longitude": "-90.06731807567628"
    }
  },
  {
    "service_request": "2023-991764",
    "request_type": "Roads/Drainage",
    "request_reason": "Pothole",
    "date_created": "2023-04-17T15:18:58.000",
    "date_modified": "2023-04-17T15:18:58.000",
    "request_status": "Pending",
    "responsible_agency": "Department of Public Works",
    "final_address": "900 City Park Ave",
    "address_councildis": "A",
    "status": "Pending",
    "rowid": "991764",
    "final_x": "3671883.13575",
    "final_y": "541596.47182",
    "longitude": "-90.09809397847974",
    "latitude": "29.983491075181448",
    "geocoded_column": {
      "latitude": "29.983491075181448",
      "longitude": "-90.09809397847974"
    }
  },
  {
    "service_request": "2023-991763",
    "request_type": "Property Maintenance",
    "request_reason": "Property Maintenance",
    "date_created": "2023-04-17T15:18:45.000",
    "date_modified": "2023-04-17T15:18:45.000",
    "request_status": "Pending",
    "responsible_agency": "Department of Code Enforcement",
    "final_address": "6775 Deanne St",
    "address_councildis": "D",
    "status": "Pending",
    "rowid": "991763",
    "final_x": "3695934.16464",
    "final_y": "555827.742553",
    "longitude": "-90.02161400078145",
    "latitude": "30.021886962387303",
    "geocoded_column": {
      "latitude": "30.021886962387303",
      "longitude": "-90.02161400078145"
    }
  },
  {
    "service_request": "2023-991762",
    "request_type": "Traffic Signals/Signs/Striping/Streetlights",
    "request_reason": "Street Light Outage/Malfunction",
    "date_created": "2023-04-17T15:12:35.000",
    "date_modified": "2023-04-17T15:12:36.000",
    "request_status": "Pending",
    "responsible_agency": "Department of Public Works",
    "final_address": "2020 N Rampart St",
    "address_councildis": "C",
    "status": "Assigned to Contractor",
    "contractor": "Legacy Professional Services",
    "rowid": "991762",
    "final_x": "3684453.25257",
    "final_y": "535867.022535",
    "longitude": "-90.05859232384363",
    "latitude": "29.96735850186189",
    "geocoded_column": {
      "latitude": "29.96735850186189",
      "longitude": "-90.05859232384363"
    }
  },
  {
    "service_request": "2023-991761",
    "request_type": "Abandoned Vehicles",
    "request_reason": "Abandoned/Junk Vehicles",
    "date_created": "2023-04-17T15:10:50.000",
    "date_modified": "2023-04-17T15:10:50.000",
    "request_status": "Pending",
    "responsible_agency": "Department of Public Works",
    "final_address": "1239 Annette St",
    "address_councildis": "C",
    "status": "Pending",
    "rowid": "991761",
    "final_x": "3683159.70044",
    "final_y": "536479.515527",
    "longitude": "-90.06265592638668",
    "latitude": "29.9690821520882",
    "geocoded_column": {
      "latitude": "29.9690821520882",
      "longitude": "-90.06265592638668"
    }
  },
  {
    "service_request": "2023-991760",
    "request_type": "Trash/Recycling",
    "request_reason": "Order Recycling Cart",
    "date_created": "2023-04-17T15:07:51.000",
    "date_modified": "2023-04-17T15:07:51.000",
    "request_status": "Pending",
    "responsible_agency": "Department of Sanitation",
    "final_address": "7812 Lucerne St",
    "address_councildis": "E",
    "status": "Pending",
    "rowid": "991760",
    "final_x": "3710314.41592",
    "final_y": "566551.473955",
    "longitude": "-89.9757751133436",
    "latitude": "30.05091247367522",
    "geocoded_column": {
      "latitude": "30.05091247367522",
      "longitude": "-89.9757751133436"
    }
  },
  {
    "service_request": "2023-991759",
    "request_type": "Trash/Recycling",
    "request_reason": "Repair Trash Cart",
    "date_created": "2023-04-17T15:07:14.000",
    "date_modified": "2023-04-17T15:07:15.000",
    "request_status": "Pending",
    "responsible_agency": "Department of Sanitation",
    "final_address": "7812 Lucerne St",
    "address_councildis": "E",
    "status": "Assigned to Contractor",
    "contractor": "Waste Pro",
    "rowid": "991759",
    "final_x": "3710314.41592",
    "final_y": "566551.473955",
    "longitude": "-89.9757751133436",
    "latitude": "30.05091247367522",
    "geocoded_column": {
      "latitude": "30.05091247367522",
      "longitude": "-89.9757751133436"
    }
  },
  {
    "service_request": "2023-991758",
    "request_type": "Trash/Recycling",
    "request_reason": "Request a Large Item Pick Up",
    "date_created": "2023-04-17T15:06:24.000",
    "date_modified": "2023-04-17T15:06:24.000",
    "request_status": "Pending",
    "responsible_agency": "Department of Sanitation",
    "final_address": "7739 Haney Dr, New Orleans, Louisiana, 70128",
    "address_councildis": "E",
    "status": "Assigned to Contractor",
    "contractor": "Waste Pro",
    "rowid": "991758",
    "final_x": "3712340.96984",
    "final_y": "567740.998308",
    "longitude": "-89.96932517349543",
    "latitude": "30.05411700742906",
    "geocoded_column": {
      "latitude": "30.05411700742906",
      "longitude": "-89.96932517349543"
    }
  },
  {
    "service_request": "2023-991757",
    "request_type": "Roads/Drainage",
    "request_reason": "Catch Basin - Broken/Damage",
    "date_created": "2023-04-17T15:02:19.000",
    "date_modified": "2023-04-17T15:02:19.000",
    "request_status": "Pending",
    "responsible_agency": "Department of Public Works",
    "final_address": "6942 Louisville St",
    "address_councildis": "A",
    "status": "Pending",
    "rowid": "991757",
    "final_x": "3668235.53031",
    "final_y": "553765.304471",
    "longitude": "-90.10920445534047",
    "latitude": "30.0170587693295",
    "geocoded_column": {
      "latitude": "30.0170587693295",
      "longitude": "-90.10920445534047"
    }
  },
  {
    "service_request": "2023-991756",
    "request_type": "Trash/Recycling",
    "request_reason": "Dead Animal Pick Up",
    "date_created": "2023-04-17T14:57:55.000",
    "date_modified": "2023-04-17T14:57:55.000",
    "request_status": "Pending",
    "responsible_agency": "Department of Sanitation",
    "final_address": "CASA CALVO ST & GENERAL MEYER AVE",
    "address_councildis": "C",
    "status": "Assigned to Contractor",
    "contractor": "Richards Disposal",
    "rowid": "991756",
    "final_x": "3692137.1",
    "final_y": "527751.28",
    "longitude": "-90.034617202282",
    "latitude": "29.944805752356547",
    "geocoded_column": {
      "latitude": "29.944805752356547",
      "longitude": "-90.034617202282"
    }
  },
  {
    "service_request": "2023-991755",
    "request_type": "EMS",
    "request_reason": "EMS General",
    "date_created": "2023-04-17T14:57:42.000",
    "date_modified": "2023-04-17T14:57:42.000",
    "request_status": "Pending",
    "responsible_agency": "Emergency Medical Services",
    "final_address": "2405 Jackson Ave",
    "address_councildis": "B",
    "status": "Pending",
    "rowid": "991755",
    "final_x": "3675628.55387",
    "final_y": "526674.122686",
    "longitude": "-90.08677671950309",
    "latitude": "29.94234809287261",
    "geocoded_column": {
      "latitude": "29.94234809287261",
      "longitude": "-90.08677671950309"
    }
  },
  {
    "service_request": "2023-991754",
    "request_type": "Trash/Recycling",
    "request_reason": "Request a Large Item Pick Up",
    "date_created": "2023-04-17T14:55:13.000",
    "date_modified": "2023-04-17T14:55:14.000",
    "request_status": "Pending",
    "responsible_agency": "Department of Sanitation",
    "final_address": "5422 Magazine St",
    "address_councildis": "A",
    "status": "Assigned to Contractor",
    "contractor": "Richards Disposal",
    "rowid": "991754",
    "final_x": "3666536.04378",
    "final_y": "518774.650487",
    "longitude": "-90.11574893958361",
    "latitude": "29.920895913699734",
    "geocoded_column": {
      "latitude": "29.920895913699734",
      "longitude": "-90.11574893958361"
    }
  },
  {
    "service_request": "2023-991753",
    "request_type": "Property Maintenance",
    "request_reason": "Property Maintenance",
    "date_created": "2023-04-17T14:53:08.000",
    "date_modified": "2023-04-17T14:53:08.000",
    "request_status": "Pending",
    "responsible_agency": "Department of Code Enforcement",
    "final_address": "2400 Jackson Ave",
    "address_councildis": "B",
    "status": "Pending",
    "rowid": "991753",
    "final_x": "3675569.19349",
    "final_y": "526308.323262",
    "longitude": "-90.08697669595185",
    "latitude": "29.941344040353535",
    "geocoded_column": {
      "latitude": "29.941344040353535",
      "longitude": "-90.08697669595185"
    }
  },
  {
    "service_request": "2023-991752",
    "request_type": "Trash/Recycling",
    "request_reason": "Repair Trash Cart",
    "date_created": "2023-04-17T14:51:31.000",
    "date_modified": "2023-04-17T14:51:32.000",
    "request_status": "Pending",
    "responsible_agency": "Department of Sanitation",
    "final_address": "4830 Deanne St",
    "address_councildis": "D",
    "status": "Assigned to Contractor",
    "contractor": "Waste Pro",
    "rowid": "991752",
    "final_x": "3696387.37975",
    "final_y": "554594.78076",
    "longitude": "-90.02022661093442",
    "latitude": "30.018482510363235",
    "geocoded_column": {
      "latitude": "30.018482510363235",
      "longitude": "-90.02022661093442"
    }
  },
  {
    "service_request": "2023-991751",
    "request_type": "Property Maintenance",
    "request_reason": "Property Maintenance",
    "date_created": "2023-04-17T14:51:19.000",
    "date_modified": "2023-04-17T14:51:19.000",
    "request_status": "Pending",
    "responsible_agency": "Department of Code Enforcement",
    "final_address": "1930 Felicity St",
    "address_councildis": "B",
    "status": "Pending",
    "rowid": "991751",
    "final_x": "3677333.95458",
    "final_y": "525680.862717",
    "longitude": "-90.08142664674847",
    "latitude": "29.939565831062406",
    "geocoded_column": {
      "latitude": "29.939565831062406",
      "longitude": "-90.08142664674847"
    }
  },
  {
    "service_request": "2023-991750",
    "request_type": "Property Maintenance",
    "request_reason": "Property Maintenance",
    "date_created": "2023-04-17T14:49:50.000",
    "date_modified": "2023-04-17T14:49:50.000",
    "request_status": "Pending",
    "responsible_agency": "Department of Code Enforcement",
    "final_address": "5617 Arts St",
    "address_councildis": "D",
    "status": "Pending",
    "rowid": "991750",
    "final_x": "3685861.23234",
    "final_y": "553721.155607",
    "longitude": "-90.05351614945394",
    "latitude": "30.016407843073594",
    "geocoded_column": {
      "latitude": "30.016407843073594",
      "longitude": "-90.05351614945394"
    }
  },
  {
    "service_request": "2023-991749",
    "request_type": "Trash/Recycling",
    "request_reason": "Illegal Dumping",
    "date_created": "2023-04-17T14:49:49.000",
    "date_modified": "2023-04-17T14:49:49.000",
    "request_status": "Pending",
    "responsible_agency": "Department of Sanitation",
    "final_address": "2000 St Andrew St",
    "address_councildis": "B",
    "status": "Pending",
    "rowid": "991749",
    "final_x": "3677183.76661",
    "final_y": "525426.221181",
    "longitude": "-90.08190959104485",
    "latitude": "29.93887016179482",
    "geocoded_column": {
      "latitude": "29.93887016179482",
      "longitude": "-90.08190959104485"
    }
  },
  {
    "service_request": "2023-991748",
    "request_type": "Safety & Permits",
    "request_reason": "Licenses & Permits",
    "date_created": "2023-04-17T14:47:29.000",
    "date_modified": "2023-04-17T14:47:29.000",
    "request_status": "Pending",
    "responsible_agency": "Safety and Permits",
    "final_address": "1017 St Andrew St",
    "address_councildis": "B",
    "status": "Pending",
    "rowid": "991748",
    "final_x": "3679673.38715",
    "final_y": "522451.073338",
    "longitude": "-90.07415279607167",
    "latitude": "29.930614487331084",
    "geocoded_column": {
      "latitude": "29.930614487331084",
      "longitude": "-90.07415279607167"
    }
  },
  {
    "service_request": "2023-991747",
    "request_type": "Trash/Recycling",
    "request_reason": "Request a Large Item Pick Up",
    "date_created": "2023-04-17T14:47:11.000",
    "date_modified": "2023-04-17T14:47:12.000",
    "request_status": "Pending",
    "responsible_agency": "Department of Sanitation",
    "final_address": "701 Hendee St",
    "address_councildis": "C",
    "status": "Assigned to Contractor",
    "contractor": "Richards Disposal",
    "rowid": "991747",
    "final_x": "3690804.96886",
    "final_y": "528913.201152",
    "longitude": "-90.03878168073949",
    "latitude": "29.94804208525683",
    "geocoded_column": {
      "latitude": "29.94804208525683",
      "longitude": "-90.03878168073949"
    }
  },
  {
    "service_request": "2023-991745",
    "request_type": "Safety & Permits",
    "request_reason": "Licenses & Permits",
    "date_created": "2023-04-17T14:44:09.000",
    "date_modified": "2023-04-17T14:44:09.000",
    "request_status": "Pending",
    "responsible_agency": "Safety and Permits",
    "final_address": "1750 Robert C. Blakes, Sr. Dr",
    "address_councildis": "B",
    "status": "Pending",
    "rowid": "991745",
    "final_x": "3678302.5851",
    "final_y": "524895.734332",
    "longitude": "-90.07839569530879",
    "latitude": "29.937377852003916",
    "geocoded_column": {
      "latitude": "29.937377852003916",
      "longitude": "-90.07839569530879"
    }
  },
  {
    "service_request": "2023-991744",
    "request_type": "Trash/Recycling",
    "request_reason": "Missed Trash Pick-Up",
    "date_created": "2023-04-17T14:43:57.000",
    "date_modified": "2023-04-17T14:45:38.000",
    "request_status": "Pending",
    "responsible_agency": "Department of Sanitation",
    "final_address": "10701 Curran Rd",
    "address_councildis": "E",
    "status": "Assigned to Contractor",
    "contractor": "Waste Pro",
    "rowid": "991744",
    "final_x": "3709537.43525",
    "final_y": "565592.26333",
    "longitude": "-89.97826671625354",
    "latitude": "30.04830031972897",
    "geocoded_column": {
      "latitude": "30.04830031972897",
      "longitude": "-89.97826671625354"
    }
  },
  {
    "service_request": "2023-991743",
    "request_type": "Trash/Recycling",
    "request_reason": "Request a Large Item Pick Up",
    "date_created": "2023-04-17T14:43:10.000",
    "date_modified": "2023-04-17T14:43:11.000",
    "request_status": "Pending",
    "responsible_agency": "Department of Sanitation",
    "final_address": "4932 Laurel St",
    "address_councildis": "B",
    "status": "Assigned to Contractor",
    "contractor": "Richards Disposal",
    "rowid": "991743",
    "final_x": "3668718.10644",
    "final_y": "517756.888182",
    "longitude": "-90.10889546773035",
    "latitude": "29.918033451475466",
    "geocoded_column": {
      "latitude": "29.918033451475466",
      "longitude": "-90.10889546773035"
    }
  },
  {
    "service_request": "2023-991742",
    "request_type": "Trash/Recycling",
    "request_reason": "Request a Large Item Pick Up",
    "date_created": "2023-04-17T14:42:47.000",
    "date_modified": "2023-04-17T14:42:48.000",
    "request_status": "Pending",
    "responsible_agency": "Department of Sanitation",
    "final_address": "6942 Louisville St",
    "address_councildis": "A",
    "status": "Assigned to Contractor",
    "contractor": "IV Waste",
    "rowid": "991742",
    "final_x": "3668235.53031",
    "final_y": "553765.304471",
    "longitude": "-90.10920445534047",
    "latitude": "30.0170587693295",
    "geocoded_column": {
      "latitude": "30.0170587693295",
      "longitude": "-90.10920445534047"
    }
  },
  {
    "service_request": "2023-991741",
    "request_type": "Property Maintenance",
    "request_reason": "Property Maintenance",
    "date_created": "2023-04-17T14:42:44.000",
    "date_modified": "2023-04-17T14:42:44.000",
    "request_status": "Pending",
    "responsible_agency": "Department of Code Enforcement",
    "final_address": "2628 Constance St",
    "address_councildis": "B",
    "status": "Pending",
    "rowid": "991741",
    "final_x": "3677595.22741",
    "final_y": "520691.616121",
    "longitude": "-90.0807739603333",
    "latitude": "29.925839184268607",
    "geocoded_column": {
      "latitude": "29.925839184268607",
      "longitude": "-90.0807739603333"
    }
  },
  {
    "service_request": "2023-991740",
    "request_type": "Property Maintenance",
    "request_reason": "Property Maintenance",
    "date_created": "2023-04-17T14:40:49.000",
    "date_modified": "2023-04-17T14:40:49.000",
    "request_status": "Pending",
    "responsible_agency": "Department of Code Enforcement",
    "final_address": "1739 Baronne St",
    "address_councildis": "B",
    "status": "Pending",
    "rowid": "991740",
    "final_x": "3677883.0676",
    "final_y": "525220.415741",
    "longitude": "-90.07970892596244",
    "latitude": "29.93828324589502",
    "geocoded_column": {
      "latitude": "29.93828324589502",
      "longitude": "-90.07970892596244"
    }
  },
  {
    "service_request": "2023-991739",
    "request_type": "Trash/Recycling",
    "request_reason": "Repair Trash Cart",
    "date_created": "2023-04-17T14:40:24.000",
    "date_modified": "2023-04-17T14:40:24.000",
    "request_status": "Pending",
    "responsible_agency": "Department of Sanitation",
    "final_address": "2909 Paris Ave",
    "address_councildis": "D",
    "status": "Assigned to Contractor",
    "contractor": "IV Waste",
    "rowid": "991739",
    "final_x": "3680040.76219",
    "final_y": "543032.705357",
    "longitude": "-90.07227798488161",
    "latitude": "29.987195886448063",
    "geocoded_column": {
      "latitude": "29.987195886448063",
      "longitude": "-90.07227798488161"
    }
  },
  {
    "service_request": "2023-991738",
    "request_type": "Property Maintenance",
    "request_reason": "Property Maintenance",
    "date_created": "2023-04-17T14:38:22.000",
    "date_modified": "2023-04-17T14:38:22.000",
    "request_status": "Pending",
    "responsible_agency": "Department of Code Enforcement",
    "final_address": "2010 Simon Bolivar Ave",
    "address_councildis": "B",
    "status": "Pending",
    "rowid": "991738",
    "final_x": "3676758.77262",
    "final_y": "525798.209981",
    "longitude": "-90.08323853383163",
    "latitude": "29.939905764468737",
    "geocoded_column": {
      "latitude": "29.939905764468737",
      "longitude": "-90.08323853383163"
    }
  },
  {
    "service_request": "2023-991737",
    "request_type": "Trash/Recycling",
    "request_reason": "Repair Trash Cart",
    "date_created": "2023-04-17T14:37:19.000",
    "date_modified": "2023-04-17T14:37:19.000",
    "request_status": "Pending",
    "responsible_agency": "Department of Sanitation",
    "final_address": "2907 Paris Ave",
    "address_councildis": "D",
    "status": "Assigned to Contractor",
    "contractor": "IV Waste",
    "rowid": "991737",
    "final_x": "3679978.84712",
    "final_y": "543017.747661",
    "longitude": "-90.07247407233933",
    "latitude": "29.987156631509393",
    "geocoded_column": {
      "latitude": "29.987156631509393",
      "longitude": "-90.07247407233933"
    }
  },
  {
    "service_request": "2023-991736",
    "request_type": "Property Maintenance",
    "request_reason": "Property Maintenance",
    "date_created": "2023-04-17T14:36:58.000",
    "date_modified": "2023-04-17T14:36:58.000",
    "request_status": "Pending",
    "responsible_agency": "Department of Code Enforcement",
    "final_address": "2016 Simon Bolivar Ave",
    "address_councildis": "B",
    "status": "Pending",
    "rowid": "991736",
    "final_x": "3676725.78549",
    "final_y": "525779.983357",
    "longitude": "-90.08334330686334",
    "latitude": "29.939856636776053",
    "geocoded_column": {
      "latitude": "29.939856636776053",
      "longitude": "-90.08334330686334"
    }
  },
  {
    "service_request": "2023-991734",
    "request_type": "Trash/Recycling",
    "request_reason": "MIssed Recycling Pick-Up",
    "date_created": "2023-04-17T14:32:10.000",
    "date_modified": "2023-04-17T14:32:11.000",
    "request_status": "Pending",
    "responsible_agency": "Department of Sanitation",
    "final_address": "5680 Red Maple Dr",
    "address_councildis": "E",
    "status": "Assigned to Contractor",
    "contractor": "Waste Pro",
    "rowid": "991734",
    "final_x": "3723295.75071",
    "final_y": "564476.810721",
    "longitude": "-89.93482611260576",
    "latitude": "30.044778732324268",
    "geocoded_column": {
      "latitude": "30.044778732324268",
      "longitude": "-89.93482611260576"
    }
  },
  {
    "service_request": "2023-991733",
    "request_type": "Trash/Recycling",
    "request_reason": "Request a Large Item Pick Up",
    "date_created": "2023-04-17T14:31:00.000",
    "date_modified": "2023-04-17T14:31:01.000",
    "request_status": "Pending",
    "responsible_agency": "Department of Sanitation",
    "final_address": "7551 Pebble Dr",
    "address_councildis": "E",
    "status": "Assigned to Contractor",
    "contractor": "Waste Pro",
    "rowid": "991733",
    "final_x": "3715468.38405",
    "final_y": "568633.419877",
    "longitude": "-89.95940644840994",
    "latitude": "30.056468064350106",
    "geocoded_column": {
      "latitude": "30.056468064350106",
      "longitude": "-89.95940644840994"
    }
  },
  {
    "service_request": "2023-991732",
    "request_type": "Trash/Recycling",
    "request_reason": "Missed Trash Pick-Up",
    "date_created": "2023-04-17T14:30:05.000",
    "date_modified": "2023-04-17T14:30:05.000",
    "request_status": "Pending",
    "responsible_agency": "Department of Sanitation",
    "final_address": "2314 Delery St",
    "address_councildis": "E",
    "status": "Assigned to Contractor",
    "contractor": "Waste Pro",
    "rowid": "991732",
    "final_x": "3702208.70065",
    "final_y": "537434.866696",
    "longitude": "-90.00246323893724",
    "latitude": "29.971114425544155",
    "geocoded_column": {
      "latitude": "29.971114425544155",
      "longitude": "-90.00246323893724"
    }
  },
  {
    "service_request": "2023-991731",
    "request_type": "Trash/Recycling",
    "request_reason": "Illegal Dumping",
    "date_created": "2023-04-17T14:23:41.000",
    "date_modified": "2023-04-17T14:23:42.000",
    "request_status": "Pending",
    "responsible_agency": "Department of Code Enforcement",
    "final_address": "7557 Lacombe St",
    "address_councildis": "E",
    "status": "Pending",
    "rowid": "991731",
    "final_x": "3710025.13784",
    "final_y": "564777.712354",
    "longitude": "-89.97675578782793",
    "latitude": "30.046044764844314",
    "geocoded_column": {
      "latitude": "30.046044764844314",
      "longitude": "-89.97675578782793"
    }
  },
  {
    "service_request": "2023-991730",
    "request_type": "Trash/Recycling",
    "request_reason": "Request a Large Item Pick Up",
    "date_created": "2023-04-17T14:20:34.000",
    "date_modified": "2023-04-17T14:20:35.000",
    "request_status": "Pending",
    "responsible_agency": "Department of Sanitation",
    "final_address": "4617 Laurel St",
    "address_councildis": "B",
    "status": "Assigned to Contractor",
    "contractor": "Richards Disposal",
    "rowid": "991730",
    "final_x": "3670217.88385",
    "final_y": "518001.878006",
    "longitude": "-90.1041531796662",
    "latitude": "29.918662943051306",
    "geocoded_column": {
      "latitude": "29.918662943051306",
      "longitude": "-90.1041531796662"
    }
  },
  {
    "service_request": "2023-991729",
    "request_type": "Trash/Recycling",
    "request_reason": "Request a Large Item Pick Up",
    "date_created": "2023-04-17T14:14:08.000",
    "date_modified": "2023-04-17T14:14:09.000",
    "request_status": "Pending",
    "responsible_agency": "Department of Sanitation",
    "final_address": "1210 Congress St",
    "address_councildis": "C",
    "status": "Assigned to Contractor",
    "contractor": "IV Waste",
    "rowid": "991729",
    "final_x": "3690787.09052",
    "final_y": "536018.019079",
    "longitude": "-90.03858464955259",
    "latitude": "29.967578418558002",
    "geocoded_column": {
      "latitude": "29.967578418558002",
      "longitude": "-90.03858464955259"
    }
  },
  {
    "service_request": "2023-991728",
    "request_type": "Trash/Recycling",
    "request_reason": "Order Recycling Cart",
    "date_created": "2023-04-17T14:13:22.000",
    "date_modified": "2023-04-17T14:13:22.000",
    "request_status": "Pending",
    "responsible_agency": "Department of Sanitation",
    "final_address": "4163 Dumaine St",
    "address_councildis": "A",
    "status": "Pending",
    "rowid": "991728",
    "final_x": "3672709.26113",
    "final_y": "540988.027723",
    "longitude": "-90.09550539560679",
    "latitude": "29.981793548583557",
    "geocoded_column": {
      "latitude": "29.981793548583557",
      "longitude": "-90.09550539560679"
    }
  },
  {
    "service_request": "2023-991727",
    "request_type": "Trash/Recycling",
    "request_reason": "Request a Large Item Pick Up",
    "date_created": "2023-04-17T14:10:21.000",
    "date_modified": "2023-04-17T14:10:22.000",
    "request_status": "Pending",
    "responsible_agency": "Department of Sanitation",
    "final_address": "5126 Metropolitan Dr",
    "address_councildis": "D",
    "status": "Assigned to Contractor",
    "contractor": "IV Waste",
    "rowid": "991727",
    "final_x": "3690362.74614",
    "final_y": "552173.291606",
    "longitude": "-90.03934858599573",
    "latitude": "30.012012774819283",
    "geocoded_column": {
      "latitude": "30.012012774819283",
      "longitude": "-90.03934858599573"
    }
  },
  {
    "service_request": "2023-991726",
    "request_type": "Trash/Recycling",
    "request_reason": "Request a Large Item Pick Up",
    "date_created": "2023-04-17T14:09:40.000",
    "date_modified": "2023-04-17T14:09:41.000",
    "request_status": "Pending",
    "responsible_agency": "Department of Sanitation",
    "final_address": "7162 Salem Dr",
    "address_councildis": "E",
    "status": "Assigned to Contractor",
    "contractor": "Waste Pro",
    "rowid": "991726",
    "final_x": "3706310.98775",
    "final_y": "561400.684638",
    "longitude": "-89.98861954309818",
    "latitude": "30.03687966204513",
    "geocoded_column": {
      "latitude": "30.03687966204513",
      "longitude": "-89.98861954309818"
    }
  },
  {
    "service_request": "2023-991725",
    "request_type": "Traffic Signals/Signs/Striping/Streetlights",
    "request_reason": "Street Light Outage/Malfunction",
    "date_created": "2023-04-17T14:07:34.000",
    "date_modified": "2023-04-17T14:07:53.000",
    "request_status": "Pending",
    "responsible_agency": "Department of Public Works",
    "final_address": "2714 Octavia St",
    "address_councildis": "A",
    "status": "Assigned to Contractor",
    "contractor": "Legacy Professional Services",
    "rowid": "991725",
    "final_x": "3667861.91418",
    "final_y": "525502.139901",
    "longitude": "-90.11133728499603",
    "latitude": "29.93935556097471",
    "geocoded_column": {
      "latitude": "29.93935556097471",
      "longitude": "-90.11133728499603"
    }
  },
  {
    "service_request": "2023-991724",
    "request_type": "Abandoned Vehicles",
    "request_reason": "Abandoned/Junk Vehicles",
    "date_created": "2023-04-17T14:04:12.000",
    "date_modified": "2023-04-17T14:10:48.000",
    "request_status": "Pending",
    "responsible_agency": "Department of Public Works",
    "final_address": "4737 Baronne St",
    "address_councildis": "B",
    "status": "Pending",
    "rowid": "991724",
    "final_x": "3669342.51233",
    "final_y": "521493.975929",
    "longitude": "-90.10679828607152",
    "latitude": "29.928290896061718",
    "geocoded_column": {
      "latitude": "29.928290896061718",
      "longitude": "-90.10679828607152"
    }
  },
  {
    "service_request": "2023-991723",
    "request_type": "Roads/Drainage",
    "request_reason": "Catch Basin - Clogged",
    "date_created": "2023-04-17T14:03:49.000",
    "date_modified": "2023-04-17T14:03:49.000",
    "request_status": "Pending",
    "responsible_agency": "Department of Public Works",
    "final_address": "714 Girod St",
    "address_councildis": "B",
    "status": "Pending",
    "rowid": "991723",
    "final_x": "3680350.20872",
    "final_y": "528560.244992",
    "longitude": "-90.07180384150418",
    "latitude": "29.947392213061658",
    "geocoded_column": {
      "latitude": "29.947392213061658",
      "longitude": "-90.07180384150418"
    }
  },
  {
    "service_request": "2023-991722",
    "request_type": "Trash/Recycling",
    "request_reason": "Missed Trash Pick-Up",
    "date_created": "2023-04-17T13:57:57.000",
    "date_modified": "2023-04-17T14:13:34.000",
    "request_status": "Pending",
    "responsible_agency": "Department of Sanitation",
    "final_address": "220 Jane Pl",
    "address_councildis": "B",
    "status": "Assigned to Contractor",
    "contractor": "Richards Disposal",
    "rowid": "991722",
    "final_x": "3674786.73723",
    "final_y": "534750.981446",
    "longitude": "-90.08915763767966",
    "latitude": "29.96458192172957",
    "geocoded_column": {
      "latitude": "29.96458192172957",
      "longitude": "-90.08915763767966"
    }
  },
  {
    "service_request": "2023-991721",
    "request_type": "Trash/Recycling",
    "request_reason": "Illegal Dumping",
    "date_created": "2023-04-17T13:54:28.000",
    "date_modified": "2023-04-17T13:54:28.000",
    "request_status": "Pending",
    "responsible_agency": "Department of Sanitation",
    "final_address": "MEXICO ST & ST ROCH AVE",
    "address_councildis": "D",
    "status": "Pending",
    "rowid": "991721",
    "final_x": "3684846.4",
    "final_y": "556254.38",
    "longitude": "-90.05663339644346",
    "latitude": "30.023404404914714",
    "geocoded_column": {
      "latitude": "30.023404404914714",
      "longitude": "-90.05663339644346"
    }
  },
  {
    "service_request": "2023-991720",
    "request_type": "Trash/Recycling",
    "request_reason": "Request a Large Item Pick Up",
    "date_created": "2023-04-17T13:54:06.000",
    "date_modified": "2023-04-17T13:54:07.000",
    "request_status": "Pending",
    "responsible_agency": "Department of Sanitation",
    "final_address": "1517 Audubon St",
    "address_councildis": "A",
    "status": "Assigned to Contractor",
    "contractor": "Richards Disposal",
    "rowid": "991720",
    "final_x": "3665148.36218",
    "final_y": "527341.708927",
    "longitude": "-90.11984284870844",
    "latitude": "29.944493079965188",
    "geocoded_column": {
      "latitude": "29.944493079965188",
      "longitude": "-90.11984284870844"
    }
  },
  {
    "service_request": "2023-991719",
    "request_type": "Traffic Signals/Signs/Striping/Streetlights",
    "request_reason": "Traffic Sign Missing/Damaged",
    "date_created": "2023-04-17T13:53:36.000",
    "date_modified": "2023-04-17T13:55:49.000",
    "request_status": "Pending",
    "responsible_agency": "Department of Public Works",
    "final_address": "CHEF MENTEUR HWY & CAMELOT DR",
    "address_councildis": "E",
    "status": "Pending",
    "rowid": "991719",
    "final_x": "3708571.1",
    "final_y": "553629.78",
    "longitude": "-89.98176683137203",
    "latitude": "30.015439594195445",
    "geocoded_column": {
      "latitude": "30.015439594195445",
      "longitude": "-89.98176683137203"
    }
  },
  {
    "service_request": "2023-991718",
    "request_type": "Trash/Recycling",
    "request_reason": "Repair Recycling Cart",
    "date_created": "2023-04-17T13:52:27.000",
    "date_modified": "2023-04-17T13:52:28.000",
    "request_status": "Pending",
    "responsible_agency": "Department of Sanitation",
    "final_address": "1435 Leda St",
    "address_councildis": "A",
    "status": "Pending",
    "rowid": "991718",
    "final_x": "3675555.63406",
    "final_y": "541355.203788",
    "longitude": "-90.0865025766136",
    "latitude": "29.98271830065982",
    "geocoded_column": {
      "latitude": "29.98271830065982",
      "longitude": "-90.0865025766136"
    }
  },
  {
    "service_request": "2023-991717",
    "request_type": "Trash/Recycling",
    "request_reason": "Repair Trash Cart",
    "date_created": "2023-04-17T13:51:02.000",
    "date_modified": "2023-04-17T13:51:03.000",
    "request_status": "Pending",
    "responsible_agency": "Department of Sanitation",
    "final_address": "4004 Hollygrove St",
    "address_councildis": "A",
    "status": "Assigned to Contractor",
    "contractor": "Richards Disposal",
    "rowid": "991717",
    "final_x": "3666324.67047",
    "final_y": "537939.272009",
    "longitude": "-90.11577334686962",
    "latitude": "29.973598595680752",
    "geocoded_column": {
      "latitude": "29.973598595680752",
      "longitude": "-90.11577334686962"
    }
  },
  {
    "service_request": "2023-991716",
    "request_type": "Abandoned Vehicles",
    "request_reason": "Abandoned/Junk Vehicles",
    "date_created": "2023-04-17T13:49:55.000",
    "date_modified": "2023-04-17T13:49:55.000",
    "request_status": "Pending",
    "responsible_agency": "Department of Public Works",
    "final_address": "8601 Leake Ave",
    "address_councildis": "A",
    "status": "Pending",
    "rowid": "991716",
    "final_x": "3660208.80339",
    "final_y": "529136.21248",
    "longitude": "-90.13537932999203",
    "latitude": "29.949570309269692",
    "geocoded_column": {
      "latitude": "29.949570309269692",
      "longitude": "-90.13537932999203"
    }
  },
  {
    "service_request": "2023-991715",
    "request_type": "Trash/Recycling",
    "request_reason": "Replace Trash Cart",
    "date_created": "2023-04-17T13:45:56.000",
    "date_modified": "2023-04-17T15:05:37.000",
    "request_status": "Pending",
    "responsible_agency": "Department of Sanitation",
    "final_address": "600 S Cortez St",
    "address_councildis": "B",
    "status": "Assigned to Contractor",
    "contractor": "Richards Disposal",
    "rowid": "991715",
    "final_x": "3670881.36468",
    "final_y": "535976.125255",
    "longitude": "-90.10144895703381",
    "latitude": "29.96806667962298",
    "geocoded_column": {
      "latitude": "29.96806667962298",
      "longitude": "-90.10144895703381"
    }
  },
  {
    "service_request": "2023-991714",
    "request_type": "Roads/Drainage",
    "request_reason": "Catch Basin - Clogged",
    "date_created": "2023-04-17T13:45:19.000",
    "date_modified": "2023-04-17T13:48:23.000",
    "request_status": "Pending",
    "responsible_agency": "Department of Public Works",
    "final_address": "2726 Prytania St",
    "address_councildis": "B",
    "status": "Pending",
    "rowid": "991714",
    "final_x": "3676306.64277",
    "final_y": "522107.487226",
    "longitude": "-90.08479294057153",
    "latitude": "29.92977103935137",
    "geocoded_column": {
      "latitude": "29.92977103935137",
      "longitude": "-90.08479294057153"
    }
  },
  {
    "service_request": "2023-991713",
    "request_type": "Abandoned Vehicles",
    "request_reason": "Abandoned/Junk Vehicles",
    "date_created": "2023-04-17T13:36:41.000",
    "date_modified": "2023-04-17T13:36:41.000",
    "request_status": "Pending",
    "responsible_agency": "Department of Public Works",
    "status": "Pending",
    "rowid": "991713",
    "longitude": "0.0",
    "latitude": "0.0",
    "geocoded_column": {
      "latitude": "0.0",
      "longitude": "0.0"
    }
  },
  {
    "service_request": "2023-991712",
    "request_type": "Trash/Recycling",
    "request_reason": "Request a Large Item Pick Up",
    "date_created": "2023-04-17T13:34:03.000",
    "date_modified": "2023-04-17T13:34:05.000",
    "request_status": "Pending",
    "responsible_agency": "Department of Sanitation",
    "final_address": "7519 Sandy Cove Dr",
    "address_councildis": "E",
    "status": "Assigned to Contractor",
    "contractor": "Waste Pro",
    "rowid": "991712",
    "final_x": "3716040.85912",
    "final_y": "568911.764517",
    "longitude": "-89.95758640532006",
    "latitude": "30.057214510743293",
    "geocoded_column": {
      "latitude": "30.057214510743293",
      "longitude": "-89.95758640532006"
    }
  },
  {
    "service_request": "2023-991711",
    "request_type": "Roads/Drainage",
    "request_reason": "Pothole",
    "date_created": "2023-04-17T13:29:33.000",
    "date_modified": "2023-04-17T15:44:39.000",
    "case_close_date": "2023-04-17T10:44:39.000",
    "request_status": "Closed",
    "responsible_agency": "Department of Public Works",
    "final_address": "2100 Music St",
    "address_councildis": "D",
    "status": "Referred to External Agency",
    "rowid": "991711",
    "final_x": "3686496.983",
    "final_y": "540161.415755",
    "longitude": "-90.0519865508163",
    "latitude": "29.979103903755256",
    "geocoded_column": {
      "latitude": "29.979103903755256",
      "longitude": "-90.0519865508163"
    }
  },
  {
    "service_request": "2023-991710",
    "request_type": "Traffic Signals/Signs/Striping/Streetlights",
    "request_reason": "Traffic Sign Missing/Damaged",
    "date_created": "2023-04-17T13:29:01.000",
    "date_modified": "2023-04-17T13:29:01.000",
    "request_status": "Pending",
    "responsible_agency": "Department of Public Works",
    "final_address": "UNION ST & ST CHARLES AVE",
    "address_councildis": "B",
    "status": "Pending",
    "rowid": "991710",
    "final_x": "3680853.0",
    "final_y": "529899.58",
    "longitude": "-90.07016971958608",
    "latitude": "29.95105970361861",
    "geocoded_column": {
      "latitude": "29.95105970361861",
      "longitude": "-90.07016971958608"
    }
  },