[
  {
    "service_request": "2026-1296875",
    "request_type": "Utility Poles",
    "request_reason": "Wires Sagging/Hanging Low",
    "date_created": "2026-07-05T23:36:03.000",
    "date_modified": "2026-07-05T23:36:07.000",
    "request_status": "Pending",
    "responsible_agency": "Utility Company Collective",
    "final_address": "2310 Prentiss Ave",
    "address_councildis": "D",
    "status": "Pending",
    "rowid": "1296875",
    "final_x": "3684477.65346",
    "final_y": "553804.777495",
    "longitude": "-90.05788471361342",
    "latitude": "30.016680191632204",
    "geocoded_column": {
      "latitude": "30.016680191632204",
      "longitude": "-90.05788471361342"
    }
  },
  {
    "service_request": "2026-1296874",
    "request_type": "Health Related Request",
    "request_reason": "Noise Ordinance Complaint",
    "date_created": "2026-07-05T23:05:50.000",
    "date_modified": "2026-07-05T23:05:51.000",
    "request_status": "Pending",
    "responsible_agency": "Health Department",
    "final_address": "801 Bourbon St, New Orleans, Louisiana, 70116",
    "address_councildis": "C",
    "status": "Pending",
    "rowid": "1296874",
    "final_x": "3682490.98735",
    "final_y": "533018.672772",
    "longitude": "-90.06488875731978",
    "latitude": "29.959586396383013",
    "geocoded_column": {
      "latitude": "29.959586396383013",
      "longitude": "-90.06488875731978"
    }
  },
  {
    "service_request": "2026-1296873",
    "request_type": "Health Related Request",
    "request_reason": "Noise Ordinance Complaint",
    "date_created": "2026-07-05T23:05:27.000",
    "date_modified": "2026-07-05T23:05:28.000",
    "request_status": "Pending",
    "responsible_agency": "Health Department",
    "final_address": "800 Bourbon St, New Orleans, Louisiana, 70116",
    "address_councildis": "C",
    "status": "Pending",
    "rowid": "1296873",
    "final_x": "3682553.51528",
    "final_y": "533013.631428",
    "longitude": "-90.06469148499534",
    "latitude": "29.95957063099051",
    "geocoded_column": {
      "latitude": "29.95957063099051",
      "longitude": "-90.06469148499534"
    }
  },
  {
    "service_request": "2026-1296872",
    "request_type": "Trash/Recycling",
    "request_reason": "Request a Large Item Pick Up",
    "date_created": "2026-07-05T23:05:18.000",
    "date_modified": "2026-07-05T23:05:19.000",
    "request_status": "Pending",
    "responsible_agency": "Department of Sanitation",
    "final_address": "14010 Kingswood Dr",
    "address_councildis": "E",
    "status": "Assigned to Contractor",
    "contractor": "Waste Pro",
    "rowid": "1296872",
    "final_x": "3719355.32268",
    "final_y": "568422.321189",
    "longitude": "-89.94712869413846",
    "latitude": "30.05575890777665",
    "geocoded_column": {
      "latitude": "30.05575890777665",
      "longitude": "-89.94712869413846"
    }
  },
  {
    "service_request": "2026-1296871",
    "request_type": "Trash/Recycling",
    "request_reason": "Illegal Dumping",
    "date_created": "2026-07-05T22:08:58.000",
    "date_modified": "2026-07-05T22:09:00.000",
    "request_status": "Pending",
    "responsible_agency": "Department of Code Enforcement",
    "final_address": "801 Bourbon St, New Orleans, Louisiana, 70116",
    "address_councildis": "C",
    "status": "Pending",
    "rowid": "1296871",
    "final_x": "3682490.98735",
    "final_y": "533018.672772",
    "longitude": "-90.06488875731978",
    "latitude": "29.959586396383013",
    "geocoded_column": {
      "latitude": "29.959586396383013",
      "longitude": "-90.06488875731978"
    }
  },
  {
    "service_request": "2026-1296870",
    "request_type": "Health Related Request",
    "request_reason": "Noise Ordinance Complaint",
    "date_created": "2026-07-05T22:05:08.000",
    "date_modified": "2026-07-05T22:05:09.000",
    "request_status": "Pending",
    "responsible_agency": "Health Department",
    "final_address": "800 Bourbon St, New Orleans, Louisiana, 70116",
    "address_councildis": "C",
    "status": "Pending",
    "rowid": "1296870",
    "final_x": "3682553.51528",
    "final_y": "533013.631428",
    "longitude": "-90.06469148499534",
    "latitude": "29.95957063099051",
    "geocoded_column": {
      "latitude": "29.95957063099051",
      "longitude": "-90.06469148499534"
    }
  },
  {
    "service_request": "2026-1296869",
    "request_type": "Health Related Request",
    "request_reason": "Noise Ordinance Complaint",
    "date_created": "2026-07-05T22:04:07.000",
    "date_modified": "2026-07-05T22:04:09.000",
    "request_status": "Pending",
    "responsible_agency": "Health Department",
    "final_address": "801 Bourbon St, New Orleans, Louisiana, 70116",
    "address_councildis": "C",
    "status": "Pending",
    "rowid": "1296869",
    "final_x": "3682490.98735",
    "final_y": "533018.672772",
    "longitude": "-90.06488875731978",
    "latitude": "29.959586396383013",
    "geocoded_column": {
      "latitude": "29.959586396383013",
      "longitude": "-90.06488875731978"
    }
  },
  {
    "service_request": "2026-1296868",
    "request_type": "Traffic Signals",
    "request_reason": "Traffic Signal Malfunctioning or Damaged",
    "date_created": "2026-07-05T21:52:48.000",
    "date_modified": "2026-07-05T21:52:50.000",
    "request_status": "Pending",
    "responsible_agency": "Department of Public Works",
    "final_address": "1000 BLK L. B. Landry Ave",
    "address_councildis": "C",
    "status": "Pending",
    "rowid": "1296868",
    "final_x": "3690187.79216",
    "final_y": "527660.033378",
    "longitude": "-90.04077498432015",
    "latitude": "29.944615461965846",
    "geocoded_column": {
      "latitude": "29.944615461965846",
      "longitude": "-90.04077498432015"
    }
  },
  {
    "service_request": "2026-1296867",
    "request_type": "Streetlights",
    "request_reason": "Streetlight Outage/Malfunction",
    "date_created": "2026-07-05T21:43:48.000",
    "date_modified": "2026-07-05T21:43:50.000",
    "request_status": "Pending",
    "responsible_agency": "Department of Public Works",
    "final_address": "3708 Garden Oaks Dr",
    "address_councildis": "C",
    "status": "Pending",
    "rowid": "1296867",
    "final_x": "3696008.42646",
    "final_y": "518022.273206",
    "longitude": "-90.02274565818763",
    "latitude": "29.917933096949646",
    "geocoded_column": {
      "latitude": "29.917933096949646",
      "longitude": "-90.02274565818763"
    }
  },
  {
    "service_request": "2026-1296866",
    "request_type": "Trash/Recycling",
    "request_reason": "Order Trash Cart",
    "date_created": "2026-07-05T21:40:41.000",
    "date_modified": "2026-07-05T21:40:43.000",
    "request_status": "Pending",
    "responsible_agency": "Department of Sanitation",
    "final_address": "5532 Garfield St",
    "address_councildis": "A",
    "status": "Assigned to Contractor",
    "contractor": "IV Waste",
    "rowid": "1296866",
    "final_x": "3666704.77716",
    "final_y": "521139.764409",
    "longitude": "-90.11513695275525",
    "latitude": "29.927394299975422",
    "geocoded_column": {
      "latitude": "29.927394299975422",
      "longitude": "-90.11513695275525"
    }
  },
  {
    "service_request": "2026-1296865",
    "request_type": "Trash/Recycling",
    "request_reason": "Missed Trash Pick-Up",
    "date_created": "2026-07-05T21:36:59.000",
    "date_modified": "2026-07-05T21:37:01.000",
    "request_status": "Pending",
    "responsible_agency": "Department of Sanitation",
    "final_address": "817 Arabella St",
    "address_councildis": "A",
    "status": "Assigned to Contractor",
    "contractor": "IV Waste",
    "rowid": "1296865",
    "final_x": "3665903.99904",
    "final_y": "519074.647223",
    "longitude": "-90.117733979404",
    "latitude": "29.921739262844678",
    "geocoded_column": {
      "latitude": "29.921739262844678",
      "longitude": "-90.117733979404"
    }
  },
  {
    "service_request": "2026-1296863",
    "request_type": "Streetlights",
    "request_reason": "Streetlight Outage/Malfunction",
    "date_created": "2026-07-05T21:35:11.000",
    "date_modified": "2026-07-05T21:35:13.000",
    "request_status": "Pending",
    "responsible_agency": "Department of Public Works",
    "final_address": "3701 Behrman Pl",
    "address_councildis": "C",
    "status": "Pending",
    "rowid": "1296863",
    "final_x": "3697532.11869",
    "final_y": "517224.025461",
    "longitude": "-90.01796514836522",
    "latitude": "29.915690177619858",
    "geocoded_column": {
      "latitude": "29.915690177619858",
      "longitude": "-90.01796514836522"
    }
  },
  {
    "service_request": "2026-1296862",
    "request_type": "Trash/Recycling",
    "request_reason": "Request a Large Item Pick Up",
    "date_created": "2026-07-05T21:29:42.000",
    "date_modified": "2026-07-05T21:29:44.000",
    "request_status": "Pending",
    "responsible_agency": "Department of Sanitation",
    "final_address": "13516 St Marie Dr",
    "address_councildis": "E",
    "status": "Assigned to Contractor",
    "contractor": "Waste Pro",
    "rowid": "1296862",
    "final_x": "3724184.56128",
    "final_y": "569053.235302",
    "longitude": "-89.93184019029844",
    "latitude": "30.057332132708005",
    "geocoded_column": {
      "latitude": "30.057332132708005",
      "longitude": "-89.93184019029844"
    }
  },
  {
    "service_request": "2026-1296861",
    "request_type": "Trash/Recycling",
    "request_reason": "Replace Recycling Cart",
    "date_created": "2026-07-05T21:26:51.000",
    "date_modified": "2026-07-05T21:26:53.000",
    "request_status": "Pending",
    "responsible_agency": "Department of Sanitation",
    "final_address": "2726 S Carrollton Ave",
    "address_councildis": "A",
    "status": "Pending",
    "rowid": "1296861",
    "final_x": "3665735.94087",
    "final_y": "532532.562372",
    "longitude": "-90.11781382706118",
    "latitude": "29.95874911816156",
    "geocoded_column": {
      "latitude": "29.95874911816156",
      "longitude": "-90.11781382706118"
    }
  },
  {
    "service_request": "2026-1296860",
    "request_type": "Trash/Recycling",
    "request_reason": "Request a Large Item Pick Up",
    "date_created": "2026-07-05T21:26:16.000",
    "date_modified": "2026-07-05T21:26:20.000",
    "request_status": "Pending",
    "responsible_agency": "Department of Sanitation",
    "final_address": "1905 Eagle St",
    "address_councildis": "A",
    "status": "Assigned to Contractor",
    "contractor": "IV Waste",
    "rowid": "1296860",
    "final_x": "3661853.53927",
    "final_y": "531885.648067",
    "longitude": "-90.13009496716565",
    "latitude": "29.957082987094886",
    "geocoded_column": {
      "latitude": "29.957082987094886",
      "longitude": "-90.13009496716565"
    }
  },
  {
    "service_request": "2026-1296859",
    "request_type": "Traffic Signals",
    "request_reason": "Traffic Signal Malfunctioning or Damaged",
    "date_created": "2026-07-05T21:20:12.000",
    "date_modified": "2026-07-05T21:20:13.000",
    "request_status": "Pending",
    "responsible_agency": "Department of Public Works",
    "final_address": "NAPOLEON AVE & S CLAIBORNE AVE",
    "address_councildis": "B",
    "status": "Pending",
    "rowid": "1296859",
    "final_x": "3670320.5",
    "final_y": "525786.88",
    "longitude": "-90.10356554298984",
    "latitude": "29.940066178929065",
    "geocoded_column": {
      "latitude": "29.940066178929065",
      "longitude": "-90.10356554298984"
    }
  },
  {
    "service_request": "2026-1296858",
    "request_type": "Trash/Recycling",
    "request_reason": "Request a Large Item Pick Up",
    "date_created": "2026-07-05T21:19:35.000",
    "date_modified": "2026-07-05T21:19:38.000",
    "request_status": "Pending",
    "responsible_agency": "Department of Sanitation",
    "final_address": "3525 Gibson St",
    "address_councildis": "D",
    "status": "Assigned to Contractor",
    "contractor": "IV Waste",
    "rowid": "1296858",
    "final_x": "3678948.51579",
    "final_y": "545315.307471",
    "longitude": "-90.0756488650686",
    "latitude": "29.993505249031422",
    "geocoded_column": {
      "latitude": "29.993505249031422",
      "longitude": "-90.0756488650686"
    }
  },
  {
    "service_request": "2026-1296857",
    "request_type": "Trash/Recycling",
    "request_reason": "Request a Large Item Pick Up",
    "date_created": "2026-07-05T21:10:58.000",
    "date_modified": "2026-07-05T21:11:01.000",
    "request_status": "Pending",
    "responsible_agency": "Department of Sanitation",
    "final_address": "6938 Canal Blvd",
    "address_councildis": "A",
    "status": "Assigned to Contractor",
    "contractor": "IV Waste",
    "rowid": "1296857",
    "final_x": "3668931.30426",
    "final_y": "553647.147479",
    "longitude": "-90.10701008434211",
    "latitude": "30.016713422646617",
    "geocoded_column": {
      "latitude": "30.016713422646617",
      "longitude": "-90.10701008434211"
    }
  },
  {
    "service_request": "2026-1296856",
    "request_type": "Trash/Recycling",
    "request_reason": "Order Trash Cart",
    "date_created": "2026-07-05T20:38:36.000",
    "date_modified": "2026-07-05T20:38:39.000",
    "request_status": "Pending",
    "responsible_agency": "Department of Sanitation",
    "final_address": "83 Yellowstone Dr",
    "address_councildis": "C",
    "status": "Assigned to Contractor",
    "contractor": "Richards Disposal",
    "rowid": "1296856",
    "final_x": "3700405.43645",
    "final_y": "516012.399348",
    "longitude": "-90.00894012545544",
    "latitude": "29.91226760926235",
    "geocoded_column": {
      "latitude": "29.91226760926235",
      "longitude": "-90.00894012545544"
    }
  },
  {
    "service_request": "2026-1296855",
    "request_type": "Drainage",
    "request_reason": "Catch Basin Not Draining",
    "date_created": "2026-07-05T20:29:12.000",
    "date_modified": "2026-07-05T20:29:14.000",
    "request_status": "Pending",
    "responsible_agency": "Sewerage & Water Board",
    "final_address": "2232 S Robertson St",
    "address_councildis": "B",
    "status": "Pending",
    "rowid": "1296855",
    "final_x": "3675216.1467",
    "final_y": "526369.897534",
    "longitude": "-90.08808922119262",
    "latitude": "29.941523903845816",
    "geocoded_column": {
      "latitude": "29.941523903845816",
      "longitude": "-90.08808922119262"
    }
  },
  {
    "service_request": "2026-1296854",
    "request_type": "Trash/Recycling",
    "request_reason": "Order Recycling Cart",
    "date_created": "2026-07-05T20:27:08.000",
    "date_modified": "2026-07-05T20:27:09.000",
    "request_status": "Pending",
    "responsible_agency": "Department of Sanitation",
    "final_address": "2033 Fern St",
    "address_councildis": "A",
    "status": "Pending",
    "rowid": "1296854",
    "final_x": "3664648.22407",
    "final_y": "530109.092801",
    "longitude": "-90.1213295177727",
    "latitude": "29.95211704759856",
    "geocoded_column": {
      "latitude": "29.95211704759856",
      "longitude": "-90.1213295177727"
    }
  },
  {
    "service_request": "2026-1296853",
    "request_type": "Trash/Recycling",
    "request_reason": "Request a Large Item Pick Up",
    "date_created": "2026-07-05T20:26:54.000",
    "date_modified": "2026-07-05T20:26:56.000",
    "request_status": "Pending",
    "responsible_agency": "Department of Sanitation",
    "final_address": "2216 S Salcedo St",
    "address_councildis": "B",
    "status": "Assigned to Contractor",
    "contractor": "IV Waste",
    "rowid": "1296853",
    "final_x": "3669285.7595",
    "final_y": "528860.585216",
    "longitude": "-90.1067285038451",
    "latitude": "29.948548365331032",
    "geocoded_column": {
      "latitude": "29.948548365331032",
      "longitude": "-90.1067285038451"
    }
  },
  {
    "service_request": "2026-1296852",
    "request_type": "Trash/Recycling",
    "request_reason": "Order Second Trash Cart",
    "date_created": "2026-07-05T20:23:53.000",
    "date_modified": "2026-07-05T20:23:55.000",
    "request_status": "Pending",
    "responsible_agency": "Department of Sanitation",
    "final_address": "7410 Shaw Ave",
    "address_councildis": "E",
    "status": "Assigned to Contractor",
    "contractor": "Waste Pro",
    "rowid": "1296852",
    "final_x": "3707480.01348",
    "final_y": "563643.234593",
    "longitude": "-89.98484179777543",
    "latitude": "30.04300800979971",
    "geocoded_column": {
      "latitude": "30.04300800979971",
      "longitude": "-89.98484179777543"
    }
  },
  {
    "service_request": "2026-1296851",
    "request_type": "Trash/Recycling",
    "request_reason": "Replace Trash Cart",
    "date_created": "2026-07-05T20:21:10.000",
    "date_modified": "2026-07-05T20:21:13.000",
    "request_status": "Pending",
    "responsible_agency": "Department of Sanitation",
    "final_address": "2316 Jasmine St",
    "address_councildis": "D",
    "status": "Assigned to Contractor",
    "contractor": "IV Waste",
    "rowid": "1296851",
    "final_x": "3685438.90428",
    "final_y": "547911.072466",
    "longitude": "-90.0550553124144",
    "latitude": "30.00044519207522",
    "geocoded_column": {
      "latitude": "30.00044519207522",
      "longitude": "-90.0550553124144"
    }
  },
  {
    "service_request": "2026-1296850",
    "request_type": "Trash/Recycling",
    "request_reason": "Missed Trash Pick-Up",
    "date_created": "2026-07-05T20:05:11.000",
    "date_modified": "2026-07-05T20:05:13.000",
    "request_status": "Pending",
    "responsible_agency": "Department of Sanitation",
    "final_address": "3817 Palmyra St",
    "address_councildis": "A",
    "status": "Assigned to Contractor",
    "contractor": "IV Waste",
    "rowid": "1296850",
    "final_x": "3671489.92289",
    "final_y": "537096.625288",
    "longitude": "-90.09948899924301",
    "latitude": "29.971129674039933",
    "geocoded_column": {
      "latitude": "29.971129674039933",
      "longitude": "-90.09948899924301"
    }
  },
  {
    "service_request": "2026-1296849",
    "request_type": "Traffic Signals",
    "request_reason": "Traffic Signal Malfunctioning or Damaged",
    "date_created": "2026-07-05T19:51:51.000",
    "date_modified": "2026-07-05T19:51:53.000",
    "request_status": "Pending",
    "responsible_agency": "Department of Public Works",
    "final_address": "2301 Orleans Ave",
    "address_councildis": "C",
    "status": "Pending",
    "rowid": "1296849",
    "final_x": "3678147.65941",
    "final_y": "536062.796423",
    "longitude": "-90.07849871929459",
    "latitude": "29.968088193444494",
    "geocoded_column": {
      "latitude": "29.968088193444494",
      "longitude": "-90.07849871929459"
    }
  },
  {
    "service_request": "2026-1296848",
    "request_type": "Trash/Recycling",
    "request_reason": "Return Trash Cart",
    "date_created": "2026-07-05T19:40:41.000",
    "date_modified": "2026-07-05T19:40:43.000",
    "request_status": "Pending",
    "responsible_agency": "Department of Sanitation",
    "final_address": "5223 S Derbigny St",
    "address_councildis": "B",
    "status": "Assigned to Contractor",
    "contractor": "IV Waste",
    "rowid": "1296848",
    "final_x": "3668665.11527",
    "final_y": "526314.708158",
    "longitude": "-90.10877405106785",
    "latitude": "29.94156628366126",
    "geocoded_column": {
      "latitude": "29.94156628366126",
      "longitude": "-90.10877405106785"
    }
  },
  {
    "service_request": "2026-1296847",
    "request_type": "Trash/Recycling",
    "request_reason": "Replace Recycling Cart",
    "date_created": "2026-07-05T19:35:09.000",
    "date_modified": "2026-07-05T19:35:11.000",
    "request_status": "Pending",
    "responsible_agency": "Department of Sanitation",
    "final_address": "1025 Kentucky St",
    "address_councildis": "C",
    "status": "Pending",
    "rowid": "1296847",
    "final_x": "3693301.34787",
    "final_y": "534693.044678",
    "longitude": "-90.03069217215898",
    "latitude": "29.963856849556752",
    "geocoded_column": {
      "latitude": "29.963856849556752",
      "longitude": "-90.03069217215898"
    }
  },
  {
    "service_request": "2026-1296846",
    "request_type": "Trash/Recycling",
    "request_reason": "Request a Large Item Pick Up",
    "date_created": "2026-07-05T19:34:40.000",
    "date_modified": "2026-07-05T19:34:43.000",
    "request_status": "Pending",
    "responsible_agency": "Department of Sanitation",
    "final_address": "627 Seguin St",
    "address_councildis": "C",
    "status": "Assigned to Contractor",
    "contractor": "Richards Disposal",
    "rowid": "1296846",
    "final_x": "3686755.43542",
    "final_y": "529442.464385",
    "longitude": "-90.05154897108422",
    "latitude": "29.94962255714438",
    "geocoded_column": {
      "latitude": "29.94962255714438",
      "longitude": "-90.05154897108422"
    }
  },
  {
    "service_request": "2026-1296845",
    "request_type": "Trash/Recycling",
    "request_reason": "Replace Recycling Cart",
    "date_created": "2026-07-05T19:30:49.000",
    "date_modified": "2026-07-05T19:30:51.000",
    "request_status": "Pending",
    "responsible_agency": "Department of Sanitation",
    "final_address": "2424 Laharpe St",
    "address_councildis": "D",
    "status": "Pending",
    "rowid": "1296845",
    "final_x": "3679521.02562",
    "final_y": "539307.92193",
    "longitude": "-90.07404894797025",
    "latitude": "29.976969745620085",
    "geocoded_column": {
      "latitude": "29.976969745620085",
      "longitude": "-90.07404894797025"
    }
  },
  {
    "service_request": "2026-1296844",
    "request_type": "Trash/Recycling",
    "request_reason": "Request a Large Item Pick Up",
    "date_created": "2026-07-05T19:23:06.000",
    "date_modified": "2026-07-05T19:23:08.000",
    "request_status": "Pending",
    "responsible_agency": "Department of Sanitation",
    "final_address": "121 S Murat St",
    "address_councildis": "A",
    "status": "Assigned to Contractor",
    "contractor": "IV Waste",
    "rowid": "1296844",
    "final_x": "3669507.60257",
    "final_y": "539246.73345",
    "longitude": "-90.10567669999202",
    "latitude": "29.97710029244941",
    "geocoded_column": {
      "latitude": "29.97710029244941",
      "longitude": "-90.10567669999202"
    }
  },
  {
    "service_request": "2026-1296843",
    "request_type": "Drainage",
    "request_reason": "Catch Basin Not Draining",
    "date_created": "2026-07-05T19:08:51.000",
    "date_modified": "2026-07-05T19:08:53.000",
    "request_status": "Pending",
    "responsible_agency": "Sewerage & Water Board",
    "final_address": "1233 St Mary St",
    "address_councildis": "B",
    "status": "Pending",
    "rowid": "1296843",
    "final_x": "3679308.91528",
    "final_y": "523346.731771",
    "longitude": "-90.07527233632892",
    "latitude": "29.93308826190815",
    "geocoded_column": {
      "latitude": "29.93308826190815",
      "longitude": "-90.07527233632892"
    }
  },
  {
    "service_request": "2026-1296842",
    "request_type": "General Services",
    "request_reason": "General Service Request",
    "date_created": "2026-07-05T19:04:44.000",
    "date_modified": "2026-07-05T19:04:46.000",
    "request_status": "Pending",
    "responsible_agency": "Orleans Parish Communication District",
    "final_address": "5711 Bancroft Dr",
    "address_councildis": "D",
    "status": "Pending",
    "rowid": "1296842",
    "final_x": "3676578.9924",
    "final_y": "553404.685143",
    "longitude": "-90.08285495741183",
    "latitude": "30.01581946720152",
    "geocoded_column": {
      "latitude": "30.01581946720152",
      "longitude": "-90.08285495741183"
    }
  },
  {
    "service_request": "2026-1296841",
    "request_type": "Trash/Recycling",
    "request_reason": "Request a Large Item Pick Up",
    "date_created": "2026-07-05T18:59:48.000",
    "date_modified": "2026-07-05T18:59:51.000",
    "request_status": "Pending",
    "responsible_agency": "Department of Sanitation",
    "final_address": "1550 N Galvez St",
    "address_councildis": "D",
    "status": "Assigned to Contractor",
    "contractor": "IV Waste",
    "rowid": "1296841",
    "final_x": "3680665.92987",
    "final_y": "538587.473161",
    "longitude": "-90.07045805427593",
    "latitude": "29.97495411371902",
    "geocoded_column": {
      "latitude": "29.97495411371902",
      "longitude": "-90.07045805427593"
    }
  },
  {
    "service_request": "2026-1296840",
    "request_type": "Traffic Signals",
    "request_reason": "Traffic Signal Malfunctioning or Damaged",
    "date_created": "2026-07-05T18:36:26.000",
    "date_modified": "2026-07-05T18:36:28.000",
    "request_status": "Pending",
    "responsible_agency": "Department of Public Works",
    "final_address": "100 BLK Chartres St",
    "address_councildis": "C",
    "status": "Pending",
    "rowid": "1296840",
    "final_x": "3681615.32112",
    "final_y": "530643.96934",
    "longitude": "-90.06773673217515",
    "latitude": "29.953083393280075",
    "geocoded_column": {
      "latitude": "29.953083393280075",
      "longitude": "-90.06773673217515"
    }
  },
  {
    "service_request": "2026-1296839",
    "request_type": "Trash/Recycling",
    "request_reason": "Request a Large Item Pick Up",
    "date_created": "2026-07-05T18:26:12.000",
    "date_modified": "2026-07-05T18:26:14.000",
    "request_status": "Pending",
    "responsible_agency": "Department of Sanitation",
    "final_address": "3319 Baudin St",
    "address_councildis": "B",
    "status": "Assigned to Contractor",
    "contractor": "IV Waste",
    "rowid": "1296839",
    "final_x": "3672502.78183",
    "final_y": "535295.402118",
    "longitude": "-90.09635165765384",
    "latitude": "29.96614688885437",
    "geocoded_column": {
      "latitude": "29.96614688885437",
      "longitude": "-90.09635165765384"
    }
  },
  {
    "service_request": "2026-1296838",
    "request_type": "Tree Service",
    "request_reason": "Tree Trim",
    "date_created": "2026-07-05T18:20:25.000",
    "date_modified": "2026-07-05T18:20:27.000",
    "request_status": "Pending",
    "responsible_agency": "Department of Parks & Parkways",
    "final_address": "5333 Coliseum St",
    "address_councildis": "B",
    "status": "Pending",
    "rowid": "1296838",
    "final_x": "3667383.56705",
    "final_y": "519801.768312",
    "longitude": "-90.1130391562591",
    "latitude": "29.923695373444726",
    "geocoded_column": {
      "latitude": "29.923695373444726",
      "longitude": "-90.1130391562591"
    }
  },
  {
    "service_request": "2026-1296837",
    "request_type": "Traffic Signals",
    "request_reason": "Traffic Signal Malfunctioning or Damaged",
    "date_created": "2026-07-05T18:14:43.000",
    "date_modified": "2026-07-05T18:14:45.000",
    "request_status": "Pending",
    "responsible_agency": "Department of Public Works",
    "final_address": "NAPOLEON AVE & S CLAIBORNE AVE",
    "address_councildis": "B",
    "status": "Pending",
    "rowid": "1296837",
    "final_x": "3670320.5",
    "final_y": "525786.88",
    "longitude": "-90.10356554298984",
    "latitude": "29.940066178929065",
    "geocoded_column": {
      "latitude": "29.940066178929065",
      "longitude": "-90.10356554298984"
    }
  },
  {
    "service_request": "2026-1296836",
    "request_type": "Traffic Signals",
    "request_reason": "Traffic Signal Malfunctioning or Damaged",
    "date_created": "2026-07-05T17:54:09.000",
    "date_modified": "2026-07-05T17:54:12.000",
    "request_status": "Pending",
    "responsible_agency": "Department of Public Works",
    "final_address": "100 BLK Camp St",
    "address_councildis": "B",
    "status": "Pending",
    "rowid": "1296836",
    "final_x": "3681384.35832",
    "final_y": "530284.107527",
    "longitude": "-90.068478554501",
    "latitude": "29.952100907296813",
    "geocoded_column": {
      "latitude": "29.952100907296813",
      "longitude": "-90.068478554501"
    }
  },
  {
    "service_request": "2026-1296835",
    "request_type": "Healthy Homes",
    "request_reason": "Healthy Homes",
    "date_created": "2026-07-05T17:48:36.000",
    "date_modified": "2026-07-05T17:48:38.000",
    "request_status": "Pending",
    "responsible_agency": "Department of Code Enforcement",
    "final_address": "2131 S Liberty St",
    "address_councildis": "B",
    "status": "Pending",
    "rowid": "1296835",
    "final_x": "3676078.14625",
    "final_y": "525892.279933",
    "longitude": "-90.08538413856623",
    "latitude": "29.940184826119726",
    "geocoded_column": {
      "latitude": "29.940184826119726",
      "longitude": "-90.08538413856623"
    }
  },
  {
    "service_request": "2026-1296834",
    "request_type": "Healthy Homes",
    "request_reason": "Healthy Homes",
    "date_created": "2026-07-05T17:46:24.000",
    "date_modified": "2026-07-05T17:46:25.000",
    "request_status": "Pending",
    "responsible_agency": "Department of Code Enforcement",
    "final_address": "2131 S Liberty St",
    "address_councildis": "B",
    "status": "Pending",
    "rowid": "1296834",
    "final_x": "3676078.14625",
    "final_y": "525892.279933",
    "longitude": "-90.08538413856623",
    "latitude": "29.940184826119726",
    "geocoded_column": {
      "latitude": "29.940184826119726",
      "longitude": "-90.08538413856623"
    }
  },
  {
    "service_request": "2026-1296833",
    "request_type": "Mosquito, Termite & Rodent Control",
    "request_reason": "Rodent Complaint (Mice & Rats)",
    "date_created": "2026-07-05T17:43:00.000",
    "date_modified": "2026-07-05T17:43:03.000",
    "request_status": "Pending",
    "responsible_agency": "Mosquito, Termite & Rodent Control Board",
    "final_address": "2221 Terpsichore St",
    "address_councildis": "B",
    "status": "Pending",
    "rowid": "1296833",
    "final_x": "3676691.91886",
    "final_y": "526844.67027",
    "longitude": "-90.0834135618805",
    "latitude": "29.942785190540114",
    "geocoded_column": {
      "latitude": "29.942785190540114",
      "longitude": "-90.0834135618805"
    }
  },
  {
    "service_request": "2026-1296832",
    "request_type": "Trash/Recycling",
    "request_reason": "Repair Recycling Cart",
    "date_created": "2026-07-05T17:38:52.000",
    "date_modified": "2026-07-05T17:38:54.000",
    "request_status": "Pending",
    "responsible_agency": "Department of Sanitation",
    "final_address": "765 Crystal St",
    "address_councildis": "D",
    "status": "Pending",
    "rowid": "1296832",
    "final_x": "3670152.61146",
    "final_y": "556253.609498",
    "longitude": "-90.10306283703815",
    "latitude": "30.02384426768407",
    "geocoded_column": {
      "latitude": "30.02384426768407",
      "longitude": "-90.10306283703815"
    }
  },
  {
    "service_request": "2026-1296831",
    "request_type": "Property Maintenance",
    "request_reason": "Property Maintenance",
    "date_created": "2026-07-05T17:30:39.000",
    "date_modified": "2026-07-05T17:30:41.000",
    "request_status": "Pending",
    "responsible_agency": "Department of Code Enforcement",
    "final_address": "1450 Josephine St",
    "address_councildis": "B",
    "status": "Pending",
    "rowid": "1296831",
    "final_x": "3678247.27253",
    "final_y": "523444.999739",
    "longitude": "-90.07862047326248",
    "latitude": "29.933390474531205",
    "geocoded_column": {
      "latitude": "29.933390474531205",
      "longitude": "-90.07862047326248"
    }
  },
  {
    "service_request": "2026-1296830",
    "request_type": "Traffic Signals",
    "request_reason": "Traffic Signal Malfunctioning or Damaged",
    "date_created": "2026-07-05T17:28:55.000",
    "date_modified": "2026-07-05T17:28:56.000",
    "request_status": "Pending",
    "responsible_agency": "Department of Public Works",
    "final_address": "CANAL ST & DAUPHINE ST",
    "address_councildis": "C",
    "status": "Pending",
    "rowid": "1296830",
    "final_x": "3680651.4",
    "final_y": "531147.58",
    "longitude": "-90.0707628512661",
    "latitude": "29.95449739199053",
    "geocoded_column": {
      "latitude": "29.95449739199053",
      "longitude": "-90.0707628512661"
    }
  },
  {
    "service_request": "2026-1296829",
    "request_type": "Trash/Recycling",
    "request_reason": "Illegal Dumping",
    "date_created": "2026-07-05T17:21:30.000",
    "date_modified": "2026-07-05T17:21:32.000",
    "request_status": "Pending",
    "responsible_agency": "Department of Sanitation",
    "final_address": "5717 Rosemary Pl",
    "address_councildis": "A",
    "status": "Pending",
    "rowid": "1296829",
    "final_x": "3667350.36193",
    "final_y": "545728.098256",
    "longitude": "-90.11227184721808",
    "latitude": "29.994985220560345",
    "geocoded_column": {
      "latitude": "29.994985220560345",
      "longitude": "-90.11227184721808"
    }
  },
  {
    "service_request": "2026-1296828",
    "request_type": "Tree Service",
    "request_reason": "Street or Sidewalk Blocked",
    "date_created": "2026-07-05T17:15:44.000",
    "date_modified": "2026-07-05T17:15:47.000",
    "request_status": "Pending",
    "responsible_agency": "Department of Parks & Parkways",
    "final_address": "100 BLK Baronne St",
    "address_councildis": "B",
    "status": "Pending",
    "rowid": "1296828",
    "final_x": "3680400.33733",
    "final_y": "530892.199486",
    "longitude": "-90.07156448832164",
    "latitude": "29.95380278606142",
    "geocoded_column": {
      "latitude": "29.95380278606142",
      "longitude": "-90.07156448832164"
    }
  },
  {
    "service_request": "2026-1296826",
    "request_type": "Business Issues",
    "request_reason": "Illegal Business",
    "date_created": "2026-07-05T17:07:18.000",
    "date_modified": "2026-07-05T17:07:20.000",
    "request_status": "Pending",
    "responsible_agency": "Bureau of Revenue",
    "final_address": "227 Dauphine St",
    "address_councildis": "C",
    "status": "Pending",
    "rowid": "1296826",
    "final_x": "3680974.75349",
    "final_y": "531650.535747",
    "longitude": "-90.06972431450328",
    "latitude": "29.95587054917733",
    "geocoded_column": {
      "latitude": "29.95587054917733",
      "longitude": "-90.06972431450328"
    }
  },
  {
    "service_request": "2026-1296825",
    "request_type": "Tree Service",
    "request_reason": "Street or Sidewalk Blocked",
    "date_created": "2026-07-05T16:52:41.000",
    "date_modified": "2026-07-05T16:52:43.000",
    "request_status": "Pending",
    "responsible_agency": "Department of Parks & Parkways",
    "final_address": "6322 Annunciation St",
    "address_councildis": "A",
    "status": "Pending",
    "rowid": "1296825",
    "final_x": "3662747.02067",
    "final_y": "518436.343606",
    "longitude": "-90.12772045766836",
    "latitude": "29.920075840539106",
    "geocoded_column": {
      "latitude": "29.920075840539106",
      "longitude": "-90.12772045766836"
    }
  },
  {
    "service_request": "2026-1296824",
    "request_type": "Trash/Recycling",
    "request_reason": "Order Recycling Cart",
    "date_created": "2026-07-05T16:52:37.000",
    "date_modified": "2026-07-05T16:52:38.000",
    "request_status": "Pending",
    "responsible_agency": "Department of Sanitation",
    "final_address": "7711 Brevard Ave",
    "address_councildis": "E",
    "status": "Pending",
    "rowid": "1296824",
    "final_x": "3706273.02833",
    "final_y": "563691.179937",
    "longitude": "-89.98865455675623",
    "latitude": "30.043178842163144",
    "geocoded_column": {
      "latitude": "30.043178842163144",
      "longitude": "-89.98865455675623"
    }
  },
  {
    "service_request": "2026-1296823",
    "request_type": "Trash/Recycling",
    "request_reason": "Order Trash Cart",
    "date_created": "2026-07-05T16:51:25.000",
    "date_modified": "2026-07-05T16:51:28.000",
    "request_status": "Pending",
    "responsible_agency": "Department of Sanitation",
    "final_address": "7711 Brevard Ave",
    "address_councildis": "E",
    "status": "Assigned to Contractor",
    "contractor": "Waste Pro",
    "rowid": "1296823",
    "final_x": "3706273.02833",
    "final_y": "563691.179937",
    "longitude": "-89.98865455675623",
    "latitude": "30.043178842163144",
    "geocoded_column": {
      "latitude": "30.043178842163144",
      "longitude": "-89.98865455675623"
    }
  },
  {
    "service_request": "2026-1296822",
    "request_type": "Tree Service",
    "request_reason": "Dead or Dying Tree",
    "date_created": "2026-07-05T16:37:14.000",
    "date_modified": "2026-07-05T16:37:15.000",
    "request_status": "Pending",
    "responsible_agency": "Department of Parks & Parkways",
    "final_address": "2313 Audubon St",
    "address_councildis": "A",
    "status": "Pending",
    "rowid": "1296822",
    "final_x": "3666707.74586",
    "final_y": "529682.206337",
    "longitude": "-90.11484081927846",
    "latitude": "29.950883188084113",
    "geocoded_column": {
      "latitude": "29.950883188084113",
      "longitude": "-90.11484081927846"
    }
  },
  {
    "service_request": "2026-1296821",
    "request_type": "Tree Service",
    "request_reason": "Tree Trim",
    "date_created": "2026-07-05T16:33:40.000",
    "date_modified": "2026-07-05T16:33:42.000",
    "request_status": "Pending",
    "responsible_agency": "Department of Parks & Parkways",
    "final_address": "3151 Mansfield Ave",
    "address_councildis": "C",
    "status": "Pending",
    "rowid": "1296821",
    "final_x": "3709052.01278",
    "final_y": "518604.194103",
    "longitude": "-89.98155292168204",
    "latitude": "29.91911651023944",
    "geocoded_column": {
      "latitude": "29.91911651023944",
      "longitude": "-89.98155292168204"
    }
  },
  {
    "service_request": "2026-1296820",
    "request_type": "Drainage",
    "request_reason": "Catch Basin Not Draining",
    "date_created": "2026-07-05T16:31:11.000",
    "date_modified": "2026-07-05T16:31:12.000",
    "request_status": "Pending",
    "responsible_agency": "Sewerage & Water Board",
    "final_address": "2313 Audubon St",
    "address_councildis": "A",
    "status": "Pending",
    "rowid": "1296820",
    "final_x": "3666707.74586",
    "final_y": "529682.206337",
    "longitude": "-90.11484081927846",
    "latitude": "29.950883188084113",
    "geocoded_column": {
      "latitude": "29.950883188084113",
      "longitude": "-90.11484081927846"
    }
  },
  {
    "service_request": "2026-1296819",
    "request_type": "Healthy Homes",
    "request_reason": "Healthy Homes",
    "date_created": "2026-07-05T16:30:17.000",
    "date_modified": "2026-07-05T16:30:23.000",
    "request_status": "Pending",
    "responsible_agency": "Department of Code Enforcement",
    "final_address": "3151 Mansfield Ave",
    "address_councildis": "C",
    "status": "Pending",
    "rowid": "1296819",
    "final_x": "3709052.01278",
    "final_y": "518604.194103",
    "longitude": "-89.98155292168204",
    "latitude": "29.91911651023944",
    "geocoded_column": {
      "latitude": "29.91911651023944",
      "longitude": "-89.98155292168204"
    }
  },
  {
    "service_request": "2026-1296818",
    "request_type": "Trash/Recycling",
    "request_reason": "Return Recycling Cart",
    "date_created": "2026-07-05T16:26:57.000",
    "date_modified": "2026-07-05T16:26:59.000",
    "request_status": "Pending",
    "responsible_agency": "Department of Sanitation",
    "final_address": "4551 Lennox Blvd",
    "address_councildis": "C",
    "status": "Pending",
    "rowid": "1296818",
    "final_x": "3700688.74007",
    "final_y": "514247.744883",
    "longitude": "-90.00811036456096",
    "latitude": "29.90740640065948",
    "geocoded_column": {
      "latitude": "29.90740640065948",
      "longitude": "-90.00811036456096"
    }
  },
  {
    "service_request": "2026-1296817",
    "request_type": "Safety & Permits",
    "request_reason": "Zoning Enforcement",
    "date_created": "2026-07-05T16:21:57.000",
    "date_modified": "2026-07-05T16:21:59.000",
    "request_status": "Pending",
    "responsible_agency": "Safety and Permits",
    "final_address": "3151 Mansfield Ave",
    "address_councildis": "C",
    "status": "Pending",
    "rowid": "1296817",
    "final_x": "3709052.01278",
    "final_y": "518604.194103",
    "longitude": "-89.98155292168204",
    "latitude": "29.91911651023944",
    "geocoded_column": {
      "latitude": "29.91911651023944",
      "longitude": "-89.98155292168204"
    }
  },
  {
    "service_request": "2026-1296816",
    "request_type": "Roads and Streets",
    "request_reason": "Debris in Driving Lanes",
    "date_created": "2026-07-05T16:21:50.000",
    "date_modified": "2026-07-05T16:21:51.000",
    "request_status": "Pending",
    "responsible_agency": "Department of Public Works",
    "final_address": "3504 Napoleon Ave",
    "address_councildis": "B",
    "status": "Pending",
    "rowid": "1296816",
    "final_x": "3670022.10766",
    "final_y": "527614.148223",
    "longitude": "-90.1044457446155",
    "latitude": "29.94509937555158",
    "geocoded_column": {
      "latitude": "29.94509937555158",
      "longitude": "-90.1044457446155"
    }
  },
  {
    "service_request": "2026-1296815",
    "request_type": "Parks & Grass Service",
    "request_reason": "Request Grass Cutting Service (City Owned Property)",
    "date_created": "2026-07-05T16:09:10.000",
    "date_modified": "2026-07-05T16:09:12.000",
    "request_status": "Pending",
    "responsible_agency": "Department of Parks & Parkways",
    "final_address": "2000 Earhart Blvd",
    "address_councildis": "B",
    "status": "Pending",
    "rowid": "1296815",
    "final_x": "3678075.43266",
    "final_y": "527571.601215",
    "longitude": "-90.07902035474025",
    "latitude": "29.94474243946236",
    "geocoded_column": {
      "latitude": "29.94474243946236",
      "longitude": "-90.07902035474025"
    }
  },
  {
    "service_request": "2026-1296814",
    "request_type": "Tree Service",
    "request_reason": "Street or Sidewalk Blocked",
    "date_created": "2026-07-05T16:07:22.000",
    "date_modified": "2026-07-05T16:07:24.000",
    "request_status": "Pending",
    "responsible_agency": "Department of Parks & Parkways",
    "final_address": "6200 BLK Annunciation St",
    "address_councildis": "A",
    "status": "Pending",
    "rowid": "1296814",
    "final_x": "3663071.57736",
    "final_y": "518332.79908",
    "longitude": "-90.12669942504166",
    "latitude": "29.9197817314949",
    "geocoded_column": {
      "latitude": "29.9197817314949",
      "longitude": "-90.12669942504166"
    }
  },
  {
    "service_request": "2026-1296813",
    "request_type": "Property Maintenance",
    "request_reason": "Property Maintenance",
    "date_created": "2026-07-05T16:03:31.000",
    "date_modified": "2026-07-05T16:03:33.000",
    "request_status": "Pending",
    "responsible_agency": "Department of Code Enforcement",
    "final_address": "1629 Washington Ave",
    "address_councildis": "B",
    "status": "Pending",
    "rowid": "1296813",
    "final_x": "3675845.54472",
    "final_y": "522803.958587",
    "longitude": "-90.0862246188927",
    "latitude": "29.931699916139575",
    "geocoded_column": {
      "latitude": "29.931699916139575",
      "longitude": "-90.0862246188927"
    }
  },
  {
    "service_request": "2026-1296812",
    "request_type": "Property Maintenance",
    "request_reason": "Property Maintenance",
    "date_created": "2026-07-05T15:54:26.000",
    "date_modified": "2026-07-05T15:54:28.000",
    "request_status": "Pending",
    "responsible_agency": "Department of Code Enforcement",
    "final_address": "1632 Fourth St",
    "address_councildis": "B",
    "status": "Pending",
    "rowid": "1296812",
    "final_x": "3675991.85582",
    "final_y": "522947.140667",
    "longitude": "-90.08575780939195",
    "latitude": "29.93208924078341",
    "geocoded_column": {
      "latitude": "29.93208924078341",
      "longitude": "-90.08575780939195"
    }
  },
  {
    "service_request": "2026-1296811",
    "request_type": "Property Maintenance",
    "request_reason": "Property Maintenance",
    "date_created": "2026-07-05T15:45:33.000",
    "date_modified": "2026-07-05T15:45:37.000",
    "request_status": "Pending",
    "responsible_agency": "Department of Code Enforcement",
    "final_address": "2701 Carondelet St",
    "address_councildis": "B",
    "status": "Pending",
    "rowid": "1296811",
    "final_x": "3675919.58958",
    "final_y": "523036.440763",
    "longitude": "-90.08598287801193",
    "latitude": "29.932336950270894",
    "geocoded_column": {
      "latitude": "29.932336950270894",
      "longitude": "-90.08598287801193"
    }
  },
  {
    "service_request": "2026-1296810",
    "request_type": "Utility Poles",
    "request_reason": "Utility Pole Down",
    "date_created": "2026-07-05T15:37:27.000",
    "date_modified": "2026-07-05T15:37:30.000",
    "request_status": "Pending",
    "responsible_agency": "Utility Company Collective",
    "final_address": "1619 New York St",
    "address_councildis": "D",
    "status": "Pending",
    "rowid": "1296810",
    "final_x": "3679145.72463",
    "final_y": "555979.908825",
    "longitude": "-90.0746558611159",
    "latitude": "30.022823126227024",
    "geocoded_column": {
      "latitude": "30.022823126227024",
      "longitude": "-90.0746558611159"
    }
  },
  {
    "service_request": "2026-1296809",
    "request_type": "Trash/Recycling",
    "request_reason": "Order Trash Cart",
    "date_created": "2026-07-05T15:35:03.000",
    "date_modified": "2026-07-05T15:35:05.000",
    "request_status": "Pending",
    "responsible_agency": "Department of Sanitation",
    "final_address": "6117 Magazine St",
    "address_councildis": "A",
    "status": "Assigned to Contractor",
    "contractor": "IV Waste",
    "rowid": "1296809",
    "final_x": "3663985.58548",
    "final_y": "519529.824695",
    "longitude": "-90.1237744505849",
    "latitude": "29.923046680896892",
    "geocoded_column": {
      "latitude": "29.923046680896892",
      "longitude": "-90.1237744505849"
    }
  },
  {
    "service_request": "2026-1296808",
    "request_type": "Trash/Recycling",
    "request_reason": "Request a Large Item Pick Up",
    "date_created": "2026-07-05T15:32:02.000",
    "date_modified": "2026-07-05T15:32:04.000",
    "request_status": "Pending",
    "responsible_agency": "Department of Sanitation",
    "final_address": "6125 Patton St",
    "address_councildis": "A",
    "status": "Assigned to Contractor",
    "contractor": "IV Waste",
    "rowid": "1296808",
    "final_x": "3663704.36954",
    "final_y": "518927.199991",
    "longitude": "-90.12468221000961",
    "latitude": "29.92139781066274",
    "geocoded_column": {
      "latitude": "29.92139781066274",
      "longitude": "-90.12468221000961"
    }
  },
  {
    "service_request": "2026-1296807",
    "request_type": "Trash/Recycling",
    "request_reason": "Request a Large Item Pick Up",
    "date_created": "2026-07-05T15:21:13.000",
    "date_modified": "2026-07-05T15:21:15.000",
    "request_status": "Pending",
    "responsible_agency": "Department of Sanitation",
    "final_address": "2561 Clover St",
    "address_councildis": "D",
    "status": "Assigned to Contractor",
    "contractor": "IV Waste",
    "rowid": "1296807",
    "final_x": "3686891.1053",
    "final_y": "546709.536145",
    "longitude": "-90.05051022391892",
    "latitude": "29.997096775464584",
    "geocoded_column": {
      "latitude": "29.997096775464584",
      "longitude": "-90.05051022391892"
    }
  },
  {
    "service_request": "2026-1296806",
    "request_type": "Roads and Streets",
    "request_reason": "Debris in Driving Lanes",
    "date_created": "2026-07-05T15:20:10.000",
    "date_modified": "2026-07-05T15:20:12.000",
    "request_status": "Pending",
    "responsible_agency": "Department of Public Works",
    "final_address": "1619 New York St",
    "address_councildis": "D",
    "status": "Pending",
    "rowid": "1296806",
    "final_x": "3679145.72463",
    "final_y": "555979.908825",
    "longitude": "-90.0746558611159",
    "latitude": "30.022823126227024",
    "geocoded_column": {
      "latitude": "30.022823126227024",
      "longitude": "-90.0746558611159"
    }
  },
  {
    "service_request": "2026-1296805",
    "request_type": "Safety & Permits",
    "request_reason": "Licenses & Permits",
    "date_created": "2026-07-05T15:17:09.000",
    "date_modified": "2026-07-05T15:17:10.000",
    "request_status": "Pending",
    "responsible_agency": "Safety and Permits",
    "final_address": "828 Frenchmen St",
    "address_councildis": "C",
    "status": "Pending",
    "rowid": "1296805",
    "final_x": "3684629.47804",
    "final_y": "535426.855686",
    "longitude": "-90.05805127285531",
    "latitude": "29.9661428034843",
    "geocoded_column": {
      "latitude": "29.9661428034843",
      "longitude": "-90.05805127285531"
    }
  },
  {
    "service_request": "2026-1296804",
    "request_type": "Safety & Permits",
    "request_reason": "Licenses & Permits",
    "date_created": "2026-07-05T15:10:01.000",
    "date_modified": "2026-07-05T15:10:04.000",
    "request_status": "Pending",
    "responsible_agency": "Safety and Permits",
    "final_address": "826 Frenchmen St",
    "address_councildis": "C",
    "status": "Pending",
    "rowid": "1296804",
    "final_x": "3684631.30095",
    "final_y": "535406.803654",
    "longitude": "-90.05804622093298",
    "latitude": "29.96608761154468",
    "geocoded_column": {
      "latitude": "29.96608761154468",
      "longitude": "-90.05804622093298"
    }
  },
  {
    "service_request": "2026-1296803",
    "request_type": "Utility Poles",
    "request_reason": "Wires Sagging/Hanging Low",
    "date_created": "2026-07-05T14:58:58.000",
    "date_modified": "2026-07-05T14:59:01.000",
    "request_status": "Pending",
    "responsible_agency": "Utility Company Collective",
    "final_address": "FORSTALL ST & N CLAIBORNE AVE",
    "address_councildis": "E",
    "status": "Pending",
    "rowid": "1296803",
    "final_x": "3696772.1",
    "final_y": "536056.08",
    "longitude": "-90.01968258100904",
    "latitude": "29.967495761797704",
    "geocoded_column": {
      "latitude": "29.967495761797704",
      "longitude": "-90.01968258100904"
    }
  },
  {
    "service_request": "2026-1296802",
    "request_type": "Tree Service",
    "request_reason": "Street or Sidewalk Blocked",
    "date_created": "2026-07-05T14:38:00.000",
    "date_modified": "2026-07-05T14:38:03.000",
    "request_status": "Pending",
    "responsible_agency": "Department of Parks & Parkways",
    "final_address": "4200 BLK Vendome Pl",
    "address_councildis": "B",
    "status": "Pending",
    "rowid": "1296802",
    "final_x": "3669268.22048",
    "final_y": "531498.730425",
    "longitude": "-90.10669471099514",
    "latitude": "29.955802916283094",
    "geocoded_column": {
      "latitude": "29.955802916283094",
      "longitude": "-90.10669471099514"
    }
  },
  {
    "service_request": "2026-1296801",
    "request_type": "Drainage",
    "request_reason": "Catch Basin Not Draining",
    "date_created": "2026-07-05T14:30:12.000",
    "date_modified": "2026-07-05T14:30:14.000",
    "request_status": "Pending",
    "responsible_agency": "Sewerage & Water Board",
    "final_address": "1925 Milan St",
    "address_councildis": "B",
    "status": "Pending",
    "rowid": "1296801",
    "final_x": "3671517.645",
    "final_y": "522216.824314",
    "longitude": "-90.0999072934215",
    "latitude": "29.930214296765996",
    "geocoded_column": {
      "latitude": "29.930214296765996",
      "longitude": "-90.0999072934215"
    }
  },
  {
    "service_request": "2026-1296800",
    "request_type": "Traffic Signals",
    "request_reason": "Traffic Signal Malfunctioning or Damaged",
    "date_created": "2026-07-05T14:27:21.000",
    "date_modified": "2026-07-05T14:27:24.000",
    "request_status": "Pending",
    "responsible_agency": "Department of Public Works",
    "final_address": "2900 BLK Napoleon Ave",
    "address_councildis": "B",
    "status": "Pending",
    "rowid": "1296800",
    "final_x": "3670417.06497",
    "final_y": "525617.425587",
    "longitude": "-90.10326641511371",
    "latitude": "29.93959738414871",
    "geocoded_column": {
      "latitude": "29.93959738414871",
      "longitude": "-90.10326641511371"
    }
  },
  {
    "service_request": "2026-1296799",
    "request_type": "Abandoned Vehicles",
    "request_reason": "Abandoned/Junk Vehicles",
    "date_created": "2026-07-05T14:09:47.000",
    "date_modified": "2026-07-05T14:09:51.000",
    "request_status": "Pending",
    "responsible_agency": "Department of Public Works",
    "final_address": "100 Atlantic Ave",
    "address_councildis": "C",
    "status": "Pending",
    "rowid": "1296799",
    "final_x": "3688826.88099",
    "final_y": "531308.754498",
    "longitude": "-90.0449422379718",
    "latitude": "29.95469033512445",
    "geocoded_column": {
      "latitude": "29.95469033512445",
      "longitude": "-90.0449422379718"
    }
  },
  {
    "service_request": "2026-1296798",
    "request_type": "Abandoned Vehicles",
    "request_reason": "Abandoned/Junk Vehicles",
    "date_created": "2026-07-05T14:01:20.000",
    "date_modified": "2026-07-05T14:01:22.000",
    "request_status": "Pending",
    "responsible_agency": "Department of Public Works",
    "final_address": "9100 Chef Menteur Hwy",
    "address_councildis": "E",
    "status": "Pending",
    "rowid": "1296798",
    "final_x": "3709219.40542",
    "final_y": "553548.058391",
    "longitude": "-89.97972155546024",
    "latitude": "30.01519384899914",
    "geocoded_column": {
      "latitude": "30.01519384899914",
      "longitude": "-89.97972155546024"
    }
  },
  {
    "service_request": "2026-1296797",
    "request_type": "Trash/Recycling",
    "request_reason": "Request a Large Item Pick Up",
    "date_created": "2026-07-05T13:56:55.000",
    "date_modified": "2026-07-05T13:56:58.000",
    "request_status": "Pending",
    "responsible_agency": "Department of Sanitation",
    "final_address": "1457 Lauradale Dr",
    "address_councildis": "C",
    "status": "Assigned to Contractor",
    "contractor": "Richards Disposal",
    "rowid": "1296797",
    "final_x": "3692735.20611",
    "final_y": "525718.767357",
    "longitude": "-90.03280164459694",
    "latitude": "29.93919838715334",
    "geocoded_column": {
      "latitude": "29.93919838715334",
      "longitude": "-90.03280164459694"
    }
  },
  {
    "service_request": "2026-1296796",
    "request_type": "Traffic Signals",
    "request_reason": "Traffic Signal Malfunctioning or Damaged",
    "date_created": "2026-07-05T13:41:27.000",
    "date_modified": "2026-07-05T13:41:30.000",
    "request_status": "Pending",
    "responsible_agency": "Department of Public Works",
    "final_address": "7350 Weaver Ave",
    "address_councildis": "E",
    "status": "Pending",
    "rowid": "1296796",
    "final_x": "3707833.96337",
    "final_y": "563513.366944",
    "longitude": "-89.98372801480038",
    "latitude": "30.04263946727379",
    "geocoded_column": {
      "latitude": "30.04263946727379",
      "longitude": "-89.98372801480038"
    }
  },
  {
    "service_request": "2026-1296795",
    "request_type": "Abandoned Vehicles",
    "request_reason": "Abandoned/Junk Vehicles",
    "date_created": "2026-07-05T13:32:08.000",
    "date_modified": "2026-07-05T13:32:09.000",
    "request_status": "Pending",
    "responsible_agency": "Department of Public Works",
    "final_address": "1826 Jefferson Ave",
    "address_councildis": "A",
    "status": "Pending",
    "rowid": "1296795",
    "final_x": "3667464.39706",
    "final_y": "522489.840058",
    "longitude": "-90.11269361283176",
    "latitude": "29.93108435109943",
    "geocoded_column": {
      "latitude": "29.93108435109943",
      "longitude": "-90.11269361283176"
    }
  },
  {
    "service_request": "2026-1296794",
    "request_type": "Trash/Recycling",
    "request_reason": "Order Second Trash Cart",
    "date_created": "2026-07-05T13:31:43.000",
    "date_modified": "2026-07-05T13:31:45.000",
    "request_status": "Pending",
    "responsible_agency": "Department of Sanitation",
    "final_address": "3 Lark St",
    "address_councildis": "D",
    "status": "Assigned to Contractor",
    "contractor": "IV Waste",
    "rowid": "1296794",
    "final_x": "3676107.80417",
    "final_y": "556318.384218",
    "longitude": "-90.08424334631535",
    "latitude": "30.023845218515444",
    "geocoded_column": {
      "latitude": "30.023845218515444",
      "longitude": "-90.08424334631535"
    }
  },
  {
    "service_request": "2026-1296793",
    "request_type": "Trash/Recycling",
    "request_reason": "Request a Large Item Pick Up",
    "date_created": "2026-07-05T13:30:38.000",
    "date_modified": "2026-07-05T13:30:40.000",
    "request_status": "Pending",
    "responsible_agency": "Department of Sanitation",
    "final_address": "1719 Toledano St",
    "address_councildis": "B",
    "status": "Assigned to Contractor",
    "contractor": "IV Waste",
    "rowid": "1296793",
    "final_x": "3674403.64788",
    "final_y": "522246.697082",
    "longitude": "-90.09079560780958",
    "latitude": "29.930210700280217",
    "geocoded_column": {
      "latitude": "29.930210700280217",
      "longitude": "-90.09079560780958"
    }
  },
  {
    "service_request": "2026-1296792",
    "request_type": "Trash/Recycling",
    "request_reason": "Replace Recycling Cart",
    "date_created": "2026-07-05T13:29:13.000",
    "date_modified": "2026-07-05T13:29:14.000",
    "request_status": "Pending",
    "responsible_agency": "Department of Sanitation",
    "final_address": "3709 Preston Pl",
    "address_councildis": "C",
    "status": "Pending",
    "rowid": "1296792",
    "final_x": "3708380.21745",
    "final_y": "517423.447606",
    "longitude": "-89.98371731513437",
    "latitude": "29.915891643713003",
    "geocoded_column": {
      "latitude": "29.915891643713003",
      "longitude": "-89.98371731513437"
    }
  },
  {
    "service_request": "2026-1296791",
    "request_type": "Trash/Recycling",
    "request_reason": "Replace Trash Cart",
    "date_created": "2026-07-05T13:28:45.000",
    "date_modified": "2026-07-05T13:28:46.000",
    "request_status": "Pending",
    "responsible_agency": "Department of Sanitation",
    "final_address": "990 Germain St",
    "address_councildis": "A",
    "status": "Assigned to Contractor",
    "contractor": "IV Waste",
    "rowid": "1296791",
    "final_x": "3670790.25179",
    "final_y": "547661.854226",
    "longitude": "-90.1013399084324",
    "latitude": "30.000201135655157",
    "geocoded_column": {
      "latitude": "30.000201135655157",
      "longitude": "-90.1013399084324"
    }
  },
  {
    "service_request": "2026-1296790",
    "request_type": "Trash/Recycling",
    "request_reason": "Repair Recycling Cart",
    "date_created": "2026-07-05T13:27:06.000",
    "date_modified": "2026-07-05T13:27:08.000",
    "request_status": "Pending",
    "responsible_agency": "Department of Sanitation",
    "final_address": "990 Germain St",
    "address_councildis": "A",
    "status": "Pending",
    "rowid": "1296790",
    "final_x": "3670790.25179",
    "final_y": "547661.854226",
    "longitude": "-90.1013399084324",
    "latitude": "30.000201135655157",
    "geocoded_column": {
      "latitude": "30.000201135655157",
      "longitude": "-90.1013399084324"
    }
  },
  {
    "service_request": "2026-1296789",
    "request_type": "Healthy Homes",
    "request_reason": "Healthy Homes",
    "date_created": "2026-07-05T13:15:43.000",
    "date_modified": "2026-07-05T13:15:44.000",
    "request_status": "Pending",
    "responsible_agency": "Department of Code Enforcement",
    "final_address": "1724 Desire St",
    "address_councildis": "D",
    "status": "Pending",
    "rowid": "1296789",
    "final_x": "3690739.71721",
    "final_y": "538146.543241",
    "longitude": "-90.03865830462227",
    "latitude": "29.97343258095788",
    "geocoded_column": {
      "latitude": "29.97343258095788",
      "longitude": "-90.03865830462227"
    }
  },
  {
    "service_request": "2026-1296788",
    "request_type": "Abandoned Vehicles",
    "request_reason": "Abandoned/Junk Vehicles",
    "date_created": "2026-07-05T13:14:01.000",
    "date_modified": "2026-07-05T13:14:04.000",
    "request_status": "Pending",
    "responsible_agency": "Department of Public Works",
    "final_address": "4827 Citrus Dr",
    "address_councildis": "E",
    "status": "Pending",
    "rowid": "1296788",
    "final_x": "3710777.17137",
    "final_y": "556476.750042",
    "longitude": "-89.97469007874844",
    "latitude": "30.02319591553002",
    "geocoded_column": {
      "latitude": "30.02319591553002",
      "longitude": "-89.97469007874844"
    }
  },
  {
    "service_request": "2026-1296787",
    "request_type": "General Services",
    "request_reason": "General Service Request",
    "date_created": "2026-07-05T13:03:46.000",
    "date_modified": "2026-07-05T13:03:49.000",
    "request_status": "Pending",
    "responsible_agency": "Orleans Parish Communication District",
    "final_address": "7835 Lacombe St",
    "address_councildis": "E",
    "status": "Pending",
    "rowid": "1296787",
    "final_x": "3709255.05317",
    "final_y": "566037.391843",
    "longitude": "-89.97914257200058",
    "latitude": "30.04953342306648",
    "geocoded_column": {
      "latitude": "30.04953342306648",
      "longitude": "-89.97914257200058"
    }
  },
  {
    "service_request": "2026-1296786",
    "request_type": "Trash/Recycling",
    "request_reason": "Repair Recycling Cart",
    "date_created": "2026-07-05T12:59:30.000",
    "date_modified": "2026-07-05T12:59:31.000",
    "request_status": "Pending",
    "responsible_agency": "Department of Sanitation",
    "final_address": "5631 Carlisle Ct",
    "address_councildis": "C",
    "status": "Pending",
    "rowid": "1296786",
    "final_x": "3704458.48279",
    "final_y": "516508.616757",
    "longitude": "-89.99612942905648",
    "latitude": "29.91350260303831",
    "geocoded_column": {
      "latitude": "29.91350260303831",
      "longitude": "-89.99612942905648"
    }
  },
  {
    "service_request": "2026-1296785",
    "request_type": "Trash/Recycling",
    "request_reason": "Replace Trash Cart",
    "date_created": "2026-07-05T12:57:53.000",
    "date_modified": "2026-07-05T12:57:56.000",
    "request_status": "Pending",
    "responsible_agency": "Department of Sanitation",
    "final_address": "5631 Carlisle Ct",
    "address_councildis": "C",
    "status": "Assigned to Contractor",
    "contractor": "Richards Disposal",
    "rowid": "1296785",
    "final_x": "3704458.48279",
    "final_y": "516508.616757",
    "longitude": "-89.99612942905648",
    "latitude": "29.91350260303831",
    "geocoded_column": {
      "latitude": "29.91350260303831",
      "longitude": "-89.99612942905648"
    }
  },
  {
    "service_request": "2026-1296784",
    "request_type": "Trash/Recycling",
    "request_reason": "Replace Recycling Cart",
    "date_created": "2026-07-05T12:52:18.000",
    "date_modified": "2026-07-05T12:52:20.000",
    "request_status": "Pending",
    "responsible_agency": "Department of Sanitation",
    "final_address": "6027 Chatham Dr",
    "address_councildis": "D",
    "status": "Pending",
    "rowid": "1296784",
    "final_x": "3679669.31938",
    "final_y": "554678.650776",
    "longitude": "-90.07304664500228",
    "latitude": "30.019229315777626",
    "geocoded_column": {
      "latitude": "30.019229315777626",
      "longitude": "-90.07304664500228"
    }
  },
  {
    "service_request": "2026-1296783",
    "request_type": "Trash/Recycling",
    "request_reason": "Repair Trash Cart",
    "date_created": "2026-07-05T12:37:21.000",
    "date_modified": "2026-07-05T12:37:25.000",
    "request_status": "Pending",
    "responsible_agency": "Department of Sanitation",
    "final_address": "3536 Iberville St",
    "address_councildis": "B",
    "status": "Assigned to Contractor",
    "contractor": "IV Waste",
    "rowid": "1296783",
    "final_x": "3672872.45998",
    "final_y": "537466.408264",
    "longitude": "-90.09511013284276",
    "latitude": "29.972105445010904",
    "geocoded_column": {
      "latitude": "29.972105445010904",
      "longitude": "-90.09511013284276"
    }
  },
  {
    "service_request": "2026-1296782",
    "request_type": "Trash/Recycling",
    "request_reason": "Replace Trash Cart",
    "date_created": "2026-07-05T12:25:08.000",
    "date_modified": "2026-07-05T12:25:10.000",
    "request_status": "Pending",
    "responsible_agency": "Department of Sanitation",
    "final_address": "1535 Riviera Ave",
    "address_councildis": "D",
    "status": "Assigned to Contractor",
    "contractor": "IV Waste",
    "rowid": "1296782",
    "final_x": "3678903.77998",
    "final_y": "551043.140885",
    "longitude": "-90.07559157549602",
    "latitude": "30.009256105350264",
    "geocoded_column": {
      "latitude": "30.009256105350264",
      "longitude": "-90.07559157549602"
    }
  },
  {
    "service_request": "2026-1296781",
    "request_type": "Trash/Recycling",
    "request_reason": "Repair Trash Cart",
    "date_created": "2026-07-05T12:24:29.000",
    "date_modified": "2026-07-05T12:24:31.000",
    "request_status": "Pending",
    "responsible_agency": "Department of Sanitation",
    "final_address": "1628 S Lopez St",
    "address_councildis": "B",
    "status": "Assigned to Contractor",
    "contractor": "IV Waste",
    "rowid": "1296781",
    "final_x": "3670037.2777",
    "final_y": "530665.228162",
    "longitude": "-90.1042945211984",
    "latitude": "29.953488399490997",
    "geocoded_column": {
      "latitude": "29.953488399490997",
      "longitude": "-90.1042945211984"
    }
  },
  {
    "service_request": "2026-1296780",
    "request_type": "Drainage",
    "request_reason": "Catch Basin Not Draining",
    "date_created": "2026-07-05T12:14:40.000",
    "date_modified": "2026-07-05T12:14:42.000",
    "request_status": "Pending",
    "responsible_agency": "Sewerage & Water Board",
    "final_address": "1000 BLK Alvar St",
    "address_councildis": "C",
    "status": "Pending",
    "rowid": "1296780",
    "final_x": "3691436.75193",
    "final_y": "535163.565615",
    "longitude": "-90.0365635501482",
    "latitude": "29.96520877117286",
    "geocoded_column": {
      "latitude": "29.96520877117286",
      "longitude": "-90.0365635501482"
    }
  },
  {
    "service_request": "2026-1296779",
    "request_type": "Drainage",
    "request_reason": "Catch Basin Not Draining",
    "date_created": "2026-07-05T12:11:15.000",
    "date_modified": "2026-07-05T12:11:19.000",
    "request_status": "Pending",
    "responsible_agency": "Sewerage & Water Board",
    "final_address": "1000 BLK Alvar St",
    "address_councildis": "C",
    "status": "Pending",
    "rowid": "1296779",
    "final_x": "3691436.75193",
    "final_y": "535163.565615",
    "longitude": "-90.0365635501482",
    "latitude": "29.96520877117286",
    "geocoded_column": {
      "latitude": "29.96520877117286",
      "longitude": "-90.0365635501482"
    }
  },
  {
    "service_request": "2026-1296778",
    "request_type": "Trash/Recycling",
    "request_reason": "Request a Large Item Pick Up",
    "date_created": "2026-07-05T12:01:47.000",
    "date_modified": "2026-07-05T12:01:49.000",
    "request_status": "Pending",
    "responsible_agency": "Department of Sanitation",
    "final_address": "2108 Bienville Ave",
    "address_councildis": "B",
    "status": "Assigned to Contractor",
    "contractor": "IV Waste",
    "rowid": "1296778",
    "final_x": "3677625.24168",
    "final_y": "534285.142021",
    "longitude": "-90.0802099305511",
    "latitude": "29.963215968629097",
    "geocoded_column": {
      "latitude": "29.963215968629097",
      "longitude": "-90.0802099305511"
    }
  },
  {
    "service_request": "2026-1296777",
    "request_type": "Trash/Recycling",
    "request_reason": "Return Trash Cart",
    "date_created": "2026-07-05T11:49:56.000",
    "date_modified": "2026-07-05T11:49:58.000",
    "request_status": "Pending",
    "responsible_agency": "Department of Sanitation",
    "final_address": "2032 Peniston St",
    "address_councildis": "B",
    "status": "Assigned to Contractor",
    "contractor": "IV Waste",
    "rowid": "1296777",
    "final_x": "3672415.48014",
    "final_y": "522756.04729",
    "longitude": "-90.09705459966135",
    "latitude": "29.93167038096321",
    "geocoded_column": {
      "latitude": "29.93167038096321",
      "longitude": "-90.09705459966135"
    }
  },
  {
    "service_request": "2026-1296776",
    "request_type": "Property Maintenance",
    "request_reason": "Property Maintenance",
    "date_created": "2026-07-05T11:46:46.000",
    "date_modified": "2026-07-05T11:46:49.000",
    "request_status": "Pending",
    "responsible_agency": "Department of Code Enforcement",
    "final_address": "628 S Solomon St",
    "address_councildis": "A",
    "status": "Pending",
    "rowid": "1296776",
    "final_x": "3669280.25057",
    "final_y": "536947.744648",
    "longitude": "-90.10647249700077",
    "latitude": "29.970785542027983",
    "geocoded_column": {
      "latitude": "29.970785542027983",
      "longitude": "-90.10647249700077"
    }
  },
  {
    "service_request": "2026-1296775",
    "request_type": "Utility Poles",
    "request_reason": "Utility Pole Down",
    "date_created": "2026-07-05T11:39:10.000",
    "date_modified": "2026-07-05T11:39:13.000",
    "request_status": "Pending",
    "responsible_agency": "Utility Company Collective",
    "final_address": "1210 Governor Nicholls St",
    "address_councildis": "C",
    "status": "Pending",
    "rowid": "1296775",
    "final_x": "3682034.35151",
    "final_y": "535147.335238",
    "longitude": "-90.06625637642081",
    "latitude": "29.96545338115008",
    "geocoded_column": {
      "latitude": "29.96545338115008",
      "longitude": "-90.06625637642081"
    }
  },
  {
    "service_request": "2026-1296774",
    "request_type": "Parks & Grass Service",
    "request_reason": "Request Grass Cutting Service (City Owned Property)",
    "date_created": "2026-07-05T11:30:23.000",
    "date_modified": "2026-07-05T11:30:26.000",
    "request_status": "Pending",
    "responsible_agency": "Department of Parks & Parkways",
    "final_address": "2124 St Roch Ave",
    "address_councildis": "D",
    "status": "Pending",
    "rowid": "1296774",
    "final_x": "3686099.5398",
    "final_y": "540328.891659",
    "longitude": "-90.05323591833404",
    "latitude": "29.979576618174843",
    "geocoded_column": {
      "latitude": "29.979576618174843",
      "longitude": "-90.05323591833404"
    }
  },
  {
    "service_request": "2026-1296773",
    "request_type": "Trash/Recycling",
    "request_reason": "Request a Large Item Pick Up",
    "date_created": "2026-07-05T11:21:24.000",
    "date_modified": "2026-07-05T11:21:25.000",
    "request_status": "Pending",
    "responsible_agency": "Department of Sanitation",
    "final_address": "6226 Annunciation St",
    "address_councildis": "A",
    "status": "Assigned to Contractor",
    "contractor": "IV Waste",
    "rowid": "1296773",
    "final_x": "3663030.37312",
    "final_y": "518285.77727",
    "longitude": "-90.12683105010008",
    "latitude": "29.919653629164667",
    "geocoded_column": {
      "latitude": "29.919653629164667",
      "longitude": "-90.12683105010008"
    }
  },
  {
    "service_request": "2026-1296772",
    "request_type": "Trash/Recycling",
    "request_reason": "Request a Large Item Pick Up",
    "date_created": "2026-07-05T11:14:53.000",
    "date_modified": "2026-07-05T11:14:55.000",
    "request_status": "Pending",
    "responsible_agency": "Department of Sanitation",
    "final_address": "2832 St Bernard Ave",
    "address_councildis": "D",
    "status": "Assigned to Contractor",
    "contractor": "IV Waste",
    "rowid": "1296772",
    "final_x": "3679657.98651",
    "final_y": "542582.915021",
    "longitude": "-90.07350265717224",
    "latitude": "29.985970698123165",
    "geocoded_column": {
      "latitude": "29.985970698123165",
      "longitude": "-90.07350265717224"
    }
  },
  {
    "service_request": "2026-1296771",
    "request_type": "Homeless Related Request",
    "request_reason": "Homeless Encampment Complaint",
    "date_created": "2026-07-05T11:12:12.000",
    "date_modified": "2026-07-05T11:12:15.000",
    "request_status": "Pending",
    "responsible_agency": "Office Of Homeless Services And Strategy",
    "final_address": "24 Virginia Ct",
    "address_councildis": "A",
    "status": "Pending",
    "rowid": "1296771",
    "final_x": "3668860.94862",
    "final_y": "542042.679052",
    "longitude": "-90.10762458853111",
    "latitude": "29.98480723037842",
    "geocoded_column": {
      "latitude": "29.98480723037842",
      "longitude": "-90.10762458853111"
    }
  },
  {
    "service_request": "2026-1296770",
    "request_type": "Trash/Recycling",
    "request_reason": "Order Trash Cart",
    "date_created": "2026-07-05T11:04:32.000",
    "date_modified": "2026-07-05T11:04:34.000",
    "request_status": "Pending",
    "responsible_agency": "Department of Sanitation",
    "final_address": "1600 Monroe St Apt 2A",
    "address_councildis": "A",
    "status": "Assigned to Contractor",
    "contractor": "IV Waste",
    "rowid": "1296770",
    "final_x": "3661308.07283",
    "final_y": "530926.78445",
    "longitude": "-90.13184913862041",
    "latitude": "29.95446216014209",
    "geocoded_column": {
      "latitude": "29.95446216014209",
      "longitude": "-90.13184913862041"
    }
  },
  {
    "service_request": "2026-1296769",
    "request_type": "Trash/Recycling",
    "request_reason": "Request a Large Item Pick Up",
    "date_created": "2026-07-05T10:54:17.000",
    "date_modified": "2026-07-05T10:54:22.000",
    "request_status": "Pending",
    "responsible_agency": "Department of Sanitation",
    "final_address": "2108 DAbadie St",
    "address_councildis": "D",
    "status": "Assigned to Contractor",
    "contractor": "IV Waste",
    "rowid": "1296769",
    "final_x": "3681125.52104",
    "final_y": "539476.159754",
    "longitude": "-90.06897557865726",
    "latitude": "29.977383757672133",
    "geocoded_column": {
      "latitude": "29.977383757672133",
      "longitude": "-90.06897557865726"
    }
  },
  {
    "service_request": "2026-1296768",
    "request_type": "Trash/Recycling",
    "request_reason": "Request a Large Item Pick Up",
    "date_created": "2026-07-05T10:34:54.000",
    "date_modified": "2026-07-05T10:34:57.000",
    "request_status": "Pending",
    "responsible_agency": "Department of Sanitation",
    "final_address": "2311 New Orleans St",
    "address_councildis": "D",
    "status": "Assigned to Contractor",
    "contractor": "IV Waste",
    "rowid": "1296768",
    "final_x": "3682081.27938",
    "final_y": "540628.059083",
    "longitude": "-90.06591673768328",
    "latitude": "29.980522046188902",
    "geocoded_column": {
      "latitude": "29.980522046188902",
      "longitude": "-90.06591673768328"
    }
  },
  {
    "service_request": "2026-1296767",
    "request_type": "Homeless Related Request",
    "request_reason": "Homeless Encampment Complaint",
    "date_created": "2026-07-05T10:18:37.000",
    "date_modified": "2026-07-05T10:18:40.000",
    "request_status": "Pending",
    "responsible_agency": "Office Of Homeless Services And Strategy",
    "final_address": "2828 Burgundy St",
    "address_councildis": "C",
    "status": "Pending",
    "rowid": "1296767",
    "final_x": "3687735.72796",
    "final_y": "535441.185158",
    "longitude": "-90.04824132566605",
    "latitude": "29.966086779122453",
    "geocoded_column": {
      "latitude": "29.966086779122453",
      "longitude": "-90.04824132566605"
    }
  },
  {
    "service_request": "2026-1296766",
    "request_type": "Trash/Recycling",
    "request_reason": "Repair Recycling Cart",
    "date_created": "2026-07-05T09:43:00.000",
    "date_modified": "2026-07-05T09:43:01.000",
    "request_status": "Pending",
    "responsible_agency": "Department of Sanitation",
    "final_address": "5825 S Robertson St",
    "address_councildis": "A",
    "status": "Pending",
    "rowid": "1296766",
    "final_x": "3666780.60321",
    "final_y": "524780.603324",
    "longitude": "-90.11477536170202",
    "latitude": "29.937403231002165",
    "geocoded_column": {
      "latitude": "29.937403231002165",
      "longitude": "-90.11477536170202"
    }
  },
  {
    "service_request": "2026-1296765",
    "request_type": "Trash/Recycling",
    "request_reason": "Request a Large Item Pick Up",
    "date_created": "2026-07-05T09:41:02.000",
    "date_modified": "2026-07-05T09:41:03.000",
    "request_status": "Pending",
    "responsible_agency": "Department of Sanitation",
    "final_address": "5825 S Robertson St",
    "address_councildis": "A",
    "status": "Assigned to Contractor",
    "contractor": "IV Waste",
    "rowid": "1296765",
    "final_x": "3666780.60321",
    "final_y": "524780.603324",
    "longitude": "-90.11477536170202",
    "latitude": "29.937403231002165",
    "geocoded_column": {
      "latitude": "29.937403231002165",
      "longitude": "-90.11477536170202"
    }
  },
  {
    "service_request": "2026-1296764",
    "request_type": "Roads and Streets",
    "request_reason": "Pothole",
    "date_created": "2026-07-05T09:38:38.000",
    "date_modified": "2026-07-05T09:38:41.000",
    "request_status": "Pending",
    "responsible_agency": "Department of Public Works",
    "final_address": "1511 St Ann St",
    "address_councildis": "C",
    "status": "Pending",
    "rowid": "1296764",
    "final_x": "3680461.75637",
    "final_y": "534562.861637",
    "longitude": "-90.07124288922185",
    "latitude": "29.963894000940588",
    "geocoded_column": {
      "latitude": "29.963894000940588",
      "longitude": "-90.07124288922185"
    }
  },
  {
    "service_request": "2026-1296763",
    "request_type": "Abandoned Vehicles",
    "request_reason": "Abandoned/Junk Vehicles",
    "date_created": "2026-07-05T09:32:08.000",
    "date_modified": "2026-07-05T09:32:10.000",
    "request_status": "Pending",
    "responsible_agency": "Department of Public Works",
    "final_address": "1029 Port St",
    "address_councildis": "C",
    "status": "Pending",
    "rowid": "1296763",
    "final_x": "3687396.0767",
    "final_y": "536185.994503",
    "longitude": "-90.04928757534358",
    "latitude": "29.968145215056435",
    "geocoded_column": {
      "latitude": "29.968145215056435",
      "longitude": "-90.04928757534358"
    }
  },
  {
    "service_request": "2026-1296762",
    "request_type": "Abandoned Vehicles",
    "request_reason": "Abandoned/Junk Vehicles",
    "date_created": "2026-07-05T09:24:23.000",
    "date_modified": "2026-07-05T09:24:26.000",
    "request_status": "Pending",
    "responsible_agency": "Department of Public Works",
    "final_address": "3426 Iberville St",
    "address_councildis": "B",
    "status": "Pending",
    "rowid": "1296762",
    "final_x": "3673167.83636",
    "final_y": "537265.71284",
    "longitude": "-90.09418413808694",
    "latitude": "29.9715448205746",
    "geocoded_column": {
      "latitude": "29.9715448205746",
      "longitude": "-90.09418413808694"
    }
  },
  {
    "service_request": "2026-1296761",
    "request_type": "Trash/Recycling",
    "request_reason": "Request a Large Item Pick Up",
    "date_created": "2026-07-05T09:11:54.000",
    "date_modified": "2026-07-05T09:11:57.000",
    "request_status": "Pending",
    "responsible_agency": "Department of Sanitation",
    "final_address": "7466 Hurst St",
    "address_councildis": "A",
    "status": "Assigned to Contractor",
    "contractor": "IV Waste",
    "rowid": "1296761",
    "final_x": "3661241.64051",
    "final_y": "524198.295868",
    "longitude": "-90.13228160369775",
    "latitude": "29.935962875966293",
    "geocoded_column": {
      "latitude": "29.935962875966293",
      "longitude": "-90.13228160369775"
    }
  },
  {
    "service_request": "2026-1296760",
    "request_type": "Trash/Recycling",
    "request_reason": "Request a Large Item Pick Up",
    "date_created": "2026-07-05T08:57:38.000",
    "date_modified": "2026-07-05T08:57:41.000",
    "request_status": "Pending",
    "responsible_agency": "Department of Sanitation",
    "final_address": "0 BLK Admiralty Ct",
    "address_councildis": "C",
    "status": "Assigned to Contractor",
    "contractor": "Richards Disposal",
    "rowid": "1296760",
    "final_x": "3704031.03777",
    "final_y": "523040.620373",
    "longitude": "-89.99723816614093",
    "latitude": "29.931477060413563",
    "geocoded_column": {
      "latitude": "29.931477060413563",
      "longitude": "-89.99723816614093"
    }
  },
  {
    "service_request": "2026-1296759",
    "request_type": "Tree Service",
    "request_reason": "Street or Sidewalk Blocked",
    "date_created": "2026-07-05T08:51:55.000",
    "date_modified": "2026-07-05T08:51:57.000",
    "request_status": "Pending",
    "responsible_agency": "Department of Parks & Parkways",
    "final_address": "1000 BLK Oretha Castle Haley Blvd",
    "address_councildis": "B",
    "status": "Pending",
    "rowid": "1296759",
    "final_x": "3678899.90922",
    "final_y": "527675.362744",
    "longitude": "-90.07641364126212",
    "latitude": "29.945002906894878",
    "geocoded_column": {
      "latitude": "29.945002906894878",
      "longitude": "-90.07641364126212"
    }
  },
  {
    "service_request": "2026-1296758",
    "request_type": "Tree Service",
    "request_reason": "Tree Trim",
    "date_created": "2026-07-05T08:51:31.000",
    "date_modified": "2026-07-05T08:51:33.000",
    "request_status": "Pending",
    "responsible_agency": "Department of Parks & Parkways",
    "final_address": "5976 General Haig St",
    "address_councildis": "A",
    "status": "Pending",
    "rowid": "1296758",
    "final_x": "3670457.72833",
    "final_y": "547035.942417",
    "longitude": "-90.10241161220961",
    "latitude": "29.998489922220998",
    "geocoded_column": {
      "latitude": "29.998489922220998",
      "longitude": "-90.10241161220961"
    }
  },
  {
    "service_request": "2026-1296757",
    "request_type": "Roads and Streets",
    "request_reason": "Pothole",
    "date_created": "2026-07-05T08:43:07.000",
    "date_modified": "2026-07-05T08:43:09.000",
    "request_status": "Pending",
    "responsible_agency": "Department of Public Works",
    "final_address": "1129 Bourbon St",
    "address_councildis": "C",
    "status": "Pending",
    "rowid": "1296757",
    "final_x": "3683284.77852",
    "final_y": "534055.203973",
    "longitude": "-90.06234584490811",
    "latitude": "29.962412316110804",
    "geocoded_column": {
      "latitude": "29.962412316110804",
      "longitude": "-90.06234584490811"
    }
  },
  {
    "service_request": "2026-1296756",
    "request_type": "Streetlights",
    "request_reason": "Streetlight Outage/Malfunction",
    "date_created": "2026-07-05T07:59:12.000",
    "date_modified": "2026-07-05T07:59:15.000",
    "request_status": "Pending",
    "responsible_agency": "Department of Public Works",
    "final_address": "4800 Rosemont Pl",
    "address_councildis": "E",
    "status": "Pending",
    "rowid": "1296756",
    "final_x": "3702610.66007",
    "final_y": "555163.920857",
    "longitude": "-90.00054254874222",
    "latitude": "30.01984986281097",
    "geocoded_column": {
      "latitude": "30.01984986281097",
      "longitude": "-90.00054254874222"
    }
  },
  {
    "service_request": "2026-1296755",
    "request_type": "Abandoned Vehicles",
    "request_reason": "Abandoned/Junk Vehicles",
    "date_created": "2026-07-05T07:45:20.000",
    "date_modified": "2026-07-05T07:45:23.000",
    "request_status": "Pending",
    "responsible_agency": "Department of Public Works",
    "final_address": "2728 N Derbigny St",
    "address_councildis": "D",
    "status": "Pending",
    "rowid": "1296755",
    "final_x": "3688180.59087",
    "final_y": "538558.270025",
    "longitude": "-90.04672593391456",
    "latitude": "29.9746439436803",
    "geocoded_column": {
      "latitude": "29.9746439436803",
      "longitude": "-90.04672593391456"
    }
  },
  {
    "service_request": "2026-1296754",
    "request_type": "Trash/Recycling",
    "request_reason": "Replace Trash Cart",
    "date_created": "2026-07-05T07:44:08.000",
    "date_modified": "2026-07-05T07:44:12.000",
    "request_status": "Pending",
    "responsible_agency": "Department of Sanitation",
    "final_address": "1241 Desire St",
    "address_councildis": "C",
    "status": "Assigned to Contractor",
    "contractor": "IV Waste",
    "rowid": "1296754",
    "final_x": "3690384.42256",
    "final_y": "536397.040327",
    "longitude": "-90.03984276763968",
    "latitude": "29.96863309846316",
    "geocoded_column": {
      "latitude": "29.96863309846316",
      "longitude": "-90.03984276763968"
    }
  },
  {
    "service_request": "2026-1296753",
    "request_type": "Homeless Related Request",
    "request_reason": "Homeless Encampment Complaint",
    "date_created": "2026-07-05T07:36:57.000",
    "date_modified": "2026-07-05T07:36:59.000",
    "request_status": "Pending",
    "responsible_agency": "Office Of Homeless Services And Strategy",
    "final_address": "6301 Eastover Dr",
    "address_councildis": "E",
    "status": "Pending",
    "rowid": "1296753",
    "final_x": "3717863.29727",
    "final_y": "564176.683361",
    "longitude": "-89.95200642885847",
    "latitude": "30.044134694630458",
    "geocoded_column": {
      "latitude": "30.044134694630458",
      "longitude": "-89.95200642885847"
    }
  },
  {
    "service_request": "2026-1296752",
    "request_type": "Property Maintenance",
    "request_reason": "Property Maintenance",
    "date_created": "2026-07-05T07:19:31.000",
    "date_modified": "2026-07-05T07:19:33.000",
    "request_status": "Pending",
    "responsible_agency": "Department of Code Enforcement",
    "final_address": "7011 Coventry St, New Orleans, Louisiana, 70126",
    "address_councildis": "E",
    "status": "Pending",
    "rowid": "1296752",
    "final_x": "3699186.30212",
    "final_y": "559827.066077",
    "longitude": "-90.01119233808276",
    "latitude": "30.032780798712942",
    "geocoded_column": {
      "latitude": "30.032780798712942",
      "longitude": "-90.01119233808276"
    }
  },
  {
    "service_request": "2026-1296751",
    "request_type": "Property Maintenance",
    "request_reason": "Property Maintenance",
    "date_created": "2026-07-05T07:15:34.000",
    "date_modified": "2026-07-05T07:15:35.000",
    "request_status": "Pending",
    "responsible_agency": "Department of Code Enforcement",
    "final_address": "7020 Coventry St, New Orleans, Louisiana, 70126",
    "address_councildis": "E",
    "status": "Pending",
    "rowid": "1296751",
    "final_x": "3699204.89834",
    "final_y": "559653.361117",
    "longitude": "-90.01113990681763",
    "latitude": "30.032302587157528",
    "geocoded_column": {
      "latitude": "30.032302587157528",
      "longitude": "-90.01113990681763"
    }
  },
  {
    "service_request": "2026-1296750",
    "request_type": "Tree Service",
    "request_reason": "Dead or Dying Tree",
    "date_created": "2026-07-05T07:00:48.000",
    "date_modified": "2026-07-05T07:00:51.000",
    "request_status": "Pending",
    "responsible_agency": "Department of Parks & Parkways",
    "final_address": "4424 St Claude Ave",
    "address_councildis": "C",
    "status": "Pending",
    "rowid": "1296750",
    "final_x": "3693254.99741",
    "final_y": "534892.780166",
    "longitude": "-90.03083137203784",
    "latitude": "29.96440750056145",
    "geocoded_column": {
      "latitude": "29.96440750056145",
      "longitude": "-90.03083137203784"
    }
  },
  {
    "service_request": "2026-1296749",
    "request_type": "Homeless Related Request",
    "request_reason": "Homeless Encampment Complaint",
    "date_created": "2026-07-05T06:02:05.000",
    "date_modified": "2026-07-05T06:02:13.000",
    "request_status": "Pending",
    "responsible_agency": "Office Of Homeless Services And Strategy",
    "final_address": "2601 Marais St",
    "address_councildis": "C",
    "status": "Pending",
    "rowid": "1296749",
    "final_x": "3687261.0479",
    "final_y": "536841.084296",
    "longitude": "-90.04969082469282",
    "latitude": "29.96995064318127",
    "geocoded_column": {
      "latitude": "29.96995064318127",
      "longitude": "-90.04969082469282"
    }
  },
  {
    "service_request": "2026-1296748",
    "request_type": "Homeless Related Request",
    "request_reason": "Homeless Encampment Complaint",
    "date_created": "2026-07-05T05:27:43.000",
    "date_modified": "2026-07-05T05:27:46.000",
    "request_status": "Pending",
    "responsible_agency": "Office Of Homeless Services And Strategy",
    "final_address": "2601 Marais St",
    "address_councildis": "C",
    "status": "Pending",
    "rowid": "1296748",
    "final_x": "3687261.0479",
    "final_y": "536841.084296",
    "longitude": "-90.04969082469282",
    "latitude": "29.96995064318127",
    "geocoded_column": {
      "latitude": "29.96995064318127",
      "longitude": "-90.04969082469282"
    }
  },
  {
    "service_request": "2026-1296747",
    "request_type": "Tree Service",
    "request_reason": "Tree Trim",
    "date_created": "2026-07-04T23:34:17.000",
    "date_modified": "2026-07-04T23:34:19.000",
    "request_status": "Pending",
    "responsible_agency": "Department of Parks & Parkways",
    "final_address": "8400 Aberdeen Rd",
    "address_councildis": "E",
    "status": "Pending",
    "rowid": "1296747",
    "final_x": "3703633.90481",
    "final_y": "561659.238047",
    "longitude": "-89.99707011311357",
    "latitude": "30.037676696165075",
    "geocoded_column": {
      "latitude": "30.037676696165075",
      "longitude": "-89.99707011311357"
    }
  },
  {
    "service_request": "2026-1296746",
    "request_type": "Trash/Recycling",
    "request_reason": "Request a Large Item Pick Up",
    "date_created": "2026-07-04T23:23:33.000",
    "date_modified": "2026-07-04T23:23:35.000",
    "request_status": "Pending",
    "responsible_agency": "Department of Sanitation",
    "final_address": "4742 Knight Dr",
    "address_councildis": "E",
    "status": "Assigned to Contractor",
    "contractor": "Waste Pro",
    "rowid": "1296746",
    "final_x": "3708060.08772",
    "final_y": "555555.557657",
    "longitude": "-89.98330969146063",
    "latitude": "30.020751299874956",
    "geocoded_column": {
      "latitude": "30.020751299874956",
      "longitude": "-89.98330969146063"
    }
  },
  {
    "service_request": "2026-1296745",
    "request_type": "General Services",
    "request_reason": "General Service Request",
    "date_created": "2026-07-04T23:20:29.000",
    "date_modified": "2026-07-04T23:20:31.000",
    "request_status": "Pending",
    "responsible_agency": "Orleans Parish Communication District",
    "final_address": "1662 Lafreniere St",
    "address_councildis": "D",
    "status": "Pending",
    "rowid": "1296745",
    "final_x": "3680338.61602",
    "final_y": "545150.688911",
    "longitude": "-90.0712634856669",
    "latitude": "29.993010579149757",
    "geocoded_column": {
      "latitude": "29.993010579149757",
      "longitude": "-90.0712634856669"
    }
  },
  {
    "service_request": "2026-1296744",
    "request_type": "Streetlights",
    "request_reason": "Streetlight Knocked Down/Leaning",
    "date_created": "2026-07-04T23:17:23.000",
    "date_modified": "2026-07-04T23:17:25.000",
    "request_status": "Pending",
    "responsible_agency": "Department of Public Works",
    "final_address": "1667 Tchoupitoulas St",
    "address_councildis": "B",
    "status": "Pending",
    "rowid": "1296744",
    "final_x": "3682006.93237",
    "final_y": "521971.240378",
    "longitude": "-90.06680288658175",
    "latitude": "29.929224387107606",
    "geocoded_column": {
      "latitude": "29.929224387107606",
      "longitude": "-90.06680288658175"
    }
  },
  {
    "service_request": "2026-1296743",
    "request_type": "Drainage",
    "request_reason": "Catch Basin Not Draining",
    "date_created": "2026-07-04T21:24:09.000",
    "date_modified": "2026-07-04T21:24:12.000",
    "request_status": "Pending",
    "responsible_agency": "Sewerage & Water Board",
    "final_address": "1018 S Carrollton Ave",
    "address_councildis": "A",
    "status": "Pending",
    "rowid": "1296743",
    "final_x": "3661578.41107",
    "final_y": "527979.905343",
    "longitude": "-90.13109314330612",
    "latitude": "29.94635139106853",
    "geocoded_column": {
      "latitude": "29.94635139106853",
      "longitude": "-90.13109314330612"
    }
  },
  {
    "service_request": "2026-1296742",
    "request_type": "Abandoned Vehicles",
    "request_reason": "Abandoned/Junk Vehicles",
    "date_created": "2026-07-04T20:49:36.000",
    "date_modified": "2026-07-04T20:49:39.000",
    "request_status": "Pending",
    "responsible_agency": "Department of Public Works",
    "final_address": "3921 Orleans Ave Apt 2A",
    "address_councildis": "A",
    "status": "Pending",
    "rowid": "1296742",
    "final_x": "3673151.67272",
    "final_y": "539957.856075",
    "longitude": "-90.09414323684157",
    "latitude": "29.978947780035657",
    "geocoded_column": {
      "latitude": "29.978947780035657",
      "longitude": "-90.09414323684157"
    }
  },
  {
    "service_request": "2026-1296741",
    "request_type": "Trash/Recycling",
    "request_reason": "Replace Trash Cart",
    "date_created": "2026-07-04T20:19:31.000",
    "date_modified": "2026-07-04T20:19:33.000",
    "request_status": "Pending",
    "responsible_agency": "Department of Sanitation",
    "final_address": "726 Gallier St",
    "address_councildis": "C",
    "status": "Assigned to Contractor",
    "contractor": "IV Waste",
    "rowid": "1296741",
    "final_x": "3690118.22422",
    "final_y": "534366.456581",
    "longitude": "-90.04075577302594",
    "latitude": "29.963057964676835",
    "geocoded_column": {
      "latitude": "29.963057964676835",
      "longitude": "-90.04075577302594"
    }
  },
  {
    "service_request": "2026-1296740",
    "request_type": "Trash/Recycling",
    "request_reason": "Replace Recycling Cart",
    "date_created": "2026-07-04T20:08:43.000",
    "date_modified": "2026-07-04T20:08:47.000",
    "request_status": "Pending",
    "responsible_agency": "Department of Sanitation",
    "final_address": "3604 State Street Dr",
    "address_councildis": "A",
    "status": "Pending",
    "rowid": "1296740",
    "final_x": "3667826.52564",
    "final_y": "528994.027328",
    "longitude": "-90.111331440409",
    "latitude": "29.948958159294644",
    "geocoded_column": {
      "latitude": "29.948958159294644",
      "longitude": "-90.111331440409"
    }
  },
  {
    "service_request": "2026-1296739",
    "request_type": "Trash/Recycling",
    "request_reason": "Replace Trash Cart",
    "date_created": "2026-07-04T19:54:01.000",
    "date_modified": "2026-07-04T19:54:04.000",
    "request_status": "Pending",
    "responsible_agency": "Department of Sanitation",
    "final_address": "105 E Park Pl",
    "address_councildis": "A",
    "status": "Assigned to Contractor",
    "contractor": "IV Waste",
    "rowid": "1296739",
    "final_x": "3670423.25351",
    "final_y": "544429.880271",
    "longitude": "-90.10260894276959",
    "latitude": "29.99132517049562",
    "geocoded_column": {
      "latitude": "29.99132517049562",
      "longitude": "-90.10260894276959"
    }
  },
  {
    "service_request": "2026-1296738",
    "request_type": "Utility Poles",
    "request_reason": "Wires Sagging/Hanging Low",
    "date_created": "2026-07-04T19:29:19.000",
    "date_modified": "2026-07-04T19:29:22.000",
    "request_status": "Pending",
    "responsible_agency": "Utility Company Collective",
    "final_address": "2924 Pauger St",
    "address_councildis": "D",
    "status": "Pending",
    "rowid": "1296738",
    "final_x": "3683476.4509",
    "final_y": "540465.050571",
    "longitude": "-90.06151590363741",
    "latitude": "29.9800313234574",
    "geocoded_column": {
      "latitude": "29.9800313234574",
      "longitude": "-90.06151590363741"
    }
  },
  {
    "service_request": "2026-1296737",
    "request_type": "Trash/Recycling",
    "request_reason": "MIssed Recycling Pick-Up",
    "date_created": "2026-07-04T19:27:27.000",
    "date_modified": "2026-07-04T19:27:28.000",
    "request_status": "Pending",
    "responsible_agency": "Department of Sanitation",
    "final_address": "1765 Coliseum St",
    "address_councildis": "B",
    "status": "Assigned to Contractor",
    "contractor": "IV Waste",
    "rowid": "1296737",
    "final_x": "3679389.36751",
    "final_y": "524030.820028",
    "longitude": "-90.07499463769864",
    "latitude": "29.93496685028271",
    "geocoded_column": {
      "latitude": "29.93496685028271",
      "longitude": "-90.07499463769864"
    }
  },
  {
    "service_request": "2026-1296736",
    "request_type": "Trash/Recycling",
    "request_reason": "Request a Large Item Pick Up",
    "date_created": "2026-07-04T18:52:47.000",
    "date_modified": "2026-07-04T18:52:49.000",
    "request_status": "Pending",
    "responsible_agency": "Department of Sanitation",
    "final_address": "1909 Orleans Ave",
    "address_councildis": "C",
    "status": "Assigned to Contractor",
    "contractor": "IV Waste",
    "rowid": "1296736",
    "final_x": "3679244.71637",
    "final_y": "535251.750662",
    "longitude": "-90.07506229764026",
    "latitude": "29.965825014396017",
    "geocoded_column": {
      "latitude": "29.965825014396017",
      "longitude": "-90.07506229764026"
    }
  },
  {
    "service_request": "2026-1296735",
    "request_type": "Roads and Streets",
    "request_reason": "Street Subsidence (Sinking)",
    "date_created": "2026-07-04T18:50:13.000",
    "date_modified": "2026-07-04T18:50:20.000",
    "request_status": "Pending",
    "responsible_agency": "Sewerage & Water Board",
    "final_address": "2929 Napoleon Ave",
    "address_councildis": "B",
    "status": "Pending",
    "rowid": "1296735",
    "final_x": "3670526.8315",
    "final_y": "525656.961341",
    "longitude": "-90.10291852591874",
    "latitude": "29.939702854127233",
    "geocoded_column": {
      "latitude": "29.939702854127233",
      "longitude": "-90.10291852591874"
    }
  },
  {
    "service_request": "2026-1296734",
    "request_type": "Trash/Recycling",
    "request_reason": "Request a Large Item Pick Up",
    "date_created": "2026-07-04T18:32:52.000",
    "date_modified": "2026-07-04T18:32:54.000",
    "request_status": "Pending",
    "responsible_agency": "Department of Sanitation",
    "final_address": "4117 Clara St",
    "address_councildis": "B",
    "status": "Assigned to Contractor",
    "contractor": "IV Waste",
    "rowid": "1296734",
    "final_x": "3671464.88692",
    "final_y": "525289.665469",
    "longitude": "-90.09996942830193",
    "latitude": "29.93866517913946",
    "geocoded_column": {
      "latitude": "29.93866517913946",
      "longitude": "-90.09996942830193"
    }
  },