[
  {
    "service_request": "2025-1177825",
    "request_type": "Trash/Recycling",
    "request_reason": "Request a Large Item Pick Up",
    "date_created": "2025-03-22T23:45:35.000",
    "date_modified": "2025-03-22T23:45:37.000",
    "request_status": "Pending",
    "responsible_agency": "Department of Sanitation",
    "final_address": "260 Audubon Blvd",
    "address_councildis": "A",
    "status": "Assigned to Contractor",
    "contractor": "IV Waste",
    "rowid": "1177825",
    "final_x": "3666743.06689",
    "final_y": "529444.775297",
    "longitude": "-90.11473726582281",
    "latitude": "29.950229297069924",
    "geocoded_column": {
      "latitude": "29.950229297069924",
      "longitude": "-90.11473726582281"
    }
  },
  {
    "service_request": "2025-1177824",
    "request_type": "Street and Traffic Signs",
    "request_reason": "Street Name Sign Damaged or Missing",
    "date_created": "2025-03-22T23:40:20.000",
    "date_modified": "2025-03-22T23:40:23.000",
    "request_status": "Pending",
    "responsible_agency": "Department of Public Works",
    "final_address": "BURGUNDY ST & DUMAINE ST",
    "address_councildis": "C",
    "status": "Pending",
    "rowid": "1177824",
    "final_x": "3682139.2",
    "final_y": "533708.48",
    "longitude": "-90.06597552706725",
    "latitude": "29.961493833915632",
    "geocoded_column": {
      "latitude": "29.961493833915632",
      "longitude": "-90.06597552706725"
    }
  },
  {
    "service_request": "2025-1177823",
    "request_type": "Health Related Request",
    "request_reason": "Noise Ordinance Complaint",
    "date_created": "2025-03-22T23:09:04.000",
    "date_modified": "2025-03-22T23:09:07.000",
    "request_status": "Pending",
    "responsible_agency": "Health Department",
    "final_address": "6579 marshal Foch street, New Orleans, 70124",
    "address_councildis": "A",
    "status": "Pending",
    "rowid": "1177823",
    "final_x": "3670281.7106",
    "final_y": "551176.939413",
    "longitude": "-90.10282717378757",
    "latitude": "30.009881414829866",
    "geocoded_column": {
      "latitude": "30.009881414829866",
      "longitude": "-90.10282717378757"
    }
  },
  {
    "service_request": "2025-1177822",
    "request_type": "Property Maintenance",
    "request_reason": "Property Maintenance",
    "date_created": "2025-03-22T23:03:38.000",
    "date_modified": "2025-03-22T23:03:40.000",
    "request_status": "Pending",
    "responsible_agency": "Department of Code Enforcement",
    "final_address": "2619 Martin Luther King, Jr. Blvd",
    "address_councildis": "B",
    "status": "Pending",
    "rowid": "1177822",
    "final_x": "3676053.2532",
    "final_y": "527606.974463",
    "longitude": "-90.08540377105041",
    "latitude": "29.94490041625422",
    "geocoded_column": {
      "latitude": "29.94490041625422",
      "longitude": "-90.08540377105041"
    }
  },
  {
    "service_request": "2025-1177821",
    "request_type": "Property Maintenance",
    "request_reason": "Property Maintenance",
    "date_created": "2025-03-22T23:01:56.000",
    "date_modified": "2025-03-22T23:01:58.000",
    "request_status": "Pending",
    "responsible_agency": "Department of Code Enforcement",
    "final_address": "2619 Martin Luther King, Jr. Blvd",
    "address_councildis": "B",
    "status": "Pending",
    "rowid": "1177821",
    "final_x": "3676053.2532",
    "final_y": "527606.974463",
    "longitude": "-90.08540377105041",
    "latitude": "29.94490041625422",
    "geocoded_column": {
      "latitude": "29.94490041625422",
      "longitude": "-90.08540377105041"
    }
  },
  {
    "service_request": "2025-1177820",
    "request_type": "Health Related Request",
    "request_reason": "Noise Ordinance Complaint",
    "date_created": "2025-03-22T23:01:23.000",
    "date_modified": "2025-03-22T23:01:26.000",
    "request_status": "Pending",
    "responsible_agency": "Health Department",
    "final_address": "600 N Broad St",
    "address_councildis": "D",
    "status": "Pending",
    "rowid": "1177820",
    "final_x": "3676514.68328",
    "final_y": "536431.051079",
    "longitude": "-90.0836430411453",
    "latitude": "29.969149839828454",
    "geocoded_column": {
      "latitude": "29.969149839828454",
      "longitude": "-90.0836430411453"
    }
  },
  {
    "service_request": "2025-1177819",
    "request_type": "Trash/Recycling",
    "request_reason": "Order Trash Cart",
    "date_created": "2025-03-22T22:46:31.000",
    "date_modified": "2025-03-22T22:46:33.000",
    "request_status": "Pending",
    "responsible_agency": "Department of Sanitation",
    "final_address": "2613 Martin Luther King, Jr. Blvd",
    "address_councildis": "B",
    "status": "Assigned to Contractor",
    "contractor": "IV Waste",
    "rowid": "1177819",
    "final_x": "3676079.22625",
    "final_y": "527586.522687",
    "longitude": "-90.08532246944256",
    "latitude": "29.944843402803023",
    "geocoded_column": {
      "latitude": "29.944843402803023",
      "longitude": "-90.08532246944256"
    }
  },
  {
    "service_request": "2025-1177818",
    "request_type": "Trash/Recycling",
    "request_reason": "Repair Trash Cart",
    "date_created": "2025-03-22T22:41:16.000",
    "date_modified": "2025-03-22T22:41:18.000",
    "request_status": "Pending",
    "responsible_agency": "Department of Sanitation",
    "final_address": "5926 Constance St",
    "address_councildis": "A",
    "status": "Assigned to Contractor",
    "contractor": "IV Waste",
    "rowid": "1177818",
    "final_x": "3664941.06304",
    "final_y": "518743.175159",
    "longitude": "-90.12078464157688",
    "latitude": "29.920855872881837",
    "geocoded_column": {
      "latitude": "29.920855872881837",
      "longitude": "-90.12078464157688"
    }
  },
  {
    "service_request": "2025-1177817",
    "request_type": "Abandoned Vehicles",
    "request_reason": "Abandoned/Junk Vehicles",
    "date_created": "2025-03-22T22:12:41.000",
    "date_modified": "2025-03-22T22:12:44.000",
    "request_status": "Pending",
    "responsible_agency": "Department of Public Works",
    "final_address": "524 Atlantic Ave",
    "address_councildis": "C",
    "status": "Pending",
    "rowid": "1177817",
    "final_x": "3688863.31791",
    "final_y": "529647.297345",
    "longitude": "-90.04488617618016",
    "latitude": "29.950120773108925",
    "geocoded_column": {
      "latitude": "29.950120773108925",
      "longitude": "-90.04488617618016"
    }
  },
  {
    "service_request": "2025-1177816",
    "request_type": "Drainage",
    "request_reason": "Street Flooding",
    "date_created": "2025-03-22T21:25:36.000",
    "date_modified": "2025-03-22T21:25:38.000",
    "request_status": "Pending",
    "responsible_agency": "Sewerage & Water Board ",
    "final_address": "1734 Marigny St",
    "address_councildis": "D",
    "status": "Pending",
    "rowid": "1177816",
    "final_x": "3685186.71637",
    "final_y": "538834.182857",
    "longitude": "-90.05617159581877",
    "latitude": "29.975494702137535",
    "geocoded_column": {
      "latitude": "29.975494702137535",
      "longitude": "-90.05617159581877"
    }
  },
  {
    "service_request": "2025-1177815",
    "request_type": "Trash/Recycling",
    "request_reason": "Request a Large Item Pick Up",
    "date_created": "2025-03-22T21:23:42.000",
    "date_modified": "2025-03-22T21:23:44.000",
    "request_status": "Pending",
    "responsible_agency": "Department of Sanitation",
    "final_address": "1802 Cambronne St",
    "address_councildis": "A",
    "status": "Assigned to Contractor",
    "contractor": "IV Waste",
    "rowid": "1177815",
    "final_x": "3662584.68282",
    "final_y": "530717.40109",
    "longitude": "-90.1278250416714",
    "latitude": "29.95384955464348",
    "geocoded_column": {
      "latitude": "29.95384955464348",
      "longitude": "-90.1278250416714"
    }
  },
  {
    "service_request": "2025-1177814",
    "request_type": "Roads and Streets",
    "request_reason": "Pothole",
    "date_created": "2025-03-22T21:17:35.000",
    "date_modified": "2025-03-22T21:17:38.000",
    "request_status": "Pending",
    "responsible_agency": "Department of Public Works",
    "final_address": "1734 Marigny St",
    "address_councildis": "D",
    "status": "Pending",
    "rowid": "1177814",
    "final_x": "3685186.71637",
    "final_y": "538834.182857",
    "longitude": "-90.05617159581877",
    "latitude": "29.975494702137535",
    "geocoded_column": {
      "latitude": "29.975494702137535",
      "longitude": "-90.05617159581877"
    }
  },
  {
    "service_request": "2025-1177813",
    "request_type": "Drainage",
    "request_reason": "Street Flooding",
    "date_created": "2025-03-22T21:12:12.000",
    "date_modified": "2025-03-22T21:12:15.000",
    "request_status": "Pending",
    "responsible_agency": "Sewerage & Water Board ",
    "final_address": "1734 Marigny St",
    "address_councildis": "D",
    "status": "Pending",
    "rowid": "1177813",
    "final_x": "3685186.71637",
    "final_y": "538834.182857",
    "longitude": "-90.05617159581877",
    "latitude": "29.975494702137535",
    "geocoded_column": {
      "latitude": "29.975494702137535",
      "longitude": "-90.05617159581877"
    }
  },
  {
    "service_request": "2025-1177812",
    "request_type": "Abandoned Vehicles",
    "request_reason": "Abandoned/Junk Vehicles",
    "date_created": "2025-03-22T20:51:54.000",
    "date_modified": "2025-03-22T20:51:56.000",
    "request_status": "Pending",
    "responsible_agency": "Department of Public Works",
    "final_address": "1007 Fourth St",
    "address_councildis": "B",
    "status": "Pending",
    "rowid": "1177812",
    "final_x": "3677506.79048",
    "final_y": "520774.506809",
    "longitude": "-90.0810502698121",
    "latitude": "29.92606976464972",
    "geocoded_column": {
      "latitude": "29.92606976464972",
      "longitude": "-90.0810502698121"
    }
  },
  {
    "service_request": "2025-1177811",
    "request_type": "Trash/Recycling",
    "request_reason": "Request a Large Item Pick Up",
    "date_created": "2025-03-22T20:49:53.000",
    "date_modified": "2025-03-22T20:50:02.000",
    "request_status": "Pending",
    "responsible_agency": "Department of Sanitation",
    "final_address": "829 Tupelo St",
    "address_councildis": "E",
    "status": "Assigned to Contractor",
    "contractor": "Waste Pro",
    "rowid": "1177811",
    "final_x": "3699177.49994",
    "final_y": "532445.15194",
    "longitude": "-90.01221780459693",
    "latitude": "29.957490952626234",
    "geocoded_column": {
      "latitude": "29.957490952626234",
      "longitude": "-90.01221780459693"
    }
  },
  {
    "service_request": "2025-1177810",
    "request_type": "General Services",
    "request_reason": "General Service Request",
    "date_created": "2025-03-22T20:14:50.000",
    "date_modified": "2025-03-22T20:14:52.000",
    "request_status": "Pending",
    "responsible_agency": "Orleans Parish Communication District",
    "final_address": "1038 Milan St",
    "address_councildis": "B",
    "status": "Pending",
    "rowid": "1177810",
    "final_x": "3671690.89108",
    "final_y": "519536.973367",
    "longitude": "-90.09945148086652",
    "latitude": "29.922840435865165",
    "geocoded_column": {
      "latitude": "29.922840435865165",
      "longitude": "-90.09945148086652"
    }
  },
  {
    "service_request": "2025-1177809",
    "request_type": "Streetlights",
    "request_reason": "Streetlight Outage/Malfunction",
    "date_created": "2025-03-22T19:36:58.000",
    "date_modified": "2025-03-22T19:37:00.000",
    "request_status": "Pending",
    "responsible_agency": "Department of Public Works",
    "final_address": "43 E Blue Ridge Ct",
    "address_councildis": "E",
    "status": "Pending",
    "contractor": "Legacy Professional Services",
    "rowid": "1177809",
    "final_x": "3714197.93285",
    "final_y": "567480.316964",
    "longitude": "-89.9634656680098",
    "latitude": "30.053339328727322",
    "geocoded_column": {
      "latitude": "30.053339328727322",
      "longitude": "-89.9634656680098"
    }
  },
  {
    "service_request": "2025-1177808",
    "request_type": "Trash/Recycling",
    "request_reason": "Replace Recycling Cart",
    "date_created": "2025-03-22T18:32:10.000",
    "date_modified": "2025-03-22T18:32:14.000",
    "request_status": "Pending",
    "responsible_agency": "Department of Sanitation",
    "final_address": "5657 Hawthorne Pl",
    "address_councildis": "A",
    "status": "Pending",
    "rowid": "1177808",
    "final_x": "3667967.54407",
    "final_y": "545091.856847",
    "longitude": "-90.11034368164457",
    "latitude": "29.99321767630413",
    "geocoded_column": {
      "latitude": "29.99321767630413",
      "longitude": "-90.11034368164457"
    }
  },
  {
    "service_request": "2025-1177807",
    "request_type": "Trash/Recycling",
    "request_reason": "Replace Recycling Cart",
    "date_created": "2025-03-22T18:28:31.000",
    "date_modified": "2025-03-22T18:28:33.000",
    "request_status": "Pending",
    "responsible_agency": "Department of Sanitation",
    "final_address": "5657 Hawthorne Pl",
    "address_councildis": "A",
    "status": "Pending",
    "rowid": "1177807",
    "final_x": "3667967.54407",
    "final_y": "545091.856847",
    "longitude": "-90.11034368164457",
    "latitude": "29.99321767630413",
    "geocoded_column": {
      "latitude": "29.99321767630413",
      "longitude": "-90.11034368164457"
    }
  },
  {
    "service_request": "2025-1177806",
    "request_type": "Trash/Recycling",
    "request_reason": "Replace Recycling Cart",
    "date_created": "2025-03-22T18:23:01.000",
    "date_modified": "2025-03-22T18:23:03.000",
    "request_status": "Pending",
    "responsible_agency": "Department of Sanitation",
    "final_address": "5655 Hawthorne Pl",
    "address_councildis": "A",
    "status": "Pending",
    "rowid": "1177806",
    "final_x": "3667967.54407",
    "final_y": "545091.856847",
    "longitude": "-90.11034368164457",
    "latitude": "29.99321767630413",
    "geocoded_column": {
      "latitude": "29.99321767630413",
      "longitude": "-90.11034368164457"
    }
  },
  {
    "service_request": "2025-1177805",
    "request_type": "Street and Traffic Signs",
    "request_reason": "Stop Sign Missing or Damaged",
    "date_created": "2025-03-22T17:43:13.000",
    "date_modified": "2025-03-22T17:43:15.000",
    "request_status": "Pending",
    "responsible_agency": "Department of Public Works",
    "final_address": "3200 BLK Cecil St",
    "address_councildis": "A",
    "status": "Pending",
    "rowid": "1177805",
    "final_x": "3663241.46941",
    "final_y": "537579.074236",
    "longitude": "-90.12552278912457",
    "latitude": "29.9726978946928",
    "geocoded_column": {
      "latitude": "29.9726978946928",
      "longitude": "-90.12552278912457"
    }
  },
  {
    "service_request": "2025-1177804",
    "request_type": "Trash/Recycling",
    "request_reason": "Order Recycling Cart",
    "date_created": "2025-03-22T17:16:05.000",
    "date_modified": "2025-03-22T17:16:08.000",
    "request_status": "Pending",
    "responsible_agency": "Department of Sanitation",
    "final_address": "4156 Davey St",
    "address_councildis": "D",
    "status": "Pending",
    "rowid": "1177804",
    "final_x": "3676115.86273",
    "final_y": "547365.245521",
    "longitude": "-90.08452620646996",
    "latitude": "29.999227045589997",
    "geocoded_column": {
      "latitude": "29.999227045589997",
      "longitude": "-90.08452620646996"
    }
  },
  {
    "service_request": "2025-1177803",
    "request_type": "General Services",
    "request_reason": "General Service Request",
    "date_created": "2025-03-22T16:50:33.000",
    "date_modified": "2025-03-22T16:50:35.000",
    "request_status": "Pending",
    "responsible_agency": "Orleans Parish Communication District",
    "final_address": "201 S Pierce St, New Orleans, Louisiana, 70119",
    "address_councildis": "A",
    "status": "Pending",
    "rowid": "1177803",
    "final_x": "3671165.94753",
    "final_y": "537711.090248",
    "longitude": "-90.10049128043558",
    "latitude": "29.972828834036935",
    "geocoded_column": {
      "latitude": "29.972828834036935",
      "longitude": "-90.10049128043558"
    }
  },
  {
    "service_request": "2025-1177802",
    "request_type": "Trash/Recycling",
    "request_reason": "Request a Large Item Pick Up",
    "date_created": "2025-03-22T16:49:26.000",
    "date_modified": "2025-03-22T16:49:28.000",
    "request_status": "Pending",
    "responsible_agency": "Department of Sanitation",
    "final_address": "226 S Cortez St",
    "address_councildis": "A",
    "status": "Assigned to Contractor",
    "contractor": "IV Waste",
    "rowid": "1177802",
    "final_x": "3671721.96455",
    "final_y": "537052.47092",
    "longitude": "-90.09875768123419",
    "latitude": "29.971001391986807",
    "geocoded_column": {
      "latitude": "29.971001391986807",
      "longitude": "-90.09875768123419"
    }
  },
  {
    "service_request": "2025-1177801",
    "request_type": "Health Related Request",
    "request_reason": "Noise Ordinance Complaint",
    "date_created": "2025-03-22T16:42:44.000",
    "date_modified": "2025-03-22T16:42:47.000",
    "request_status": "Pending",
    "responsible_agency": "Health Department",
    "final_address": "2020 Harmony St",
    "address_councildis": "B",
    "status": "Pending",
    "rowid": "1177801",
    "final_x": "3674068.32417",
    "final_y": "523331.717051",
    "longitude": "-90.0918170603826",
    "latitude": "29.933204147746018",
    "geocoded_column": {
      "latitude": "29.933204147746018",
      "longitude": "-90.0918170603826"
    }
  },
  {
    "service_request": "2025-1177800",
    "request_type": "Parks & Parkways",
    "request_reason": "Request Tree Service (Right of Way/Public Property)",
    "date_created": "2025-03-22T16:26:33.000",
    "date_modified": "2025-03-22T16:26:36.000",
    "request_status": "Pending",
    "responsible_agency": "Department of Parks & Parkway",
    "final_address": "4200 Vincennes Pl",
    "address_councildis": "B",
    "status": "Pending",
    "rowid": "1177800",
    "final_x": "3668687.97121",
    "final_y": "531178.091778",
    "longitude": "-90.10853776294266",
    "latitude": "29.95493833253725",
    "geocoded_column": {
      "latitude": "29.95493833253725",
      "longitude": "-90.10853776294266"
    }
  },
  {
    "service_request": "2025-1177799",
    "request_type": "Trash/Recycling",
    "request_reason": "Order Trash Cart",
    "date_created": "2025-03-22T16:16:28.000",
    "date_modified": "2025-03-22T16:16:31.000",
    "request_status": "Pending",
    "responsible_agency": "Department of Sanitation",
    "final_address": "2307 Piety St",
    "address_councildis": "D",
    "status": "Assigned to Contractor",
    "contractor": "IV Waste",
    "rowid": "1177799",
    "final_x": "3691016.3222",
    "final_y": "540371.916363",
    "longitude": "-90.03770526256996",
    "latitude": "29.97954296972167",
    "geocoded_column": {
      "latitude": "29.97954296972167",
      "longitude": "-90.03770526256996"
    }
  },
  {
    "service_request": "2025-1177798",
    "request_type": "Trash/Recycling",
    "request_reason": "Order Trash Cart",
    "date_created": "2025-03-22T16:12:39.000",
    "date_modified": "2025-03-22T16:12:41.000",
    "request_status": "Pending",
    "responsible_agency": "Department of Sanitation",
    "final_address": "2307 Piety St",
    "address_councildis": "D",
    "status": "Assigned to Contractor",
    "contractor": "IV Waste",
    "rowid": "1177798",
    "final_x": "3691016.3222",
    "final_y": "540371.916363",
    "longitude": "-90.03770526256996",
    "latitude": "29.97954296972167",
    "geocoded_column": {
      "latitude": "29.97954296972167",
      "longitude": "-90.03770526256996"
    }
  },
  {
    "service_request": "2025-1177797",
    "request_type": "Trash/Recycling",
    "request_reason": "Request a Large Item Pick Up",
    "date_created": "2025-03-22T16:09:48.000",
    "date_modified": "2025-03-22T16:09:51.000",
    "request_status": "Pending",
    "responsible_agency": "Department of Sanitation",
    "final_address": "1323 S Derbigny St",
    "address_councildis": "B",
    "status": "Assigned to Contractor",
    "contractor": "IV Waste",
    "rowid": "1177797",
    "final_x": "3674920.98037",
    "final_y": "528685.855808",
    "longitude": "-90.08894171264667",
    "latitude": "29.947900842776853",
    "geocoded_column": {
      "latitude": "29.947900842776853",
      "longitude": "-90.08894171264667"
    }
  },
  {
    "service_request": "2025-1177796",
    "request_type": "Trash/Recycling",
    "request_reason": "Request a Large Item Pick Up",
    "date_created": "2025-03-22T15:38:45.000",
    "date_modified": "2025-03-22T15:38:47.000",
    "request_status": "Pending",
    "responsible_agency": "Department of Sanitation",
    "final_address": "6965 Louis Xiv St",
    "address_councildis": "A",
    "status": "Assigned to Contractor",
    "contractor": "IV Waste",
    "rowid": "1177796",
    "final_x": "3668768.36718",
    "final_y": "553862.612759",
    "longitude": "-90.10751761541775",
    "latitude": "30.017310669806967",
    "geocoded_column": {
      "latitude": "30.017310669806967",
      "longitude": "-90.10751761541775"
    }
  },
  {
    "service_request": "2025-1177795",
    "request_type": "Trash/Recycling",
    "request_reason": "Request a Large Item Pick Up",
    "date_created": "2025-03-22T15:28:58.000",
    "date_modified": "2025-03-22T15:29:00.000",
    "request_status": "Pending",
    "responsible_agency": "Department of Sanitation",
    "final_address": "5892 Rhodes Avenue, New Orleans LA 70131",
    "address_councildis": "C",
    "status": "Assigned to Contractor",
    "contractor": "Richards Disposal",
    "rowid": "1177795",
    "final_x": "3705461.201",
    "final_y": "519493.473847",
    "longitude": "-89.99285434943258",
    "latitude": "29.921677713750565",
    "geocoded_column": {
      "latitude": "29.921677713750565",
      "longitude": "-89.99285434943258"
    }
  },
  {
    "service_request": "2025-1177794",
    "request_type": "Drainage",
    "request_reason": "Catch Basin Clogged",
    "date_created": "2025-03-22T15:28:00.000",
    "date_modified": "2025-03-22T15:28:02.000",
    "request_status": "Pending",
    "responsible_agency": "Sewerage & Water Board ",
    "final_address": "1347 Moss St",
    "address_councildis": "A",
    "status": "Pending",
    "rowid": "1177794",
    "final_x": "3674775.9876",
    "final_y": "540519.565323",
    "longitude": "-90.08899375693768",
    "latitude": "29.98044388613289",
    "geocoded_column": {
      "latitude": "29.98044388613289",
      "longitude": "-90.08899375693768"
    }
  },
  {
    "service_request": "2025-1177793",
    "request_type": "Streetlights",
    "request_reason": "Streetlight Outage/Malfunction",
    "date_created": "2025-03-22T15:22:56.000",
    "date_modified": "2025-03-22T15:22:59.000",
    "request_status": "Pending",
    "responsible_agency": "Department of Public Works",
    "final_address": "1347 Moss St",
    "address_councildis": "A",
    "status": "Pending",
    "contractor": "Legacy Professional Services",
    "rowid": "1177793",
    "final_x": "3674775.9876",
    "final_y": "540519.565323",
    "longitude": "-90.08899375693768",
    "latitude": "29.98044388613289",
    "geocoded_column": {
      "latitude": "29.98044388613289",
      "longitude": "-90.08899375693768"
    }
  },
  {
    "service_request": "2025-1177792",
    "request_type": "Abandoned Vehicles",
    "request_reason": "Abandoned/Junk Vehicles",
    "date_created": "2025-03-22T15:09:44.000",
    "date_modified": "2025-03-22T15:09:46.000",
    "request_status": "Pending",
    "responsible_agency": "Department of Public Works",
    "final_address": "5700 Crowder Blvd",
    "address_councildis": "E",
    "status": "Pending",
    "rowid": "1177792",
    "final_x": "3705062.42065",
    "final_y": "557854.943195",
    "longitude": "-89.99269635649384",
    "latitude": "30.02717049048631",
    "geocoded_column": {
      "latitude": "30.02717049048631",
      "longitude": "-89.99269635649384"
    }
  },
  {
    "service_request": "2025-1177791",
    "request_type": "Roads and Streets",
    "request_reason": "Pothole",
    "date_created": "2025-03-22T14:56:37.000",
    "date_modified": "2025-03-22T14:56:39.000",
    "request_status": "Pending",
    "responsible_agency": "Department of Public Works",
    "final_address": "2119 Joseph St",
    "address_councildis": "A",
    "status": "Pending",
    "rowid": "1177791",
    "final_x": "3667316.93921",
    "final_y": "523946.11174",
    "longitude": "-90.11311016244554",
    "latitude": "29.9350929520648",
    "geocoded_column": {
      "latitude": "29.9350929520648",
      "longitude": "-90.11311016244554"
    }
  },
  {
    "service_request": "2025-1177790",
    "request_type": "Roads and Streets",
    "request_reason": "Sidewalk Damaged or Missing",
    "date_created": "2025-03-22T14:55:08.000",
    "date_modified": "2025-03-22T14:55:11.000",
    "request_status": "Pending",
    "responsible_agency": "Department of Public Works",
    "final_address": "6011 Painters St",
    "address_councildis": "D",
    "status": "Pending",
    "rowid": "1177790",
    "final_x": "3686108.22434",
    "final_y": "555259.655449",
    "longitude": "-90.05268143396154",
    "latitude": "30.0206305624863",
    "geocoded_column": {
      "latitude": "30.0206305624863",
      "longitude": "-90.05268143396154"
    }
  },
  {
    "service_request": "2025-1177789",
    "request_type": "Trash/Recycling",
    "request_reason": "Request a Large Item Pick Up",
    "date_created": "2025-03-22T14:47:31.000",
    "date_modified": "2025-03-22T14:47:33.000",
    "request_status": "Pending",
    "responsible_agency": "Department of Sanitation",
    "final_address": "5637 Eads St",
    "address_councildis": "D",
    "status": "Assigned to Contractor",
    "contractor": "IV Waste",
    "rowid": "1177789",
    "final_x": "3686917.20943",
    "final_y": "553978.537624",
    "longitude": "-90.05017061871972",
    "latitude": "30.017083075963818",
    "geocoded_column": {
      "latitude": "30.017083075963818",
      "longitude": "-90.05017061871972"
    }
  },
  {
    "service_request": "2025-1177788",
    "request_type": "Abandoned Vehicles",
    "request_reason": "Abandoned/Junk Vehicles",
    "date_created": "2025-03-22T14:44:08.000",
    "date_modified": "2025-03-22T14:44:09.000",
    "request_status": "Pending",
    "responsible_agency": "Department of Public Works",
    "final_address": "1918 Marais St",
    "address_councildis": "C",
    "status": "Pending",
    "rowid": "1177788",
    "final_x": "3684039.91061",
    "final_y": "536558.541447",
    "longitude": "-90.05987339162503",
    "latitude": "29.969272577031116",
    "geocoded_column": {
      "latitude": "29.969272577031116",
      "longitude": "-90.05987339162503"
    }
  },
  {
    "service_request": "2025-1177787",
    "request_type": "Abandoned Vehicles",
    "request_reason": "Abandoned/Junk Vehicles",
    "date_created": "2025-03-22T14:44:00.000",
    "date_modified": "2025-03-22T14:44:02.000",
    "request_status": "Pending",
    "responsible_agency": "Department of Public Works",
    "final_address": "1918 Marais St",
    "address_councildis": "C",
    "status": "Pending",
    "rowid": "1177787",
    "final_x": "3684039.91061",
    "final_y": "536558.541447",
    "longitude": "-90.05987339162503",
    "latitude": "29.969272577031116",
    "geocoded_column": {
      "latitude": "29.969272577031116",
      "longitude": "-90.05987339162503"
    }
  },
  {
    "service_request": "2025-1177786",
    "request_type": "Safety & Permits",
    "request_reason": "Licenses & Permits",
    "date_created": "2025-03-22T14:39:10.000",
    "date_modified": "2025-03-22T14:39:12.000",
    "request_status": "Pending",
    "responsible_agency": "Safety and Permits",
    "final_address": "1823 Urquhart St",
    "address_councildis": "C",
    "status": "Pending",
    "rowid": "1177786",
    "final_x": "3683680.51337",
    "final_y": "536993.278472",
    "longitude": "-90.06099314880873",
    "latitude": "29.970478931144125",
    "geocoded_column": {
      "latitude": "29.970478931144125",
      "longitude": "-90.06099314880873"
    }
  },
  {
    "service_request": "2025-1177784",
    "request_type": "Abandoned Vehicles",
    "request_reason": "Abandoned/Junk Vehicles",
    "date_created": "2025-03-22T14:20:32.000",
    "date_modified": "2025-03-22T14:20:34.000",
    "request_status": "Pending",
    "responsible_agency": "Department of Public Works",
    "final_address": "8134 Sycamore St",
    "address_councildis": "A",
    "status": "Pending",
    "rowid": "1177784",
    "final_x": "3664083.22234",
    "final_y": "531143.491138",
    "longitude": "-90.12307903978638",
    "latitude": "29.954977728436642",
    "geocoded_column": {
      "latitude": "29.954977728436642",
      "longitude": "-90.12307903978638"
    }
  },
  {
    "service_request": "2025-1177783",
    "request_type": "Trash/Recycling",
    "request_reason": "Order Trash Cart",
    "date_created": "2025-03-22T14:19:50.000",
    "date_modified": "2025-03-22T14:19:52.000",
    "request_status": "Pending",
    "responsible_agency": "Department of Sanitation",
    "final_address": "1644 Palmer Ave",
    "address_councildis": "A",
    "status": "Assigned to Contractor",
    "contractor": "IV Waste",
    "rowid": "1177783",
    "final_x": "3665323.15469",
    "final_y": "523286.907771",
    "longitude": "-90.11942660242929",
    "latitude": "29.933338581516818",
    "geocoded_column": {
      "latitude": "29.933338581516818",
      "longitude": "-90.11942660242929"
    }
  },
  {
    "service_request": "2025-1177782",
    "request_type": "Property Maintenance",
    "request_reason": "Property Maintenance",
    "date_created": "2025-03-22T14:17:02.000",
    "date_modified": "2025-03-22T14:17:04.000",
    "request_status": "Pending",
    "responsible_agency": "Department of Code Enforcement",
    "final_address": "1913 Harmony St",
    "address_councildis": "B",
    "status": "Pending",
    "rowid": "1177782",
    "final_x": "3674369.82696",
    "final_y": "523015.611131",
    "longitude": "-90.0908760550785",
    "latitude": "29.932325973085465",
    "geocoded_column": {
      "latitude": "29.932325973085465",
      "longitude": "-90.0908760550785"
    }
  },
  {
    "service_request": "2025-1177781",
    "request_type": "Healthy Homes",
    "request_reason": "Healthy Homes",
    "date_created": "2025-03-22T14:05:39.000",
    "date_modified": "2025-03-22T14:05:42.000",
    "request_status": "Pending",
    "responsible_agency": "Department of Code Enforcement",
    "final_address": "1520 N Dorgenois St",
    "address_councildis": "D",
    "status": "Pending",
    "rowid": "1177781",
    "final_x": "3679254.22856",
    "final_y": "539347.315082",
    "longitude": "-90.07489021189157",
    "latitude": "29.97708612277162",
    "geocoded_column": {
      "latitude": "29.97708612277162",
      "longitude": "-90.07489021189157"
    }
  },
  {
    "service_request": "2025-1177780",
    "request_type": "Property Maintenance",
    "request_reason": "Property Maintenance",
    "date_created": "2025-03-22T14:03:30.000",
    "date_modified": "2025-03-22T14:03:31.000",
    "request_status": "Pending",
    "responsible_agency": "Department of Code Enforcement",
    "final_address": "1800 Seventh St",
    "address_councildis": "B",
    "status": "Pending",
    "rowid": "1177780",
    "final_x": "3674788.70536",
    "final_y": "522713.111418",
    "longitude": "-90.08956405898013",
    "latitude": "29.93148170149192",
    "geocoded_column": {
      "latitude": "29.93148170149192",
      "longitude": "-90.08956405898013"
    }
  },
  {
    "service_request": "2025-1177779",
    "request_type": "Abandoned Vehicles",
    "request_reason": "Abandoned/Junk Vehicles",
    "date_created": "2025-03-22T13:59:55.000",
    "date_modified": "2025-03-22T13:59:57.000",
    "request_status": "Pending",
    "responsible_agency": "Department of Public Works",
    "final_address": "3704 Clematis St",
    "address_councildis": "D",
    "status": "Pending",
    "rowid": "1177779",
    "final_x": "3686014.99778",
    "final_y": "546605.305745",
    "longitude": "-90.05328148218568",
    "latitude": "29.99683711996938",
    "geocoded_column": {
      "latitude": "29.99683711996938",
      "longitude": "-90.05328148218568"
    }
  },
  {
    "service_request": "2025-1177778",
    "request_type": "Property Maintenance",
    "request_reason": "Property Maintenance",
    "date_created": "2025-03-22T13:58:59.000",
    "date_modified": "2025-03-22T13:59:00.000",
    "request_status": "Pending",
    "responsible_agency": "Department of Code Enforcement",
    "final_address": "1820 Harmony St",
    "address_councildis": "B",
    "status": "Pending",
    "rowid": "1177778",
    "final_x": "3674419.71534",
    "final_y": "522648.578234",
    "longitude": "-90.09073112723787",
    "latitude": "29.931315264146356",
    "geocoded_column": {
      "latitude": "29.931315264146356",
      "longitude": "-90.09073112723787"
    }
  },
  {
    "service_request": "2025-1177777",
    "request_type": "Property Maintenance",
    "request_reason": "Property Maintenance",
    "date_created": "2025-03-22T13:54:01.000",
    "date_modified": "2025-03-22T13:54:03.000",
    "request_status": "Pending",
    "responsible_agency": "Department of Code Enforcement",
    "final_address": "3031 Dryades St",
    "address_councildis": "B",
    "status": "Pending",
    "rowid": "1177777",
    "final_x": "3674404.82734",
    "final_y": "522882.089083",
    "longitude": "-90.09077013295564",
    "latitude": "29.931957787187358",
    "geocoded_column": {
      "latitude": "29.931957787187358",
      "longitude": "-90.09077013295564"
    }
  },
  {
    "service_request": "2025-1177776",
    "request_type": "Property Maintenance",
    "request_reason": "Property Maintenance",
    "date_created": "2025-03-22T13:49:32.000",
    "date_modified": "2025-03-22T13:49:34.000",
    "request_status": "Pending",
    "responsible_agency": "Department of Code Enforcement",
    "final_address": "3022 Danneel St",
    "address_councildis": "B",
    "status": "Pending",
    "rowid": "1177776",
    "final_x": "3674260.24596",
    "final_y": "523118.717179",
    "longitude": "-90.09121846416569",
    "latitude": "29.93261274799068",
    "geocoded_column": {
      "latitude": "29.93261274799068",
      "longitude": "-90.09121846416569"
    }
  },
  {
    "service_request": "2025-1177775",
    "request_type": "Property Maintenance",
    "request_reason": "Property Maintenance",
    "date_created": "2025-03-22T13:45:45.000",
    "date_modified": "2025-03-22T13:45:49.000",
    "request_status": "Pending",
    "responsible_agency": "Department of Code Enforcement",
    "final_address": "3200 Danneel St",
    "address_councildis": "B",
    "status": "Pending",
    "rowid": "1177775",
    "final_x": "3674177.46683",
    "final_y": "523074.793339",
    "longitude": "-90.09148129415064",
    "latitude": "29.93249443882132",
    "geocoded_column": {
      "latitude": "29.93249443882132",
      "longitude": "-90.09148129415064"
    }
  },
  {
    "service_request": "2025-1177774",
    "request_type": "Property Maintenance",
    "request_reason": "Property Maintenance",
    "date_created": "2025-03-22T13:39:36.000",
    "date_modified": "2025-03-22T13:39:37.000",
    "request_status": "Pending",
    "responsible_agency": "Department of Code Enforcement",
    "final_address": "1924 Harmony St",
    "address_councildis": "B",
    "status": "Pending",
    "rowid": "1177774",
    "final_x": "3674232.69147",
    "final_y": "523016.876027",
    "longitude": "-90.09130893642441",
    "latitude": "29.93233353915442",
    "geocoded_column": {
      "latitude": "29.93233353915442",
      "longitude": "-90.09130893642441"
    }
  },
  {
    "service_request": "2025-1177773",
    "request_type": "Trash/Recycling",
    "request_reason": "Request a Large Item Pick Up",
    "date_created": "2025-03-22T13:30:47.000",
    "date_modified": "2025-03-22T13:30:50.000",
    "request_status": "Pending",
    "responsible_agency": "Department of Sanitation",
    "final_address": "426 S Alexander St",
    "address_councildis": "A",
    "status": "Assigned to Contractor",
    "contractor": "IV Waste",
    "rowid": "1177773",
    "final_x": "3669118.73146",
    "final_y": "537967.600265",
    "longitude": "-90.10694812351558",
    "latitude": "29.973594557189664",
    "geocoded_column": {
      "latitude": "29.973594557189664",
      "longitude": "-90.10694812351558"
    }
  },
  {
    "service_request": "2025-1177772",
    "request_type": "Property Maintenance",
    "request_reason": "Property Maintenance",
    "date_created": "2025-03-22T13:29:56.000",
    "date_modified": "2025-03-22T13:29:58.000",
    "request_status": "Pending",
    "responsible_agency": "Department of Code Enforcement",
    "final_address": "2018 Harmony St",
    "address_councildis": "B",
    "status": "Pending",
    "rowid": "1177772",
    "final_x": "3674105.01006",
    "final_y": "523260.636603",
    "longitude": "-90.09170367679864",
    "latitude": "29.933007606564452",
    "geocoded_column": {
      "latitude": "29.933007606564452",
      "longitude": "-90.09170367679864"
    }
  },
  {
    "service_request": "2025-1177771",
    "request_type": "Property Maintenance",
    "request_reason": "Property Maintenance",
    "date_created": "2025-03-22T13:28:51.000",
    "date_modified": "2025-03-22T13:28:53.000",
    "request_status": "Pending",
    "responsible_agency": "Department of Code Enforcement",
    "final_address": "2016 Harmony St",
    "address_councildis": "B",
    "status": "Pending",
    "rowid": "1177771",
    "final_x": "3674112.06587",
    "final_y": "523249.170875",
    "longitude": "-90.091681794308",
    "latitude": "29.93297586930118",
    "geocoded_column": {
      "latitude": "29.93297586930118",
      "longitude": "-90.091681794308"
    }
  },
  {
    "service_request": "2025-1177770",
    "request_type": "Trash/Recycling",
    "request_reason": "Request a Large Item Pick Up",
    "date_created": "2025-03-22T13:27:37.000",
    "date_modified": "2025-03-22T13:27:39.000",
    "request_status": "Pending",
    "responsible_agency": "Department of Sanitation",
    "final_address": "426 S Alexander St",
    "address_councildis": "A",
    "status": "Assigned to Contractor",
    "contractor": "IV Waste",
    "rowid": "1177770",
    "final_x": "3669118.73146",
    "final_y": "537967.600265",
    "longitude": "-90.10694812351558",
    "latitude": "29.973594557189664",
    "geocoded_column": {
      "latitude": "29.973594557189664",
      "longitude": "-90.10694812351558"
    }
  },
  {
    "service_request": "2025-1177769",
    "request_type": "General Services",
    "request_reason": "General Service Request",
    "date_created": "2025-03-22T13:26:17.000",
    "date_modified": "2025-03-22T13:26:19.000",
    "request_status": "Pending",
    "responsible_agency": "Orleans Parish Communication District",
    "final_address": "NEW",
    "address_councildis": "B",
    "status": "Pending",
    "rowid": "1177769",
    "final_x": "3672187.92769",
    "final_y": "534175.720965",
    "longitude": "-90.09738410181727",
    "latitude": "29.963077482958436",
    "geocoded_column": {
      "latitude": "29.963077482958436",
      "longitude": "-90.09738410181727"
    }
  },
  {
    "service_request": "2025-1177768",
    "request_type": "Property Maintenance",
    "request_reason": "Property Maintenance",
    "date_created": "2025-03-22T13:24:53.000",
    "date_modified": "2025-03-22T13:24:55.000",
    "request_status": "Pending",
    "responsible_agency": "Department of Code Enforcement",
    "final_address": "2012 Harmony St",
    "address_councildis": "B",
    "status": "Pending",
    "rowid": "1177768",
    "final_x": "3674123.24123",
    "final_y": "523228.127611",
    "longitude": "-90.09164723434178",
    "latitude": "29.93291767416989",
    "geocoded_column": {
      "latitude": "29.93291767416989",
      "longitude": "-90.09164723434178"
    }
  },
  {
    "service_request": "2025-1177767",
    "request_type": "Streetlights",
    "request_reason": "Streetlight Outage/Malfunction",
    "date_created": "2025-03-22T13:07:50.000",
    "date_modified": "2025-03-22T13:07:52.000",
    "request_status": "Pending",
    "responsible_agency": "Department of Public Works",
    "final_address": "43 E Blue Ridge Ct",
    "address_councildis": "E",
    "status": "Pending",
    "contractor": "Legacy Professional Services",
    "rowid": "1177767",
    "final_x": "3714197.93285",
    "final_y": "567480.316964",
    "longitude": "-89.9634656680098",
    "latitude": "30.053339328727322",
    "geocoded_column": {
      "latitude": "30.053339328727322",
      "longitude": "-89.9634656680098"
    }
  },
  {
    "service_request": "2025-1177766",
    "request_type": "Streetlights",
    "request_reason": "Streetlight Outage/Malfunction",
    "date_created": "2025-03-22T13:05:45.000",
    "date_modified": "2025-03-22T13:05:48.000",
    "request_status": "Pending",
    "responsible_agency": "Department of Public Works",
    "final_address": "43 E Blue Ridge Ct",
    "address_councildis": "E",
    "status": "Pending",
    "contractor": "Legacy Professional Services",
    "rowid": "1177766",
    "final_x": "3714197.93285",
    "final_y": "567480.316964",
    "longitude": "-89.9634656680098",
    "latitude": "30.053339328727322",
    "geocoded_column": {
      "latitude": "30.053339328727322",
      "longitude": "-89.9634656680098"
    }
  },
  {
    "service_request": "2025-1177765",
    "request_type": "Trash/Recycling",
    "request_reason": "Request a Large Item Pick Up",
    "date_created": "2025-03-22T13:04:30.000",
    "date_modified": "2025-03-22T13:04:32.000",
    "request_status": "Pending",
    "responsible_agency": "Department of Sanitation",
    "final_address": "4321 Trieste St",
    "address_councildis": "E",
    "status": "Assigned to Contractor",
    "contractor": "Waste Pro",
    "rowid": "1177765",
    "final_x": "3760220.06697",
    "final_y": "573504.147946",
    "longitude": "-89.81775378901686",
    "latitude": "30.06830896010249",
    "geocoded_column": {
      "latitude": "30.06830896010249",
      "longitude": "-89.81775378901686"
    }
  },
  {
    "service_request": "2025-1177764",
    "request_type": "Streetlights",
    "request_reason": "Streetlight Outage/Malfunction",
    "date_created": "2025-03-22T12:59:22.000",
    "date_modified": "2025-03-22T12:59:32.000",
    "request_status": "Pending",
    "responsible_agency": "Department of Public Works",
    "final_address": "13638 Chef Menteur Hwy",
    "address_councildis": "E",
    "status": "Pending",
    "contractor": "Legacy Professional Services",
    "rowid": "1177764",
    "final_x": "3727218.99174",
    "final_y": "559870.358749",
    "longitude": "-89.92260626786887",
    "latitude": "30.03198065289155",
    "geocoded_column": {
      "latitude": "30.03198065289155",
      "longitude": "-89.92260626786887"
    }
  },
  {
    "service_request": "2025-1177763",
    "request_type": "Streetlights",
    "request_reason": "Streetlight Outage/Malfunction",
    "date_created": "2025-03-22T12:53:55.000",
    "date_modified": "2025-03-22T12:53:57.000",
    "request_status": "Pending",
    "responsible_agency": "Department of Public Works",
    "final_address": "13900 Chef Menteur Hwy",
    "address_councildis": "E",
    "status": "Pending",
    "contractor": "Legacy Professional Services",
    "rowid": "1177763",
    "final_x": "3728014.31616",
    "final_y": "560176.281693",
    "longitude": "-89.92008110955125",
    "latitude": "30.03279486714193",
    "geocoded_column": {
      "latitude": "30.03279486714193",
      "longitude": "-89.92008110955125"
    }
  },
  {
    "service_request": "2025-1177762",
    "request_type": "Streetlights",
    "request_reason": "Streetlight Outage/Malfunction",
    "date_created": "2025-03-22T12:47:30.000",
    "date_modified": "2025-03-22T12:47:43.000",
    "request_status": "Pending",
    "responsible_agency": "Department of Public Works",
    "final_address": "13890 Chef Menteur Hwy",
    "address_councildis": "E",
    "status": "Pending",
    "contractor": "Legacy Professional Services",
    "rowid": "1177762",
    "final_x": "3727786.85395",
    "final_y": "560227.000861",
    "longitude": "-89.92079792303684",
    "latitude": "30.032942035932845",
    "geocoded_column": {
      "latitude": "30.032942035932845",
      "longitude": "-89.92079792303684"
    }
  },
  {
    "service_request": "2025-1177761",
    "request_type": "General Services",
    "request_reason": "General Service Request",
    "date_created": "2025-03-22T12:38:18.000",
    "date_modified": "2025-03-22T12:38:20.000",
    "request_status": "Pending",
    "responsible_agency": "Orleans Parish Communication District",
    "final_address": "2441 Decatur St",
    "address_councildis": "C",
    "status": "Pending",
    "rowid": "1177761",
    "final_x": "3686276.66863",
    "final_y": "534269.597573",
    "longitude": "-90.052890333342",
    "latitude": "29.962910233379343",
    "geocoded_column": {
      "latitude": "29.962910233379343",
      "longitude": "-90.052890333342"
    }
  },
  {
    "service_request": "2025-1177760",
    "request_type": "General Services",
    "request_reason": "General Service Request",
    "date_created": "2025-03-22T12:33:14.000",
    "date_modified": "2025-03-22T12:33:17.000",
    "request_status": "Pending",
    "responsible_agency": "Orleans Parish Communication District",
    "final_address": "2441 Decatur St",
    "address_councildis": "C",
    "status": "Pending",
    "rowid": "1177760",
    "final_x": "3686276.66863",
    "final_y": "534269.597573",
    "longitude": "-90.052890333342",
    "latitude": "29.962910233379343",
    "geocoded_column": {
      "latitude": "29.962910233379343",
      "longitude": "-90.052890333342"
    }
  },
  {
    "service_request": "2025-1177759",
    "request_type": "General Services",
    "request_reason": "General Service Request",
    "date_created": "2025-03-22T12:33:14.000",
    "date_modified": "2025-03-22T12:33:17.000",
    "request_status": "Pending",
    "responsible_agency": "Orleans Parish Communication District",
    "final_address": "2441 Decatur St",
    "address_councildis": "C",
    "status": "Pending",
    "rowid": "1177759",
    "final_x": "3686276.66863",
    "final_y": "534269.597573",
    "longitude": "-90.052890333342",
    "latitude": "29.962910233379343",
    "geocoded_column": {
      "latitude": "29.962910233379343",
      "longitude": "-90.052890333342"
    }
  },
  {
    "service_request": "2025-1177757",
    "request_type": "General Services",
    "request_reason": "General Service Request",
    "date_created": "2025-03-22T12:33:13.000",
    "date_modified": "2025-03-22T12:33:16.000",
    "request_status": "Pending",
    "responsible_agency": "Orleans Parish Communication District",
    "final_address": "2441 Decatur St",
    "address_councildis": "C",
    "status": "Pending",
    "rowid": "1177757",
    "final_x": "3686276.66863",
    "final_y": "534269.597573",
    "longitude": "-90.052890333342",
    "latitude": "29.962910233379343",
    "geocoded_column": {
      "latitude": "29.962910233379343",
      "longitude": "-90.052890333342"
    }
  },
  {
    "service_request": "2025-1177758",
    "request_type": "General Services",
    "request_reason": "General Service Request",
    "date_created": "2025-03-22T12:33:13.000",
    "date_modified": "2025-03-22T12:33:15.000",
    "request_status": "Pending",
    "responsible_agency": "Orleans Parish Communication District",
    "final_address": "2441 Decatur St",
    "address_councildis": "C",
    "status": "Pending",
    "rowid": "1177758",
    "final_x": "3686276.66863",
    "final_y": "534269.597573",
    "longitude": "-90.052890333342",
    "latitude": "29.962910233379343",
    "geocoded_column": {
      "latitude": "29.962910233379343",
      "longitude": "-90.052890333342"
    }
  },
  {
    "service_request": "2025-1177756",
    "request_type": "Abandoned Vehicles",
    "request_reason": "Abandoned/Junk Vehicles",
    "date_created": "2025-03-22T12:19:35.000",
    "date_modified": "2025-03-22T12:19:38.000",
    "request_status": "Pending",
    "responsible_agency": "Department of Public Works",
    "final_address": "23524 Chef Menteur Hwy",
    "address_councildis": "E",
    "status": "Pending",
    "rowid": "1177756",
    "final_x": "3777343.6218",
    "final_y": "586329.094326",
    "longitude": "-89.7630687986301",
    "latitude": "30.102937455692643",
    "geocoded_column": {
      "latitude": "30.102937455692643",
      "longitude": "-89.7630687986301"
    }
  },
  {
    "service_request": "2025-1177754",
    "request_type": "General Services",
    "request_reason": "General Service Request",
    "date_created": "2025-03-22T11:59:37.000",
    "date_modified": "2025-03-22T11:59:39.000",
    "request_status": "Pending",
    "responsible_agency": "Orleans Parish Communication District",
    "final_address": "1116 Tennessee St",
    "address_councildis": "E",
    "status": "Pending",
    "rowid": "1177754",
    "final_x": "3695688.2392",
    "final_y": "534558.282181",
    "longitude": "-90.0231595017008",
    "latitude": "29.963411472077706",
    "geocoded_column": {
      "latitude": "29.963411472077706",
      "longitude": "-90.0231595017008"
    }
  },
  {
    "service_request": "2025-1177753",
    "request_type": "Trash/Recycling",
    "request_reason": "Request a Large Item Pick Up",
    "date_created": "2025-03-22T11:59:01.000",
    "date_modified": "2025-03-22T11:59:03.000",
    "request_status": "Pending",
    "responsible_agency": "Department of Sanitation",
    "final_address": "8521 Morrison Rd",
    "address_councildis": "E",
    "status": "Assigned to Contractor",
    "contractor": "Waste Pro",
    "rowid": "1177753",
    "final_x": "3704443.51031",
    "final_y": "561369.103262",
    "longitude": "-89.99452229678239",
    "latitude": "30.036852954107587",
    "geocoded_column": {
      "latitude": "30.036852954107587",
      "longitude": "-89.99452229678239"
    }
  },
  {
    "service_request": "2025-1177752",
    "request_type": "Trash/Recycling",
    "request_reason": "Replace Trash Cart",
    "date_created": "2025-03-22T11:39:02.000",
    "date_modified": "2025-03-22T11:39:04.000",
    "request_status": "Pending",
    "responsible_agency": "Department of Sanitation",
    "final_address": "1016 Dufossat St",
    "address_councildis": "B",
    "status": "Assigned to Contractor",
    "contractor": "IV Waste",
    "rowid": "1177752",
    "final_x": "3668007.28065",
    "final_y": "519115.464439",
    "longitude": "-90.11109342269981",
    "latitude": "29.921789975369453",
    "geocoded_column": {
      "latitude": "29.921789975369453",
      "longitude": "-90.11109342269981"
    }
  },
  {
    "service_request": "2025-1177751",
    "request_type": "Abandoned Vehicles",
    "request_reason": "Abandoned/Junk Vehicles",
    "date_created": "2025-03-22T11:18:38.000",
    "date_modified": "2025-03-22T11:18:40.000",
    "request_status": "Pending",
    "responsible_agency": "Department of Public Works",
    "final_address": "4936 S Tonti St, New Orleans, Louisiana, 70125",
    "address_councildis": "B",
    "status": "Pending",
    "rowid": "1177751",
    "final_x": "3669002.83726",
    "final_y": "528009.766655",
    "longitude": "-90.10765054676209",
    "latitude": "29.94621721612921",
    "geocoded_column": {
      "latitude": "29.94621721612921",
      "longitude": "-90.10765054676209"
    }
  },
  {
    "service_request": "2025-1177750",
    "request_type": "Trash/Recycling",
    "request_reason": "Request a Large Item Pick Up",
    "date_created": "2025-03-22T11:05:10.000",
    "date_modified": "2025-03-22T11:05:12.000",
    "request_status": "Pending",
    "responsible_agency": "Department of Sanitation",
    "final_address": "7543 Canal Blvd",
    "address_councildis": "D",
    "status": "Assigned to Contractor",
    "contractor": "IV Waste",
    "rowid": "1177750",
    "final_x": "3669485.22964",
    "final_y": "556659.60521",
    "longitude": "-90.10515788843408",
    "latitude": "30.024980296552997",
    "geocoded_column": {
      "latitude": "30.024980296552997",
      "longitude": "-90.10515788843408"
    }
  },
  {
    "service_request": "2025-1177749",
    "request_type": "Trash/Recycling",
    "request_reason": "Repair Trash Cart",
    "date_created": "2025-03-22T10:57:59.000",
    "date_modified": "2025-03-22T10:58:01.000",
    "request_status": "Pending",
    "responsible_agency": "Department of Sanitation",
    "final_address": "4112 Clematis St",
    "address_councildis": "D",
    "status": "Assigned to Contractor",
    "contractor": "IV Waste",
    "rowid": "1177749",
    "final_x": "3685150.52521",
    "final_y": "548056.62005",
    "longitude": "-90.05596119261682",
    "latitude": "30.00085423821965",
    "geocoded_column": {
      "latitude": "30.00085423821965",
      "longitude": "-90.05596119261682"
    }
  },
  {
    "service_request": "2025-1177748",
    "request_type": "General Services",
    "request_reason": "General Service Request",
    "date_created": "2025-03-22T10:55:17.000",
    "date_modified": "2025-03-22T10:55:20.000",
    "request_status": "Pending",
    "responsible_agency": "Orleans Parish Communication District",
    "final_address": "3009 Dryades St, New Orleans, Louisiana, 70115",
    "address_councildis": "B",
    "status": "Pending",
    "rowid": "1177748",
    "final_x": "3674532.43169",
    "final_y": "522972.104123",
    "longitude": "-90.09036421625471",
    "latitude": "29.932201493836377",
    "geocoded_column": {
      "latitude": "29.932201493836377",
      "longitude": "-90.09036421625471"
    }
  },
  {
    "service_request": "2025-1177747",
    "request_type": "Abandoned Vehicles",
    "request_reason": "Abandoned/Junk Vehicles",
    "date_created": "2025-03-22T10:25:33.000",
    "date_modified": "2025-03-22T11:07:27.000",
    "request_status": "Pending",
    "responsible_agency": "Department of Public Works",
    "final_address": "2500 BLK Danneel St",
    "address_councildis": "B",
    "status": "Inspected",
    "rowid": "1177747",
    "final_x": "3675775.63463",
    "final_y": "524158.43113",
    "longitude": "-90.0863987856865",
    "latitude": "29.935426365909215",
    "geocoded_column": {
      "latitude": "29.935426365909215",
      "longitude": "-90.0863987856865"
    }
  },
  {
    "service_request": "2025-1177746",
    "request_type": "Streetlights",
    "request_reason": "Streetlight Outage/Malfunction",
    "date_created": "2025-03-22T10:12:37.000",
    "date_modified": "2025-03-22T10:12:39.000",
    "request_status": "Pending",
    "responsible_agency": "Department of Public Works",
    "final_address": "712 Constantinople St",
    "address_councildis": "B",
    "status": "Pending",
    "contractor": "Legacy Professional Services",
    "rowid": "1177746",
    "final_x": "3672543.59636",
    "final_y": "518316.785974",
    "longitude": "-90.09680138509869",
    "latitude": "29.919460034065203",
    "geocoded_column": {
      "latitude": "29.919460034065203",
      "longitude": "-90.09680138509869"
    }
  },
  {
    "service_request": "2025-1177745",
    "request_type": "Trash/Recycling",
    "request_reason": "Request a Large Item Pick Up",
    "date_created": "2025-03-22T10:06:44.000",
    "date_modified": "2025-03-22T10:06:45.000",
    "request_status": "Pending",
    "responsible_agency": "Department of Sanitation",
    "final_address": "6111 Wales St",
    "address_councildis": "E",
    "status": "Assigned to Contractor",
    "contractor": "Waste Pro",
    "rowid": "1177745",
    "final_x": "3695613.1896",
    "final_y": "559653.807261",
    "longitude": "-90.02248989148289",
    "latitude": "30.03241728295519",
    "geocoded_column": {
      "latitude": "30.03241728295519",
      "longitude": "-90.02248989148289"
    }
  },
  {
    "service_request": "2025-1177744",
    "request_type": "Trash/Recycling",
    "request_reason": "Replace Recycling Cart",
    "date_created": "2025-03-22T10:06:36.000",
    "date_modified": "2025-03-22T10:06:38.000",
    "request_status": "Pending",
    "responsible_agency": "Department of Sanitation",
    "final_address": "2327 Chartres St",
    "address_councildis": "C",
    "status": "Pending",
    "rowid": "1177744",
    "final_x": "3685788.29007",
    "final_y": "534591.712901",
    "longitude": "-90.0544212151444",
    "latitude": "29.96381093635066",
    "geocoded_column": {
      "latitude": "29.96381093635066",
      "longitude": "-90.0544212151444"
    }
  },
  {
    "service_request": "2025-1177743",
    "request_type": "Streetlights",
    "request_reason": "Streetlight Knocked Down/Leaning",
    "date_created": "2025-03-22T10:04:35.000",
    "date_modified": "2025-03-22T10:04:38.000",
    "request_status": "Pending",
    "responsible_agency": "Department of Public Works",
    "final_address": "0 BLK Garden Ln",
    "address_councildis": "A",
    "status": "Pending",
    "contractor": "Legacy Professional Services",
    "rowid": "1177743",
    "final_x": "3663968.53259",
    "final_y": "539688.646132",
    "longitude": "-90.12315621414811",
    "latitude": "29.97847742276966",
    "geocoded_column": {
      "latitude": "29.97847742276966",
      "longitude": "-90.12315621414811"
    }
  },
  {
    "service_request": "2025-1177742",
    "request_type": "Trash/Recycling",
    "request_reason": "Order Trash Cart",
    "date_created": "2025-03-22T10:01:36.000",
    "date_modified": "2025-03-22T10:01:38.000",
    "request_status": "Pending",
    "responsible_agency": "Department of Sanitation",
    "final_address": "2325 Chartres St",
    "address_councildis": "C",
    "status": "Assigned to Contractor",
    "contractor": "IV Waste",
    "rowid": "1177742",
    "final_x": "3685776.48617",
    "final_y": "534590.959493",
    "longitude": "-90.05445851719537",
    "latitude": "29.963809226994282",
    "geocoded_column": {
      "latitude": "29.963809226994282",
      "longitude": "-90.05445851719537"
    }
  },
  {
    "service_request": "2025-1177741",
    "request_type": "Streetlights",
    "request_reason": "Streetlight Outage/Malfunction",
    "date_created": "2025-03-22T09:51:35.000",
    "date_modified": "2025-03-22T09:51:37.000",
    "request_status": "Pending",
    "responsible_agency": "Department of Public Works",
    "final_address": "11410 Lincoln Beach Blvd",
    "address_councildis": "E",
    "status": "Pending",
    "contractor": "Legacy Professional Services",
    "rowid": "1177741",
    "final_x": "3710729.81534",
    "final_y": "567771.6097",
    "longitude": "-89.9744164537618",
    "latitude": "30.054253813169858",
    "geocoded_column": {
      "latitude": "30.054253813169858",
      "longitude": "-89.9744164537618"
    }
  },
  {
    "service_request": "2025-1177740",
    "request_type": "Streetlights",
    "request_reason": "Streetlight Outage/Malfunction",
    "date_created": "2025-03-22T09:44:24.000",
    "date_modified": "2025-03-22T09:44:26.000",
    "request_status": "Pending",
    "responsible_agency": "Department of Public Works",
    "final_address": "11410 Lincoln Beach Blvd",
    "address_councildis": "E",
    "status": "Pending",
    "contractor": "Legacy Professional Services",
    "rowid": "1177740",
    "final_x": "3710729.81534",
    "final_y": "567771.6097",
    "longitude": "-89.9744164537618",
    "latitude": "30.054253813169858",
    "geocoded_column": {
      "latitude": "30.054253813169858",
      "longitude": "-89.9744164537618"
    }
  },
  {
    "service_request": "2025-1177739",
    "request_type": "Trash/Recycling",
    "request_reason": "Request a Large Item Pick Up",
    "date_created": "2025-03-22T09:38:06.000",
    "date_modified": "2025-03-22T09:38:08.000",
    "request_status": "Pending",
    "responsible_agency": "Department of Sanitation",
    "final_address": "1109 Valmont St",
    "address_councildis": "B",
    "status": "Assigned to Contractor",
    "contractor": "IV Waste",
    "rowid": "1177739",
    "final_x": "3667642.13114",
    "final_y": "519454.462775",
    "longitude": "-90.11223464447421",
    "latitude": "29.922732818703118",
    "geocoded_column": {
      "latitude": "29.922732818703118",
      "longitude": "-90.11223464447421"
    }
  },
  {
    "service_request": "2025-1177738",
    "request_type": "Street and Traffic Signs",
    "request_reason": "Traffic or Parking Sign Damaged or Missing",
    "date_created": "2025-03-22T09:38:04.000",
    "date_modified": "2025-03-22T09:38:06.000",
    "request_status": "Pending",
    "responsible_agency": "Department of Public Works",
    "final_address": "2238 Jefferson Ave",
    "address_councildis": "A",
    "status": "Pending",
    "rowid": "1177738",
    "final_x": "3667813.19559",
    "final_y": "523963.293884",
    "longitude": "-90.11154290008324",
    "latitude": "29.935125656901313",
    "geocoded_column": {
      "latitude": "29.935125656901313",
      "longitude": "-90.11154290008324"
    }
  },
  {
    "service_request": "2025-1177737",
    "request_type": "Utility Poles",
    "request_reason": "Wires Sagging/Hanging Low",
    "date_created": "2025-03-22T09:37:22.000",
    "date_modified": "2025-03-22T09:37:25.000",
    "request_status": "Pending",
    "responsible_agency": "Utility Company Collective",
    "final_address": "5686 Evelyn Ct",
    "address_councildis": "A",
    "status": "Pending",
    "rowid": "1177737",
    "final_x": "3664641.48199",
    "final_y": "545531.777232",
    "longitude": "-90.12083550008113",
    "latitude": "29.994524500997723",
    "geocoded_column": {
      "latitude": "29.994524500997723",
      "longitude": "-90.12083550008113"
    }
  },
  {
    "service_request": "2025-1177736",
    "request_type": "Trash/Recycling",
    "request_reason": "Request a Large Item Pick Up",
    "date_created": "2025-03-22T09:36:00.000",
    "date_modified": "2025-03-22T09:36:01.000",
    "request_status": "Pending",
    "responsible_agency": "Department of Sanitation",
    "final_address": "9012 Oleander St",
    "address_councildis": "A",
    "status": "Assigned to Contractor",
    "contractor": "IV Waste",
    "rowid": "1177736",
    "final_x": "3664313.79399",
    "final_y": "535846.856519",
    "longitude": "-90.12219399980242",
    "latitude": "29.96790374543007",
    "geocoded_column": {
      "latitude": "29.96790374543007",
      "longitude": "-90.12219399980242"
    }
  },
  {
    "service_request": "2025-1177735",
    "request_type": "General Services",
    "request_reason": "General Service Request",
    "date_created": "2025-03-22T09:23:50.000",
    "date_modified": "2025-03-22T09:23:52.000",
    "request_status": "Pending",
    "responsible_agency": "Orleans Parish Communication District",
    "final_address": "5601 Paris Ave",
    "address_councildis": "D",
    "status": "Pending",
    "rowid": "1177735",
    "final_x": "3679204.602",
    "final_y": "553001.421079",
    "longitude": "-90.07457321012278",
    "latitude": "30.014631587891266",
    "geocoded_column": {
      "latitude": "30.014631587891266",
      "longitude": "-90.07457321012278"
    }
  },
  {
    "service_request": "2025-1177734",
    "request_type": "Trash/Recycling",
    "request_reason": "MIssed Recycling Pick-Up",
    "date_created": "2025-03-22T09:02:26.000",
    "date_modified": "2025-03-22T09:02:29.000",
    "request_status": "Pending",
    "responsible_agency": "Department of Sanitation",
    "final_address": "4934 Arthur Dr",
    "address_councildis": "E",
    "status": "Assigned to Contractor",
    "contractor": "Waste Pro",
    "rowid": "1177734",
    "final_x": "3707498.89912",
    "final_y": "556724.41481",
    "longitude": "-89.98503940895823",
    "latitude": "30.023983370575436",
    "geocoded_column": {
      "latitude": "30.023983370575436",
      "longitude": "-89.98503940895823"
    }
  },
  {
    "service_request": "2025-1177733",
    "request_type": "Trash/Recycling",
    "request_reason": "Repair Trash Cart",
    "date_created": "2025-03-22T08:58:41.000",
    "date_modified": "2025-03-22T08:58:43.000",
    "request_status": "Pending",
    "responsible_agency": "Department of Sanitation",
    "final_address": "1544 Harmony St",
    "address_councildis": "B",
    "status": "Assigned to Contractor",
    "contractor": "IV Waste",
    "rowid": "1177733",
    "final_x": "3674887.28085",
    "final_y": "521694.932665",
    "longitude": "-90.0892877650676",
    "latitude": "29.928679097417362",
    "geocoded_column": {
      "latitude": "29.928679097417362",
      "longitude": "-90.0892877650676"
    }
  },
  {
    "service_request": "2025-1177732",
    "request_type": "Trash/Recycling",
    "request_reason": "Return Recycling Cart",
    "date_created": "2025-03-22T08:50:36.000",
    "date_modified": "2025-03-22T08:50:38.000",
    "request_status": "Pending",
    "responsible_agency": "Department of Sanitation",
    "final_address": "2418 Magazine St",
    "address_councildis": "B",
    "status": "Pending",
    "rowid": "1177732",
    "final_x": "3677956.30075",
    "final_y": "521361.025849",
    "longitude": "-90.0796110382397",
    "latitude": "29.927668985190042",
    "geocoded_column": {
      "latitude": "29.927668985190042",
      "longitude": "-90.0796110382397"
    }
  },
  {
    "service_request": "2025-1177731",
    "request_type": "Trash/Recycling",
    "request_reason": "Request a Large Item Pick Up",
    "date_created": "2025-03-22T08:11:15.000",
    "date_modified": "2025-03-22T08:11:17.000",
    "request_status": "Pending",
    "responsible_agency": "Department of Sanitation",
    "final_address": "1818 Sixth St",
    "address_councildis": "B",
    "status": "Assigned to Contractor",
    "contractor": "IV Waste",
    "rowid": "1177731",
    "final_x": "3674972.78837",
    "final_y": "522984.455227",
    "longitude": "-90.08897362771442",
    "latitude": "29.932222313264678",
    "geocoded_column": {
      "latitude": "29.932222313264678",
      "longitude": "-90.08897362771442"
    }
  },
  {
    "service_request": "2025-1177730",
    "request_type": "Drainage",
    "request_reason": "Street Flooding",
    "date_created": "2025-03-22T08:09:44.000",
    "date_modified": "2025-03-22T08:09:46.000",
    "request_status": "Pending",
    "responsible_agency": "Sewerage & Water Board ",
    "final_address": "637 Elmira Ave",
    "address_councildis": "C",
    "status": "Pending",
    "rowid": "1177730",
    "final_x": "3688127.50703",
    "final_y": "529179.122944",
    "longitude": "-90.0472260625352",
    "latitude": "29.948856183639084",
    "geocoded_column": {
      "latitude": "29.948856183639084",
      "longitude": "-90.0472260625352"
    }
  },
  {
    "service_request": "2025-1177729",
    "request_type": "Abandoned Vehicles",
    "request_reason": "Abandoned/Junk Vehicles",
    "date_created": "2025-03-22T06:35:03.000",
    "date_modified": "2025-03-22T13:03:06.000",
    "request_status": "Pending",
    "responsible_agency": "Department of Public Works",
    "final_address": "817 Clouet St",
    "address_councildis": "C",
    "status": "Inspected",
    "rowid": "1177729",
    "final_x": "3688783.42217",
    "final_y": "535017.59271",
    "longitude": "-90.04494778424073",
    "latitude": "29.964889697212396",
    "geocoded_column": {
      "latitude": "29.964889697212396",
      "longitude": "-90.04494778424073"
    }
  },
  {
    "service_request": "2025-1177728",
    "request_type": "Trash/Recycling",
    "request_reason": "Replace Recycling Cart",
    "date_created": "2025-03-22T05:24:51.000",
    "date_modified": "2025-03-22T05:24:53.000",
    "request_status": "Pending",
    "responsible_agency": "Department of Sanitation",
    "final_address": "807 Delachaise St",
    "address_councildis": "B",
    "status": "Pending",
    "rowid": "1177728",
    "final_x": "3675109.92021",
    "final_y": "518540.249015",
    "longitude": "-90.08869311180028",
    "latitude": "29.91999808556262",
    "geocoded_column": {
      "latitude": "29.91999808556262",
      "longitude": "-90.08869311180028"
    }
  },
  {
    "service_request": "2025-1177727",
    "request_type": "Streetlights",
    "request_reason": "Streetlight Outage/Malfunction",
    "date_created": "2025-03-22T01:16:00.000",
    "date_modified": "2025-03-22T01:16:02.000",
    "request_status": "Pending",
    "responsible_agency": "Department of Public Works",
    "final_address": "CANAL ST & S MIRO ST",
    "address_councildis": "B",
    "status": "Pending",
    "contractor": "Legacy Professional Services",
    "rowid": "1177727",
    "final_x": "3676675.0",
    "final_y": "534050.28",
    "longitude": "-90.08321877763699",
    "latitude": "29.962598718002205",
    "geocoded_column": {
      "latitude": "29.962598718002205",
      "longitude": "-90.08321877763699"
    }
  },
  {
    "service_request": "2025-1177726",
    "request_type": "Trash/Recycling",
    "request_reason": "Request a Large Item Pick Up",
    "date_created": "2025-03-21T23:09:58.000",
    "date_modified": "2025-03-21T23:10:00.000",
    "request_status": "Pending",
    "responsible_agency": "Department of Sanitation",
    "final_address": "4320 S Liberty St",
    "address_councildis": "B",
    "status": "Assigned to Contractor",
    "contractor": "IV Waste",
    "rowid": "1177726",
    "final_x": "3670847.39028",
    "final_y": "523329.802235",
    "longitude": "-90.10198542885165",
    "latitude": "29.933294449843462",
    "geocoded_column": {
      "latitude": "29.933294449843462",
      "longitude": "-90.10198542885165"
    }
  },
  {
    "service_request": "2025-1177725",
    "request_type": "Trash/Recycling",
    "request_reason": "Replace Trash Cart",
    "date_created": "2025-03-21T23:09:29.000",
    "date_modified": "2025-03-21T23:09:31.000",
    "request_status": "Pending",
    "responsible_agency": "Department of Sanitation",
    "final_address": "7900 Jeannette St",
    "address_councildis": "A",
    "status": "Assigned to Contractor",
    "contractor": "IV Waste",
    "rowid": "1177725",
    "final_x": "3663185.06631",
    "final_y": "528629.575168",
    "longitude": "-90.12599873211983",
    "latitude": "29.948091324565393",
    "geocoded_column": {
      "latitude": "29.948091324565393",
      "longitude": "-90.12599873211983"
    }
  },
  {
    "service_request": "2025-1177723",
    "request_type": "General Services",
    "request_reason": "General Service Request",
    "date_created": "2025-03-21T22:56:11.000",
    "date_modified": "2025-03-21T22:56:15.000",
    "request_status": "Pending",
    "responsible_agency": "Orleans Parish Communication District",
    "final_address": "2844 Annunciation St",
    "address_councildis": "B",
    "status": "Pending",
    "rowid": "1177723",
    "final_x": "3677373.5419",
    "final_y": "519660.974712",
    "longitude": "-90.08150929928735",
    "latitude": "29.923011915964793",
    "geocoded_column": {
      "latitude": "29.923011915964793",
      "longitude": "-90.08150929928735"
    }
  },
  {
    "service_request": "2025-1177722",
    "request_type": "Drainage",
    "request_reason": "Street Flooding",
    "date_created": "2025-03-21T22:19:04.000",
    "date_modified": "2025-03-21T22:19:06.000",
    "request_status": "Pending",
    "responsible_agency": "Sewerage & Water Board ",
    "final_address": "2626 Republic St",
    "address_councildis": "D",
    "status": "Pending",
    "rowid": "1177722",
    "final_x": "3680733.52623",
    "final_y": "541747.979276",
    "longitude": "-90.07013452757691",
    "latitude": "29.98364235761993",
    "geocoded_column": {
      "latitude": "29.98364235761993",
      "longitude": "-90.07013452757691"
    }
  },
  {
    "service_request": "2025-1177721",
    "request_type": "Drainage",
    "request_reason": "Street Flooding",
    "date_created": "2025-03-21T22:12:13.000",
    "date_modified": "2025-03-21T22:12:16.000",
    "request_status": "Pending",
    "responsible_agency": "Sewerage & Water Board ",
    "final_address": "2626 Republic St",
    "address_councildis": "D",
    "status": "Pending",
    "rowid": "1177721",
    "final_x": "3680733.52623",
    "final_y": "541747.979276",
    "longitude": "-90.07013452757691",
    "latitude": "29.98364235761993",
    "geocoded_column": {
      "latitude": "29.98364235761993",
      "longitude": "-90.07013452757691"
    }
  },
  {
    "service_request": "2025-1177720",
    "request_type": "Trash/Recycling",
    "request_reason": "Missed Trash Pick-Up",
    "date_created": "2025-03-21T21:54:42.000",
    "date_modified": "2025-03-21T21:54:44.000",
    "request_status": "Pending",
    "responsible_agency": "Department of Sanitation",
    "final_address": "5410 Rhodes Ave",
    "address_councildis": "C",
    "status": "Assigned to Contractor",
    "contractor": "Richards Disposal",
    "rowid": "1177720",
    "final_x": "3704048.99748",
    "final_y": "519988.131256",
    "longitude": "-89.99729382850445",
    "latitude": "29.92308320174977",
    "geocoded_column": {
      "latitude": "29.92308320174977",
      "longitude": "-89.99729382850445"
    }
  },
  {
    "service_request": "2025-1177719",
    "request_type": "Trash/Recycling",
    "request_reason": "Change Size of Trash Cart",
    "date_created": "2025-03-21T21:22:34.000",
    "date_modified": "2025-03-21T21:22:37.000",
    "request_status": "Pending",
    "responsible_agency": "Department of Sanitation",
    "final_address": "14061 Curran Rd",
    "address_councildis": "E",
    "status": "Assigned to Contractor",
    "contractor": "Waste Pro",
    "rowid": "1177719",
    "final_x": "3718703.09138",
    "final_y": "572465.432233",
    "longitude": "-89.94903586133844",
    "latitude": "30.066897456802987",
    "geocoded_column": {
      "latitude": "30.066897456802987",
      "longitude": "-89.94903586133844"
    }
  },
  {
    "service_request": "2025-1177718",
    "request_type": "Streetlights",
    "request_reason": "Streetlight Outage/Malfunction",
    "date_created": "2025-03-21T21:20:51.000",
    "date_modified": "2025-03-21T21:20:54.000",
    "request_status": "Pending",
    "responsible_agency": "Department of Public Works",
    "final_address": "1102 Napoleon Ave",
    "address_councildis": "B",
    "status": "Pending",
    "contractor": "Legacy Professional Services",
    "rowid": "1177718",
    "final_x": "3670849.32795",
    "final_y": "519551.032375",
    "longitude": "-90.10210749471138",
    "latitude": "29.922903985104078",
    "geocoded_column": {
      "latitude": "29.922903985104078",
      "longitude": "-90.10210749471138"
    }
  },
  {
    "service_request": "2025-1177717",
    "request_type": "Trash/Recycling",
    "request_reason": "Request a Large Item Pick Up",
    "date_created": "2025-03-21T20:55:59.000",
    "date_modified": "2025-03-21T20:56:01.000",
    "request_status": "Pending",
    "responsible_agency": "Department of Sanitation",
    "final_address": "47 Snipe St",
    "address_councildis": "D",
    "status": "Assigned to Contractor",
    "contractor": "IV Waste",
    "rowid": "1177717",
    "final_x": "3672426.57422",
    "final_y": "556745.497818",
    "longitude": "-90.09586076008335",
    "latitude": "30.025129454583134",
    "geocoded_column": {
      "latitude": "30.025129454583134",
      "longitude": "-90.09586076008335"
    }
  },
  {
    "service_request": "2025-1177716",
    "request_type": "Street and Traffic Signs",
    "request_reason": "Crosswalk Signage Damaged or Missing",
    "date_created": "2025-03-21T20:49:54.000",
    "date_modified": "2025-03-21T20:49:55.000",
    "request_status": "Pending",
    "responsible_agency": "Department of Public Works",
    "final_address": "230 Carondelet St",
    "address_councildis": "B",
    "status": "Pending",
    "rowid": "1177716",
    "final_x": "3680577.68411",
    "final_y": "530260.842369",
    "longitude": "-90.07102646274123",
    "latitude": "29.95206139596962",
    "geocoded_column": {
      "latitude": "29.95206139596962",
      "longitude": "-90.07102646274123"
    }
  },
  {
    "service_request": "2025-1177715",
    "request_type": "Street and Traffic Signs",
    "request_reason": "Stop Sign Missing or Damaged",
    "date_created": "2025-03-21T20:47:41.000",
    "date_modified": "2025-03-21T20:47:43.000",
    "request_status": "Pending",
    "responsible_agency": "Department of Public Works",
    "final_address": "2537 Onzaga St",
    "address_councildis": "D",
    "status": "Pending",
    "rowid": "1177715",
    "final_x": "3679554.60911",
    "final_y": "540318.782859",
    "longitude": "-90.07390778958512",
    "latitude": "29.979748248076536",
    "geocoded_column": {
      "latitude": "29.979748248076536",
      "longitude": "-90.07390778958512"
    }
  },
  {
    "service_request": "2025-1177714",
    "request_type": "Property Maintenance",
    "request_reason": "Property Maintenance",
    "date_created": "2025-03-21T20:12:26.000",
    "date_modified": "2025-03-21T20:12:28.000",
    "request_status": "Pending",
    "responsible_agency": "Department of Code Enforcement",
    "final_address": "8923 Dinkins St",
    "address_councildis": "E",
    "status": "Pending",
    "rowid": "1177714",
    "final_x": "3704835.52139",
    "final_y": "563549.301472",
    "longitude": "-89.99320288558454",
    "latitude": "30.042835039127734",
    "geocoded_column": {
      "latitude": "30.042835039127734",
      "longitude": "-89.99320288558454"
    }
  },
  {
    "service_request": "2025-1177713",
    "request_type": "Property Maintenance",
    "request_reason": "Property Maintenance",
    "date_created": "2025-03-21T20:10:16.000",
    "date_modified": "2025-03-21T20:10:17.000",
    "request_status": "Pending",
    "responsible_agency": "Department of Code Enforcement",
    "final_address": "40 Vivian Ct",
    "address_councildis": "C",
    "status": "Pending",
    "rowid": "1177713",
    "final_x": "3702118.29431",
    "final_y": "521018.604921",
    "longitude": "-90.00335051557305",
    "latitude": "29.925978407345198",
    "geocoded_column": {
      "latitude": "29.925978407345198",
      "longitude": "-90.00335051557305"
    }
  },
  {
    "service_request": "2025-1177712",
    "request_type": "Trash/Recycling",
    "request_reason": "Repair Recycling Cart",
    "date_created": "2025-03-21T19:55:55.000",
    "date_modified": "2025-03-21T19:56:02.000",
    "request_status": "Pending",
    "responsible_agency": "Department of Sanitation",
    "final_address": "2124 Camp St",
    "address_councildis": "B",
    "status": "Pending",
    "rowid": "1177712",
    "final_x": "3678793.04117",
    "final_y": "522464.221242",
    "longitude": "-90.07693146400749",
    "latitude": "29.930677211414945",
    "geocoded_column": {
      "latitude": "29.930677211414945",
      "longitude": "-90.07693146400749"
    }
  },
  {
    "service_request": "2025-1177711",
    "request_type": "Trash/Recycling",
    "request_reason": "Request a Large Item Pick Up",
    "date_created": "2025-03-21T19:39:38.000",
    "date_modified": "2025-03-22T15:25:10.000",
    "case_close_date": "2025-03-22T10:25:09.000",
    "request_status": "Closed",
    "responsible_agency": "Department of Sanitation",
    "final_address": "161 W Greenbrier Dr",
    "address_councildis": "E",
    "status": "Duplicate Request",
    "contractor": "Waste Pro",
    "contractor_action": "Duplicate",
    "rowid": "1177711",
    "final_x": "3716997.28684",
    "final_y": "565025.833954",
    "longitude": "-89.95471108726204",
    "latitude": "30.046498189526996",
    "geocoded_column": {
      "latitude": "30.046498189526996",
      "longitude": "-89.95471108726204"
    }
  },
  {
    "service_request": "2025-1177710",
    "request_type": "Trash/Recycling",
    "request_reason": "Request a Large Item Pick Up",
    "date_created": "2025-03-21T19:39:38.000",
    "date_modified": "2025-03-21T19:39:40.000",
    "request_status": "Pending",
    "responsible_agency": "Department of Sanitation",
    "final_address": "161 W Greenbrier Dr",
    "address_councildis": "E",
    "status": "Assigned to Contractor",
    "contractor": "Waste Pro",
    "rowid": "1177710",
    "final_x": "3716997.28684",
    "final_y": "565025.833954",
    "longitude": "-89.95471108726204",
    "latitude": "30.046498189526996",
    "geocoded_column": {
      "latitude": "30.046498189526996",
      "longitude": "-89.95471108726204"
    }
  },
  {
    "service_request": "2025-1177709",
    "request_type": "Trash/Recycling",
    "request_reason": "Request a Large Item Pick Up",
    "date_created": "2025-03-21T18:28:42.000",
    "date_modified": "2025-03-21T18:28:44.000",
    "request_status": "Pending",
    "responsible_agency": "Department of Sanitation",
    "final_address": "7515 Michigan St",
    "address_councildis": "E",
    "status": "Assigned to Contractor",
    "contractor": "Waste Pro",
    "rowid": "1177709",
    "final_x": "3712231.3877",
    "final_y": "565922.436899",
    "longitude": "-89.9697399367572",
    "latitude": "30.04912028923194",
    "geocoded_column": {
      "latitude": "30.04912028923194",
      "longitude": "-89.9697399367572"
    }
  },
  {
    "service_request": "2025-1177708",
    "request_type": "Trash/Recycling",
    "request_reason": "Dead Animal Pick Up",
    "date_created": "2025-03-21T18:22:34.000",
    "date_modified": "2025-03-22T09:47:33.000",
    "case_close_date": "2025-03-22T04:47:33.000",
    "request_status": "Closed",
    "responsible_agency": "Department of Sanitation",
    "final_address": "1904 Milan St, New Orleans, Louisiana, 70115",
    "address_councildis": "B",
    "status": "Assigned to Contractor",
    "contractor": "IV Waste",
    "contractor_action": "Completed",
    "rowid": "1177708",
    "final_x": "3671439.90388",
    "final_y": "522084.324538",
    "longitude": "-90.100157211905",
    "latitude": "29.929852265746902",
    "geocoded_column": {
      "latitude": "29.929852265746902",
      "longitude": "-90.100157211905"
    }
  },
  {
    "service_request": "2025-1177707",
    "request_type": "Trash/Recycling",
    "request_reason": "Repair Recycling Cart",
    "date_created": "2025-03-21T18:22:18.000",
    "date_modified": "2025-03-21T18:22:19.000",
    "request_status": "Pending",
    "responsible_agency": "Department of Sanitation",
    "final_address": "5756 Wingate Dr",
    "address_councildis": "D",
    "status": "Pending",
    "rowid": "1177707",
    "final_x": "3681222.09263",
    "final_y": "554354.596056",
    "longitude": "-90.06815172131476",
    "latitude": "30.018291232049606",
    "geocoded_column": {
      "latitude": "30.018291232049606",
      "longitude": "-90.06815172131476"
    }
  },
  {
    "service_request": "2025-1177706",
    "request_type": "Trash/Recycling",
    "request_reason": "Repair Recycling Cart",
    "date_created": "2025-03-21T18:10:00.000",
    "date_modified": "2025-03-21T18:10:03.000",
    "request_status": "Pending",
    "responsible_agency": "Department of Sanitation",
    "final_address": "3053 Grand-Route St John St",
    "address_councildis": "A",
    "status": "Pending",
    "rowid": "1177706",
    "final_x": "3676749.7803",
    "final_y": "540350.221387",
    "longitude": "-90.08276550470374",
    "latitude": "29.97991916320817",
    "geocoded_column": {
      "latitude": "29.97991916320817",
      "longitude": "-90.08276550470374"
    }
  },
  {
    "service_request": "2025-1177705",
    "request_type": "Trash/Recycling",
    "request_reason": "Request a Large Item Pick Up",
    "date_created": "2025-03-21T17:59:37.000",
    "date_modified": "2025-03-21T17:59:39.000",
    "request_status": "Pending",
    "responsible_agency": "Department of Sanitation",
    "final_address": "623 S Miro St",
    "address_councildis": "B",
    "status": "Assigned to Contractor",
    "contractor": "IV Waste",
    "rowid": "1177705",
    "final_x": "3675378.04718",
    "final_y": "532427.821763",
    "longitude": "-90.08737009580294",
    "latitude": "29.958176346195852",
    "geocoded_column": {
      "latitude": "29.958176346195852",
      "longitude": "-90.08737009580294"
    }
  },
  {
    "service_request": "2025-1177704",
    "request_type": "Trash/Recycling",
    "request_reason": "Request a Large Item Pick Up",
    "date_created": "2025-03-21T17:42:32.000",
    "date_modified": "2025-03-21T17:42:33.000",
    "request_status": "Pending",
    "responsible_agency": "Department of Sanitation",
    "final_address": "2904 Milan St",
    "address_councildis": "B",
    "status": "Assigned to Contractor",
    "contractor": "IV Waste",
    "rowid": "1177704",
    "final_x": "3671091.77294",
    "final_y": "525573.168893",
    "longitude": "-90.10113776702913",
    "latitude": "29.93945575939905",
    "geocoded_column": {
      "latitude": "29.93945575939905",
      "longitude": "-90.10113776702913"
    }
  },
  {
    "service_request": "2025-1177703",
    "request_type": "Abandoned Vehicles",
    "request_reason": "Abandoned/Junk Vehicles",
    "date_created": "2025-03-21T17:37:00.000",
    "date_modified": "2025-03-21T17:37:03.000",
    "request_status": "Pending",
    "responsible_agency": "Department of Public Works",
    "final_address": "1435 Constance St, New Orleans, Louisiana, 70130",
    "address_councildis": "B",
    "status": "Pending",
    "rowid": "1177703",
    "final_x": "3680626.17442",
    "final_y": "524160.22342",
    "longitude": "-90.07108555146147",
    "latitude": "29.93528526185549",
    "geocoded_column": {
      "latitude": "29.93528526185549",
      "longitude": "-90.07108555146147"
    }
  },
  {
    "service_request": "2025-1177702",
    "request_type": "Trash/Recycling",
    "request_reason": "Order Second Trash Cart",
    "date_created": "2025-03-21T17:27:06.000",
    "date_modified": "2025-03-21T17:27:11.000",
    "request_status": "Pending",
    "responsible_agency": "Department of Sanitation",
    "final_address": "3710 Rue Nichole",
    "address_councildis": "C",
    "status": "Assigned to Contractor",
    "contractor": "Richards Disposal",
    "rowid": "1177702",
    "final_x": "3704039.69956",
    "final_y": "516867.321781",
    "longitude": "-89.99743802954038",
    "latitude": "29.914502350349572",
    "geocoded_column": {
      "latitude": "29.914502350349572",
      "longitude": "-89.99743802954038"
    }
  },
  {
    "service_request": "2025-1177701",
    "request_type": "Trash/Recycling",
    "request_reason": "Order Trash Cart",
    "date_created": "2025-03-21T17:18:51.000",
    "date_modified": "2025-03-21T17:18:53.000",
    "request_status": "Pending",
    "responsible_agency": "Department of Sanitation",
    "final_address": "435 N Galvez St",
    "address_councildis": "B",
    "status": "Assigned to Contractor",
    "contractor": "IV Waste",
    "rowid": "1177701",
    "final_x": "3677743.55547",
    "final_y": "535083.332742",
    "longitude": "-90.07980873438531",
    "latitude": "29.965407163884084",
    "geocoded_column": {
      "latitude": "29.965407163884084",
      "longitude": "-90.07980873438531"
    }
  },
  {
    "service_request": "2025-1177700",
    "request_type": "Trash/Recycling",
    "request_reason": "Request a Large Item Pick Up",
    "date_created": "2025-03-21T17:06:14.000",
    "date_modified": "2025-03-21T17:06:15.000",
    "request_status": "Pending",
    "responsible_agency": "Department of Sanitation",
    "final_address": "2503 Arts St",
    "address_councildis": "D",
    "status": "Assigned to Contractor",
    "contractor": "IV Waste",
    "rowid": "1177700",
    "final_x": "3686828.90767",
    "final_y": "541682.742156",
    "longitude": "-90.05088442884045",
    "latitude": "29.983276802998336",
    "geocoded_column": {
      "latitude": "29.983276802998336",
      "longitude": "-90.05088442884045"
    }
  },
  {
    "service_request": "2025-1177699",
    "request_type": "Abandoned Vehicles",
    "request_reason": "Abandoned/Junk Vehicles",
    "date_created": "2025-03-21T16:54:01.000",
    "date_modified": "2025-03-22T12:09:45.000",
    "case_close_date": "2025-03-22T07:09:44.000",
    "request_status": "Closed",
    "responsible_agency": "Department of Public Works",
    "final_address": "3443 Esplanade Ave",
    "address_councildis": "A",
    "status": "GOA - Gone on Arrival",
    "rowid": "1177699",
    "final_x": "3674984.858",
    "final_y": "541532.608716",
    "longitude": "-90.08829928752895",
    "latitude": "29.98322316835311",
    "geocoded_column": {
      "latitude": "29.98322316835311",
      "longitude": "-90.08829928752895"
    }
  },
  {
    "service_request": "2025-1177698",
    "request_type": "Trash/Recycling",
    "request_reason": "Replace Trash Cart",
    "date_created": "2025-03-21T16:52:44.000",
    "date_modified": "2025-03-21T16:52:45.000",
    "request_status": "Pending",
    "responsible_agency": "Department of Sanitation",
    "final_address": "2717 Bruxelles St",
    "address_councildis": "D",
    "status": "Assigned to Contractor",
    "contractor": "IV Waste",
    "rowid": "1177698",
    "final_x": "3680373.07509",
    "final_y": "542397.955981",
    "longitude": "-90.07125041078314",
    "latitude": "29.985440487646336",
    "geocoded_column": {
      "latitude": "29.985440487646336",
      "longitude": "-90.07125041078314"
    }
  },
  {
    "service_request": "2025-1177697",
    "request_type": "Trash/Recycling",
    "request_reason": "Request a Large Item Pick Up",
    "date_created": "2025-03-21T16:48:17.000",
    "date_modified": "2025-03-21T16:48:49.000",
    "request_status": "Pending",
    "responsible_agency": "Department of Sanitation",
    "final_address": "10911 Lake Forest Blvd",
    "address_councildis": "E",
    "status": "Assigned to Contractor",
    "contractor": "Waste Pro",
    "rowid": "1177697",
    "final_x": "3713785.40063",
    "final_y": "560368.857566",
    "longitude": "-89.96503797213117",
    "latitude": "30.033799244623992",
    "geocoded_column": {
      "latitude": "30.033799244623992",
      "longitude": "-89.96503797213117"
    }
  },
  {
    "service_request": "2025-1177696",
    "request_type": "Trash/Recycling",
    "request_reason": "Request a Large Item Pick Up",
    "date_created": "2025-03-21T16:39:06.000",
    "date_modified": "2025-03-21T16:39:22.000",
    "request_status": "Pending",
    "responsible_agency": "Department of Sanitation",
    "final_address": "7913 Lacombe St",
    "address_councildis": "E",
    "status": "Assigned to Contractor",
    "contractor": "Waste Pro",
    "rowid": "1177696",
    "final_x": "3709161.64779",
    "final_y": "566192.282595",
    "longitude": "-89.97943200355171",
    "latitude": "30.049962345177587",
    "geocoded_column": {
      "latitude": "30.049962345177587",
      "longitude": "-89.97943200355171"
    }
  },
  {
    "service_request": "2025-1177695",
    "request_type": "Abandoned Vehicles",
    "request_reason": "Abandoned/Junk Vehicles",
    "date_created": "2025-03-21T16:28:13.000",
    "date_modified": "2025-03-21T16:28:16.000",
    "request_status": "Pending",
    "responsible_agency": "Department of Public Works",
    "final_address": "539 Napoleon Ave",
    "address_councildis": "B",
    "status": "Pending",
    "rowid": "1177695",
    "final_x": "3671293.62023",
    "final_y": "517722.51679",
    "longitude": "-90.10076712211605",
    "latitude": "29.917863013762712",
    "geocoded_column": {
      "latitude": "29.917863013762712",
      "longitude": "-90.10076712211605"
    }
  },
  {
    "service_request": "2025-1177694",
    "request_type": "Parks & Parkways",
    "request_reason": "Tree Stump (removal, grind)",
    "date_created": "2025-03-21T16:27:36.000",
    "date_modified": "2025-03-21T16:27:38.000",
    "request_status": "Pending",
    "responsible_agency": "Department of Parks & Parkway",
    "final_address": "7000 Mayo Rd",
    "address_councildis": "E",
    "status": "Pending",
    "rowid": "1177694",
    "final_x": "3701546.50289",
    "final_y": "558623.15606",
    "longitude": "-90.00377809398978",
    "latitude": "30.029395419910685",
    "geocoded_column": {
      "latitude": "30.029395419910685",
      "longitude": "-90.00377809398978"
    }
  },
  {
    "service_request": "2025-1177693",
    "request_type": "Trash/Recycling",
    "request_reason": "Illegal Dumping",
    "date_created": "2025-03-21T16:27:24.000",
    "date_modified": "2025-03-21T16:27:25.000",
    "request_status": "Pending",
    "responsible_agency": "Department of Sanitation",
    "final_address": "6025 Elysian Fields Ave",
    "address_councildis": "D",
    "status": "Pending",
    "rowid": "1177693",
    "final_x": "3683644.61692",
    "final_y": "555178.468505",
    "longitude": "-90.06046853886082",
    "latitude": "30.02048280817224",
    "geocoded_column": {
      "latitude": "30.02048280817224",
      "longitude": "-90.06046853886082"
    }
  },
  {
    "service_request": "2025-1177692",
    "request_type": "Trash/Recycling",
    "request_reason": "Replace Trash Cart",
    "date_created": "2025-03-21T16:24:33.000",
    "date_modified": "2025-03-21T16:24:36.000",
    "request_status": "Pending",
    "responsible_agency": "Department of Sanitation",
    "final_address": "2302 Audubon St",
    "address_councildis": "A",
    "status": "Assigned to Contractor",
    "contractor": "IV Waste",
    "rowid": "1177692",
    "final_x": "3666599.07565",
    "final_y": "529637.537793",
    "longitude": "-90.11518544550968",
    "latitude": "29.95076354118953",
    "geocoded_column": {
      "latitude": "29.95076354118953",
      "longitude": "-90.11518544550968"
    }
  },
  {
    "service_request": "2025-1177691",
    "request_type": "Trash/Recycling",
    "request_reason": "Request a Large Item Pick Up",
    "date_created": "2025-03-21T16:24:30.000",
    "date_modified": "2025-03-21T16:24:33.000",
    "request_status": "Pending",
    "responsible_agency": "Department of Sanitation",
    "final_address": "729 Solomon Pl",
    "address_councildis": "A",
    "status": "Assigned to Contractor",
    "contractor": "IV Waste",
    "rowid": "1177691",
    "final_x": "3672359.76212",
    "final_y": "540527.618123",
    "longitude": "-90.09662497591754",
    "latitude": "29.980537956347543",
    "geocoded_column": {
      "latitude": "29.980537956347543",
      "longitude": "-90.09662497591754"
    }
  },
  {
    "service_request": "2025-1177690",
    "request_type": "Trash/Recycling",
    "request_reason": "Request a Large Item Pick Up",
    "date_created": "2025-03-21T16:18:52.000",
    "date_modified": "2025-03-21T16:18:54.000",
    "request_status": "Pending",
    "responsible_agency": "Department of Sanitation",
    "final_address": "3201 Lafitte Ave",
    "address_councildis": "A",
    "status": "Assigned to Contractor",
    "contractor": "IV Waste",
    "rowid": "1177690",
    "final_x": "3674780.96385",
    "final_y": "537476.89428",
    "longitude": "-90.08908239404842",
    "latitude": "29.972077431687246",
    "geocoded_column": {
      "latitude": "29.972077431687246",
      "longitude": "-90.08908239404842"
    }
  },
  {
    "service_request": "2025-1177689",
    "request_type": "Trash/Recycling",
    "request_reason": "MIssed Recycling Pick-Up",
    "date_created": "2025-03-21T16:16:04.000",
    "date_modified": "2025-03-21T16:16:07.000",
    "request_status": "Pending",
    "responsible_agency": "Department of Sanitation",
    "final_address": "5472 Grand Bayou Dr",
    "address_councildis": "E",
    "status": "Assigned to Contractor",
    "contractor": "Waste Pro",
    "rowid": "1177689",
    "final_x": "3725513.15852",
    "final_y": "563428.62672",
    "longitude": "-89.92785880504294",
    "latitude": "30.04182206024453",
    "geocoded_column": {
      "latitude": "30.04182206024453",
      "longitude": "-89.92785880504294"
    }
  },
  {
    "service_request": "2025-1177688",
    "request_type": "General Services",
    "request_reason": "General Service Request",
    "date_created": "2025-03-21T16:09:56.000",
    "date_modified": "2025-03-21T16:16:32.000",
    "case_close_date": "2025-03-21T11:16:31.000",
    "request_status": "Closed",
    "responsible_agency": "Orleans Parish Communication District",
    "final_address": "8009 Willow St",
    "address_councildis": "A",
    "status": "Referred to External Agency",
    "rowid": "1177688",
    "final_x": "3662728.96896",
    "final_y": "528701.092416",
    "longitude": "-90.12743644704734",
    "latitude": "29.94830118038421",
    "geocoded_column": {
      "latitude": "29.94830118038421",
      "longitude": "-90.12743644704734"
    }
  },
  {
    "service_request": "2025-1177687",
    "request_type": "Abandoned Vehicles",
    "request_reason": "Abandoned/Junk Vehicles",
    "date_created": "2025-03-21T16:07:37.000",
    "date_modified": "2025-03-22T08:09:18.000",
    "request_status": "Pending",
    "responsible_agency": "Department of Public Works",
    "final_address": "9862 E Wheaton Cir",
    "address_councildis": "E",
    "status": "Inspected",
    "rowid": "1177687",
    "final_x": "3708889.00625",
    "final_y": "562693.089184",
    "longitude": "-89.98042429753606",
    "latitude": "30.04034981998765",
    "geocoded_column": {
      "latitude": "30.04034981998765",
      "longitude": "-89.98042429753606"
    }
  },
  {
    "service_request": "2025-1177686",
    "request_type": "Trash/Recycling",
    "request_reason": "Request a Large Item Pick Up",
    "date_created": "2025-03-21T16:06:04.000",
    "date_modified": "2025-03-21T16:06:06.000",
    "request_status": "Pending",
    "responsible_agency": "Department of Sanitation",
    "final_address": "2717 N Tonti St",
    "address_councildis": "D",
    "status": "Assigned to Contractor",
    "contractor": "IV Waste",
    "rowid": "1177686",
    "final_x": "3688079.89686",
    "final_y": "541027.465291",
    "longitude": "-90.04695640172429",
    "latitude": "29.981436466315188",
    "geocoded_column": {
      "latitude": "29.981436466315188",
      "longitude": "-90.04695640172429"
    }
  },
  {
    "service_request": "2025-1177685",
    "request_type": "Trash/Recycling",
    "request_reason": "Replace Trash Cart",
    "date_created": "2025-03-21T16:02:12.000",
    "date_modified": "2025-03-21T16:02:15.000",
    "request_status": "Pending",
    "responsible_agency": "Department of Sanitation",
    "final_address": "1320 Second St",
    "address_councildis": "B",
    "status": "Assigned to Contractor",
    "contractor": "IV Waste",
    "rowid": "1177685",
    "final_x": "3677269.52674",
    "final_y": "522063.147194",
    "longitude": "-90.0817548103995",
    "latitude": "29.92962023441985",
    "geocoded_column": {
      "latitude": "29.92962023441985",
      "longitude": "-90.0817548103995"
    }
  },
  {
    "service_request": "2025-1177684",
    "request_type": "Trash/Recycling",
    "request_reason": "Return Trash Cart",
    "date_created": "2025-03-21T15:59:32.000",
    "date_modified": "2025-03-21T15:59:34.000",
    "request_status": "Pending",
    "responsible_agency": "Department of Sanitation",
    "final_address": "1513 Exposition Blvd",
    "address_councildis": "A",
    "status": "Assigned to Contractor",
    "contractor": "IV Waste",
    "rowid": "1177684",
    "final_x": "3664371.50631",
    "final_y": "522430.616122",
    "longitude": "-90.12245947844359",
    "latitude": "29.931011737720027",
    "geocoded_column": {
      "latitude": "29.931011737720027",
      "longitude": "-90.12245947844359"
    }
  },