[
  {
    "service_request": "2025-1162282",
    "request_type": "Roads and Streets",
    "request_reason": "Pothole",
    "date_created": "2025-01-14T22:36:22.000",
    "date_modified": "2025-01-14T22:36:24.000",
    "request_status": "Pending",
    "responsible_agency": "Department of Public Works",
    "final_address": "1938 Treasure St",
    "address_councildis": "D",
    "status": "Pending",
    "rowid": "1162282",
    "final_x": "3682469.87714",
    "final_y": "543849.063886",
    "longitude": "-90.06457673303163",
    "latitude": "29.98936685254714",
    "geocoded_column": {
      "latitude": "29.98936685254714",
      "longitude": "-90.06457673303163"
    }
  },
  {
    "service_request": "2025-1162281",
    "request_type": "Trash/Recycling",
    "request_reason": "Request a Large Item Pick Up",
    "date_created": "2025-01-14T22:06:12.000",
    "date_modified": "2025-01-14T22:06:15.000",
    "request_status": "Pending",
    "responsible_agency": "Department of Sanitation",
    "final_address": "7656 Anne Marie Ct",
    "address_councildis": "E",
    "status": "Assigned to Contractor",
    "contractor": "Waste Pro",
    "rowid": "1162281",
    "final_x": "3717737.04057",
    "final_y": "571303.543272",
    "longitude": "-89.95213394696222",
    "latitude": "30.063734802869117",
    "geocoded_column": {
      "latitude": "30.063734802869117",
      "longitude": "-89.95213394696222"
    }
  },
  {
    "service_request": "2025-1162279",
    "request_type": "Streetlights",
    "request_reason": "Streetlight Outage/Malfunction",
    "date_created": "2025-01-14T21:15:25.000",
    "date_modified": "2025-01-14T21:15:26.000",
    "request_status": "Pending",
    "responsible_agency": "Department of Public Works",
    "final_address": "3954 Constance St",
    "address_councildis": "B",
    "status": "Pending",
    "contractor": "Legacy Professional Services",
    "rowid": "1162279",
    "final_x": "3672721.76392",
    "final_y": "518538.463991",
    "longitude": "-90.09623144350866",
    "latitude": "29.92006428998432",
    "geocoded_column": {
      "latitude": "29.92006428998432",
      "longitude": "-90.09623144350866"
    }
  },
  {
    "service_request": "2025-1162278",
    "request_type": "Trash/Recycling",
    "request_reason": "Order Recycling Cart",
    "date_created": "2025-01-14T20:14:56.000",
    "date_modified": "2025-01-14T20:14:59.000",
    "request_status": "Pending",
    "responsible_agency": "Department of Sanitation",
    "final_address": "210 Maumus Ave",
    "address_councildis": "C",
    "status": "Pending",
    "rowid": "1162278",
    "final_x": "3706377.34462",
    "final_y": "516836.146101",
    "longitude": "-89.99006083530129",
    "latitude": "29.91434148212536",
    "geocoded_column": {
      "latitude": "29.91434148212536",
      "longitude": "-89.99006083530129"
    }
  },
  {
    "service_request": "2025-1162277",
    "request_type": "Trash/Recycling",
    "request_reason": "Request a Large Item Pick Up",
    "date_created": "2025-01-14T20:05:21.000",
    "date_modified": "2025-01-14T20:05:25.000",
    "request_status": "Pending",
    "responsible_agency": "Department of Sanitation",
    "final_address": "5900 BLK Painters St",
    "address_councildis": "D",
    "status": "Assigned to Contractor",
    "contractor": "IV Waste",
    "rowid": "1162277",
    "final_x": "3686076.54677",
    "final_y": "554978.889502",
    "longitude": "-90.05279143969065",
    "latitude": "30.0198595333368",
    "geocoded_column": {
      "latitude": "30.0198595333368",
      "longitude": "-90.05279143969065"
    }
  },
  {
    "service_request": "2025-1162276",
    "request_type": "Christmas Tree Recycle Pick Up",
    "request_reason": "Christmas Tree Recycle Pick Up",
    "date_created": "2025-01-14T20:01:56.000",
    "date_modified": "2025-01-14T20:02:08.000",
    "request_status": "Pending",
    "responsible_agency": "Office of Resilience and Sustainability",
    "final_address": "5572 Stillwater Dr",
    "address_councildis": "E",
    "status": "Pending",
    "contractor": "R&R Recycling",
    "rowid": "1162276",
    "final_x": "3716336.12063",
    "final_y": "560939.631902",
    "longitude": "-89.95695582108293",
    "latitude": "30.035284646429258",
    "geocoded_column": {
      "latitude": "30.035284646429258",
      "longitude": "-89.95695582108293"
    }
  },
  {
    "service_request": "2025-1162275",
    "request_type": "Trash/Recycling",
    "request_reason": "Request a Large Item Pick Up",
    "date_created": "2025-01-14T20:00:12.000",
    "date_modified": "2025-01-14T20:00:18.000",
    "request_status": "Pending",
    "responsible_agency": "Department of Sanitation",
    "final_address": "4734 Knight Dr",
    "address_councildis": "E",
    "status": "Assigned to Contractor",
    "contractor": "Waste Pro",
    "rowid": "1162275",
    "final_x": "3708066.25566",
    "final_y": "555496.059737",
    "longitude": "-89.98329241774074",
    "latitude": "30.0205875039124",
    "geocoded_column": {
      "latitude": "30.0205875039124",
      "longitude": "-89.98329241774074"
    }
  },
  {
    "service_request": "2025-1162274",
    "request_type": "Healthy Homes",
    "request_reason": "Healthy Homes",
    "date_created": "2025-01-14T19:56:17.000",
    "date_modified": "2025-01-14T19:56:20.000",
    "request_status": "Pending",
    "responsible_agency": "Department of Code Enforcement",
    "final_address": "2117 Broadway St",
    "address_councildis": "A",
    "status": "Pending",
    "rowid": "1162274",
    "final_x": "3666052.55514",
    "final_y": "529214.847552",
    "longitude": "-90.11692525377937",
    "latitude": "29.949617244626136",
    "geocoded_column": {
      "latitude": "29.949617244626136",
      "longitude": "-90.11692525377937"
    }
  },
  {
    "service_request": "2025-1162273",
    "request_type": "Health Related Request",
    "request_reason": "Homeless Encampment Complaint",
    "date_created": "2025-01-14T19:34:01.000",
    "date_modified": "2025-01-14T19:34:04.000",
    "request_status": "Pending",
    "responsible_agency": "Health Department",
    "final_address": "526 Natchez St",
    "address_councildis": "B",
    "status": "Pending",
    "rowid": "1162273",
    "final_x": "3681317.17071",
    "final_y": "529402.405697",
    "longitude": "-90.06872142718383",
    "latitude": "29.94967856369849",
    "geocoded_column": {
      "latitude": "29.94967856369849",
      "longitude": "-90.06872142718383"
    }
  },
  {
    "service_request": "2025-1162272",
    "request_type": "Property Maintenance",
    "request_reason": "Property Maintenance",
    "date_created": "2025-01-14T19:32:35.000",
    "date_modified": "2025-01-14T19:32:39.000",
    "request_status": "Pending",
    "responsible_agency": "Department of Code Enforcement",
    "final_address": "2253 Lafreniere St",
    "address_councildis": "D",
    "status": "Pending",
    "rowid": "1162272",
    "final_x": "3684773.72924",
    "final_y": "545627.570576",
    "longitude": "-90.05723697616114",
    "latitude": "29.994186767890252",
    "geocoded_column": {
      "latitude": "29.994186767890252",
      "longitude": "-90.05723697616114"
    }
  },
  {
    "service_request": "2025-1162271",
    "request_type": "Christmas Tree Recycle Pick Up",
    "request_reason": "Christmas Tree Recycle Pick Up",
    "date_created": "2025-01-14T19:08:44.000",
    "date_modified": "2025-01-14T19:08:47.000",
    "request_status": "Pending",
    "responsible_agency": "Office of Resilience and Sustainability",
    "final_address": "2615 S Carrollton Ave",
    "address_councildis": "A",
    "status": "Pending",
    "contractor": "R&R Recycling",
    "rowid": "1162271",
    "final_x": "3665563.87488",
    "final_y": "532090.110531",
    "longitude": "-90.11837198373338",
    "latitude": "29.957537538119293",
    "geocoded_column": {
      "latitude": "29.957537538119293",
      "longitude": "-90.11837198373338"
    }
  },
  {
    "service_request": "2025-1162270",
    "request_type": "Drainage",
    "request_reason": "Street Flooding",
    "date_created": "2025-01-14T19:08:01.000",
    "date_modified": "2025-01-14T19:08:04.000",
    "request_status": "Pending",
    "responsible_agency": "Department of Public Works",
    "final_address": "411 Country Club Dr",
    "address_councildis": "A",
    "status": "Pending",
    "rowid": "1162270",
    "final_x": "3664339.90407",
    "final_y": "544406.307855",
    "longitude": "-90.12182574103115",
    "latitude": "29.991438614133994",
    "geocoded_column": {
      "latitude": "29.991438614133994",
      "longitude": "-90.12182574103115"
    }
  },
  {
    "service_request": "2025-1162269",
    "request_type": "General Services",
    "request_reason": "General Service Request",
    "date_created": "2025-01-14T18:45:27.000",
    "date_modified": "2025-01-14T18:45:31.000",
    "request_status": "Pending",
    "responsible_agency": "Orleans Parish Communication District",
    "final_address": "New Orleans,LA",
    "status": "Pending",
    "rowid": "1162269",
    "longitude": "0.0",
    "latitude": "0.0",
    "geocoded_column": {
      "latitude": "0.0",
      "longitude": "0.0"
    }
  },
  {
    "service_request": "2025-1162268",
    "request_type": "General Services",
    "request_reason": "General Service Request",
    "date_created": "2025-01-14T18:42:27.000",
    "date_modified": "2025-01-14T18:42:29.000",
    "request_status": "Pending",
    "responsible_agency": "Orleans Parish Communication District",
    "final_address": "561 Aurora Oaks Dr, New Orleans, Louisiana, 70131",
    "address_councildis": "C",
    "status": "Pending",
    "rowid": "1162268",
    "final_x": "3701247.27492",
    "final_y": "520969.235705",
    "longitude": "-90.00610185420976",
    "latitude": "29.925870429343572",
    "geocoded_column": {
      "latitude": "29.925870429343572",
      "longitude": "-90.00610185420976"
    }
  },
  {
    "service_request": "2025-1162267",
    "request_type": "Drainage",
    "request_reason": "Street Flooding",
    "date_created": "2025-01-14T18:35:48.000",
    "date_modified": "2025-01-14T18:35:50.000",
    "request_status": "Pending",
    "responsible_agency": "Department of Public Works",
    "final_address": "1511 N Derbigny St",
    "address_councildis": "D",
    "status": "Pending",
    "rowid": "1162267",
    "final_x": "3681442.27471",
    "final_y": "537548.443912",
    "longitude": "-90.06804239648942",
    "latitude": "29.972073592882168",
    "geocoded_column": {
      "latitude": "29.972073592882168",
      "longitude": "-90.06804239648942"
    }
  },
  {
    "service_request": "2025-1162266",
    "request_type": "Trash/Recycling",
    "request_reason": "Request a Large Item Pick Up",
    "date_created": "2025-01-14T18:31:43.000",
    "date_modified": "2025-01-14T18:31:48.000",
    "request_status": "Pending",
    "responsible_agency": "Department of Sanitation",
    "final_address": "2715 Magazine St",
    "address_councildis": "B",
    "status": "Assigned to Contractor",
    "contractor": "IV Waste",
    "rowid": "1162266",
    "final_x": "3677180.11419",
    "final_y": "520953.217913",
    "longitude": "-90.08207533206196",
    "latitude": "29.926570975086243",
    "geocoded_column": {
      "latitude": "29.926570975086243",
      "longitude": "-90.08207533206196"
    }
  },
  {
    "service_request": "2025-1162265",
    "request_type": "Streetlights",
    "request_reason": "Streetlight Outage/Malfunction",
    "date_created": "2025-01-14T18:28:46.000",
    "date_modified": "2025-01-14T18:28:46.000",
    "request_status": "Pending",
    "responsible_agency": "Department of Public Works",
    "final_address": "2314 Jackson Ave",
    "address_councildis": "B",
    "status": "Pending",
    "contractor": "Legacy Professional Services",
    "rowid": "1162265",
    "final_x": "3675700.59515",
    "final_y": "526118.795134",
    "longitude": "-90.0865683460327",
    "latitude": "29.94081896960699",
    "geocoded_column": {
      "latitude": "29.94081896960699",
      "longitude": "-90.0865683460327"
    }
  },
  {
    "service_request": "2025-1162264",
    "request_type": "Street and Traffic Signs",
    "request_reason": "Street Name Sign Damaged or Missing",
    "date_created": "2025-01-14T18:24:35.000",
    "date_modified": "2025-01-14T18:24:37.000",
    "request_status": "Pending",
    "responsible_agency": "Department of Public Works",
    "final_address": "UNION ST & ST CHARLES AVE",
    "address_councildis": "B",
    "status": "Pending",
    "rowid": "1162264",
    "final_x": "3680853.0",
    "final_y": "529899.58",
    "longitude": "-90.07016971958608",
    "latitude": "29.95105970361861",
    "geocoded_column": {
      "latitude": "29.95105970361861",
      "longitude": "-90.07016971958608"
    }
  },
  {
    "service_request": "2025-1162263",
    "request_type": "Street and Traffic Signs",
    "request_reason": "Street Name Sign Damaged or Missing",
    "date_created": "2025-01-14T18:02:35.000",
    "date_modified": "2025-01-14T18:02:39.000",
    "request_status": "Pending",
    "responsible_agency": "Department of Public Works",
    "final_address": "UNION ST & ST CHARLES AVE",
    "address_councildis": "B",
    "status": "Pending",
    "rowid": "1162263",
    "final_x": "3680853.0",
    "final_y": "529899.58",
    "longitude": "-90.07016971958608",
    "latitude": "29.95105970361861",
    "geocoded_column": {
      "latitude": "29.95105970361861",
      "longitude": "-90.07016971958608"
    }
  },
  {
    "service_request": "2025-1162262",
    "request_type": "Abandoned Vehicles",
    "request_reason": "Abandoned/Junk Vehicles",
    "date_created": "2025-01-14T17:46:58.000",
    "date_modified": "2025-01-14T17:47:00.000",
    "request_status": "Pending",
    "responsible_agency": "Department of Public Works",
    "final_address": "4724 Perlita St",
    "address_councildis": "D",
    "status": "Pending",
    "rowid": "1162262",
    "final_x": "3678595.48213",
    "final_y": "550058.704276",
    "longitude": "-90.07659970569412",
    "latitude": "30.006558558350058",
    "geocoded_column": {
      "latitude": "30.006558558350058",
      "longitude": "-90.07659970569412"
    }
  },
  {
    "service_request": "2025-1162261",
    "request_type": "Abandoned Vehicles",
    "request_reason": "Abandoned/Junk Vehicles",
    "date_created": "2025-01-14T17:45:16.000",
    "date_modified": "2025-01-14T17:45:17.000",
    "request_status": "Pending",
    "responsible_agency": "Department of Public Works",
    "final_address": "4724 Perlita St",
    "address_councildis": "D",
    "status": "Pending",
    "rowid": "1162261",
    "final_x": "3678595.48213",
    "final_y": "550058.704276",
    "longitude": "-90.07659970569412",
    "latitude": "30.006558558350058",
    "geocoded_column": {
      "latitude": "30.006558558350058",
      "longitude": "-90.07659970569412"
    }
  },
  {
    "service_request": "2025-1162260",
    "request_type": "Streetlights",
    "request_reason": "Streetlight Outage/Malfunction",
    "date_created": "2025-01-14T17:45:08.000",
    "date_modified": "2025-01-14T17:45:09.000",
    "request_status": "Pending",
    "responsible_agency": "Department of Public Works",
    "final_address": "20 Chatham Dr",
    "address_councildis": "D",
    "status": "Pending",
    "contractor": "Legacy Professional Services",
    "rowid": "1162260",
    "final_x": "3679832.0733",
    "final_y": "551177.339669",
    "longitude": "-90.0726541153853",
    "latitude": "30.009597053639535",
    "geocoded_column": {
      "latitude": "30.009597053639535",
      "longitude": "-90.0726541153853"
    }
  },
  {
    "service_request": "2025-1162259",
    "request_type": "Trash/Recycling",
    "request_reason": "Repair Trash Cart",
    "date_created": "2025-01-14T17:15:30.000",
    "date_modified": "2025-01-14T17:15:32.000",
    "request_status": "Pending",
    "responsible_agency": "Department of Sanitation",
    "final_address": "821 Dante St",
    "address_councildis": "A",
    "status": "Assigned to Contractor",
    "contractor": "IV Waste",
    "rowid": "1162259",
    "final_x": "3660627.61165",
    "final_y": "527932.099903",
    "longitude": "-90.13409674662248",
    "latitude": "29.946247337782747",
    "geocoded_column": {
      "latitude": "29.946247337782747",
      "longitude": "-90.13409674662248"
    }
  },
  {
    "service_request": "2025-1162258",
    "request_type": "Trash/Recycling",
    "request_reason": "Replace Trash Cart",
    "date_created": "2025-01-14T17:12:31.000",
    "date_modified": "2025-01-14T17:12:34.000",
    "request_status": "Pending",
    "responsible_agency": "Department of Sanitation",
    "final_address": "2542 Myrtle St",
    "address_councildis": "D",
    "status": "Assigned to Contractor",
    "contractor": "IV Waste",
    "rowid": "1162258",
    "final_x": "3686892.92335",
    "final_y": "546007.598736",
    "longitude": "-90.05052930514198",
    "latitude": "29.995166644248396",
    "geocoded_column": {
      "latitude": "29.995166644248396",
      "longitude": "-90.05052930514198"
    }
  },
  {
    "service_request": "2025-1162257",
    "request_type": "Trash/Recycling",
    "request_reason": "MIssed Recycling Pick-Up",
    "date_created": "2025-01-14T16:56:22.000",
    "date_modified": "2025-01-14T16:56:26.000",
    "request_status": "Pending",
    "responsible_agency": "Department of Sanitation",
    "final_address": "7556 Shorewood Blvd",
    "address_councildis": "E",
    "status": "Assigned to Contractor",
    "contractor": "Waste Pro",
    "rowid": "1162257",
    "final_x": "3720059.11718",
    "final_y": "572576.321641",
    "longitude": "-89.9447450427848",
    "latitude": "30.067157241597876",
    "geocoded_column": {
      "latitude": "30.067157241597876",
      "longitude": "-89.9447450427848"
    }
  },
  {
    "service_request": "2025-1162256",
    "request_type": "Christmas Tree Recycle Pick Up",
    "request_reason": "Christmas Tree Recycle Pick Up",
    "date_created": "2025-01-14T16:55:52.000",
    "date_modified": "2025-01-14T16:55:54.000",
    "request_status": "Pending",
    "responsible_agency": "Office of Resilience and Sustainability",
    "final_address": "3368 Esplanade Ave",
    "address_councildis": "A",
    "status": "Pending",
    "contractor": "R&R Recycling",
    "rowid": "1162256",
    "final_x": "3675552.58568",
    "final_y": "540901.820107",
    "longitude": "-90.08652778688347",
    "latitude": "29.981471742994145",
    "geocoded_column": {
      "latitude": "29.981471742994145",
      "longitude": "-90.08652778688347"
    }
  },
  {
    "service_request": "2025-1162255",
    "request_type": "Roads and Streets",
    "request_reason": "Street Subsidence (Sinking)",
    "date_created": "2025-01-14T16:47:42.000",
    "date_modified": "2025-01-14T16:47:44.000",
    "request_status": "Pending",
    "responsible_agency": "Department of Public Works",
    "final_address": "3500 BLK Piedmont Dr",
    "address_councildis": "D",
    "status": "Pending",
    "rowid": "1162255",
    "final_x": "3686155.79563",
    "final_y": "545824.914043",
    "longitude": "-90.05286425858594",
    "latitude": "29.99468699738986",
    "geocoded_column": {
      "latitude": "29.99468699738986",
      "longitude": "-90.05286425858594"
    }
  },
  {
    "service_request": "2025-1162254",
    "request_type": "Christmas Tree Recycle Pick Up",
    "request_reason": "Christmas Tree Recycle Pick Up",
    "date_created": "2025-01-14T16:46:46.000",
    "date_modified": "2025-01-14T16:46:48.000",
    "request_status": "Pending",
    "responsible_agency": "Office of Resilience and Sustainability",
    "final_address": "7839 Fig St",
    "address_councildis": "B",
    "status": "Pending",
    "contractor": "R&R Recycling",
    "rowid": "1162254",
    "final_x": "3666959.18977",
    "final_y": "532650.956164",
    "longitude": "-90.11394712896758",
    "latitude": "29.959038924889875",
    "geocoded_column": {
      "latitude": "29.959038924889875",
      "longitude": "-90.11394712896758"
    }
  },
  {
    "service_request": "2025-1162253",
    "request_type": "Christmas Tree Recycle Pick Up",
    "request_reason": "Christmas Tree Recycle Pick Up",
    "date_created": "2025-01-14T16:43:19.000",
    "date_modified": "2025-01-14T16:43:21.000",
    "request_status": "Pending",
    "responsible_agency": "Office of Resilience and Sustainability",
    "final_address": "4424 LaSalle St",
    "address_councildis": "B",
    "status": "Pending",
    "contractor": "R&R Recycling",
    "rowid": "1162253",
    "final_x": "3670278.55156",
    "final_y": "523631.766075",
    "longitude": "-90.10377099263765",
    "latitude": "29.934141549429913",
    "geocoded_column": {
      "latitude": "29.934141549429913",
      "longitude": "-90.10377099263765"
    }
  },
  {
    "service_request": "2025-1162252",
    "request_type": "Christmas Tree Recycle Pick Up",
    "request_reason": "Christmas Tree Recycle Pick Up",
    "date_created": "2025-01-14T16:37:47.000",
    "date_modified": "2025-01-14T16:37:49.000",
    "request_status": "Pending",
    "responsible_agency": "Office of Resilience and Sustainability",
    "final_address": "2231 Constance St",
    "address_councildis": "B",
    "status": "Pending",
    "contractor": "R&R Recycling",
    "rowid": "1162252",
    "final_x": "3678842.43906",
    "final_y": "521638.939961",
    "longitude": "-90.07680409168192",
    "latitude": "29.92840646849455",
    "geocoded_column": {
      "latitude": "29.92840646849455",
      "longitude": "-90.07680409168192"
    }
  },
  {
    "service_request": "2025-1162251",
    "request_type": "Trash/Recycling",
    "request_reason": "Repair Recycling Cart",
    "date_created": "2025-01-14T16:37:29.000",
    "date_modified": "2025-01-14T16:37:31.000",
    "request_status": "Pending",
    "responsible_agency": "Department of Sanitation",
    "final_address": "47 Thrasher St",
    "address_councildis": "D",
    "status": "Pending",
    "rowid": "1162251",
    "final_x": "3672498.78619",
    "final_y": "556257.444378",
    "longitude": "-90.09564923886512",
    "latitude": "30.02378533880003",
    "geocoded_column": {
      "latitude": "30.02378533880003",
      "longitude": "-90.09564923886512"
    }
  },
  {
    "service_request": "2025-1162250",
    "request_type": "Traffic Signals",
    "request_reason": "Traffic Signal Malfunctioning or Damaged",
    "date_created": "2025-01-14T16:34:53.000",
    "date_modified": "2025-01-14T16:34:54.000",
    "request_status": "Pending",
    "responsible_agency": "Department of Public Works",
    "final_address": "1330 Odeon St",
    "address_councildis": "C",
    "status": "Pending",
    "rowid": "1162250",
    "final_x": "3696072.95779",
    "final_y": "526290.43859",
    "longitude": "-90.02224335128261",
    "latitude": "29.940665696366562",
    "geocoded_column": {
      "latitude": "29.940665696366562",
      "longitude": "-90.02224335128261"
    }
  },
  {
    "service_request": "2025-1162249",
    "request_type": "Trash/Recycling",
    "request_reason": "Request a Large Item Pick Up",
    "date_created": "2025-01-14T16:30:11.000",
    "date_modified": "2025-01-14T16:30:13.000",
    "request_status": "Pending",
    "responsible_agency": "Department of Sanitation",
    "final_address": "2633 Wisteria St",
    "address_councildis": "D",
    "status": "Assigned to Contractor",
    "contractor": "IV Waste",
    "rowid": "1162249",
    "final_x": "3687301.28066",
    "final_y": "548441.260178",
    "longitude": "-90.04915319196903",
    "latitude": "30.001845757252166",
    "geocoded_column": {
      "latitude": "30.001845757252166",
      "longitude": "-90.04915319196903"
    }
  },
  {
    "service_request": "2025-1162248",
    "request_type": "Trash/Recycling",
    "request_reason": "Replace Trash Cart",
    "date_created": "2025-01-14T16:30:02.000",
    "date_modified": "2025-01-14T16:30:05.000",
    "request_status": "Pending",
    "responsible_agency": "Department of Sanitation",
    "final_address": "11001 Chef Menteur Hwy",
    "address_councildis": "E",
    "status": "Assigned to Contractor",
    "contractor": "Waste Pro",
    "rowid": "1162248",
    "final_x": "3716193.24895",
    "final_y": "556009.300185",
    "longitude": "-89.95759438072872",
    "latitude": "30.021732922624327",
    "geocoded_column": {
      "latitude": "30.021732922624327",
      "longitude": "-89.95759438072872"
    }
  },
  {
    "service_request": "2025-1162247",
    "request_type": "Trash/Recycling",
    "request_reason": "Request a Large Item Pick Up",
    "date_created": "2025-01-14T16:28:28.000",
    "date_modified": "2025-01-14T16:28:30.000",
    "request_status": "Pending",
    "responsible_agency": "Department of Sanitation",
    "final_address": "2633 Wisteria St",
    "address_councildis": "D",
    "status": "Assigned to Contractor",
    "contractor": "IV Waste",
    "rowid": "1162247",
    "final_x": "3687301.28066",
    "final_y": "548441.260178",
    "longitude": "-90.04915319196903",
    "latitude": "30.001845757252166",
    "geocoded_column": {
      "latitude": "30.001845757252166",
      "longitude": "-90.04915319196903"
    }
  },
  {
    "service_request": "2025-1162246",
    "request_type": "Trash/Recycling",
    "request_reason": "Request a Large Item Pick Up",
    "date_created": "2025-01-14T16:27:54.000",
    "date_modified": "2025-01-14T16:28:33.000",
    "request_status": "Pending",
    "responsible_agency": "Department of Sanitation",
    "final_address": "4751 Music St",
    "address_councildis": "D",
    "status": "Assigned to Contractor",
    "contractor": "IV Waste",
    "rowid": "1162246",
    "final_x": "3685665.7133",
    "final_y": "550606.620756",
    "longitude": "-90.05424375337715",
    "latitude": "30.007850014259635",
    "geocoded_column": {
      "latitude": "30.007850014259635",
      "longitude": "-90.05424375337715"
    }
  },
  {
    "service_request": "2025-1162245",
    "request_type": "Trash/Recycling",
    "request_reason": "Repair Trash Cart",
    "date_created": "2025-01-14T16:27:14.000",
    "date_modified": "2025-01-14T16:27:17.000",
    "request_status": "Pending",
    "responsible_agency": "Department of Sanitation",
    "final_address": "416 State St",
    "address_councildis": "A",
    "status": "Assigned to Contractor",
    "contractor": "IV Waste",
    "rowid": "1162245",
    "final_x": "3664249.73645",
    "final_y": "518012.439862",
    "longitude": "-90.12299121868",
    "latitude": "29.918866676534428",
    "geocoded_column": {
      "latitude": "29.918866676534428",
      "longitude": "-90.12299121868"
    }
  },
  {
    "service_request": "2025-1162244",
    "request_type": "Trash/Recycling",
    "request_reason": "Request a Large Item Pick Up",
    "date_created": "2025-01-14T16:25:25.000",
    "date_modified": "2025-01-14T16:25:27.000",
    "request_status": "Pending",
    "responsible_agency": "Department of Sanitation",
    "final_address": "201 S Pierce St",
    "address_councildis": "A",
    "status": "Assigned to Contractor",
    "contractor": "IV Waste",
    "rowid": "1162244",
    "final_x": "3671165.94753",
    "final_y": "537711.090248",
    "longitude": "-90.10049128043558",
    "latitude": "29.972828834036935",
    "geocoded_column": {
      "latitude": "29.972828834036935",
      "longitude": "-90.10049128043558"
    }
  },
  {
    "service_request": "2025-1162243",
    "request_type": "Christmas Tree Recycle Pick Up",
    "request_reason": "Christmas Tree Recycle Pick Up",
    "date_created": "2025-01-14T16:24:28.000",
    "date_modified": "2025-01-14T16:24:37.000",
    "request_status": "Pending",
    "responsible_agency": "Office of Resilience and Sustainability",
    "final_address": "6045 Memphis St",
    "address_councildis": "A",
    "status": "Pending",
    "contractor": "R&R Recycling",
    "rowid": "1162243",
    "final_x": "3669287.61812",
    "final_y": "547573.359058",
    "longitude": "-90.10608981924916",
    "latitude": "30.000002142726512",
    "geocoded_column": {
      "latitude": "30.000002142726512",
      "longitude": "-90.10608981924916"
    }
  },
  {
    "service_request": "2025-1162242",
    "request_type": "Trash/Recycling",
    "request_reason": "Request a Large Item Pick Up",
    "date_created": "2025-01-14T16:21:26.000",
    "date_modified": "2025-01-14T16:21:28.000",
    "request_status": "Pending",
    "responsible_agency": "Department of Sanitation",
    "final_address": "5816 Marigny St",
    "address_councildis": "D",
    "status": "Assigned to Contractor",
    "contractor": "IV Waste",
    "rowid": "1162242",
    "final_x": "3683893.15113",
    "final_y": "554409.546968",
    "longitude": "-90.05971025205048",
    "latitude": "30.018360962680436",
    "geocoded_column": {
      "latitude": "30.018360962680436",
      "longitude": "-90.05971025205048"
    }
  },
  {
    "service_request": "2025-1162241",
    "request_type": "Abandoned Vehicles",
    "request_reason": "Abandoned/Junk Vehicles",
    "date_created": "2025-01-14T16:14:45.000",
    "date_modified": "2025-01-14T16:14:47.000",
    "request_status": "Pending",
    "responsible_agency": "Department of Public Works",
    "final_address": "4019 Vincennes Pl",
    "address_councildis": "B",
    "status": "Pending",
    "rowid": "1162241",
    "final_x": "3668472.69114",
    "final_y": "530083.565953",
    "longitude": "-90.10925445913287",
    "latitude": "29.951935070668643",
    "geocoded_column": {
      "latitude": "29.951935070668643",
      "longitude": "-90.10925445913287"
    }
  },
  {
    "service_request": "2025-1162240",
    "request_type": "Trash/Recycling",
    "request_reason": "Request a Large Item Pick Up",
    "date_created": "2025-01-14T16:13:13.000",
    "date_modified": "2025-01-14T16:13:15.000",
    "request_status": "Pending",
    "responsible_agency": "Department of Sanitation",
    "final_address": "6001 Eastover Dr",
    "address_councildis": "E",
    "status": "Assigned to Contractor",
    "contractor": "Waste Pro",
    "rowid": "1162240",
    "final_x": "3718852.70764",
    "final_y": "565261.171426",
    "longitude": "-89.9488380760335",
    "latitude": "30.047083759291052",
    "geocoded_column": {
      "latitude": "30.047083759291052",
      "longitude": "-89.9488380760335"
    }
  },
  {
    "service_request": "2025-1162239",
    "request_type": "Christmas Tree Recycle Pick Up",
    "request_reason": "Christmas Tree Recycle Pick Up",
    "date_created": "2025-01-14T16:12:42.000",
    "date_modified": "2025-01-14T16:12:44.000",
    "request_status": "Pending",
    "responsible_agency": "Office of Resilience and Sustainability",
    "final_address": "1364 Magazine St",
    "address_councildis": "B",
    "status": "Pending",
    "contractor": "R&R Recycling",
    "rowid": "1162239",
    "final_x": "3680443.33071",
    "final_y": "524684.117564",
    "longitude": "-90.0716445774164",
    "latitude": "29.936731334491615",
    "geocoded_column": {
      "latitude": "29.936731334491615",
      "longitude": "-90.0716445774164"
    }
  },
  {
    "service_request": "2025-1162238",
    "request_type": "Christmas Tree Recycle Pick Up",
    "request_reason": "Christmas Tree Recycle Pick Up",
    "date_created": "2025-01-14T16:12:33.000",
    "date_modified": "2025-01-14T16:12:35.000",
    "request_status": "Pending",
    "responsible_agency": "Office of Resilience and Sustainability",
    "final_address": "6001 Eastover Dr",
    "address_councildis": "E",
    "status": "Pending",
    "contractor": "R&R Recycling",
    "rowid": "1162238",
    "final_x": "3718852.70764",
    "final_y": "565261.171426",
    "longitude": "-89.9488380760335",
    "latitude": "30.047083759291052",
    "geocoded_column": {
      "latitude": "30.047083759291052",
      "longitude": "-89.9488380760335"
    }
  },
  {
    "service_request": "2025-1162237",
    "request_type": "Christmas Tree Recycle Pick Up",
    "request_reason": "Christmas Tree Recycle Pick Up",
    "date_created": "2025-01-14T16:12:24.000",
    "date_modified": "2025-01-14T16:12:26.000",
    "request_status": "Pending",
    "responsible_agency": "Office of Resilience and Sustainability",
    "final_address": "1370 Magazine St",
    "address_councildis": "B",
    "status": "Pending",
    "contractor": "R&R Recycling",
    "rowid": "1162237",
    "final_x": "3680438.56155",
    "final_y": "524659.539196",
    "longitude": "-90.07166048826038",
    "latitude": "29.93666389651205",
    "geocoded_column": {
      "latitude": "29.93666389651205",
      "longitude": "-90.07166048826038"
    }
  },
  {
    "service_request": "2025-1162236",
    "request_type": "Abandoned Vehicles",
    "request_reason": "Abandoned/Junk Vehicles",
    "date_created": "2025-01-14T16:11:29.000",
    "date_modified": "2025-01-14T16:11:32.000",
    "request_status": "Pending",
    "responsible_agency": "Department of Public Works",
    "final_address": "4024 Vincennes Pl",
    "address_councildis": "B",
    "status": "Pending",
    "rowid": "1162236",
    "final_x": "3668419.72922",
    "final_y": "530224.119553",
    "longitude": "-90.10941694795295",
    "latitude": "29.95232310270868",
    "geocoded_column": {
      "latitude": "29.95232310270868",
      "longitude": "-90.10941694795295"
    }
  },
  {
    "service_request": "2025-1162235",
    "request_type": "Christmas Tree Recycle Pick Up",
    "request_reason": "Christmas Tree Recycle Pick Up",
    "date_created": "2025-01-14T16:11:10.000",
    "date_modified": "2025-01-14T16:11:12.000",
    "request_status": "Pending",
    "responsible_agency": "Office of Resilience and Sustainability",
    "final_address": "2200 Halsey Ave",
    "address_councildis": "C",
    "status": "Pending",
    "contractor": "R&R Recycling",
    "rowid": "1162235",
    "final_x": "3697790.82019",
    "final_y": "522970.905403",
    "longitude": "-90.01694020007602",
    "latitude": "29.931483968276307",
    "geocoded_column": {
      "latitude": "29.931483968276307",
      "longitude": "-90.01694020007602"
    }
  },
  {
    "service_request": "2025-1162234",
    "request_type": "Trash/Recycling",
    "request_reason": "Request a Large Item Pick Up",
    "date_created": "2025-01-14T16:09:40.000",
    "date_modified": "2025-01-14T16:09:42.000",
    "request_status": "Pending",
    "responsible_agency": "Department of Sanitation",
    "final_address": "2111 Pauger St",
    "address_councildis": "C",
    "status": "Assigned to Contractor",
    "contractor": "IV Waste",
    "rowid": "1162234",
    "final_x": "3683876.56713",
    "final_y": "537431.795656",
    "longitude": "-90.06035860411673",
    "latitude": "29.971678713769446",
    "geocoded_column": {
      "latitude": "29.971678713769446",
      "longitude": "-90.06035860411673"
    }
  },
  {
    "service_request": "2025-1162233",
    "request_type": "Trash/Recycling",
    "request_reason": "Illegal Dumping",
    "date_created": "2025-01-14T16:07:44.000",
    "date_modified": "2025-01-14T16:08:26.000",
    "request_status": "Pending",
    "responsible_agency": "Department of Sanitation",
    "final_address": "HERSCHEL ST & WESTBEND PKWY",
    "address_councildis": "C",
    "status": "Pending",
    "rowid": "1162233",
    "final_x": "3696697.9",
    "final_y": "521191.18",
    "longitude": "-90.02045477372698",
    "latitude": "29.926624811899956",
    "geocoded_column": {
      "latitude": "29.926624811899956",
      "longitude": "-90.02045477372698"
    }
  },
  {
    "service_request": "2025-1162232",
    "request_type": "Abandoned Vehicles",
    "request_reason": "Abandoned/Junk Vehicles",
    "date_created": "2025-01-14T16:06:36.000",
    "date_modified": "2025-01-14T16:06:38.000",
    "request_status": "Pending",
    "responsible_agency": "Department of Public Works",
    "final_address": "1309 S Roman St",
    "address_councildis": "B",
    "status": "Pending",
    "rowid": "1162232",
    "final_x": "3674719.06689",
    "final_y": "528968.15136",
    "longitude": "-90.0895695601264",
    "latitude": "29.94868309009873",
    "geocoded_column": {
      "latitude": "29.94868309009873",
      "longitude": "-90.0895695601264"
    }
  },
  {
    "service_request": "2025-1162231",
    "request_type": "Trash/Recycling",
    "request_reason": "Repair Trash Cart",
    "date_created": "2025-01-14T16:03:53.000",
    "date_modified": "2025-01-14T16:03:55.000",
    "request_status": "Pending",
    "responsible_agency": "Department of Sanitation",
    "final_address": "319 Audubon St",
    "address_councildis": "A",
    "status": "Assigned to Contractor",
    "contractor": "IV Waste",
    "rowid": "1162231",
    "final_x": "3661668.4848",
    "final_y": "522164.060282",
    "longitude": "-90.13100142746481",
    "latitude": "29.93035705872044",
    "geocoded_column": {
      "latitude": "29.93035705872044",
      "longitude": "-90.13100142746481"
    }
  },
  {
    "service_request": "2025-1162230",
    "request_type": "Streetlights",
    "request_reason": "Streetlight Outage/Malfunction",
    "date_created": "2025-01-14T15:57:13.000",
    "date_modified": "2025-01-14T15:59:05.000",
    "request_status": "Pending",
    "responsible_agency": "Department of Public Works",
    "final_address": "5310 Canal Blvd",
    "address_councildis": "A",
    "status": "Pending",
    "contractor": "Legacy Professional Services",
    "rowid": "1162230",
    "final_x": "3667962.13498",
    "final_y": "542889.375565",
    "longitude": "-90.11043501970049",
    "latitude": "29.987161764200525",
    "geocoded_column": {
      "latitude": "29.987161764200525",
      "longitude": "-90.11043501970049"
    }
  },
  {
    "service_request": "2025-1162229",
    "request_type": "Trash/Recycling",
    "request_reason": "Request a Large Item Pick Up",
    "date_created": "2025-01-14T15:55:13.000",
    "date_modified": "2025-01-14T15:55:15.000",
    "request_status": "Pending",
    "responsible_agency": "Department of Sanitation",
    "final_address": "4945 Tynecastle Dr",
    "address_councildis": "E",
    "status": "Assigned to Contractor",
    "contractor": "Waste Pro",
    "rowid": "1162229",
    "final_x": "3718483.79596",
    "final_y": "558207.877659",
    "longitude": "-89.95027309381446",
    "latitude": "30.02770231439302",
    "geocoded_column": {
      "latitude": "30.02770231439302",
      "longitude": "-89.95027309381446"
    }
  },
  {
    "service_request": "2025-1162228",
    "request_type": "Streetlights",
    "request_reason": "Streetlight Outage/Malfunction",
    "date_created": "2025-01-14T15:54:13.000",
    "date_modified": "2025-01-14T15:54:14.000",
    "request_status": "Pending",
    "responsible_agency": "Department of Public Works",
    "final_address": "1000 Esplanade Ave",
    "address_councildis": "C",
    "status": "Pending",
    "contractor": "Legacy Professional Services",
    "rowid": "1162228",
    "final_x": "3683143.4829",
    "final_y": "535062.825222",
    "longitude": "-90.06275675290061",
    "latitude": "29.96518723697568",
    "geocoded_column": {
      "latitude": "29.96518723697568",
      "longitude": "-90.06275675290061"
    }
  },
  {
    "service_request": "2025-1162225",
    "request_type": "Parks & Parkways",
    "request_reason": "Request Tree Service (Right of Way/Public Property)",
    "date_created": "2025-01-14T15:48:03.000",
    "date_modified": "2025-01-14T15:48:50.000",
    "case_close_date": "2025-01-14T09:48:50.000",
    "request_status": "Closed",
    "responsible_agency": "Department of Parks & Parkway",
    "final_address": "1804 Casa Calvo St",
    "address_councildis": "C",
    "status": "Referred to External Agency",
    "rowid": "1162225",
    "final_x": "3692022.50864",
    "final_y": "524593.320956",
    "longitude": "-90.0350919677965",
    "latitude": "29.936126016836095",
    "geocoded_column": {
      "latitude": "29.936126016836095",
      "longitude": "-90.0350919677965"
    }
  },
  {
    "service_request": "2025-1162224",
    "request_type": "Trash/Recycling",
    "request_reason": "Request a Large Item Pick Up",
    "date_created": "2025-01-14T15:47:48.000",
    "date_modified": "2025-01-14T15:47:50.000",
    "request_status": "Pending",
    "responsible_agency": "Department of Sanitation",
    "final_address": "707 Nashville Ave",
    "address_councildis": "A",
    "status": "Assigned to Contractor",
    "contractor": "IV Waste",
    "rowid": "1162224",
    "final_x": "3665522.55482",
    "final_y": "518729.996023",
    "longitude": "-90.1189495704744",
    "latitude": "29.92080270156744",
    "geocoded_column": {
      "latitude": "29.92080270156744",
      "longitude": "-90.1189495704744"
    }
  },
  {
    "service_request": "2025-1162223",
    "request_type": "Roads and Streets",
    "request_reason": "Pothole",
    "date_created": "2025-01-14T15:46:37.000",
    "date_modified": "2025-01-14T15:46:39.000",
    "request_status": "Pending",
    "responsible_agency": "Department of Public Works",
    "final_address": "906 Esplanade Ave",
    "address_councildis": "C",
    "status": "Pending",
    "rowid": "1162223",
    "final_x": "3683378.62645",
    "final_y": "534860.863494",
    "longitude": "-90.06202125929862",
    "latitude": "29.964624740171125",
    "geocoded_column": {
      "latitude": "29.964624740171125",
      "longitude": "-90.06202125929862"
    }
  },
  {
    "service_request": "2025-1162222",
    "request_type": "Roads and Streets",
    "request_reason": "Pothole",
    "date_created": "2025-01-14T15:45:47.000",
    "date_modified": "2025-01-14T15:45:49.000",
    "request_status": "Pending",
    "responsible_agency": "Department of Public Works",
    "final_address": "3500 BLK Cadiz St",
    "address_councildis": "B",
    "status": "Pending",
    "rowid": "1162222",
    "final_x": "3669424.61321",
    "final_y": "527607.792997",
    "longitude": "-90.10633244078606",
    "latitude": "29.945099507078268",
    "geocoded_column": {
      "latitude": "29.945099507078268",
      "longitude": "-90.10633244078606"
    }
  },
  {
    "service_request": "2025-1162221",
    "request_type": "Trash/Recycling",
    "request_reason": "Request a Large Item Pick Up",
    "date_created": "2025-01-14T15:45:14.000",
    "date_modified": "2025-01-14T15:45:16.000",
    "request_status": "Pending",
    "responsible_agency": "Department of Sanitation",
    "final_address": "6953 Boston Dr",
    "address_councildis": "E",
    "status": "Assigned to Contractor",
    "contractor": "Waste Pro",
    "rowid": "1162221",
    "final_x": "3706561.13195",
    "final_y": "560469.828702",
    "longitude": "-89.98786358193469",
    "latitude": "30.03431210096067",
    "geocoded_column": {
      "latitude": "30.03431210096067",
      "longitude": "-89.98786358193469"
    }
  },
  {
    "service_request": "2025-1162220",
    "request_type": "Trash/Recycling",
    "request_reason": "Replace Trash Cart",
    "date_created": "2025-01-14T15:42:58.000",
    "date_modified": "2025-01-14T15:43:01.000",
    "request_status": "Pending",
    "responsible_agency": "Department of Sanitation",
    "final_address": "11118 Curran Rd",
    "address_councildis": "E",
    "status": "Assigned to Contractor",
    "contractor": "Waste Pro",
    "rowid": "1162220",
    "final_x": "3710782.84421",
    "final_y": "566219.140259",
    "longitude": "-89.97430704280806",
    "latitude": "30.04998342237986",
    "geocoded_column": {
      "latitude": "30.04998342237986",
      "longitude": "-89.97430704280806"
    }
  },
  {
    "service_request": "2025-1162219",
    "request_type": "Trash/Recycling",
    "request_reason": "Return Trash Cart",
    "date_created": "2025-01-14T15:42:03.000",
    "date_modified": "2025-01-14T15:42:05.000",
    "request_status": "Pending",
    "responsible_agency": "Department of Sanitation",
    "final_address": "4202 Burgundy St",
    "address_councildis": "C",
    "status": "Assigned to Contractor",
    "contractor": "IV Waste",
    "rowid": "1162219",
    "final_x": "3692208.52944",
    "final_y": "534281.025029",
    "longitude": "-90.03415792688678",
    "latitude": "29.962758055686304",
    "geocoded_column": {
      "latitude": "29.962758055686304",
      "longitude": "-90.03415792688678"
    }
  },
  {
    "service_request": "2025-1162218",
    "request_type": "Trash/Recycling",
    "request_reason": "Order Recycling Cart",
    "date_created": "2025-01-14T15:41:31.000",
    "date_modified": "2025-01-14T15:41:33.000",
    "request_status": "Pending",
    "responsible_agency": "Department of Sanitation",
    "final_address": "4202 Burgundy St",
    "address_councildis": "C",
    "status": "Pending",
    "rowid": "1162218",
    "final_x": "3692208.52944",
    "final_y": "534281.025029",
    "longitude": "-90.03415792688678",
    "latitude": "29.962758055686304",
    "geocoded_column": {
      "latitude": "29.962758055686304",
      "longitude": "-90.03415792688678"
    }
  },
  {
    "service_request": "2025-1162217",
    "request_type": "Trash/Recycling",
    "request_reason": "Request a Large Item Pick Up",
    "date_created": "2025-01-14T15:36:23.000",
    "date_modified": "2025-01-14T15:36:26.000",
    "request_status": "Pending",
    "responsible_agency": "Department of Sanitation",
    "final_address": "8026 Cohn St",
    "address_councildis": "A",
    "status": "Assigned to Contractor",
    "contractor": "IV Waste",
    "rowid": "1162217",
    "final_x": "3663806.7104",
    "final_y": "529962.291905",
    "longitude": "-90.12399152927509",
    "latitude": "29.951737840679538",
    "geocoded_column": {
      "latitude": "29.951737840679538",
      "longitude": "-90.12399152927509"
    }
  },
  {
    "service_request": "2025-1162216",
    "request_type": "Property Maintenance",
    "request_reason": "Property Maintenance",
    "date_created": "2025-01-14T15:35:23.000",
    "date_modified": "2025-01-14T15:35:25.000",
    "request_status": "Pending",
    "responsible_agency": "Department of Code Enforcement",
    "final_address": "4214 General Pershing St",
    "address_councildis": "B",
    "status": "Pending",
    "rowid": "1162216",
    "final_x": "3669788.45191",
    "final_y": "529504.117953",
    "longitude": "-90.1051195084949",
    "latitude": "29.950303063636586",
    "geocoded_column": {
      "latitude": "29.950303063636586",
      "longitude": "-90.1051195084949"
    }
  },
  {
    "service_request": "2025-1162215",
    "request_type": "Trash/Recycling",
    "request_reason": "Request a Large Item Pick Up",
    "date_created": "2025-01-14T15:33:36.000",
    "date_modified": "2025-01-14T15:33:40.000",
    "request_status": "Pending",
    "responsible_agency": "Department of Sanitation",
    "final_address": "10321 Brookfield Dr",
    "address_councildis": "E",
    "status": "Assigned to Contractor",
    "contractor": "Waste Pro",
    "rowid": "1162215",
    "final_x": "3710483.0236",
    "final_y": "563227.483936",
    "longitude": "-89.97536671587568",
    "latitude": "30.04176734543833",
    "geocoded_column": {
      "latitude": "30.04176734543833",
      "longitude": "-89.97536671587568"
    }
  },
  {
    "service_request": "2025-1162214",
    "request_type": "Trash/Recycling",
    "request_reason": "Replace Trash Cart",
    "date_created": "2025-01-14T15:32:34.000",
    "date_modified": "2025-01-14T15:32:37.000",
    "request_status": "Pending",
    "responsible_agency": "Department of Sanitation",
    "final_address": "3223 Toulouse St",
    "address_councildis": "A",
    "status": "Assigned to Contractor",
    "contractor": "IV Waste",
    "rowid": "1162214",
    "final_x": "3674539.60968",
    "final_y": "538037.170569",
    "longitude": "-90.08982542865617",
    "latitude": "29.973625205114455",
    "geocoded_column": {
      "latitude": "29.973625205114455",
      "longitude": "-90.08982542865617"
    }
  },
  {
    "service_request": "2025-1162213",
    "request_type": "Abandoned Vehicles",
    "request_reason": "Abandoned/Junk Vehicles",
    "date_created": "2025-01-14T15:32:07.000",
    "date_modified": "2025-01-14T15:32:09.000",
    "request_status": "Pending",
    "responsible_agency": "Department of Public Works",
    "final_address": "4214 General Pershing St",
    "address_councildis": "B",
    "status": "Pending",
    "rowid": "1162213",
    "final_x": "3669788.45191",
    "final_y": "529504.117953",
    "longitude": "-90.1051195084949",
    "latitude": "29.950303063636586",
    "geocoded_column": {
      "latitude": "29.950303063636586",
      "longitude": "-90.1051195084949"
    }
  },
  {
    "service_request": "2025-1162212",
    "request_type": "Trash/Recycling",
    "request_reason": "Request a Large Item Pick Up",
    "date_created": "2025-01-14T15:31:23.000",
    "date_modified": "2025-01-14T15:31:30.000",
    "request_status": "Pending",
    "responsible_agency": "Department of Sanitation",
    "final_address": "4635 Sierra Madre Dr",
    "address_councildis": "E",
    "status": "Assigned to Contractor",
    "contractor": "Waste Pro",
    "rowid": "1162212",
    "final_x": "3714026.86136",
    "final_y": "555873.482713",
    "longitude": "-89.96444464748352",
    "latitude": "30.02143081926736",
    "geocoded_column": {
      "latitude": "30.02143081926736",
      "longitude": "-89.96444464748352"
    }
  },
  {
    "service_request": "2025-1162211",
    "request_type": "Christmas Tree Recycle Pick Up",
    "request_reason": "Christmas Tree Recycle Pick Up",
    "date_created": "2025-01-14T15:30:56.000",
    "date_modified": "2025-01-14T15:30:59.000",
    "request_status": "Pending",
    "responsible_agency": "Office of Resilience and Sustainability",
    "final_address": "309 Audubon St",
    "address_councildis": "A",
    "status": "Pending",
    "contractor": "R&R Recycling",
    "rowid": "1162211",
    "final_x": "3661629.56621",
    "final_y": "522104.72825",
    "longitude": "-90.13112625320937",
    "latitude": "29.9301950370689",
    "geocoded_column": {
      "latitude": "29.9301950370689",
      "longitude": "-90.13112625320937"
    }
  },
  {
    "service_request": "2025-1162210",
    "request_type": "Trash/Recycling",
    "request_reason": "Illegal Dumping",
    "date_created": "2025-01-14T15:29:04.000",
    "date_modified": "2025-01-14T15:29:05.000",
    "request_status": "Pending",
    "responsible_agency": "Department of Sanitation",
    "final_address": "6321 N Villere St",
    "address_councildis": "E",
    "status": "Pending",
    "rowid": "1162210",
    "final_x": "3700717.3137",
    "final_y": "534077.369157",
    "longitude": "-90.00729591674227",
    "latitude": "29.96193006105709",
    "geocoded_column": {
      "latitude": "29.96193006105709",
      "longitude": "-90.00729591674227"
    }
  },
  {
    "service_request": "2025-1162209",
    "request_type": "Traffic Signals",
    "request_reason": "Traffic Signal Malfunctioning or Damaged",
    "date_created": "2025-01-14T15:28:57.000",
    "date_modified": "2025-01-14T15:28:59.000",
    "request_status": "Pending",
    "responsible_agency": "Department of Public Works",
    "final_address": "DESIRE PKWY & CHEF MENTEUR HWY",
    "address_councildis": "D",
    "status": "Pending",
    "rowid": "1162209",
    "final_x": "3692027.1",
    "final_y": "550101.18",
    "longitude": "-90.03416442567848",
    "latitude": "30.00626344869749",
    "geocoded_column": {
      "latitude": "30.00626344869749",
      "longitude": "-90.03416442567848"
    }
  },
  {
    "service_request": "2025-1162208",
    "request_type": "Trash/Recycling",
    "request_reason": "Illegal Dumping",
    "date_created": "2025-01-14T15:28:48.000",
    "date_modified": "2025-01-14T15:28:50.000",
    "request_status": "Pending",
    "responsible_agency": "Department of Sanitation",
    "final_address": "6300 BLK N Robertson St",
    "address_councildis": "E",
    "status": "Pending",
    "rowid": "1162208",
    "final_x": "3700853.73441",
    "final_y": "534395.218727",
    "longitude": "-90.00685350488024",
    "latitude": "29.96279969177501",
    "geocoded_column": {
      "latitude": "29.96279969177501",
      "longitude": "-90.00685350488024"
    }
  },
  {
    "service_request": "2025-1162207",
    "request_type": "Roads and Streets",
    "request_reason": "Street Subsidence (Sinking)",
    "date_created": "2025-01-14T15:28:06.000",
    "date_modified": "2025-01-14T15:29:25.000",
    "request_status": "Pending",
    "responsible_agency": "Department of Public Works",
    "final_address": "738 Arabella St",
    "address_councildis": "A",
    "status": "Pending",
    "rowid": "1162207",
    "final_x": "3665784.02804",
    "final_y": "518903.393015",
    "longitude": "-90.1181184110953",
    "latitude": "29.92127186659227",
    "geocoded_column": {
      "latitude": "29.92127186659227",
      "longitude": "-90.1181184110953"
    }
  },
  {
    "service_request": "2025-1162206",
    "request_type": "Trash/Recycling",
    "request_reason": "Replace Recycling Cart",
    "date_created": "2025-01-14T15:26:48.000",
    "date_modified": "2025-01-14T15:26:52.000",
    "request_status": "Pending",
    "responsible_agency": "Department of Sanitation",
    "final_address": "24 Admiralty Ct",
    "address_councildis": "C",
    "status": "Pending",
    "rowid": "1162206",
    "final_x": "3703966.5395",
    "final_y": "522989.236219",
    "longitude": "-89.99744366905331",
    "latitude": "29.931337839741488",
    "geocoded_column": {
      "latitude": "29.931337839741488",
      "longitude": "-89.99744366905331"
    }
  },
  {
    "service_request": "2025-1162205",
    "request_type": "Trash/Recycling",
    "request_reason": "Request a Large Item Pick Up",
    "date_created": "2025-01-14T15:25:03.000",
    "date_modified": "2025-01-14T15:25:06.000",
    "request_status": "Pending",
    "responsible_agency": "Department of Sanitation",
    "final_address": "6951 Salem Dr",
    "address_councildis": "E",
    "status": "Assigned to Contractor",
    "contractor": "Waste Pro",
    "rowid": "1162205",
    "final_x": "3706843.40292",
    "final_y": "560546.028574",
    "longitude": "-89.98696874566974",
    "latitude": "30.034512503995305",
    "geocoded_column": {
      "latitude": "30.034512503995305",
      "longitude": "-89.98696874566974"
    }
  },
  {
    "service_request": "2025-1162204",
    "request_type": "Abandoned Vehicles",
    "request_reason": "Vehicle Blocking Your Driveway",
    "date_created": "2025-01-14T15:24:36.000",
    "date_modified": "2025-01-14T15:24:38.000",
    "request_status": "Pending",
    "responsible_agency": "Department of Public Works",
    "final_address": "301 S White St",
    "address_councildis": "B",
    "status": "Pending",
    "rowid": "1162204",
    "final_x": "3674313.05544",
    "final_y": "534803.115974",
    "longitude": "-90.0906517070814",
    "latitude": "29.964739408035033",
    "geocoded_column": {
      "latitude": "29.964739408035033",
      "longitude": "-90.0906517070814"
    }
  },
  {
    "service_request": "2025-1162203",
    "request_type": "Trash/Recycling",
    "request_reason": "Request a Large Item Pick Up",
    "date_created": "2025-01-14T15:24:32.000",
    "date_modified": "2025-01-14T15:24:35.000",
    "request_status": "Pending",
    "responsible_agency": "Department of Sanitation",
    "final_address": "18 Flamingo St",
    "address_councildis": "D",
    "status": "Assigned to Contractor",
    "contractor": "IV Waste",
    "rowid": "1162203",
    "final_x": "3674677.94977",
    "final_y": "555110.834137",
    "longitude": "-90.08880285481155",
    "latitude": "30.0205676725022",
    "geocoded_column": {
      "latitude": "30.0205676725022",
      "longitude": "-90.08880285481155"
    }
  },
  {
    "service_request": "2025-1162202",
    "request_type": "Healthy Homes",
    "request_reason": "Healthy Homes",
    "date_created": "2025-01-14T15:23:40.000",
    "date_modified": "2025-01-14T15:23:42.000",
    "request_status": "Pending",
    "responsible_agency": "Department of Code Enforcement",
    "final_address": "4227 Fontainebleau Dr",
    "address_councildis": "B",
    "status": "Pending",
    "rowid": "1162202",
    "final_x": "3669627.99758",
    "final_y": "529355.935681",
    "longitude": "-90.10563115366931",
    "latitude": "29.9499003390365",
    "geocoded_column": {
      "latitude": "29.9499003390365",
      "longitude": "-90.10563115366931"
    }
  },
  {
    "service_request": "2025-1162201",
    "request_type": "Healthy Homes",
    "request_reason": "Healthy Homes",
    "date_created": "2025-01-14T15:23:23.000",
    "date_modified": "2025-01-14T15:23:24.000",
    "request_status": "Pending",
    "responsible_agency": "Department of Code Enforcement",
    "final_address": "7340 Willowbrae Dr",
    "address_councildis": "E",
    "status": "Pending",
    "rowid": "1162201",
    "final_x": "3710832.19614",
    "final_y": "563810.412705",
    "longitude": "-89.97424136046918",
    "latitude": "30.04335878280408",
    "geocoded_column": {
      "latitude": "30.04335878280408",
      "longitude": "-89.97424136046918"
    }
  },
  {
    "service_request": "2025-1162200",
    "request_type": "Roads and Streets",
    "request_reason": "Curb Damage",
    "date_created": "2025-01-14T15:22:55.000",
    "date_modified": "2025-01-14T15:22:56.000",
    "request_status": "Pending",
    "responsible_agency": "Department of Public Works",
    "final_address": "3000 BLK Saint Charles Ave",
    "address_councildis": "B",
    "status": "Pending",
    "rowid": "1162200",
    "final_x": "3675098.09629",
    "final_y": "522022.124051",
    "longitude": "-90.08861104374294",
    "latitude": "29.92957247249933",
    "geocoded_column": {
      "latitude": "29.92957247249933",
      "longitude": "-90.08861104374294"
    }
  },
  {
    "service_request": "2025-1162199",
    "request_type": "Christmas Tree Recycle Pick Up",
    "request_reason": "Christmas Tree Recycle Pick Up",
    "date_created": "2025-01-14T15:21:23.000",
    "date_modified": "2025-01-14T15:21:25.000",
    "request_status": "Pending",
    "responsible_agency": "Office of Resilience and Sustainability",
    "final_address": "4631 Banks St",
    "address_councildis": "A",
    "status": "Pending",
    "contractor": "R&R Recycling",
    "rowid": "1162199",
    "final_x": "3668499.89633",
    "final_y": "538897.602954",
    "longitude": "-90.10887115589271",
    "latitude": "29.97616994957396",
    "geocoded_column": {
      "latitude": "29.97616994957396",
      "longitude": "-90.10887115589271"
    }
  },
  {
    "service_request": "2025-1162198",
    "request_type": "Trash/Recycling",
    "request_reason": "Missed Trash Pick-Up",
    "date_created": "2025-01-14T15:19:26.000",
    "date_modified": "2025-01-14T15:20:43.000",
    "request_status": "Pending",
    "responsible_agency": "Department of Sanitation",
    "final_address": "9015 Morrison Rd",
    "address_councildis": "E",
    "status": "Assigned to Contractor",
    "contractor": "Waste Pro",
    "rowid": "1162198",
    "final_x": "3705994.47217",
    "final_y": "562164.155423",
    "longitude": "-89.98959149829138",
    "latitude": "30.038989115045116",
    "geocoded_column": {
      "latitude": "30.038989115045116",
      "longitude": "-89.98959149829138"
    }
  },
  {
    "service_request": "2025-1162197",
    "request_type": "Trash/Recycling",
    "request_reason": "Request a Large Item Pick Up",
    "date_created": "2025-01-14T15:17:07.000",
    "date_modified": "2025-01-14T15:17:09.000",
    "request_status": "Pending",
    "responsible_agency": "Department of Sanitation",
    "final_address": "6535 Dwyer Rd",
    "address_councildis": "E",
    "status": "Assigned to Contractor",
    "contractor": "Waste Pro",
    "rowid": "1162197",
    "final_x": "3698732.97668",
    "final_y": "555535.020057",
    "longitude": "-90.01278118993862",
    "latitude": "30.020993692297825",
    "geocoded_column": {
      "latitude": "30.020993692297825",
      "longitude": "-90.01278118993862"
    }
  },
  {
    "service_request": "2025-1162196",
    "request_type": "Christmas Tree Recycle Pick Up",
    "request_reason": "Christmas Tree Recycle Pick Up",
    "date_created": "2025-01-14T15:16:13.000",
    "date_modified": "2025-01-14T15:16:14.000",
    "request_status": "Pending",
    "responsible_agency": "Office of Resilience and Sustainability",
    "final_address": "7615 Ebbtide Dr",
    "address_councildis": "E",
    "status": "Pending",
    "contractor": "R&R Recycling",
    "rowid": "1162196",
    "final_x": "3702266.20004",
    "final_y": "561479.389279",
    "longitude": "-90.00139896729617",
    "latitude": "30.03722596790005",
    "geocoded_column": {
      "latitude": "30.03722596790005",
      "longitude": "-90.00139896729617"
    }
  },
  {
    "service_request": "2025-1162195",
    "request_type": "Christmas Tree Recycle Pick Up",
    "request_reason": "Christmas Tree Recycle Pick Up",
    "date_created": "2025-01-14T15:15:41.000",
    "date_modified": "2025-01-14T15:15:43.000",
    "request_status": "Pending",
    "responsible_agency": "Office of Resilience and Sustainability",
    "final_address": "7609 Ebbtide Dr",
    "address_councildis": "E",
    "status": "Pending",
    "contractor": "R&R Recycling",
    "rowid": "1162195",
    "final_x": "3702288.83121",
    "final_y": "561425.012766",
    "longitude": "-90.00132944575947",
    "latitude": "30.037075730400463",
    "geocoded_column": {
      "latitude": "30.037075730400463",
      "longitude": "-90.00132944575947"
    }
  },
  {
    "service_request": "2025-1162194",
    "request_type": "Trash/Recycling",
    "request_reason": "Request a Large Item Pick Up",
    "date_created": "2025-01-14T15:12:13.000",
    "date_modified": "2025-01-14T15:12:14.000",
    "request_status": "Pending",
    "responsible_agency": "Department of Sanitation",
    "final_address": "14918 Emory Rd",
    "address_councildis": "E",
    "status": "Assigned to Contractor",
    "contractor": "Waste Pro",
    "rowid": "1162194",
    "final_x": "3720942.51686",
    "final_y": "574003.885226",
    "longitude": "-89.9418976971621",
    "latitude": "30.071052972499018",
    "geocoded_column": {
      "latitude": "30.071052972499018",
      "longitude": "-89.9418976971621"
    }
  },
  {
    "service_request": "2025-1162193",
    "request_type": "Trash/Recycling",
    "request_reason": "Request a Large Item Pick Up",
    "date_created": "2025-01-14T15:12:12.000",
    "date_modified": "2025-01-14T15:12:15.000",
    "request_status": "Pending",
    "responsible_agency": "Department of Sanitation",
    "final_address": "3221 Maurepas St",
    "address_councildis": "A",
    "status": "Assigned to Contractor",
    "contractor": "IV Waste",
    "rowid": "1162193",
    "final_x": "3675936.09761",
    "final_y": "540791.703307",
    "longitude": "-90.08532026594638",
    "latitude": "29.981157479731397",
    "geocoded_column": {
      "latitude": "29.981157479731397",
      "longitude": "-90.08532026594638"
    }
  },
  {
    "service_request": "2025-1162192",
    "request_type": "Trash/Recycling",
    "request_reason": "Repair Trash Cart",
    "date_created": "2025-01-14T15:11:10.000",
    "date_modified": "2025-01-14T15:11:13.000",
    "request_status": "Pending",
    "responsible_agency": "Department of Sanitation",
    "final_address": "1503 Elizardi Blvd",
    "address_councildis": "C",
    "status": "Assigned to Contractor",
    "contractor": "Richards Disposal",
    "rowid": "1162192",
    "final_x": "3694637.79626",
    "final_y": "525693.162877",
    "longitude": "-90.02679588127147",
    "latitude": "29.939068469038293",
    "geocoded_column": {
      "latitude": "29.939068469038293",
      "longitude": "-90.02679588127147"
    }
  },
  {
    "service_request": "2025-1162191",
    "request_type": "Trash/Recycling",
    "request_reason": "Illegal Dumping",
    "date_created": "2025-01-14T15:08:23.000",
    "date_modified": "2025-01-14T15:08:25.000",
    "request_status": "Pending",
    "responsible_agency": "Department of Sanitation",
    "final_address": "2033 Elizardi Blvd",
    "address_councildis": "C",
    "status": "Pending",
    "rowid": "1162191",
    "final_x": "3694635.30608",
    "final_y": "523002.158203",
    "longitude": "-90.02690060822982",
    "latitude": "29.93166920648576",
    "geocoded_column": {
      "latitude": "29.93166920648576",
      "longitude": "-90.02690060822982"
    }
  },
  {
    "service_request": "2025-1162190",
    "request_type": "Drainage",
    "request_reason": "Catch Basin Damaged",
    "date_created": "2025-01-14T14:59:06.000",
    "date_modified": "2025-01-14T14:59:10.000",
    "request_status": "Pending",
    "responsible_agency": "Department of Public Works",
    "final_address": "2719 Pine St",
    "address_councildis": "B",
    "status": "Pending",
    "rowid": "1162190",
    "final_x": "3667064.95809",
    "final_y": "531326.021954",
    "longitude": "-90.11365767177112",
    "latitude": "29.95539269486613",
    "geocoded_column": {
      "latitude": "29.95539269486613",
      "longitude": "-90.11365767177112"
    }
  },
  {
    "service_request": "2025-1162189",
    "request_type": "Property Maintenance",
    "request_reason": "Property Maintenance",
    "date_created": "2025-01-14T14:57:38.000",
    "date_modified": "2025-01-14T14:57:41.000",
    "request_status": "Pending",
    "responsible_agency": "Department of Code Enforcement",
    "final_address": "6000 BLK N Claiborne Ave",
    "address_councildis": "E",
    "status": "Pending",
    "rowid": "1162189",
    "final_x": "3699990.69939",
    "final_y": "535102.203205",
    "longitude": "-90.00955304796888",
    "latitude": "29.96477108921661",
    "geocoded_column": {
      "latitude": "29.96477108921661",
      "longitude": "-90.00955304796888"
    }
  },
  {
    "service_request": "2025-1162188",
    "request_type": "Trash/Recycling",
    "request_reason": "Request a Large Item Pick Up",
    "date_created": "2025-01-14T14:56:57.000",
    "date_modified": "2025-01-14T14:56:59.000",
    "request_status": "Pending",
    "responsible_agency": "Department of Sanitation",
    "final_address": "4432 Dale St",
    "address_councildis": "E",
    "status": "Assigned to Contractor",
    "contractor": "Waste Pro",
    "rowid": "1162188",
    "final_x": "3699539.12375",
    "final_y": "553367.330135",
    "longitude": "-90.01031309564974",
    "latitude": "30.01500779854892",
    "geocoded_column": {
      "latitude": "30.01500779854892",
      "longitude": "-90.01031309564974"
    }
  },
  {
    "service_request": "2025-1162187",
    "request_type": "Drainage",
    "request_reason": "Catch Basin Damaged",
    "date_created": "2025-01-14T14:51:50.000",
    "date_modified": "2025-01-14T14:51:52.000",
    "request_status": "Pending",
    "responsible_agency": "Department of Public Works",
    "final_address": "4219 Fontainebleau Dr",
    "address_councildis": "B",
    "status": "Pending",
    "rowid": "1162187",
    "final_x": "3669655.31892",
    "final_y": "529337.794753",
    "longitude": "-90.10554550106471",
    "latitude": "29.949849652474594",
    "geocoded_column": {
      "latitude": "29.949849652474594",
      "longitude": "-90.10554550106471"
    }
  },
  {
    "service_request": "2025-1162186",
    "request_type": "Trash/Recycling",
    "request_reason": "Illegal Dumping",
    "date_created": "2025-01-14T14:51:19.000",
    "date_modified": "2025-01-14T14:51:22.000",
    "request_status": "Pending",
    "responsible_agency": "Department of Sanitation",
    "final_address": "1215 Tricou St",
    "address_councildis": "E",
    "status": "Pending",
    "rowid": "1162186",
    "final_x": "3700344.91236",
    "final_y": "533491.35066",
    "longitude": "-90.00849329055343",
    "latitude": "29.960330564448675",
    "geocoded_column": {
      "latitude": "29.960330564448675",
      "longitude": "-90.00849329055343"
    }
  },
  {
    "service_request": "2025-1162185",
    "request_type": "Trash/Recycling",
    "request_reason": "Illegal Dumping",
    "date_created": "2025-01-14T14:47:20.000",
    "date_modified": "2025-01-14T14:47:21.000",
    "request_status": "Pending",
    "responsible_agency": "Department of Sanitation",
    "final_address": "BENEFIT ST & FRENCHMEN ST",
    "address_councildis": "D",
    "status": "Pending",
    "rowid": "1162185",
    "final_x": "3683940.2",
    "final_y": "544373.88",
    "longitude": "-90.05991399012376",
    "latitude": "29.990765063124663",
    "geocoded_column": {
      "latitude": "29.990765063124663",
      "longitude": "-90.05991399012376"
    }
  },
  {
    "service_request": "2025-1162184",
    "request_type": "Christmas Tree Recycle Pick Up",
    "request_reason": "Christmas Tree Recycle Pick Up",
    "date_created": "2025-01-14T14:44:25.000",
    "date_modified": "2025-01-14T14:44:26.000",
    "request_status": "Pending",
    "responsible_agency": "Office of Resilience and Sustainability",
    "final_address": "2929 Lafitte Ave",
    "address_councildis": "A",
    "status": "Pending",
    "contractor": "R&R Recycling",
    "rowid": "1162184",
    "final_x": "3675367.55509",
    "final_y": "537107.889864",
    "longitude": "-90.08724251355193",
    "latitude": "29.971045267547908",
    "geocoded_column": {
      "latitude": "29.971045267547908",
      "longitude": "-90.08724251355193"
    }
  },
  {
    "service_request": "2025-1162183",
    "request_type": "Trash/Recycling",
    "request_reason": "Order Recycling Cart",
    "date_created": "2025-01-14T14:42:28.000",
    "date_modified": "2025-01-14T14:42:30.000",
    "request_status": "Pending",
    "responsible_agency": "Department of Sanitation",
    "final_address": "6319 Magnolia St",
    "address_councildis": "A",
    "status": "Pending",
    "rowid": "1162183",
    "final_x": "3665778.41005",
    "final_y": "525495.819389",
    "longitude": "-90.11791541484867",
    "latitude": "29.939399114297505",
    "geocoded_column": {
      "latitude": "29.939399114297505",
      "longitude": "-90.11791541484867"
    }
  },
  {
    "service_request": "2025-1162182",
    "request_type": "Abandoned Vehicles",
    "request_reason": "Vehicle Blocking Your Driveway",
    "date_created": "2025-01-14T14:38:15.000",
    "date_modified": "2025-01-14T14:38:17.000",
    "request_status": "Pending",
    "responsible_agency": "Department of Public Works",
    "final_address": "914 Jena St, New Orleans, Louisiana, 70115",
    "address_councildis": "B",
    "status": "Pending",
    "rowid": "1162182",
    "final_x": "3670610.75035",
    "final_y": "518888.807223",
    "longitude": "-90.10288304028485",
    "latitude": "29.921090123150293",
    "geocoded_column": {
      "latitude": "29.921090123150293",
      "longitude": "-90.10288304028485"
    }
  },
  {
    "service_request": "2025-1162181",
    "request_type": "Trash/Recycling",
    "request_reason": "Return Trash Cart",
    "date_created": "2025-01-14T14:34:14.000",
    "date_modified": "2025-01-14T14:34:17.000",
    "request_status": "Pending",
    "responsible_agency": "Department of Sanitation",
    "final_address": "1926 Piety St",
    "address_councildis": "D",
    "status": "Assigned to Contractor",
    "contractor": "IV Waste",
    "rowid": "1162181",
    "final_x": "3690600.80681",
    "final_y": "539022.637258",
    "longitude": "-90.03906575802577",
    "latitude": "29.975845844072396",
    "geocoded_column": {
      "latitude": "29.975845844072396",
      "longitude": "-90.03906575802577"
    }
  },
  {
    "service_request": "2025-1162180",
    "request_type": "Trash/Recycling",
    "request_reason": "Request a Large Item Pick Up",
    "date_created": "2025-01-14T14:31:58.000",
    "date_modified": "2025-01-14T17:50:36.000",
    "case_close_date": "2025-01-14T11:50:33.000",
    "request_status": "Closed",
    "responsible_agency": "Department of Sanitation",
    "final_address": "10130 Chevy Chase Dr",
    "address_councildis": "E",
    "status": "Assigned to Contractor",
    "contractor": "Waste Pro",
    "contractor_action": "Additional information required from resident",
    "rowid": "1162180",
    "final_x": "3709934.62174",
    "final_y": "563042.533728",
    "longitude": "-89.97710677130692",
    "latitude": "30.041276665393905",
    "geocoded_column": {
      "latitude": "30.041276665393905",
      "longitude": "-89.97710677130692"
    }
  },
  {
    "service_request": "2025-1162179",
    "request_type": "Roads and Streets",
    "request_reason": "Street Subsidence (Sinking)",
    "date_created": "2025-01-14T14:31:05.000",
    "date_modified": "2025-01-14T14:31:08.000",
    "request_status": "Pending",
    "responsible_agency": "Department of Public Works",
    "final_address": "4350 Wellington Ave",
    "address_councildis": "D",
    "status": "Pending",
    "rowid": "1162179",
    "final_x": "3677150.58997",
    "final_y": "548461.972754",
    "longitude": "-90.08121961685012",
    "latitude": "30.002211609038202",
    "geocoded_column": {
      "latitude": "30.002211609038202",
      "longitude": "-90.08121961685012"
    }
  },
  {
    "service_request": "2025-1162178",
    "request_type": "Christmas Tree Recycle Pick Up",
    "request_reason": "Christmas Tree Recycle Pick Up",
    "date_created": "2025-01-14T14:29:47.000",
    "date_modified": "2025-01-14T14:29:49.000",
    "request_status": "Pending",
    "responsible_agency": "Office of Resilience and Sustainability",
    "final_address": "7839 Fig St",
    "address_councildis": "B",
    "status": "Pending",
    "contractor": "R&R Recycling",
    "rowid": "1162178",
    "final_x": "3666959.18977",
    "final_y": "532650.956164",
    "longitude": "-90.11394712896758",
    "latitude": "29.959038924889875",
    "geocoded_column": {
      "latitude": "29.959038924889875",
      "longitude": "-90.11394712896758"
    }
  },
  {
    "service_request": "2025-1162177",
    "request_type": "Trash/Recycling",
    "request_reason": "Replace Trash Cart",
    "date_created": "2025-01-14T14:28:58.000",
    "date_modified": "2025-01-14T14:29:00.000",
    "request_status": "Pending",
    "responsible_agency": "Department of Sanitation",
    "final_address": "1207 St Denis St",
    "address_councildis": "D",
    "status": "Assigned to Contractor",
    "contractor": "IV Waste",
    "rowid": "1162177",
    "final_x": "3676767.82504",
    "final_y": "545683.239248",
    "longitude": "-90.08252464280889",
    "latitude": "29.994582566271507",
    "geocoded_column": {
      "latitude": "29.994582566271507",
      "longitude": "-90.08252464280889"
    }
  },
  {
    "service_request": "2025-1162176",
    "request_type": "Trash/Recycling",
    "request_reason": "Request a Large Item Pick Up",
    "date_created": "2025-01-14T14:28:49.000",
    "date_modified": "2025-01-14T14:28:51.000",
    "request_status": "Pending",
    "responsible_agency": "Department of Sanitation",
    "final_address": "4443 Shalimar Dr",
    "address_councildis": "D",
    "status": "Assigned to Contractor",
    "contractor": "Waste Pro",
    "rowid": "1162176",
    "final_x": "3697390.06883",
    "final_y": "552722.754902",
    "longitude": "-90.01712644160338",
    "latitude": "30.013303512635044",
    "geocoded_column": {
      "latitude": "30.013303512635044",
      "longitude": "-90.01712644160338"
    }
  },
  {
    "service_request": "2025-1162175",
    "request_type": "Property Maintenance",
    "request_reason": "Property Maintenance",
    "date_created": "2025-01-14T14:25:39.000",
    "date_modified": "2025-01-14T14:25:41.000",
    "request_status": "Pending",
    "responsible_agency": "Department of Code Enforcement",
    "final_address": "2511 Third St",
    "address_councildis": "B",
    "status": "Pending",
    "rowid": "1162175",
    "final_x": "3674594.49396",
    "final_y": "525730.075965",
    "longitude": "-90.09007382250981",
    "latitude": "29.939783165876946",
    "geocoded_column": {
      "latitude": "29.939783165876946",
      "longitude": "-90.09007382250981"
    }
  },
  {
    "service_request": "2025-1162174",
    "request_type": "Roads and Streets",
    "request_reason": "Street Subsidence (Sinking)",
    "date_created": "2025-01-14T14:24:13.000",
    "date_modified": "2025-01-14T14:24:15.000",
    "request_status": "Pending",
    "responsible_agency": "Department of Public Works",
    "final_address": "1231 St Roch Ave",
    "address_councildis": "C",
    "status": "Pending",
    "rowid": "1162174",
    "final_x": "3686607.1791",
    "final_y": "537048.569096",
    "longitude": "-90.05174847250896",
    "latitude": "29.970541279099926",
    "geocoded_column": {
      "latitude": "29.970541279099926",
      "longitude": "-90.05174847250896"
    }
  },
  {
    "service_request": "2025-1162173",
    "request_type": "Drainage",
    "request_reason": "Catch Basin Clogged",
    "date_created": "2025-01-14T14:23:34.000",
    "date_modified": "2025-01-14T14:29:37.000",
    "request_status": "Pending",
    "responsible_agency": "Department of Public Works",
    "final_address": "6757 Deanne St",
    "address_councildis": "D",
    "status": "Pending",
    "rowid": "1162173",
    "final_x": "3695975.38294",
    "final_y": "555687.789593",
    "longitude": "-90.02148882506809",
    "latitude": "30.02150084725312",
    "geocoded_column": {
      "latitude": "30.02150084725312",
      "longitude": "-90.02148882506809"
    }
  },
  {
    "service_request": "2025-1162172",
    "request_type": "Christmas Tree Recycle Pick Up",
    "request_reason": "Christmas Tree Recycle Pick Up",
    "date_created": "2025-01-14T14:17:04.000",
    "date_modified": "2025-01-14T14:17:06.000",
    "request_status": "Pending",
    "responsible_agency": "Office of Resilience and Sustainability",
    "final_address": "2465 Burgundy St",
    "address_councildis": "C",
    "status": "Pending",
    "contractor": "R&R Recycling",
    "rowid": "1162172",
    "final_x": "3686388.74684",
    "final_y": "535722.918855",
    "longitude": "-90.05248510373882",
    "latitude": "29.96690291857215",
    "geocoded_column": {
      "latitude": "29.96690291857215",
      "longitude": "-90.05248510373882"
    }
  },
  {
    "service_request": "2025-1162171",
    "request_type": "Trash/Recycling",
    "request_reason": "Replace Recycling Cart",
    "date_created": "2025-01-14T14:16:03.000",
    "date_modified": "2025-01-14T14:16:05.000",
    "request_status": "Pending",
    "responsible_agency": "Department of Sanitation",
    "final_address": "1715 Richland Rd",
    "address_councildis": "C",
    "status": "Pending",
    "rowid": "1162171",
    "final_x": "3697820.95299",
    "final_y": "524711.570748",
    "longitude": "-90.01678193765017",
    "latitude": "29.936269245668818",
    "geocoded_column": {
      "latitude": "29.936269245668818",
      "longitude": "-90.01678193765017"
    }
  },
  {
    "service_request": "2025-1162170",
    "request_type": "Roads and Streets",
    "request_reason": "Sidewalk Damaged or Missing",
    "date_created": "2025-01-14T14:13:50.000",
    "date_modified": "2025-01-14T14:13:52.000",
    "request_status": "Pending",
    "responsible_agency": "Department of Public Works",
    "final_address": "4532 Perlita St",
    "address_councildis": "D",
    "status": "Pending",
    "rowid": "1162170",
    "final_x": "3678649.75406",
    "final_y": "549384.999123",
    "longitude": "-90.07645159339715",
    "latitude": "30.004704472857355",
    "geocoded_column": {
      "latitude": "30.004704472857355",
      "longitude": "-90.07645159339715"
    }
  },
  {
    "service_request": "2025-1162169",
    "request_type": "Trash/Recycling",
    "request_reason": "Request a Large Item Pick Up",
    "date_created": "2025-01-14T14:11:59.000",
    "date_modified": "2025-01-14T14:12:01.000",
    "request_status": "Pending",
    "responsible_agency": "Department of Sanitation",
    "final_address": "3120 Jefferson Ave",
    "address_councildis": "A",
    "status": "Assigned to Contractor",
    "contractor": "IV Waste",
    "rowid": "1162169",
    "final_x": "3668432.73626",
    "final_y": "526813.845502",
    "longitude": "-90.10949088871412",
    "latitude": "29.94294557655131",
    "geocoded_column": {
      "latitude": "29.94294557655131",
      "longitude": "-90.10949088871412"
    }
  },
  {
    "service_request": "2025-1162168",
    "request_type": "Trash/Recycling",
    "request_reason": "Illegal Dumping",
    "date_created": "2025-01-14T14:08:28.000",
    "date_modified": "2025-01-14T14:08:55.000",
    "request_status": "Pending",
    "responsible_agency": "Department of Sanitation",
    "final_address": "7621 Dalewood Rd",
    "address_councildis": "E",
    "status": "Pending",
    "rowid": "1162168",
    "final_x": "3700010.80464",
    "final_y": "560469.53443",
    "longitude": "-90.00856338221682",
    "latitude": "30.03452115309496",
    "geocoded_column": {
      "latitude": "30.03452115309496",
      "longitude": "-90.00856338221682"
    }
  },
  {
    "service_request": "2025-1162167",
    "request_type": "Trash/Recycling",
    "request_reason": "Request a Large Item Pick Up",
    "date_created": "2025-01-14T14:04:19.000",
    "date_modified": "2025-01-14T14:04:22.000",
    "request_status": "Pending",
    "responsible_agency": "Department of Sanitation",
    "final_address": "150 Pinehurst Ct",
    "address_councildis": "E",
    "status": "Assigned to Contractor",
    "contractor": "Waste Pro",
    "rowid": "1162167",
    "final_x": "3720290.09772",
    "final_y": "564448.870753",
    "longitude": "-89.94432632712407",
    "latitude": "30.04480243375786",
    "geocoded_column": {
      "latitude": "30.04480243375786",
      "longitude": "-89.94432632712407"
    }
  },
  {
    "service_request": "2025-1162166",
    "request_type": "Trash/Recycling",
    "request_reason": "Request a Large Item Pick Up",
    "date_created": "2025-01-14T14:00:39.000",
    "date_modified": "2025-01-14T14:00:51.000",
    "request_status": "Pending",
    "responsible_agency": "Department of Sanitation",
    "final_address": "7524 Devine Ave",
    "address_councildis": "E",
    "status": "Assigned to Contractor",
    "contractor": "Waste Pro",
    "rowid": "1162166",
    "final_x": "3705731.49617",
    "final_y": "562779.225504",
    "longitude": "-89.99039978884545",
    "latitude": "30.04068879169362",
    "geocoded_column": {
      "latitude": "30.04068879169362",
      "longitude": "-89.99039978884545"
    }
  },
  {
    "service_request": "2025-1162165",
    "request_type": "Abandoned Vehicles",
    "request_reason": "Abandoned/Junk Vehicles",
    "date_created": "2025-01-14T14:00:02.000",
    "date_modified": "2025-01-14T14:00:05.000",
    "request_status": "Pending",
    "responsible_agency": "Department of Public Works",
    "final_address": "PALMETTO ST & LIVE OAK ST",
    "address_councildis": "A",
    "status": "Pending",
    "rowid": "1162165",
    "final_x": "3664730.0",
    "final_y": "538213.78",
    "longitude": "-90.1208005030649",
    "latitude": "29.97439989750398",
    "geocoded_column": {
      "latitude": "29.97439989750398",
      "longitude": "-90.1208005030649"
    }
  },
  {
    "service_request": "2025-1162164",
    "request_type": "Trash/Recycling",
    "request_reason": "Request a Large Item Pick Up",
    "date_created": "2025-01-14T13:57:37.000",
    "date_modified": "2025-01-14T13:57:40.000",
    "request_status": "Pending",
    "responsible_agency": "Department of Sanitation",
    "final_address": "11299 Midpoint Dr",
    "address_councildis": "E",
    "status": "Assigned to Contractor",
    "contractor": "Waste Pro",
    "rowid": "1162164",
    "final_x": "3718522.94738",
    "final_y": "559684.433053",
    "longitude": "-89.95009305512761",
    "latitude": "30.031760948250856",
    "geocoded_column": {
      "latitude": "30.031760948250856",
      "longitude": "-89.95009305512761"
    }
  },
  {
    "service_request": "2025-1162163",
    "request_type": "Trash/Recycling",
    "request_reason": "Dead Animal Pick Up",
    "date_created": "2025-01-14T13:54:57.000",
    "date_modified": "2025-01-14T13:55:00.000",
    "request_status": "Pending",
    "responsible_agency": "Department of Sanitation",
    "final_address": "1300 Mandeville St",
    "address_councildis": "C",
    "status": "Assigned to Contractor",
    "contractor": "IV Waste",
    "rowid": "1162163",
    "final_x": "3685684.55676",
    "final_y": "537133.233224",
    "longitude": "-90.05465923139856",
    "latitude": "29.970802418005007",
    "geocoded_column": {
      "latitude": "29.970802418005007",
      "longitude": "-90.05465923139856"
    }
  },
  {
    "service_request": "2025-1162162",
    "request_type": "Trash/Recycling",
    "request_reason": "Missed Trash Pick-Up",
    "date_created": "2025-01-14T13:49:46.000",
    "date_modified": "2025-01-14T13:49:48.000",
    "request_status": "Pending",
    "responsible_agency": "Department of Sanitation",
    "final_address": "2567 Valentine Ct",
    "address_councildis": "C",
    "status": "Assigned to Contractor",
    "contractor": "Richards Disposal",
    "rowid": "1162162",
    "final_x": "3699059.57706",
    "final_y": "521756.981434",
    "longitude": "-90.01297906967523",
    "latitude": "29.928105955323996",
    "geocoded_column": {
      "latitude": "29.928105955323996",
      "longitude": "-90.01297906967523"
    }
  },
  {
    "service_request": "2025-1162161",
    "request_type": "Safety & Permits",
    "request_reason": "Zoning Enforcement",
    "date_created": "2025-01-14T13:49:03.000",
    "date_modified": "2025-01-14T13:49:05.000",
    "request_status": "Pending",
    "responsible_agency": "Safety and Permits",
    "final_address": "1600 BLK Choctaw St",
    "address_councildis": "E",
    "status": "Pending",
    "rowid": "1162161",
    "final_x": "3697992.93305",
    "final_y": "535949.668374",
    "longitude": "-90.01583105263215",
    "latitude": "29.967164626559274",
    "geocoded_column": {
      "latitude": "29.967164626559274",
      "longitude": "-90.01583105263215"
    }
  },
  {
    "service_request": "2025-1162160",
    "request_type": "Trash/Recycling",
    "request_reason": "Request a Large Item Pick Up",
    "date_created": "2025-01-14T13:48:52.000",
    "date_modified": "2025-01-14T13:48:55.000",
    "request_status": "Pending",
    "responsible_agency": "Department of Sanitation",
    "final_address": "7001 Pritchard Pl",
    "address_councildis": "B",
    "status": "Assigned to Contractor",
    "contractor": "IV Waste",
    "rowid": "1162160",
    "final_x": "3668022.26465",
    "final_y": "531150.461698",
    "longitude": "-90.11064075078282",
    "latitude": "29.95488190809175",
    "geocoded_column": {
      "latitude": "29.95488190809175",
      "longitude": "-90.11064075078282"
    }
  },
  {
    "service_request": "2025-1162159",
    "request_type": "Trash/Recycling",
    "request_reason": "Illegal Dumping",
    "date_created": "2025-01-14T13:47:33.000",
    "date_modified": "2025-01-14T13:47:34.000",
    "request_status": "Pending",
    "responsible_agency": "Department of Sanitation",
    "final_address": "1400 BLK Thayer St",
    "address_councildis": "C",
    "status": "Pending",
    "rowid": "1162159",
    "final_x": "3689363.44932",
    "final_y": "526189.4146",
    "longitude": "-90.0434299397693",
    "latitude": "29.940597304843344",
    "geocoded_column": {
      "latitude": "29.940597304843344",
      "longitude": "-90.0434299397693"
    }
  },
  {
    "service_request": "2025-1162158",
    "request_type": "Trash/Recycling",
    "request_reason": "Request a Large Item Pick Up",
    "date_created": "2025-01-14T13:47:16.000",
    "date_modified": "2025-01-14T13:47:19.000",
    "request_status": "Pending",
    "responsible_agency": "Department of Sanitation",
    "final_address": "2567 Valentine Ct",
    "address_councildis": "C",
    "status": "Assigned to Contractor",
    "contractor": "Richards Disposal",
    "rowid": "1162158",
    "final_x": "3699059.57706",
    "final_y": "521756.981434",
    "longitude": "-90.01297906967523",
    "latitude": "29.928105955323996",
    "geocoded_column": {
      "latitude": "29.928105955323996",
      "longitude": "-90.01297906967523"
    }
  },
  {
    "service_request": "2025-1162157",
    "request_type": "Trash/Recycling",
    "request_reason": "Return Recycling Cart",
    "date_created": "2025-01-14T13:46:47.000",
    "date_modified": "2025-01-14T13:46:49.000",
    "request_status": "Pending",
    "responsible_agency": "Department of Sanitation",
    "final_address": "4439 S Galvez St",
    "address_councildis": "B",
    "status": "Pending",
    "rowid": "1162157",
    "final_x": "3669834.80718",
    "final_y": "527558.100735",
    "longitude": "-90.10503900906916",
    "latitude": "29.94495078528489",
    "geocoded_column": {
      "latitude": "29.94495078528489",
      "longitude": "-90.10503900906916"
    }
  },
  {
    "service_request": "2025-1162156",
    "request_type": "Trash/Recycling",
    "request_reason": "Missed Trash Pick-Up",
    "date_created": "2025-01-14T13:45:22.000",
    "date_modified": "2025-01-14T13:45:25.000",
    "request_status": "Pending",
    "responsible_agency": "Department of Sanitation",
    "final_address": "10931 Kinneil Rd",
    "address_councildis": "E",
    "status": "Assigned to Contractor",
    "contractor": "Waste Pro",
    "rowid": "1162156",
    "final_x": "3711385.83154",
    "final_y": "564347.671393",
    "longitude": "-89.9724714906061",
    "latitude": "30.0448179604578",
    "geocoded_column": {
      "latitude": "30.0448179604578",
      "longitude": "-89.9724714906061"
    }
  },
  {
    "service_request": "2025-1162155",
    "request_type": "Trash/Recycling",
    "request_reason": "Request a Large Item Pick Up",
    "date_created": "2025-01-14T13:44:45.000",
    "date_modified": "2025-01-14T13:44:48.000",
    "request_status": "Pending",
    "responsible_agency": "Department of Sanitation",
    "final_address": "7251 Bunker Hill Rd",
    "address_councildis": "E",
    "status": "Assigned to Contractor",
    "contractor": "Waste Pro",
    "rowid": "1162155",
    "final_x": "3705500.06705",
    "final_y": "561326.663518",
    "longitude": "-89.99118494744629",
    "latitude": "30.036702275360174",
    "geocoded_column": {
      "latitude": "30.036702275360174",
      "longitude": "-89.99118494744629"
    }
  },
  {
    "service_request": "2025-1162154",
    "request_type": "Roads and Streets",
    "request_reason": "Pothole",
    "date_created": "2025-01-14T13:44:16.000",
    "date_modified": "2025-01-14T13:44:18.000",
    "request_status": "Pending",
    "responsible_agency": "Department of Public Works",
    "final_address": "6300 BLK Clara St",
    "address_councildis": "A",
    "status": "Pending",
    "rowid": "1162154",
    "final_x": "3665938.31408",
    "final_y": "525756.739941",
    "longitude": "-90.11740183343137",
    "latitude": "29.94011189743035",
    "geocoded_column": {
      "latitude": "29.94011189743035",
      "longitude": "-90.11740183343137"
    }
  },
  {
    "service_request": "2025-1162153",
    "request_type": "Abandoned Vehicles",
    "request_reason": "Abandoned/Junk Vehicles",
    "date_created": "2025-01-14T13:42:53.000",
    "date_modified": "2025-01-14T13:42:56.000",
    "request_status": "Pending",
    "responsible_agency": "Department of Public Works",
    "final_address": "4422 Cleveland Ave",
    "address_councildis": "A",
    "status": "Pending",
    "rowid": "1162153",
    "final_x": "3669490.27719",
    "final_y": "538998.749002",
    "longitude": "-90.10573981027383",
    "latitude": "29.976418929309187",
    "geocoded_column": {
      "latitude": "29.976418929309187",
      "longitude": "-90.10573981027383"
    }
  },
  {
    "service_request": "2025-1162152",
    "request_type": "Trash/Recycling",
    "request_reason": "Request a Large Item Pick Up",
    "date_created": "2025-01-14T13:39:08.000",
    "date_modified": "2025-01-14T13:39:10.000",
    "request_status": "Pending",
    "responsible_agency": "Department of Sanitation",
    "final_address": "5311 Painters St",
    "address_councildis": "D",
    "status": "Assigned to Contractor",
    "contractor": "IV Waste",
    "rowid": "1162152",
    "final_x": "3686155.13359",
    "final_y": "552336.770582",
    "longitude": "-90.05263643879887",
    "latitude": "30.012592263054707",
    "geocoded_column": {
      "latitude": "30.012592263054707",
      "longitude": "-90.05263643879887"
    }
  },
  {
    "service_request": "2025-1162151",
    "request_type": "Trash/Recycling",
    "request_reason": "Replace Trash Cart",
    "date_created": "2025-01-14T13:37:08.000",
    "date_modified": "2025-01-14T13:37:09.000",
    "request_status": "Pending",
    "responsible_agency": "Department of Sanitation",
    "final_address": "4734 Chestnut St",
    "address_councildis": "B",
    "status": "Assigned to Contractor",
    "contractor": "IV Waste",
    "rowid": "1162151",
    "final_x": "3669591.39329",
    "final_y": "519341.982135",
    "longitude": "-90.10608538172208",
    "latitude": "29.922366269954782",
    "geocoded_column": {
      "latitude": "29.922366269954782",
      "longitude": "-90.10608538172208"
    }
  },
  {
    "service_request": "2025-1162150",
    "request_type": "Trash/Recycling",
    "request_reason": "Request a Large Item Pick Up",
    "date_created": "2025-01-14T13:36:49.000",
    "date_modified": "2025-01-14T13:36:51.000",
    "request_status": "Pending",
    "responsible_agency": "Department of Sanitation",
    "final_address": "4318 Annunciation St",
    "address_councildis": "B",
    "status": "Assigned to Contractor",
    "contractor": "IV Waste",
    "rowid": "1162150",
    "final_x": "3671405.59195",
    "final_y": "517740.400822",
    "longitude": "-90.10041308079752",
    "latitude": "29.9179088768141",
    "geocoded_column": {
      "latitude": "29.9179088768141",
      "longitude": "-90.10041308079752"
    }
  },
  {
    "service_request": "2025-1162149",
    "request_type": "Abandoned Vehicles",
    "request_reason": "Abandoned/Junk Vehicles",
    "date_created": "2025-01-14T13:36:37.000",
    "date_modified": "2025-01-14T13:36:38.000",
    "request_status": "Closed",
    "responsible_agency": "Department of Public Works",
    "final_address": "4417 Cleveland Ave",
    "address_councildis": "A",
    "status": "Pending",
    "rowid": "1162149",
    "final_x": "3669618.42414",
    "final_y": "538988.93313",
    "longitude": "-90.1053354145787",
    "latitude": "29.976388163348744",
    "geocoded_column": {
      "latitude": "29.976388163348744",
      "longitude": "-90.1053354145787"
    }
  },
  {
    "service_request": "2025-1162148",
    "request_type": "Roads and Streets",
    "request_reason": "Pothole",
    "date_created": "2025-01-14T13:34:18.000",
    "date_modified": "2025-01-14T13:34:20.000",
    "request_status": "Pending",
    "responsible_agency": "Department of Public Works",
    "final_address": "1527 Gordon St",
    "address_councildis": "E",
    "status": "Pending",
    "rowid": "1162148",
    "final_x": "3699839.73648",
    "final_y": "535038.846662",
    "longitude": "-90.01003208635008",
    "latitude": "29.964601676130044",
    "geocoded_column": {
      "latitude": "29.964601676130044",
      "longitude": "-90.01003208635008"
    }
  },
  {
    "service_request": "2025-1162147",
    "request_type": "Trash/Recycling",
    "request_reason": "Replace Trash Cart",
    "date_created": "2025-01-14T13:33:03.000",
    "date_modified": "2025-01-14T13:33:04.000",
    "request_status": "Pending",
    "responsible_agency": "Department of Sanitation",
    "final_address": "934 Lowerline St",
    "address_councildis": "A",
    "status": "Assigned to Contractor",
    "contractor": "IV Waste",
    "rowid": "1162147",
    "final_x": "3663220.68999",
    "final_y": "526213.879934",
    "longitude": "-90.1259666221192",
    "latitude": "29.941447903729415",
    "geocoded_column": {
      "latitude": "29.941447903729415",
      "longitude": "-90.1259666221192"
    }
  },
  {
    "service_request": "2025-1162146",
    "request_type": "Trash/Recycling",
    "request_reason": "Request a Large Item Pick Up",
    "date_created": "2025-01-14T13:32:20.000",
    "date_modified": "2025-01-14T13:32:22.000",
    "request_status": "Pending",
    "responsible_agency": "Department of Sanitation",
    "final_address": "2423 Milan St",
    "address_councildis": "B",
    "status": "Assigned to Contractor",
    "contractor": "IV Waste",
    "rowid": "1162146",
    "final_x": "3671335.97889",
    "final_y": "523992.56838",
    "longitude": "-90.10042046839493",
    "latitude": "29.935102396679675",
    "geocoded_column": {
      "latitude": "29.935102396679675",
      "longitude": "-90.10042046839493"
    }
  },
  {
    "service_request": "2025-1162145",
    "request_type": "Drainage",
    "request_reason": "Catch Basin Clogged",
    "date_created": "2025-01-14T13:28:04.000",
    "date_modified": "2025-01-14T13:28:35.000",
    "case_close_date": "2025-01-14T07:28:34.000",
    "request_status": "Closed",
    "responsible_agency": "Department of Public Works",
    "final_address": "2633 Washington Ave",
    "address_councildis": "B",
    "status": "Resolved",
    "rowid": "1162145",
    "final_x": "3673803.1307",
    "final_y": "525810.095869",
    "longitude": "-90.09256953776678",
    "latitude": "29.940026780634128",
    "geocoded_column": {
      "latitude": "29.940026780634128",
      "longitude": "-90.09256953776678"
    }
  },
  {
    "service_request": "2025-1162144",
    "request_type": "Drainage",
    "request_reason": "Catch Basin Clogged",
    "date_created": "2025-01-14T13:26:36.000",
    "date_modified": "2025-01-14T13:26:59.000",
    "case_close_date": "2025-01-14T07:26:58.000",
    "request_status": "Closed",
    "responsible_agency": "Department of Public Works",
    "final_address": "2731 Washington Ave",
    "address_councildis": "B",
    "status": "Resolved",
    "rowid": "1162144",
    "final_x": "3673629.43272",
    "final_y": "526075.02771",
    "longitude": "-90.0931088760762",
    "latitude": "29.940760427238654",
    "geocoded_column": {
      "latitude": "29.940760427238654",
      "longitude": "-90.0931088760762"
    }
  },
  {
    "service_request": "2025-1162143",
    "request_type": "Roads and Streets",
    "request_reason": "Street Subsidence (Sinking)",
    "date_created": "2025-01-14T13:25:44.000",
    "date_modified": "2025-01-14T13:25:46.000",
    "request_status": "Pending",
    "responsible_agency": "Department of Public Works",
    "final_address": "1712 Industry St",
    "address_councildis": "D",
    "status": "Pending",
    "rowid": "1162143",
    "final_x": "3680823.12034",
    "final_y": "542607.568013",
    "longitude": "-90.06982160340709",
    "latitude": "29.986003209543874",
    "geocoded_column": {
      "latitude": "29.986003209543874",
      "longitude": "-90.06982160340709"
    }
  },
  {
    "service_request": "2025-1162142",
    "request_type": "Trash/Recycling",
    "request_reason": "Request a Large Item Pick Up",
    "date_created": "2025-01-14T13:25:40.000",
    "date_modified": "2025-01-14T13:25:42.000",
    "request_status": "Pending",
    "responsible_agency": "Department of Sanitation",
    "final_address": "2331 DAbadie St",
    "address_councildis": "D",
    "status": "Assigned to Contractor",
    "contractor": "IV Waste",
    "rowid": "1162142",
    "final_x": "3680490.97339",
    "final_y": "540058.805259",
    "longitude": "-90.07095941703658",
    "latitude": "29.979005067824808",
    "geocoded_column": {
      "latitude": "29.979005067824808",
      "longitude": "-90.07095941703658"
    }
  },