[
  {
    "service_request": "2026-1258648",
    "request_type": "Trash/Recycling",
    "request_reason": "Request a Large Item Pick Up",
    "date_created": "2026-02-15T23:45:53.000",
    "date_modified": "2026-02-15T23:45:55.000",
    "request_status": "Pending",
    "responsible_agency": "Department of Sanitation",
    "final_address": "14500 Beekman Rd",
    "address_councildis": "E",
    "status": "Assigned to Contractor",
    "contractor": "Waste Pro",
    "rowid": "1258648",
    "final_x": "3720786.10393",
    "final_y": "572758.553577",
    "longitude": "-89.94243994685621",
    "latitude": "30.067634058513985",
    "geocoded_column": {
      "latitude": "30.067634058513985",
      "longitude": "-89.94243994685621"
    }
  },
  {
    "service_request": "2026-1258647",
    "request_type": "General Services",
    "request_reason": "General Service Request",
    "date_created": "2026-02-15T23:37:32.000",
    "date_modified": "2026-02-15T23:37:34.000",
    "request_status": "Pending",
    "responsible_agency": "Orleans Parish Communication District",
    "final_address": "7731 Panola St",
    "address_councildis": "A",
    "status": "Pending",
    "rowid": "1258647",
    "final_x": "3665040.31111",
    "final_y": "529959.024577",
    "longitude": "-90.1200965019609",
    "latitude": "29.9516929991974",
    "geocoded_column": {
      "latitude": "29.9516929991974",
      "longitude": "-90.1200965019609"
    }
  },
  {
    "service_request": "2026-1258646",
    "request_type": "Safety & Permits",
    "request_reason": "Zoning Enforcement",
    "date_created": "2026-02-15T22:43:47.000",
    "date_modified": "2026-02-15T22:43:50.000",
    "request_status": "Pending",
    "responsible_agency": "Safety and Permits",
    "final_address": "6871 General Diaz St",
    "address_councildis": "A",
    "status": "Pending",
    "rowid": "1258646",
    "final_x": "3670106.80698",
    "final_y": "553106.839319",
    "longitude": "-90.10331430718954",
    "latitude": "30.015193121918436",
    "geocoded_column": {
      "latitude": "30.015193121918436",
      "longitude": "-90.10331430718954"
    }
  },
  {
    "service_request": "2026-1258645",
    "request_type": "Roads and Streets",
    "request_reason": "Street Subsidence (Sinking)",
    "date_created": "2026-02-15T21:46:17.000",
    "date_modified": "2026-02-15T21:46:19.000",
    "request_status": "Pending",
    "responsible_agency": "Sewerage & Water Board",
    "final_address": "1820 Camp St",
    "address_councildis": "B",
    "status": "Pending",
    "rowid": "1258645",
    "final_x": "3679522.81461",
    "final_y": "523156.052539",
    "longitude": "-90.07460368362243",
    "latitude": "29.93255749746344",
    "geocoded_column": {
      "latitude": "29.93255749746344",
      "longitude": "-90.07460368362243"
    }
  },
  {
    "service_request": "2026-1258644",
    "request_type": "General Services",
    "request_reason": "General Service Request",
    "date_created": "2026-02-15T20:59:08.000",
    "date_modified": "2026-02-15T20:59:11.000",
    "request_status": "Pending",
    "responsible_agency": "Orleans Parish Communication District",
    "final_address": "2000 Earhart Blvd",
    "address_councildis": "B",
    "status": "Pending",
    "rowid": "1258644",
    "final_x": "3678075.43266",
    "final_y": "527571.601215",
    "longitude": "-90.07902035474025",
    "latitude": "29.94474243946236",
    "geocoded_column": {
      "latitude": "29.94474243946236",
      "longitude": "-90.07902035474025"
    }
  },
  {
    "service_request": "2026-1258643",
    "request_type": "Trash/Recycling",
    "request_reason": "Damaged Caused By Contractor",
    "date_created": "2026-02-15T20:15:05.000",
    "date_modified": "2026-02-15T20:15:07.000",
    "request_status": "Pending",
    "responsible_agency": "Department of Sanitation",
    "final_address": "105 Brunswick Ct",
    "address_councildis": "C",
    "status": "Assigned to Contractor",
    "contractor": "Richards Disposal",
    "rowid": "1258643",
    "final_x": "3705719.5427",
    "final_y": "516976.637493",
    "longitude": "-89.99213187306889",
    "latitude": "29.91474897250017",
    "geocoded_column": {
      "latitude": "29.91474897250017",
      "longitude": "-89.99213187306889"
    }
  },
  {
    "service_request": "2026-1258642",
    "request_type": "Abandoned Vehicles",
    "request_reason": "Abandoned/Junk Vehicles",
    "date_created": "2026-02-15T18:28:37.000",
    "date_modified": "2026-02-15T18:28:46.000",
    "request_status": "Pending",
    "responsible_agency": "Department of Public Works",
    "final_address": "1300 Prytania St",
    "address_councildis": "B",
    "status": "Pending",
    "rowid": "1258642",
    "final_x": "3679991.23759",
    "final_y": "525711.046717",
    "longitude": "-90.07303619689449",
    "latitude": "29.939568729584096",
    "geocoded_column": {
      "latitude": "29.939568729584096",
      "longitude": "-90.07303619689449"
    }
  },
  {
    "service_request": "2026-1258641",
    "request_type": "Property Maintenance",
    "request_reason": "Property Maintenance",
    "date_created": "2026-02-15T18:17:30.000",
    "date_modified": "2026-02-15T18:17:31.000",
    "request_status": "Pending",
    "responsible_agency": "Department of Code Enforcement",
    "final_address": "1801 St Charles Ave",
    "address_councildis": "B",
    "status": "Pending",
    "rowid": "1258641",
    "final_x": "3678486.06101",
    "final_y": "524521.537532",
    "longitude": "-90.07782939376601",
    "latitude": "29.936343407532053",
    "geocoded_column": {
      "latitude": "29.936343407532053",
      "longitude": "-90.07782939376601"
    }
  },
  {
    "service_request": "2026-1258640",
    "request_type": "Trash/Recycling",
    "request_reason": "Request a Large Item Pick Up",
    "date_created": "2026-02-15T17:26:05.000",
    "date_modified": "2026-02-15T17:26:16.000",
    "request_status": "Pending",
    "responsible_agency": "Department of Sanitation",
    "final_address": "0 BLK Admiralty Ct",
    "address_councildis": "C",
    "status": "Assigned to Contractor",
    "contractor": "Richards Disposal",
    "rowid": "1258640",
    "final_x": "3704031.03777",
    "final_y": "523040.620373",
    "longitude": "-89.99723816614093",
    "latitude": "29.931477060413563",
    "geocoded_column": {
      "latitude": "29.931477060413563",
      "longitude": "-89.99723816614093"
    }
  },
  {
    "service_request": "2026-1258639",
    "request_type": "Trash/Recycling",
    "request_reason": "Request a Large Item Pick Up",
    "date_created": "2026-02-15T16:51:38.000",
    "date_modified": "2026-02-15T16:51:46.000",
    "request_status": "Pending",
    "responsible_agency": "Department of Sanitation",
    "final_address": "3013 Hyman Pl",
    "address_councildis": "C",
    "status": "Assigned to Contractor",
    "contractor": "Richards Disposal",
    "rowid": "1258639",
    "final_x": "3700952.24349",
    "final_y": "520050.60812",
    "longitude": "-90.00706673886198",
    "latitude": "29.92335391308665",
    "geocoded_column": {
      "latitude": "29.92335391308665",
      "longitude": "-90.00706673886198"
    }
  },
  {
    "service_request": "2026-1258638",
    "request_type": "Parks & Parkways",
    "request_reason": "Park Maintenance/Clean Up",
    "date_created": "2026-02-15T16:51:09.000",
    "date_modified": "2026-02-15T16:51:10.000",
    "request_status": "Pending",
    "responsible_agency": "Department of Parks & Parkway",
    "final_address": "3166 Toulouse St",
    "address_councildis": "A",
    "status": "Pending",
    "rowid": "1258638",
    "final_x": "3674753.67541",
    "final_y": "537798.773832",
    "longitude": "-90.08915753766337",
    "latitude": "29.9729633057281",
    "geocoded_column": {
      "latitude": "29.9729633057281",
      "longitude": "-90.08915753766337"
    }
  },
  {
    "service_request": "2026-1258637",
    "request_type": "Roads and Streets",
    "request_reason": "Pothole",
    "date_created": "2026-02-15T16:47:51.000",
    "date_modified": "2026-02-15T16:47:53.000",
    "request_status": "Pending",
    "responsible_agency": "Department of Public Works",
    "final_address": "2900 College Ct",
    "address_councildis": "B",
    "status": "Pending",
    "rowid": "1258637",
    "final_x": "3668107.25421",
    "final_y": "531149.729218",
    "longitude": "-90.11037240980455",
    "latitude": "29.954877400070018",
    "geocoded_column": {
      "latitude": "29.954877400070018",
      "longitude": "-90.11037240980455"
    }
  },
  {
    "service_request": "2026-1258636",
    "request_type": "Street and Traffic Signs",
    "request_reason": "One Way Sign Missing or Damaged",
    "date_created": "2026-02-15T16:40:57.000",
    "date_modified": "2026-02-15T16:41:00.000",
    "request_status": "Pending",
    "responsible_agency": "Department of Public Works",
    "final_address": "406 Vallette St",
    "address_councildis": "C",
    "status": "Pending",
    "rowid": "1258636",
    "final_x": "3687671.63747",
    "final_y": "530276.068161",
    "longitude": "-90.04862660220613",
    "latitude": "29.951886468909375",
    "geocoded_column": {
      "latitude": "29.951886468909375",
      "longitude": "-90.04862660220613"
    }
  },
  {
    "service_request": "2026-1258635",
    "request_type": "Trash/Recycling",
    "request_reason": "Order Second Trash Cart",
    "date_created": "2026-02-15T15:09:55.000",
    "date_modified": "2026-02-15T15:09:56.000",
    "request_status": "Pending",
    "responsible_agency": "Department of Sanitation",
    "final_address": "4927 Michoud Blvd",
    "address_councildis": "E",
    "status": "Assigned to Contractor",
    "contractor": "Waste Pro",
    "rowid": "1258635",
    "final_x": "3725047.27776",
    "final_y": "561331.327774",
    "longitude": "-89.92941235180632",
    "latitude": "30.036071057509417",
    "geocoded_column": {
      "latitude": "30.036071057509417",
      "longitude": "-89.92941235180632"
    }
  },
  {
    "service_request": "2026-1258634",
    "request_type": "Trash/Recycling",
    "request_reason": "Repair Trash Cart",
    "date_created": "2026-02-15T15:07:50.000",
    "date_modified": "2026-02-15T15:07:52.000",
    "request_status": "Pending",
    "responsible_agency": "Department of Sanitation",
    "final_address": "2730 Amelia St",
    "address_councildis": "B",
    "status": "Assigned to Contractor",
    "contractor": "IV Waste",
    "rowid": "1258634",
    "final_x": "3672094.59079",
    "final_y": "525181.021117",
    "longitude": "-90.09798507923932",
    "latitude": "29.938347790099094",
    "geocoded_column": {
      "latitude": "29.938347790099094",
      "longitude": "-90.09798507923932"
    }
  },
  {
    "service_request": "2026-1258633",
    "request_type": "Trash/Recycling",
    "request_reason": "Request a Large Item Pick Up",
    "date_created": "2026-02-15T15:03:05.000",
    "date_modified": "2026-02-15T15:03:08.000",
    "request_status": "Pending",
    "responsible_agency": "Department of Sanitation",
    "final_address": "6346 Colbert St",
    "address_councildis": "A",
    "status": "Assigned to Contractor",
    "contractor": "IV Waste",
    "rowid": "1258633",
    "final_x": "3667567.64941",
    "final_y": "549838.963924",
    "longitude": "-90.11144698148043",
    "latitude": "30.00628231106051",
    "geocoded_column": {
      "latitude": "30.00628231106051",
      "longitude": "-90.11144698148043"
    }
  },
  {
    "service_request": "2026-1258632",
    "request_type": "Health Related Request",
    "request_reason": "Noise Ordinance Complaint",
    "date_created": "2026-02-15T14:47:44.000",
    "date_modified": "2026-02-15T14:47:45.000",
    "request_status": "Pending",
    "responsible_agency": "Health Department",
    "final_address": "2019 Chartres St",
    "address_councildis": "C",
    "status": "Pending",
    "rowid": "1258632",
    "final_x": "3684693.77045",
    "final_y": "534503.923653",
    "longitude": "-90.057880682074",
    "latitude": "29.963603091488086",
    "geocoded_column": {
      "latitude": "29.963603091488086",
      "longitude": "-90.057880682074"
    }
  },
  {
    "service_request": "2026-1258631",
    "request_type": "Trash/Recycling",
    "request_reason": "Request a Large Item Pick Up",
    "date_created": "2026-02-15T14:46:18.000",
    "date_modified": "2026-02-15T14:46:21.000",
    "request_status": "Pending",
    "responsible_agency": "Department of Sanitation",
    "final_address": "7701 Edward St",
    "address_councildis": "E",
    "status": "Assigned to Contractor",
    "contractor": "Waste Pro",
    "rowid": "1258631",
    "final_x": "3701017.54129",
    "final_y": "561149.76483",
    "longitude": "-90.0053570595996",
    "latitude": "30.036359479457367",
    "geocoded_column": {
      "latitude": "30.036359479457367",
      "longitude": "-90.0053570595996"
    }
  },
  {
    "service_request": "2026-1258630",
    "request_type": "Abandoned Vehicles",
    "request_reason": "Abandoned/Junk Vehicles",
    "date_created": "2026-02-15T14:42:28.000",
    "date_modified": "2026-02-15T14:42:31.000",
    "request_status": "Pending",
    "responsible_agency": "Department of Public Works",
    "final_address": "2016 Governor Nicholls St",
    "address_councildis": "D",
    "status": "Pending",
    "rowid": "1258630",
    "final_x": "3679877.89666",
    "final_y": "536777.054344",
    "longitude": "-90.07300975454918",
    "latitude": "29.96999994323643",
    "geocoded_column": {
      "latitude": "29.96999994323643",
      "longitude": "-90.07300975454918"
    }
  },
  {
    "service_request": "2026-1258629",
    "request_type": "Abandoned Vehicles",
    "request_reason": "Abandoned/Junk Vehicles",
    "date_created": "2026-02-15T14:08:48.000",
    "date_modified": "2026-02-15T14:08:50.000",
    "request_status": "Pending",
    "responsible_agency": "Department of Public Works",
    "final_address": "2716 Chartres St",
    "address_councildis": "C",
    "status": "Pending",
    "rowid": "1258629",
    "final_x": "3687085.01775",
    "final_y": "534479.301061",
    "longitude": "-90.0503302595257",
    "latitude": "29.963461982663134",
    "geocoded_column": {
      "latitude": "29.963461982663134",
      "longitude": "-90.0503302595257"
    }
  },
  {
    "service_request": "2026-1258628",
    "request_type": "General Services",
    "request_reason": "General Service Request",
    "date_created": "2026-02-15T13:57:20.000",
    "date_modified": "2026-02-15T13:57:22.000",
    "request_status": "Pending",
    "responsible_agency": "Orleans Parish Communication District",
    "final_address": "601 Lyons St",
    "address_councildis": "B",
    "status": "Pending",
    "rowid": "1258628",
    "final_x": "3669373.41882",
    "final_y": "517605.11679",
    "longitude": "-90.10683212544802",
    "latitude": "29.917596856751924",
    "geocoded_column": {
      "latitude": "29.917596856751924",
      "longitude": "-90.10683212544802"
    }
  },
  {
    "service_request": "2026-1258627",
    "request_type": "Roads and Streets",
    "request_reason": "Pothole",
    "date_created": "2026-02-15T13:45:49.000",
    "date_modified": "2026-02-15T13:45:50.000",
    "request_status": "Pending",
    "responsible_agency": "Department of Public Works",
    "final_address": "1800 Camp St",
    "address_councildis": "B",
    "status": "Pending",
    "rowid": "1258627",
    "final_x": "3679608.84373",
    "final_y": "523264.242619",
    "longitude": "-90.07432834431492",
    "latitude": "29.93285238573915",
    "geocoded_column": {
      "latitude": "29.93285238573915",
      "longitude": "-90.07432834431492"
    }
  },
  {
    "service_request": "2026-1258626",
    "request_type": "Property Maintenance",
    "request_reason": "Property Maintenance",
    "date_created": "2026-02-15T13:38:05.000",
    "date_modified": "2026-02-15T13:38:07.000",
    "request_status": "Pending",
    "responsible_agency": "Department of Code Enforcement",
    "final_address": "7928 Forshey St",
    "address_councildis": "B",
    "status": "Pending",
    "rowid": "1258626",
    "final_x": "3667392.80314",
    "final_y": "533521.207045",
    "longitude": "-90.11254860288972",
    "latitude": "29.961419132925258",
    "geocoded_column": {
      "latitude": "29.961419132925258",
      "longitude": "-90.11254860288972"
    }
  },
  {
    "service_request": "2026-1258625",
    "request_type": "Trash/Recycling",
    "request_reason": "Repair Trash Cart",
    "date_created": "2026-02-15T13:31:45.000",
    "date_modified": "2026-02-15T13:31:46.000",
    "request_status": "Pending",
    "responsible_agency": "Department of Sanitation",
    "final_address": "7924 Forshey St",
    "address_councildis": "B",
    "status": "Assigned to Contractor",
    "contractor": "IV Waste",
    "rowid": "1258625",
    "final_x": "3667413.09261",
    "final_y": "533504.975492",
    "longitude": "-90.11248507813944",
    "latitude": "29.961373907110254",
    "geocoded_column": {
      "latitude": "29.961373907110254",
      "longitude": "-90.11248507813944"
    }
  },
  {
    "service_request": "2026-1258624",
    "request_type": "General Services",
    "request_reason": "General Service Request",
    "date_created": "2026-02-15T13:31:11.000",
    "date_modified": "2026-02-15T13:31:13.000",
    "request_status": "Pending",
    "responsible_agency": "Orleans Parish Communication District",
    "final_address": "1309 Seventh St",
    "address_councildis": "B",
    "status": "Pending",
    "rowid": "1258624",
    "final_x": "3675939.67419",
    "final_y": "521095.460473",
    "longitude": "-90.08598617583658",
    "latitude": "29.926999283793183",
    "geocoded_column": {
      "latitude": "29.926999283793183",
      "longitude": "-90.08598617583658"
    }
  },
  {
    "service_request": "2026-1258623",
    "request_type": "Trash/Recycling",
    "request_reason": "Replace Trash Cart",
    "date_created": "2026-02-15T13:24:31.000",
    "date_modified": "2026-02-15T13:24:34.000",
    "request_status": "Pending",
    "responsible_agency": "Department of Sanitation",
    "final_address": "13718 Dwyer Blvd",
    "address_councildis": "E",
    "status": "Assigned to Contractor",
    "contractor": "Waste Pro",
    "rowid": "1258623",
    "final_x": "3727030.94541",
    "final_y": "562263.448991",
    "longitude": "-89.92310742520583",
    "latitude": "30.038567028013713",
    "geocoded_column": {
      "latitude": "30.038567028013713",
      "longitude": "-89.92310742520583"
    }
  },
  {
    "service_request": "2026-1258622",
    "request_type": "Trash/Recycling",
    "request_reason": "Request a Large Item Pick Up",
    "date_created": "2026-02-15T12:35:05.000",
    "date_modified": "2026-02-15T12:35:07.000",
    "request_status": "Pending",
    "responsible_agency": "Department of Sanitation",
    "final_address": "6427 St Roch Ave",
    "address_councildis": "D",
    "status": "Assigned to Contractor",
    "contractor": "IV Waste",
    "rowid": "1258622",
    "final_x": "3684940.35497",
    "final_y": "556899.664602",
    "longitude": "-90.05631379509076",
    "latitude": "30.02517581981201",
    "geocoded_column": {
      "latitude": "30.02517581981201",
      "longitude": "-90.05631379509076"
    }
  },
  {
    "service_request": "2026-1258621",
    "request_type": "Abandoned Vehicles",
    "request_reason": "Abandoned/Junk Vehicles",
    "date_created": "2026-02-15T12:26:15.000",
    "date_modified": "2026-02-15T12:26:17.000",
    "request_status": "Pending",
    "responsible_agency": "Department of Public Works",
    "final_address": "926 Dumaine St",
    "address_councildis": "C",
    "status": "Pending",
    "rowid": "1258621",
    "final_x": "3682238.2653",
    "final_y": "533597.960581",
    "longitude": "-90.06566655708262",
    "latitude": "29.96118693009729",
    "geocoded_column": {
      "latitude": "29.96118693009729",
      "longitude": "-90.06566655708262"
    }
  },
  {
    "service_request": "2026-1258620",
    "request_type": "Street and Traffic Signs",
    "request_reason": "Stop Sign Missing or Damaged",
    "date_created": "2026-02-15T12:07:55.000",
    "date_modified": "2026-02-15T12:07:57.000",
    "request_status": "Pending",
    "responsible_agency": "Department of Public Works",
    "final_address": "8501 Belfast St",
    "address_councildis": "A",
    "status": "Pending",
    "rowid": "1258620",
    "final_x": "3664536.22503",
    "final_y": "533381.012932",
    "longitude": "-90.121573904434",
    "latitude": "29.961117019504506",
    "geocoded_column": {
      "latitude": "29.961117019504506",
      "longitude": "-90.121573904434"
    }
  },
  {
    "service_request": "2026-1258619",
    "request_type": "Trash/Recycling",
    "request_reason": "Repair Recycling Cart",
    "date_created": "2026-02-15T11:46:24.000",
    "date_modified": "2026-02-15T11:46:25.000",
    "request_status": "Pending",
    "responsible_agency": "Department of Sanitation",
    "final_address": "4439 Carondelet St",
    "address_councildis": "B",
    "status": "Pending",
    "rowid": "1258619",
    "final_x": "3670451.55073",
    "final_y": "521268.145913",
    "longitude": "-90.10330494013044",
    "latitude": "29.927637246604476",
    "geocoded_column": {
      "latitude": "29.927637246604476",
      "longitude": "-90.10330494013044"
    }
  },
  {
    "service_request": "2026-1258618",
    "request_type": "Streetlights",
    "request_reason": "Streetlight Outage/Malfunction",
    "date_created": "2026-02-15T11:42:56.000",
    "date_modified": "2026-02-15T11:42:58.000",
    "request_status": "Pending",
    "responsible_agency": "Department of Public Works",
    "final_address": "4439 Carondelet St",
    "address_councildis": "B",
    "status": "Pending",
    "rowid": "1258618",
    "final_x": "3670451.55073",
    "final_y": "521268.145913",
    "longitude": "-90.10330494013044",
    "latitude": "29.927637246604476",
    "geocoded_column": {
      "latitude": "29.927637246604476",
      "longitude": "-90.10330494013044"
    }
  },
  {
    "service_request": "2026-1258617",
    "request_type": "Trash/Recycling",
    "request_reason": "Order Second Trash Cart",
    "date_created": "2026-02-15T11:41:51.000",
    "date_modified": "2026-02-15T11:41:54.000",
    "request_status": "Pending",
    "responsible_agency": "Department of Sanitation",
    "final_address": "605 River Oaks Dr",
    "address_councildis": "C",
    "status": "Assigned to Contractor",
    "contractor": "Richards Disposal",
    "rowid": "1258617",
    "final_x": "3701451.84183",
    "final_y": "520706.946233",
    "longitude": "-90.00546569671816",
    "latitude": "29.92514270686297",
    "geocoded_column": {
      "latitude": "29.92514270686297",
      "longitude": "-90.00546569671816"
    }
  },
  {
    "service_request": "2026-1258616",
    "request_type": "General Services",
    "request_reason": "General Service Request",
    "date_created": "2026-02-15T11:25:50.000",
    "date_modified": "2026-02-15T11:25:53.000",
    "request_status": "Pending",
    "responsible_agency": "Orleans Parish Communication District",
    "final_address": "825 Lafayette St",
    "address_councildis": "B",
    "status": "Pending",
    "rowid": "1258616",
    "final_x": "3680023.26549",
    "final_y": "529078.1024",
    "longitude": "-90.07281813930165",
    "latitude": "29.94882604087949",
    "geocoded_column": {
      "latitude": "29.94882604087949",
      "longitude": "-90.07281813930165"
    }
  },
  {
    "service_request": "2026-1258615",
    "request_type": "General Services",
    "request_reason": "General Service Request",
    "date_created": "2026-02-15T10:40:25.000",
    "date_modified": "2026-02-15T10:40:27.000",
    "request_status": "Pending",
    "responsible_agency": "Orleans Parish Communication District",
    "final_address": "1637 Marengo St",
    "address_councildis": "B",
    "status": "Pending",
    "rowid": "1258615",
    "final_x": "3671970.52942",
    "final_y": "521299.052153",
    "longitude": "-90.09850882917175",
    "latitude": "29.927677305743206",
    "geocoded_column": {
      "latitude": "29.927677305743206",
      "longitude": "-90.09850882917175"
    }
  },
  {
    "service_request": "2026-1258614",
    "request_type": "Trash/Recycling",
    "request_reason": "Illegal Dumping",
    "date_created": "2026-02-15T10:30:08.000",
    "date_modified": "2026-02-15T10:30:11.000",
    "request_status": "Pending",
    "responsible_agency": "Department of Sanitation",
    "final_address": "3770 Plymouth Pl",
    "address_councildis": "C",
    "status": "Pending",
    "rowid": "1258614",
    "final_x": "3702753.11914",
    "final_y": "516476.083637",
    "longitude": "-90.00151324245292",
    "latitude": "29.9134677611138",
    "geocoded_column": {
      "latitude": "29.9134677611138",
      "longitude": "-90.00151324245292"
    }
  },
  {
    "service_request": "2026-1258613",
    "request_type": "Streetlights",
    "request_reason": "Streetlight Outage/Malfunction",
    "date_created": "2026-02-15T10:18:49.000",
    "date_modified": "2026-02-15T10:18:50.000",
    "request_status": "Pending",
    "responsible_agency": "Department of Public Works",
    "final_address": "3363 Esplanade Ave",
    "address_councildis": "A",
    "status": "Pending",
    "rowid": "1258613",
    "final_x": "3675697.24315",
    "final_y": "540992.858763",
    "longitude": "-90.08606776133134",
    "latitude": "29.981717739076547",
    "geocoded_column": {
      "latitude": "29.981717739076547",
      "longitude": "-90.08606776133134"
    }
  },
  {
    "service_request": "2026-1258612",
    "request_type": "Health Related Request",
    "request_reason": "Noise Ordinance Complaint",
    "date_created": "2026-02-15T10:11:41.000",
    "date_modified": "2026-02-15T10:11:44.000",
    "request_status": "Pending",
    "responsible_agency": "Health Department",
    "final_address": "734 Dumaine St",
    "address_councildis": "C",
    "status": "Pending",
    "rowid": "1258612",
    "final_x": "3682752.65698",
    "final_y": "533195.813636",
    "longitude": "-90.06405626959247",
    "latitude": "29.960065505729947",
    "geocoded_column": {
      "latitude": "29.960065505729947",
      "longitude": "-90.06405626959247"
    }
  },
  {
    "service_request": "2026-1258611",
    "request_type": "General Services",
    "request_reason": "General Service Request",
    "date_created": "2026-02-15T09:18:44.000",
    "date_modified": "2026-02-15T09:18:47.000",
    "request_status": "Pending",
    "responsible_agency": "Orleans Parish Communication District",
    "final_address": "3400 S Claiborne Ave",
    "address_councildis": "B",
    "status": "Pending",
    "rowid": "1258611",
    "final_x": "3672139.41991",
    "final_y": "526001.76147",
    "longitude": "-90.09781560952406",
    "latitude": "29.940603230055334",
    "geocoded_column": {
      "latitude": "29.940603230055334",
      "longitude": "-90.09781560952406"
    }
  },
  {
    "service_request": "2026-1258610",
    "request_type": "Trash/Recycling",
    "request_reason": "Order Recycling Cart",
    "date_created": "2026-02-15T09:09:42.000",
    "date_modified": "2026-02-15T09:09:44.000",
    "request_status": "Pending",
    "responsible_agency": "Department of Sanitation",
    "final_address": "104 Kingston Ct",
    "address_councildis": "C",
    "status": "Pending",
    "rowid": "1258610",
    "final_x": "3705758.34775",
    "final_y": "517847.94975",
    "longitude": "-89.99197719750389",
    "latitude": "29.91714353119783",
    "geocoded_column": {
      "latitude": "29.91714353119783",
      "longitude": "-89.99197719750389"
    }
  },
  {
    "service_request": "2026-1258609",
    "request_type": "General Services",
    "request_reason": "General Service Request",
    "date_created": "2026-02-15T08:49:09.000",
    "date_modified": "2026-02-15T08:49:10.000",
    "request_status": "Pending",
    "responsible_agency": "Orleans Parish Communication District",
    "final_address": "649 N Broad St",
    "address_councildis": "A",
    "status": "Pending",
    "rowid": "1258609",
    "final_x": "3676498.78926",
    "final_y": "536868.953352",
    "longitude": "-90.08367815342169",
    "latitude": "29.97035439861699",
    "geocoded_column": {
      "latitude": "29.97035439861699",
      "longitude": "-90.08367815342169"
    }
  },
  {
    "service_request": "2026-1258608",
    "request_type": "Abandoned Vehicles",
    "request_reason": "Abandoned/Junk Vehicles",
    "date_created": "2026-02-15T07:35:26.000",
    "date_modified": "2026-02-15T07:35:28.000",
    "request_status": "Pending",
    "responsible_agency": "Department of Public Works",
    "final_address": "926 Dumaine St",
    "address_councildis": "C",
    "status": "Pending",
    "rowid": "1258608",
    "final_x": "3682238.2653",
    "final_y": "533597.960581",
    "longitude": "-90.06566655708262",
    "latitude": "29.96118693009729",
    "geocoded_column": {
      "latitude": "29.96118693009729",
      "longitude": "-90.06566655708262"
    }
  },
  {
    "service_request": "2026-1258607",
    "request_type": "Trash/Recycling",
    "request_reason": "Request a Large Item Pick Up",
    "date_created": "2026-02-15T07:21:28.000",
    "date_modified": "2026-02-15T07:21:29.000",
    "request_status": "Pending",
    "responsible_agency": "Department of Sanitation",
    "final_address": "5428 Baccich St",
    "address_councildis": "D",
    "status": "Assigned to Contractor",
    "contractor": "IV Waste",
    "rowid": "1258607",
    "final_x": "3687612.66358",
    "final_y": "553239.751639",
    "longitude": "-90.04799945881574",
    "latitude": "30.015030254606323",
    "geocoded_column": {
      "latitude": "30.015030254606323",
      "longitude": "-90.04799945881574"
    }
  },
  {
    "service_request": "2026-1258606",
    "request_type": "Streetlights",
    "request_reason": "Streetlight Outage/Malfunction",
    "date_created": "2026-02-15T06:13:06.000",
    "date_modified": "2026-02-15T06:13:09.000",
    "request_status": "Pending",
    "responsible_agency": "Department of Public Works",
    "final_address": "4002 Camp St",
    "address_councildis": "B",
    "status": "Pending",
    "rowid": "1258606",
    "final_x": "3672454.06843",
    "final_y": "519240.517559",
    "longitude": "-90.09705252159483",
    "latitude": "29.92200265771704",
    "geocoded_column": {
      "latitude": "29.92200265771704",
      "longitude": "-90.09705252159483"
    }
  },
  {
    "service_request": "2026-1258605",
    "request_type": "Road Striping",
    "request_reason": "Crosswalks",
    "date_created": "2026-02-15T02:12:14.000",
    "date_modified": "2026-02-15T02:12:16.000",
    "request_status": "Pending",
    "responsible_agency": "Department of Public Works",
    "final_address": "3060 St Claude Ave",
    "address_councildis": "C",
    "status": "Pending",
    "rowid": "1258605",
    "final_x": "3688926.72828",
    "final_y": "535974.695367",
    "longitude": "-90.0444612363786",
    "latitude": "29.96751696360444",
    "geocoded_column": {
      "latitude": "29.96751696360444",
      "longitude": "-90.0444612363786"
    }
  },
  {
    "service_request": "2026-1258604",
    "request_type": "Healthy Homes",
    "request_reason": "Healthy Homes",
    "date_created": "2026-02-15T01:36:29.000",
    "date_modified": "2026-02-15T01:36:30.000",
    "request_status": "Pending",
    "responsible_agency": "Department of Code Enforcement",
    "final_address": "3151 Mansfield Ave",
    "address_councildis": "C",
    "status": "Pending",
    "rowid": "1258604",
    "final_x": "3709052.01278",
    "final_y": "518604.194103",
    "longitude": "-89.98155292168204",
    "latitude": "29.91911651023944",
    "geocoded_column": {
      "latitude": "29.91911651023944",
      "longitude": "-89.98155292168204"
    }
  },
  {
    "service_request": "2026-1258603",
    "request_type": "General Services",
    "request_reason": "General Service Request",
    "date_created": "2026-02-15T01:31:40.000",
    "date_modified": "2026-02-15T01:31:42.000",
    "request_status": "Pending",
    "responsible_agency": "Orleans Parish Communication District",
    "final_address": "3300 Mansfield Ave",
    "address_councildis": "C",
    "status": "Pending",
    "rowid": "1258603",
    "final_x": "3709159.9756",
    "final_y": "518520.006327",
    "longitude": "-89.98121527716141",
    "latitude": "29.91888152068111",
    "geocoded_column": {
      "latitude": "29.91888152068111",
      "longitude": "-89.98121527716141"
    }
  },
  {
    "service_request": "2026-1258602",
    "request_type": "Healthy Homes",
    "request_reason": "Healthy Homes",
    "date_created": "2026-02-15T01:25:08.000",
    "date_modified": "2026-02-15T01:25:10.000",
    "request_status": "Pending",
    "responsible_agency": "Department of Code Enforcement",
    "final_address": "3151 Mansfield Ave",
    "address_councildis": "C",
    "status": "Pending",
    "rowid": "1258602",
    "final_x": "3709052.01278",
    "final_y": "518604.194103",
    "longitude": "-89.98155292168204",
    "latitude": "29.91911651023944",
    "geocoded_column": {
      "latitude": "29.91911651023944",
      "longitude": "-89.98155292168204"
    }
  },
  {
    "service_request": "2026-1258601",
    "request_type": "Trash/Recycling",
    "request_reason": "Request a Large Item Pick Up",
    "date_created": "2026-02-15T01:14:28.000",
    "date_modified": "2026-02-15T01:14:30.000",
    "request_status": "Pending",
    "responsible_agency": "Department of Sanitation",
    "final_address": "6863 Argonne Blvd",
    "address_councildis": "A",
    "status": "Assigned to Contractor",
    "contractor": "IV Waste",
    "rowid": "1258601",
    "final_x": "3670753.71278",
    "final_y": "553002.998679",
    "longitude": "-90.10127391152116",
    "latitude": "30.014888486763482",
    "geocoded_column": {
      "latitude": "30.014888486763482",
      "longitude": "-90.10127391152116"
    }
  },
  {
    "service_request": "2026-1258600",
    "request_type": "Trash/Recycling",
    "request_reason": "Order Recycling Cart",
    "date_created": "2026-02-15T01:10:26.000",
    "date_modified": "2026-02-15T01:10:30.000",
    "request_status": "Pending",
    "responsible_agency": "Department of Sanitation",
    "final_address": "6863 Argonne Blvd",
    "address_councildis": "A",
    "status": "Pending",
    "rowid": "1258600",
    "final_x": "3670753.71278",
    "final_y": "553002.998679",
    "longitude": "-90.10127391152116",
    "latitude": "30.014888486763482",
    "geocoded_column": {
      "latitude": "30.014888486763482",
      "longitude": "-90.10127391152116"
    }
  },
  {
    "service_request": "2026-1258599",
    "request_type": "Mosquito, Termite & Rodent Control",
    "request_reason": "Rodent Complaint (Mice & Rats)",
    "date_created": "2026-02-14T22:59:05.000",
    "date_modified": "2026-02-14T22:59:07.000",
    "request_status": "Pending",
    "responsible_agency": "Mosquito, Termite & Rodent Control Board",
    "final_address": "0 BLK Acadiana Pl",
    "address_councildis": "E",
    "status": "Pending",
    "rowid": "1258599",
    "final_x": "3725131.4083",
    "final_y": "564393.680055",
    "longitude": "-89.92902788187175",
    "latitude": "30.04448842646984",
    "geocoded_column": {
      "latitude": "30.04448842646984",
      "longitude": "-89.92902788187175"
    }
  },
  {
    "service_request": "2026-1258598",
    "request_type": "Health Related Request",
    "request_reason": "Noise Ordinance Complaint",
    "date_created": "2026-02-14T21:35:32.000",
    "date_modified": "2026-02-14T21:35:34.000",
    "request_status": "Pending",
    "responsible_agency": "Health Department",
    "final_address": "7139 S Claiborne Ave, New Orleans, Louisiana, 70125",
    "address_councildis": "A",
    "status": "Pending",
    "rowid": "1258598",
    "final_x": "3666478.76743",
    "final_y": "529720.806785",
    "longitude": "-90.11556252470896",
    "latitude": "29.950996020138128",
    "geocoded_column": {
      "latitude": "29.950996020138128",
      "longitude": "-90.11556252470896"
    }
  },
  {
    "service_request": "2026-1258597",
    "request_type": "Trash/Recycling",
    "request_reason": "Request a Large Item Pick Up",
    "date_created": "2026-02-14T20:50:56.000",
    "date_modified": "2026-02-14T20:50:59.000",
    "request_status": "Pending",
    "responsible_agency": "Department of Sanitation",
    "final_address": "6119 Duplessis St",
    "address_councildis": "D",
    "status": "Assigned to Contractor",
    "contractor": "IV Waste",
    "rowid": "1258597",
    "final_x": "3678064.48699",
    "final_y": "555040.014489",
    "longitude": "-90.07810486006241",
    "latitude": "30.020271371786173",
    "geocoded_column": {
      "latitude": "30.020271371786173",
      "longitude": "-90.07810486006241"
    }
  },
  {
    "service_request": "2026-1258596",
    "request_type": "Taxi Issues",
    "request_reason": "Transportation For Hire Complaint",
    "date_created": "2026-02-14T20:09:22.000",
    "date_modified": "2026-02-14T20:09:24.000",
    "request_status": "Pending",
    "responsible_agency": "Department of Public Works",
    "final_address": "201 Magazine St",
    "address_councildis": "B",
    "status": "Pending",
    "rowid": "1258596",
    "final_x": "3681661.66914",
    "final_y": "529919.769985",
    "longitude": "-90.06761564485195",
    "latitude": "29.95109068208203",
    "geocoded_column": {
      "latitude": "29.95109068208203",
      "longitude": "-90.06761564485195"
    }
  },
  {
    "service_request": "2026-1258595",
    "request_type": "Roads and Streets",
    "request_reason": "Pothole",
    "date_created": "2026-02-14T19:13:49.000",
    "date_modified": "2026-02-14T19:13:50.000",
    "request_status": "Pending",
    "responsible_agency": "Department of Public Works",
    "final_address": "6802 Vicksburg St",
    "address_councildis": "A",
    "status": "Pending",
    "rowid": "1258595",
    "final_x": "3669309.70382",
    "final_y": "552698.282326",
    "longitude": "-90.10584661422472",
    "latitude": "30.014093238023392",
    "geocoded_column": {
      "latitude": "30.014093238023392",
      "longitude": "-90.10584661422472"
    }
  },
  {
    "service_request": "2026-1258594",
    "request_type": "General Services",
    "request_reason": "General Service Request",
    "date_created": "2026-02-14T19:02:48.000",
    "date_modified": "2026-02-14T19:02:49.000",
    "request_status": "Pending",
    "responsible_agency": "Orleans Parish Communication District",
    "final_address": "3015 Palmyra St",
    "address_councildis": "B",
    "status": "Pending",
    "rowid": "1258594",
    "final_x": "3673792.46676",
    "final_y": "535387.135878",
    "longitude": "-90.09227571807915",
    "latitude": "29.966360780137396",
    "geocoded_column": {
      "latitude": "29.966360780137396",
      "longitude": "-90.09227571807915"
    }
  },
  {
    "service_request": "2026-1258593",
    "request_type": "Trash/Recycling",
    "request_reason": "Request a Large Item Pick Up",
    "date_created": "2026-02-14T18:58:07.000",
    "date_modified": "2026-02-14T18:58:10.000",
    "request_status": "Pending",
    "responsible_agency": "Department of Sanitation",
    "final_address": "420 Delery St",
    "address_councildis": "E",
    "status": "Assigned to Contractor",
    "contractor": "Waste Pro",
    "rowid": "1258593",
    "final_x": "3699517.16925",
    "final_y": "530761.234626",
    "longitude": "-90.01120659014201",
    "latitude": "29.952850003967722",
    "geocoded_column": {
      "latitude": "29.952850003967722",
      "longitude": "-90.01120659014201"
    }
  },
  {
    "service_request": "2026-1258592",
    "request_type": "Abandoned Vehicles",
    "request_reason": "Abandoned/Junk Vehicles",
    "date_created": "2026-02-14T17:58:21.000",
    "date_modified": "2026-02-14T17:58:23.000",
    "request_status": "Pending",
    "responsible_agency": "Department of Public Works",
    "final_address": "1255 Columbus St",
    "address_councildis": "C",
    "status": "Pending",
    "rowid": "1258592",
    "final_x": "3682703.7572",
    "final_y": "536381.469895",
    "longitude": "-90.06409925524493",
    "latitude": "29.96882645532025",
    "geocoded_column": {
      "latitude": "29.96882645532025",
      "longitude": "-90.06409925524493"
    }
  },
  {
    "service_request": "2026-1258591",
    "request_type": "Healthy Homes",
    "request_reason": "Healthy Homes",
    "date_created": "2026-02-14T16:58:06.000",
    "date_modified": "2026-02-14T16:58:08.000",
    "request_status": "Pending",
    "responsible_agency": "Department of Code Enforcement",
    "final_address": "2501 Delery St",
    "address_councildis": "E",
    "status": "Pending",
    "rowid": "1258591",
    "final_x": "3702543.88772",
    "final_y": "537932.615945",
    "longitude": "-90.00138640818791",
    "latitude": "29.97247234604057",
    "geocoded_column": {
      "latitude": "29.97247234604057",
      "longitude": "-90.00138640818791"
    }
  },
  {
    "service_request": "2026-1258590",
    "request_type": "Alley Ways",
    "request_reason": "Alley Way Issues",
    "date_created": "2026-02-14T16:53:27.000",
    "date_modified": "2026-02-14T16:53:30.000",
    "request_status": "Pending",
    "responsible_agency": "Department of Public Works",
    "final_address": "1237 Kerlerec St",
    "address_councildis": "C",
    "status": "Pending",
    "rowid": "1258590",
    "final_x": "3682592.88181",
    "final_y": "536055.704775",
    "longitude": "-90.0644607987102",
    "latitude": "29.967934090166402",
    "geocoded_column": {
      "latitude": "29.967934090166402",
      "longitude": "-90.0644607987102"
    }
  },
  {
    "service_request": "2026-1258589",
    "request_type": "Property Maintenance",
    "request_reason": "Property Maintenance",
    "date_created": "2026-02-14T16:12:36.000",
    "date_modified": "2026-02-14T16:12:38.000",
    "request_status": "Pending",
    "responsible_agency": "Department of Code Enforcement",
    "final_address": "1722 Pauger St",
    "address_councildis": "C",
    "status": "Pending",
    "rowid": "1258589",
    "final_x": "3683856.17935",
    "final_y": "536029.539143",
    "longitude": "-90.06047218630525",
    "latitude": "29.967823617170374",
    "geocoded_column": {
      "latitude": "29.967823617170374",
      "longitude": "-90.06047218630525"
    }
  },
  {
    "service_request": "2026-1258588",
    "request_type": "Trash/Recycling",
    "request_reason": "Replace Trash Cart",
    "date_created": "2026-02-14T16:10:11.000",
    "date_modified": "2026-02-14T16:10:14.000",
    "request_status": "Pending",
    "responsible_agency": "Department of Sanitation",
    "final_address": "1308 S Saratoga St",
    "address_councildis": "B",
    "status": "Assigned to Contractor",
    "contractor": "IV Waste",
    "rowid": "1258588",
    "final_x": "3677846.47771",
    "final_y": "527000.211198",
    "longitude": "-90.07976297106492",
    "latitude": "29.943178195916754",
    "geocoded_column": {
      "latitude": "29.943178195916754",
      "longitude": "-90.07976297106492"
    }
  },
  {
    "service_request": "2026-1258587",
    "request_type": "Safety & Permits",
    "request_reason": "Licenses & Permits",
    "date_created": "2026-02-14T16:08:49.000",
    "date_modified": "2026-02-14T16:08:51.000",
    "request_status": "Pending",
    "responsible_agency": "Safety and Permits",
    "final_address": "421 Burgundy St",
    "address_councildis": "C",
    "status": "Pending",
    "rowid": "1258587",
    "final_x": "3681117.04623",
    "final_y": "532398.014531",
    "longitude": "-90.06924896540603",
    "latitude": "29.957921546747915",
    "geocoded_column": {
      "latitude": "29.957921546747915",
      "longitude": "-90.06924896540603"
    }
  },
  {
    "service_request": "2026-1258586",
    "request_type": "Trash/Recycling",
    "request_reason": "Order Recycling Cart",
    "date_created": "2026-02-14T15:30:43.000",
    "date_modified": "2026-02-14T15:30:45.000",
    "request_status": "Pending",
    "responsible_agency": "Department of Sanitation",
    "final_address": "3404 Livingston St",
    "address_councildis": "A",
    "status": "Pending",
    "rowid": "1258586",
    "final_x": "3663600.58803",
    "final_y": "537566.481864",
    "longitude": "-90.12438904068011",
    "latitude": "29.972652856368683",
    "geocoded_column": {
      "latitude": "29.972652856368683",
      "longitude": "-90.12438904068011"
    }
  },
  {
    "service_request": "2026-1258585",
    "request_type": "Property Maintenance",
    "request_reason": "Property Maintenance",
    "date_created": "2026-02-14T15:25:48.000",
    "date_modified": "2026-02-14T15:25:50.000",
    "request_status": "Pending",
    "responsible_agency": "Department of Code Enforcement",
    "final_address": "8701 Jeannette St",
    "address_councildis": "A",
    "status": "Pending",
    "rowid": "1258585",
    "final_x": "3661096.3168",
    "final_y": "530632.925826",
    "longitude": "-90.13252750858861",
    "latitude": "29.953660247160588",
    "geocoded_column": {
      "latitude": "29.953660247160588",
      "longitude": "-90.13252750858861"
    }
  },
  {
    "service_request": "2026-1258584",
    "request_type": "Health Related Request",
    "request_reason": "Noise Ordinance Complaint",
    "date_created": "2026-02-14T15:17:54.000",
    "date_modified": "2026-02-14T15:17:55.000",
    "request_status": "Pending",
    "responsible_agency": "Health Department",
    "final_address": "8216 Willow St",
    "address_councildis": "A",
    "status": "Pending",
    "rowid": "1258584",
    "final_x": "3662036.70656",
    "final_y": "529203.755008",
    "longitude": "-90.1296055429916",
    "latitude": "29.9497033557418",
    "geocoded_column": {
      "latitude": "29.9497033557418",
      "longitude": "-90.1296055429916"
    }
  },
  {
    "service_request": "2026-1258583",
    "request_type": "Trash/Recycling",
    "request_reason": "Illegal Dumping",
    "date_created": "2026-02-14T14:24:29.000",
    "date_modified": "2026-02-14T14:24:30.000",
    "request_status": "Pending",
    "responsible_agency": "Department of Sanitation",
    "final_address": "2367 N Villere St",
    "address_councildis": "C",
    "status": "Pending",
    "rowid": "1258583",
    "final_x": "3686240.89948",
    "final_y": "537548.558216",
    "longitude": "-90.05288757841231",
    "latitude": "29.971927334052786",
    "geocoded_column": {
      "latitude": "29.971927334052786",
      "longitude": "-90.05288757841231"
    }
  },
  {
    "service_request": "2026-1258582",
    "request_type": "Trash/Recycling",
    "request_reason": "Replace Trash Cart",
    "date_created": "2026-02-14T14:20:10.000",
    "date_modified": "2026-02-14T14:20:12.000",
    "request_status": "Pending",
    "responsible_agency": "Department of Sanitation",
    "final_address": "5651 Pembrook Dr",
    "address_councildis": "C",
    "status": "Assigned to Contractor",
    "contractor": "Richards Disposal",
    "rowid": "1258582",
    "final_x": "3704583.97425",
    "final_y": "520833.765625",
    "longitude": "-89.99557396209727",
    "latitude": "29.92539123985479",
    "geocoded_column": {
      "latitude": "29.92539123985479",
      "longitude": "-89.99557396209727"
    }
  },
  {
    "service_request": "2026-1258581",
    "request_type": "Trash/Recycling",
    "request_reason": "Request a Large Item Pick Up",
    "date_created": "2026-02-14T13:55:50.000",
    "date_modified": "2026-02-14T13:55:53.000",
    "request_status": "Pending",
    "responsible_agency": "Department of Sanitation",
    "final_address": "1812 St Philip St",
    "address_councildis": "D",
    "status": "Assigned to Contractor",
    "contractor": "IV Waste",
    "rowid": "1258581",
    "final_x": "3680026.48175",
    "final_y": "535761.917447",
    "longitude": "-90.07257578250035",
    "latitude": "29.967204170290568",
    "geocoded_column": {
      "latitude": "29.967204170290568",
      "longitude": "-90.07257578250035"
    }
  },
  {
    "service_request": "2026-1258580",
    "request_type": "Property Maintenance",
    "request_reason": "Property Maintenance",
    "date_created": "2026-02-14T13:07:33.000",
    "date_modified": "2026-02-14T13:07:35.000",
    "request_status": "Pending",
    "responsible_agency": "Department of Code Enforcement",
    "final_address": "1618 Leonidas St",
    "address_councildis": "A",
    "status": "Pending",
    "rowid": "1258580",
    "final_x": "3661678.64986",
    "final_y": "530758.046082",
    "longitude": "-90.13068458811287",
    "latitude": "29.953987494369258",
    "geocoded_column": {
      "latitude": "29.953987494369258",
      "longitude": "-90.13068458811287"
    }
  },
  {
    "service_request": "2026-1258579",
    "request_type": "Property Maintenance",
    "request_reason": "Property Maintenance",
    "date_created": "2026-02-14T13:03:34.000",
    "date_modified": "2026-02-14T13:03:36.000",
    "request_status": "Pending",
    "responsible_agency": "Department of Code Enforcement",
    "final_address": "1436 Leonidas St",
    "address_councildis": "A",
    "status": "Pending",
    "rowid": "1258579",
    "final_x": "3661274.8585",
    "final_y": "530319.993346",
    "longitude": "-90.13197410545185",
    "latitude": "29.9527946375072",
    "geocoded_column": {
      "latitude": "29.9527946375072",
      "longitude": "-90.13197410545185"
    }
  },
  {
    "service_request": "2026-1258578",
    "request_type": "Abandoned Vehicles",
    "request_reason": "Abandoned/Junk Vehicles",
    "date_created": "2026-02-14T12:57:22.000",
    "date_modified": "2026-02-14T12:57:24.000",
    "request_status": "Pending",
    "responsible_agency": "Department of Public Works",
    "final_address": "1301 Leonidas St",
    "address_councildis": "A",
    "status": "Pending",
    "rowid": "1258578",
    "final_x": "3660941.05382",
    "final_y": "529835.759617",
    "longitude": "-90.13304413412263",
    "latitude": "29.95147276923356",
    "geocoded_column": {
      "latitude": "29.95147276923356",
      "longitude": "-90.13304413412263"
    }
  },
  {
    "service_request": "2026-1258577",
    "request_type": "Property Maintenance",
    "request_reason": "Property Maintenance",
    "date_created": "2026-02-14T12:54:13.000",
    "date_modified": "2026-02-14T12:54:15.000",
    "request_status": "Pending",
    "responsible_agency": "Department of Code Enforcement",
    "final_address": "1424 Leonidas St",
    "address_councildis": "A",
    "status": "Pending",
    "rowid": "1258577",
    "final_x": "3661233.69798",
    "final_y": "530276.571521",
    "longitude": "-90.1321055100699",
    "latitude": "29.952676427999652",
    "geocoded_column": {
      "latitude": "29.952676427999652",
      "longitude": "-90.1321055100699"
    }
  },
  {
    "service_request": "2026-1258576",
    "request_type": "Mosquito, Termite & Rodent Control",
    "request_reason": "Non-Rodent Complaint (Possums & Snakes)",
    "date_created": "2026-02-14T12:52:45.000",
    "date_modified": "2026-02-14T12:52:46.000",
    "request_status": "Pending",
    "responsible_agency": "Mosquito, Termite & Rodent Control Board",
    "final_address": "901 Hidalgo St",
    "address_councildis": "A",
    "status": "Pending",
    "rowid": "1258576",
    "final_x": "3669582.26151",
    "final_y": "544092.62779",
    "longitude": "-90.10527687150912",
    "latitude": "29.99042265255866",
    "geocoded_column": {
      "latitude": "29.99042265255866",
      "longitude": "-90.10527687150912"
    }
  },
  {
    "service_request": "2026-1258575",
    "request_type": "Property Maintenance",
    "request_reason": "Property Maintenance",
    "date_created": "2026-02-14T12:52:05.000",
    "date_modified": "2026-02-14T12:52:07.000",
    "request_status": "Pending",
    "responsible_agency": "Department of Code Enforcement",
    "final_address": "1236 Leonidas St",
    "address_councildis": "A",
    "status": "Pending",
    "rowid": "1258575",
    "final_x": "3660774.78394",
    "final_y": "529868.923585",
    "longitude": "-90.13356803978716",
    "latitude": "29.951568747584226",
    "geocoded_column": {
      "latitude": "29.951568747584226",
      "longitude": "-90.13356803978716"
    }
  },
  {
    "service_request": "2026-1258574",
    "request_type": "Property Maintenance",
    "request_reason": "Property Maintenance",
    "date_created": "2026-02-14T12:46:20.000",
    "date_modified": "2026-02-14T12:46:23.000",
    "request_status": "Pending",
    "responsible_agency": "Department of Code Enforcement",
    "final_address": "7800 Green St",
    "address_councildis": "A",
    "status": "Pending",
    "rowid": "1258574",
    "final_x": "3663925.04231",
    "final_y": "528906.6272",
    "longitude": "-90.12365308209426",
    "latitude": "29.948831668833186",
    "geocoded_column": {
      "latitude": "29.948831668833186",
      "longitude": "-90.12365308209426"
    }
  },
  {
    "service_request": "2026-1258573",
    "request_type": "Property Maintenance",
    "request_reason": "Property Maintenance",
    "date_created": "2026-02-14T12:43:04.000",
    "date_modified": "2026-02-14T12:43:06.000",
    "request_status": "Pending",
    "responsible_agency": "Department of Code Enforcement",
    "final_address": "1705 Joliet St",
    "address_councildis": "A",
    "status": "Pending",
    "rowid": "1258573",
    "final_x": "3662156.5513",
    "final_y": "530657.34957",
    "longitude": "-90.12917890405032",
    "latitude": "29.95369681060734",
    "geocoded_column": {
      "latitude": "29.95369681060734",
      "longitude": "-90.12917890405032"
    }
  },
  {
    "service_request": "2026-1258572",
    "request_type": "Health Related Request",
    "request_reason": "Noise Ordinance Complaint",
    "date_created": "2026-02-14T12:20:59.000",
    "date_modified": "2026-02-14T12:21:01.000",
    "request_status": "Pending",
    "responsible_agency": "Health Department",
    "final_address": "2444 Dreux Ave, New Orleans, Louisiana, 70122",
    "address_councildis": "D",
    "status": "Pending",
    "rowid": "1258572",
    "final_x": "3685710.50889",
    "final_y": "552075.21519",
    "longitude": "-90.05405043050037",
    "latitude": "30.011886738314047",
    "geocoded_column": {
      "latitude": "30.011886738314047",
      "longitude": "-90.05405043050037"
    }
  },
  {
    "service_request": "2026-1258571",
    "request_type": "Safety & Permits",
    "request_reason": "Zoning Enforcement",
    "date_created": "2026-02-14T12:08:24.000",
    "date_modified": "2026-02-14T12:08:26.000",
    "request_status": "Pending",
    "responsible_agency": "Safety and Permits",
    "final_address": "7022 Wuerpel St",
    "address_councildis": "A",
    "status": "Pending",
    "rowid": "1258571",
    "final_x": "3667331.98759",
    "final_y": "554369.124568",
    "longitude": "-90.1120389545582",
    "latitude": "30.018745572142976",
    "geocoded_column": {
      "latitude": "30.018745572142976",
      "longitude": "-90.1120389545582"
    }
  },
  {
    "service_request": "2026-1258570",
    "request_type": "Health Related Request",
    "request_reason": "Noise Ordinance Complaint",
    "date_created": "2026-02-14T11:56:54.000",
    "date_modified": "2026-02-14T11:56:57.000",
    "request_status": "Pending",
    "responsible_agency": "Health Department",
    "final_address": "2444 Dreux Ave, New Orleans, Louisiana, 70122",
    "address_councildis": "D",
    "status": "Pending",
    "rowid": "1258570",
    "final_x": "3685710.50889",
    "final_y": "552075.21519",
    "longitude": "-90.05405043050037",
    "latitude": "30.011886738314047",
    "geocoded_column": {
      "latitude": "30.011886738314047",
      "longitude": "-90.05405043050037"
    }
  },
  {
    "service_request": "2026-1258569",
    "request_type": "Abandoned Vehicles",
    "request_reason": "Abandoned/Junk Vehicles",
    "date_created": "2026-02-14T10:52:13.000",
    "date_modified": "2026-02-14T10:52:15.000",
    "request_status": "Pending",
    "responsible_agency": "Department of Public Works",
    "final_address": "718 Piety St",
    "address_councildis": "C",
    "status": "Pending",
    "rowid": "1258569",
    "final_x": "3689474.26127",
    "final_y": "534455.121605",
    "longitude": "-90.04278617029769",
    "latitude": "29.963321721167194",
    "geocoded_column": {
      "latitude": "29.963321721167194",
      "longitude": "-90.04278617029769"
    }
  },
  {
    "service_request": "2026-1258568",
    "request_type": "Traffic Signals",
    "request_reason": "Traffic Signal Malfunctioning or Damaged",
    "date_created": "2026-02-14T08:03:36.000",
    "date_modified": "2026-02-14T08:03:38.000",
    "request_status": "Pending",
    "responsible_agency": "Department of Public Works",
    "final_address": "5801 S Claiborne Ave",
    "address_councildis": "A",
    "status": "Pending",
    "rowid": "1258568",
    "final_x": "3667635.2473",
    "final_y": "526968.123006",
    "longitude": "-90.11200357189315",
    "latitude": "29.94339318682717",
    "geocoded_column": {
      "latitude": "29.94339318682717",
      "longitude": "-90.11200357189315"
    }
  },
  {
    "service_request": "2026-1258567",
    "request_type": "Trash/Recycling",
    "request_reason": "Missed Trash Pick-Up",
    "date_created": "2026-02-14T07:35:10.000",
    "date_modified": "2026-02-14T07:35:12.000",
    "request_status": "Pending",
    "responsible_agency": "Department of Sanitation",
    "final_address": "4843 Rosemont Pl",
    "address_councildis": "E",
    "status": "Assigned to Contractor",
    "contractor": "Waste Pro",
    "rowid": "1258567",
    "final_x": "3702716.62762",
    "final_y": "555475.004953",
    "longitude": "-90.00019629202346",
    "latitude": "30.02070183511332",
    "geocoded_column": {
      "latitude": "30.02070183511332",
      "longitude": "-90.00019629202346"
    }
  },
  {
    "service_request": "2026-1258566",
    "request_type": "Streetlights",
    "request_reason": "Streetlight Outage/Malfunction",
    "date_created": "2026-02-14T07:24:54.000",
    "date_modified": "2026-02-14T07:24:57.000",
    "request_status": "Pending",
    "responsible_agency": "Department of Public Works",
    "final_address": "911 Emerald St",
    "address_councildis": "D",
    "status": "Pending",
    "rowid": "1258566",
    "final_x": "3670781.14772",
    "final_y": "554935.443608",
    "longitude": "-90.1011215717205",
    "latitude": "30.020201211945302",
    "geocoded_column": {
      "latitude": "30.020201211945302",
      "longitude": "-90.1011215717205"
    }
  },
  {
    "service_request": "2026-1258565",
    "request_type": "Roads and Streets",
    "request_reason": "Debris in Driving Lanes",
    "date_created": "2026-02-14T07:11:20.000",
    "date_modified": "2026-02-14T07:11:22.000",
    "request_status": "Pending",
    "responsible_agency": "Department of Public Works",
    "final_address": "2542 Bienville Ave",
    "address_councildis": "B",
    "status": "Pending",
    "rowid": "1258565",
    "final_x": "3676287.86984",
    "final_y": "535281.941254",
    "longitude": "-90.0843988897498",
    "latitude": "29.965996977742776",
    "geocoded_column": {
      "latitude": "29.965996977742776",
      "longitude": "-90.0843988897498"
    }
  },
  {
    "service_request": "2026-1258564",
    "request_type": "Trash/Recycling",
    "request_reason": "Missed Trash Pick-Up",
    "date_created": "2026-02-14T03:10:20.000",
    "date_modified": "2026-02-14T03:10:22.000",
    "request_status": "Pending",
    "responsible_agency": "Department of Sanitation",
    "final_address": "4501 Lonely Oak Dr",
    "address_councildis": "E",
    "status": "Assigned to Contractor",
    "contractor": "Waste Pro",
    "rowid": "1258564",
    "final_x": "3702500.10826",
    "final_y": "553199.513687",
    "longitude": "-90.00096402709364",
    "latitude": "30.01445202947477",
    "geocoded_column": {
      "latitude": "30.01445202947477",
      "longitude": "-90.00096402709364"
    }
  },
  {
    "service_request": "2026-1258563",
    "request_type": "Trash/Recycling",
    "request_reason": "Order Trash Cart",
    "date_created": "2026-02-14T00:56:45.000",
    "date_modified": "2026-02-14T00:56:47.000",
    "request_status": "Pending",
    "responsible_agency": "Department of Sanitation",
    "final_address": "4208 Dumaine St",
    "address_councildis": "A",
    "status": "Assigned to Contractor",
    "contractor": "IV Waste",
    "rowid": "1258563",
    "final_x": "3672299.97019",
    "final_y": "541143.79182",
    "longitude": "-90.09679282314937",
    "latitude": "29.98223399779998",
    "geocoded_column": {
      "latitude": "29.98223399779998",
      "longitude": "-90.09679282314937"
    }
  },
  {
    "service_request": "2026-1258562",
    "request_type": "Safety & Permits",
    "request_reason": "Licenses & Permits",
    "date_created": "2026-02-13T22:55:04.000",
    "date_modified": "2026-02-13T22:55:07.000",
    "request_status": "Pending",
    "responsible_agency": "Safety and Permits",
    "final_address": "4501 Toulouse St",
    "address_councildis": "A",
    "status": "Pending",
    "rowid": "1258562",
    "final_x": "3670777.06164",
    "final_y": "540863.037451",
    "longitude": "-90.10161245309509",
    "latitude": "29.981507120381384",
    "geocoded_column": {
      "latitude": "29.981507120381384",
      "longitude": "-90.10161245309509"
    }
  },
  {
    "service_request": "2026-1258561",
    "request_type": "Trash/Recycling",
    "request_reason": "Request a Large Item Pick Up",
    "date_created": "2026-02-13T22:31:04.000",
    "date_modified": "2026-02-13T22:31:07.000",
    "request_status": "Pending",
    "responsible_agency": "Department of Sanitation",
    "final_address": "4018 Virgil Blvd",
    "address_councildis": "D",
    "status": "Assigned to Contractor",
    "contractor": "IV Waste",
    "rowid": "1258561",
    "final_x": "3679742.51637",
    "final_y": "547188.369681",
    "longitude": "-90.07307566710881",
    "latitude": "29.99863152019749",
    "geocoded_column": {
      "latitude": "29.99863152019749",
      "longitude": "-90.07307566710881"
    }
  },
  {
    "service_request": "2026-1258560",
    "request_type": "General Services",
    "request_reason": "General Service Request",
    "date_created": "2026-02-13T22:25:42.000",
    "date_modified": "2026-02-13T22:25:44.000",
    "request_status": "Pending",
    "responsible_agency": "Orleans Parish Communication District",
    "final_address": "Poydras street St.Charles operable Mardi Gras",
    "status": "Pending",
    "rowid": "1258560",
    "longitude": "0.0",
    "latitude": "0.0",
    "geocoded_column": {
      "latitude": "0.0",
      "longitude": "0.0"
    }
  },
  {
    "service_request": "2026-1258559",
    "request_type": "Trash/Recycling",
    "request_reason": "Order Trash Cart",
    "date_created": "2026-02-13T22:17:11.000",
    "date_modified": "2026-02-14T07:26:25.000",
    "request_status": "Pending",
    "responsible_agency": "Department of Sanitation",
    "final_address": "5427 Charlotte Dr",
    "address_councildis": "D",
    "status": "Assigned to Contractor",
    "contractor": "IV Waste",
    "rowid": "1258559",
    "final_x": "3680150.05538",
    "final_y": "552543.928598",
    "longitude": "-90.07160195600596",
    "latitude": "30.013345056758563",
    "geocoded_column": {
      "latitude": "30.013345056758563",
      "longitude": "-90.07160195600596"
    }
  },
  {
    "service_request": "2026-1258558",
    "request_type": "Health Related Request",
    "request_reason": "Noise Ordinance Complaint",
    "date_created": "2026-02-13T21:05:49.000",
    "date_modified": "2026-02-13T21:05:51.000",
    "request_status": "Pending",
    "responsible_agency": "Health Department",
    "final_address": "gentilly terrace",
    "status": "Pending",
    "rowid": "1258558",
    "longitude": "0.0",
    "latitude": "0.0",
    "geocoded_column": {
      "latitude": "0.0",
      "longitude": "0.0"
    }
  },
  {
    "service_request": "2026-1258557",
    "request_type": "General Services",
    "request_reason": "General Service Request",
    "date_created": "2026-02-13T20:01:30.000",
    "date_modified": "2026-02-13T20:01:32.000",
    "request_status": "Pending",
    "responsible_agency": "Orleans Parish Communication District",
    "final_address": "4808 Louisa Dr",
    "address_councildis": "D",
    "status": "Pending",
    "rowid": "1258557",
    "final_x": "3690756.748",
    "final_y": "551312.583829",
    "longitude": "-90.03813450747325",
    "latitude": "30.009633906220994",
    "geocoded_column": {
      "latitude": "30.009633906220994",
      "longitude": "-90.03813450747325"
    }
  },
  {
    "service_request": "2026-1258556",
    "request_type": "Property Maintenance",
    "request_reason": "Property Maintenance",
    "date_created": "2026-02-13T19:50:39.000",
    "date_modified": "2026-02-13T19:50:41.000",
    "request_status": "Pending",
    "responsible_agency": "Department of Code Enforcement",
    "final_address": "1124 Leboeuf St",
    "address_councildis": "C",
    "status": "Pending",
    "rowid": "1258556",
    "final_x": "3689788.4166",
    "final_y": "527229.930623",
    "longitude": "-90.0420512302213",
    "latitude": "29.943445207933017",
    "geocoded_column": {
      "latitude": "29.943445207933017",
      "longitude": "-90.0420512302213"
    }
  },
  {
    "service_request": "2026-1258555",
    "request_type": "Property Maintenance",
    "request_reason": "Property Maintenance",
    "date_created": "2026-02-13T19:00:23.000",
    "date_modified": "2026-02-13T19:00:25.000",
    "request_status": "Pending",
    "responsible_agency": "Department of Code Enforcement",
    "final_address": "3300 Preston Pl Apt F77",
    "address_councildis": "C",
    "status": "Pending",
    "rowid": "1258555",
    "final_x": "3709030.54091",
    "final_y": "518420.47359",
    "longitude": "-89.9816275377594",
    "latitude": "29.918612039524096",
    "geocoded_column": {
      "latitude": "29.918612039524096",
      "longitude": "-89.9816275377594"
    }
  },
  {
    "service_request": "2026-1258554",
    "request_type": "Healthy Homes",
    "request_reason": "Healthy Homes",
    "date_created": "2026-02-13T18:52:24.000",
    "date_modified": "2026-02-13T18:52:28.000",
    "request_status": "Pending",
    "responsible_agency": "Department of Code Enforcement",
    "final_address": "1203 Leboeuf St",
    "address_councildis": "C",
    "status": "Pending",
    "rowid": "1258554",
    "final_x": "3689678.9007",
    "final_y": "527079.381374",
    "longitude": "-90.0424023542296",
    "latitude": "29.943034641982248",
    "geocoded_column": {
      "latitude": "29.943034641982248",
      "longitude": "-90.0424023542296"
    }
  },
  {
    "service_request": "2026-1258553",
    "request_type": "Healthy Homes",
    "request_reason": "Healthy Homes",
    "date_created": "2026-02-13T18:34:01.000",
    "date_modified": "2026-02-13T18:34:03.000",
    "request_status": "Pending",
    "responsible_agency": "Department of Code Enforcement",
    "final_address": "1203 Leboeuf St",
    "address_councildis": "C",
    "status": "Pending",
    "rowid": "1258553",
    "final_x": "3689678.9007",
    "final_y": "527079.381374",
    "longitude": "-90.0424023542296",
    "latitude": "29.943034641982248",
    "geocoded_column": {
      "latitude": "29.943034641982248",
      "longitude": "-90.0424023542296"
    }
  },
  {
    "service_request": "2026-1258552",
    "request_type": "Trash/Recycling",
    "request_reason": "Replace Trash Cart",
    "date_created": "2026-02-13T18:23:29.000",
    "date_modified": "2026-02-13T18:23:31.000",
    "request_status": "Pending",
    "responsible_agency": "Department of Sanitation",
    "final_address": "3901 Tall Pines Dr",
    "address_councildis": "C",
    "status": "Assigned to Contractor",
    "contractor": "Richards Disposal",
    "rowid": "1258552",
    "final_x": "3704556.44561",
    "final_y": "513094.960561",
    "longitude": "-89.99594598712314",
    "latitude": "29.904113071880307",
    "geocoded_column": {
      "latitude": "29.904113071880307",
      "longitude": "-89.99594598712314"
    }
  },
  {
    "service_request": "2026-1258551",
    "request_type": "Safety & Permits",
    "request_reason": "Zoning Enforcement",
    "date_created": "2026-02-13T18:06:20.000",
    "date_modified": "2026-02-13T18:06:24.000",
    "request_status": "Pending",
    "responsible_agency": "Safety and Permits",
    "final_address": "2927 General Meyer Ave",
    "address_councildis": "C",
    "status": "Pending",
    "rowid": "1258551",
    "final_x": "3694990.10083",
    "final_y": "526598.015038",
    "longitude": "-90.02565101667055",
    "latitude": "29.94154544999636",
    "geocoded_column": {
      "latitude": "29.94154544999636",
      "longitude": "-90.02565101667055"
    }
  },
  {
    "service_request": "2026-1258550",
    "request_type": "Health Related Request",
    "request_reason": "Noise Ordinance Complaint",
    "date_created": "2026-02-13T18:00:40.000",
    "date_modified": "2026-02-13T18:00:42.000",
    "request_status": "Pending",
    "responsible_agency": "Health Department",
    "final_address": "2122 Pine St, New Orleans, Louisiana, 70118",
    "address_councildis": "A",
    "status": "Pending",
    "rowid": "1258550",
    "final_x": "3665779.16256",
    "final_y": "529485.652545",
    "longitude": "-90.11777941092338",
    "latitude": "29.950369848114935",
    "geocoded_column": {
      "latitude": "29.950369848114935",
      "longitude": "-90.11777941092338"
    }
  },
  {
    "service_request": "2026-1258549",
    "request_type": "Roads and Streets",
    "request_reason": "Street Subsidence (Sinking)",
    "date_created": "2026-02-13T17:40:06.000",
    "date_modified": "2026-02-13T17:40:08.000",
    "request_status": "Pending",
    "responsible_agency": "Sewerage & Water Board",
    "final_address": "3029 St Claude Ave",
    "address_councildis": "C",
    "status": "Pending",
    "rowid": "1258549",
    "final_x": "3688718.58972",
    "final_y": "536180.432711",
    "longitude": "-90.045111235701",
    "latitude": "29.968089105148152",
    "geocoded_column": {
      "latitude": "29.968089105148152",
      "longitude": "-90.045111235701"
    }
  },
  {
    "service_request": "2026-1258548",
    "request_type": "Roads and Streets",
    "request_reason": "Road Shoulder Damage",
    "date_created": "2026-02-13T17:28:00.000",
    "date_modified": "2026-02-13T17:28:01.000",
    "request_status": "Pending",
    "responsible_agency": "Department of Public Works",
    "final_address": "4132 St Charles Ave",
    "address_councildis": "B",
    "status": "Pending",
    "rowid": "1258548",
    "final_x": "3671712.26548",
    "final_y": "520782.789241",
    "longitude": "-90.09934165922358",
    "latitude": "29.926265398527075",
    "geocoded_column": {
      "latitude": "29.926265398527075",
      "longitude": "-90.09934165922358"
    }
  },
  {
    "service_request": "2026-1258547",
    "request_type": "Abandoned Vehicles",
    "request_reason": "Abandoned/Junk Vehicles",
    "date_created": "2026-02-13T17:20:09.000",
    "date_modified": "2026-02-13T17:20:13.000",
    "request_status": "Pending",
    "responsible_agency": "Department of Public Works",
    "final_address": "1408 Lowerline St",
    "address_councildis": "A",
    "status": "Pending",
    "rowid": "1258547",
    "final_x": "3664086.06964",
    "final_y": "527524.316607",
    "longitude": "-90.12319074227567",
    "latitude": "29.94502608383135",
    "geocoded_column": {
      "latitude": "29.94502608383135",
      "longitude": "-90.12319074227567"
    }
  },
  {
    "service_request": "2026-1258546",
    "request_type": "Safety & Permits",
    "request_reason": "Zoning Enforcement",
    "date_created": "2026-02-13T17:05:32.000",
    "date_modified": "2026-02-13T17:05:34.000",
    "request_status": "Pending",
    "responsible_agency": "Safety and Permits",
    "final_address": "1441 State St",
    "address_councildis": "A",
    "status": "Pending",
    "rowid": "1258546",
    "final_x": "3665523.58208",
    "final_y": "521520.715833",
    "longitude": "-90.11885296057069",
    "latitude": "29.928476273247483",
    "geocoded_column": {
      "latitude": "29.928476273247483",
      "longitude": "-90.11885296057069"
    }
  },
  {
    "service_request": "2026-1258545",
    "request_type": "Drainage",
    "request_reason": "Ditch and Culvert Maintenance",
    "date_created": "2026-02-13T17:04:20.000",
    "date_modified": "2026-02-13T17:04:21.000",
    "request_status": "Pending",
    "responsible_agency": "Department of Public Works",
    "final_address": "649 S Dupre St",
    "address_councildis": "B",
    "status": "Pending",
    "rowid": "1258545",
    "final_x": "3673177.51643",
    "final_y": "533917.915525",
    "longitude": "-90.09426789740232",
    "latitude": "29.962339217089426",
    "geocoded_column": {
      "latitude": "29.962339217089426",
      "longitude": "-90.09426789740232"
    }
  },
  {
    "service_request": "2026-1258544",
    "request_type": "Streetlights",
    "request_reason": "Streetlight Outage/Malfunction",
    "date_created": "2026-02-13T16:55:17.000",
    "date_modified": "2026-02-13T16:55:19.000",
    "request_status": "Pending",
    "responsible_agency": "Department of Public Works",
    "final_address": "4223 Loyola Ave",
    "address_councildis": "B",
    "status": "Pending",
    "rowid": "1258544",
    "final_x": "3671185.49364",
    "final_y": "523093.081979",
    "longitude": "-90.10092609278348",
    "latitude": "29.93263355056735",
    "geocoded_column": {
      "latitude": "29.93263355056735",
      "longitude": "-90.10092609278348"
    }
  },
  {
    "service_request": "2026-1258543",
    "request_type": "Drainage",
    "request_reason": "Catch Basin Not Draining",
    "date_created": "2026-02-13T15:59:25.000",
    "date_modified": "2026-02-13T15:59:28.000",
    "request_status": "Pending",
    "responsible_agency": "Sewerage & Water Board",
    "final_address": "1405 Athis St",
    "address_councildis": "D",
    "status": "Pending",
    "rowid": "1258543",
    "final_x": "3677559.70005",
    "final_y": "553707.677975",
    "longitude": "-90.07974588782669",
    "latitude": "30.01662312332398",
    "geocoded_column": {
      "latitude": "30.01662312332398",
      "longitude": "-90.07974588782669"
    }
  },
  {
    "service_request": "2026-1258542",
    "request_type": "Trash/Recycling",
    "request_reason": "Request a Large Item Pick Up",
    "date_created": "2026-02-13T15:50:01.000",
    "date_modified": "2026-02-13T15:50:03.000",
    "request_status": "Pending",
    "responsible_agency": "Department of Sanitation",
    "final_address": "923 St Peter St",
    "address_councildis": "C",
    "status": "Assigned to Contractor",
    "contractor": "IV Waste",
    "rowid": "1258542",
    "final_x": "3681818.67778",
    "final_y": "533019.01274",
    "longitude": "-90.06701174231925",
    "latitude": "29.95960777829722",
    "geocoded_column": {
      "latitude": "29.95960777829722",
      "longitude": "-90.06701174231925"
    }
  },
  {
    "service_request": "2026-1258541",
    "request_type": "Property Maintenance",
    "request_reason": "Property Maintenance",
    "date_created": "2026-02-13T15:47:30.000",
    "date_modified": "2026-02-13T15:48:32.000",
    "request_status": "Pending",
    "responsible_agency": "Department of Code Enforcement",
    "final_address": "3114 Urquhart St",
    "address_councildis": "C",
    "status": "Pending",
    "rowid": "1258541",
    "final_x": "3689302.7382",
    "final_y": "536662.775111",
    "longitude": "-90.04324932798569",
    "latitude": "29.969397306666934",
    "geocoded_column": {
      "latitude": "29.969397306666934",
      "longitude": "-90.04324932798569"
    }
  },
  {
    "service_request": "2026-1258540",
    "request_type": "Trash/Recycling",
    "request_reason": "Request a Large Item Pick Up",
    "date_created": "2026-02-13T15:45:14.000",
    "date_modified": "2026-02-14T07:09:35.000",
    "case_close_date": "2026-02-14T01:09:34.000",
    "request_status": "Closed",
    "responsible_agency": "Department of Sanitation",
    "final_address": "923 St Peter St",
    "address_councildis": "C",
    "status": "Assigned to Contractor",
    "contractor": "IV Waste",
    "contractor_action": "Duplicate",
    "rowid": "1258540",
    "final_x": "3681818.67778",
    "final_y": "533019.01274",
    "longitude": "-90.06701174231925",
    "latitude": "29.95960777829722",
    "geocoded_column": {
      "latitude": "29.95960777829722",
      "longitude": "-90.06701174231925"
    }
  },
  {
    "service_request": "2026-1258539",
    "request_type": "Trash/Recycling",
    "request_reason": "Request a Large Item Pick Up",
    "date_created": "2026-02-13T15:42:45.000",
    "date_modified": "2026-02-13T15:42:50.000",
    "request_status": "Pending",
    "responsible_agency": "Department of Sanitation",
    "final_address": "516 S Genois St",
    "address_councildis": "B",
    "status": "Assigned to Contractor",
    "contractor": "IV Waste",
    "rowid": "1258539",
    "final_x": "3671559.3602",
    "final_y": "535763.243207",
    "longitude": "-90.09931505696358",
    "latitude": "29.967461265533448",
    "geocoded_column": {
      "latitude": "29.967461265533448",
      "longitude": "-90.09931505696358"
    }
  },
  {
    "service_request": "2026-1258538",
    "request_type": "Trash/Recycling",
    "request_reason": "Request a Large Item Pick Up",
    "date_created": "2026-02-13T15:35:28.000",
    "date_modified": "2026-02-13T15:36:27.000",
    "request_status": "Pending",
    "responsible_agency": "Department of Sanitation",
    "final_address": "721 Flood St",
    "address_councildis": "E",
    "status": "Assigned to Contractor",
    "contractor": "Waste Pro",
    "rowid": "1258538",
    "final_x": "3697380.84643",
    "final_y": "532499.95002",
    "longitude": "-90.0178890844462",
    "latitude": "29.95769846429614",
    "geocoded_column": {
      "latitude": "29.95769846429614",
      "longitude": "-90.0178890844462"
    }
  },
  {
    "service_request": "2026-1258537",
    "request_type": "Trash/Recycling",
    "request_reason": "Request a Large Item Pick Up",
    "date_created": "2026-02-13T15:32:33.000",
    "date_modified": "2026-02-13T15:32:34.000",
    "request_status": "Pending",
    "responsible_agency": "Department of Sanitation",
    "final_address": "1011 N Derbigny St",
    "address_councildis": "D",
    "status": "Assigned to Contractor",
    "contractor": "IV Waste",
    "rowid": "1258537",
    "final_x": "3680181.62312",
    "final_y": "535826.296327",
    "longitude": "-90.07208360671831",
    "latitude": "29.967376495562362",
    "geocoded_column": {
      "latitude": "29.967376495562362",
      "longitude": "-90.07208360671831"
    }
  },
  {
    "service_request": "2026-1258536",
    "request_type": "Trash/Recycling",
    "request_reason": "Repair Trash Cart",
    "date_created": "2026-02-13T15:29:21.000",
    "date_modified": "2026-02-14T07:24:25.000",
    "request_status": "Pending",
    "responsible_agency": "Department of Sanitation",
    "final_address": "1421 Cabrini Ct",
    "address_councildis": "D",
    "status": "Assigned to Contractor",
    "contractor": "IV Waste",
    "rowid": "1258536",
    "final_x": "3677962.78888",
    "final_y": "553086.582999",
    "longitude": "-90.07849378857378",
    "latitude": "30.01490320434284",
    "geocoded_column": {
      "latitude": "30.01490320434284",
      "longitude": "-90.07849378857378"
    }
  },
  {
    "service_request": "2026-1258535",
    "request_type": "Trash/Recycling",
    "request_reason": "Replace Trash Cart",
    "date_created": "2026-02-13T15:28:10.000",
    "date_modified": "2026-02-13T15:28:12.000",
    "request_status": "Pending",
    "responsible_agency": "Department of Sanitation",
    "final_address": "1714 Louisiana Ave",
    "address_councildis": "B",
    "status": "Assigned to Contractor",
    "contractor": "IV Waste",
    "rowid": "1258535",
    "final_x": "3673888.56814",
    "final_y": "521980.205242",
    "longitude": "-90.09243074543406",
    "latitude": "29.929493282033985",
    "geocoded_column": {
      "latitude": "29.929493282033985",
      "longitude": "-90.09243074543406"
    }
  },
  {
    "service_request": "2026-1258534",
    "request_type": "Safety & Permits",
    "request_reason": "Zoning Enforcement",
    "date_created": "2026-02-13T15:26:07.000",
    "date_modified": "2026-02-13T15:27:45.000",
    "request_status": "Pending",
    "responsible_agency": "Safety and Permits",
    "final_address": "3816 Orleans Ave",
    "address_councildis": "A",
    "status": "Pending",
    "rowid": "1258534",
    "final_x": "3673345.88507",
    "final_y": "539510.465034",
    "longitude": "-90.09354512782167",
    "latitude": "29.97771183071077",
    "geocoded_column": {
      "latitude": "29.97771183071077",
      "longitude": "-90.09354512782167"
    }
  },
  {
    "service_request": "2026-1258533",
    "request_type": "Utility Poles",
    "request_reason": "Wires Sagging/Hanging Low",
    "date_created": "2026-02-13T15:21:10.000",
    "date_modified": "2026-02-13T15:21:14.000",
    "request_status": "Pending",
    "responsible_agency": "Utility Company Collective",
    "final_address": "1726 Egania St",
    "address_councildis": "E",
    "status": "Pending",
    "rowid": "1258533",
    "final_x": "3697460.15792",
    "final_y": "536537.168327",
    "longitude": "-90.01749224597185",
    "latitude": "29.96879687475703",
    "geocoded_column": {
      "latitude": "29.96879687475703",
      "longitude": "-90.01749224597185"
    }
  },
  {
    "service_request": "2026-1258532",
    "request_type": "Abandoned Vehicles",
    "request_reason": "Abandoned/Junk Vehicles",
    "date_created": "2026-02-13T15:19:37.000",
    "date_modified": "2026-02-13T15:19:39.000",
    "request_status": "Pending",
    "responsible_agency": "Department of Public Works",
    "final_address": "1429 Music St",
    "address_councildis": "C",
    "status": "Pending",
    "rowid": "1258532",
    "final_x": "3686817.23567",
    "final_y": "537806.542152",
    "longitude": "-90.05105830313967",
    "latitude": "29.972618978090896",
    "geocoded_column": {
      "latitude": "29.972618978090896",
      "longitude": "-90.05105830313967"
    }
  },
  {
    "service_request": "2026-1258531",
    "request_type": "Trash/Recycling",
    "request_reason": "Repair Trash Cart",
    "date_created": "2026-02-13T15:13:30.000",
    "date_modified": "2026-02-14T07:21:07.000",
    "request_status": "Pending",
    "responsible_agency": "Department of Sanitation",
    "final_address": "4200 BLK Encampment St",
    "address_councildis": "D",
    "status": "Assigned to Contractor",
    "contractor": "IV Waste",
    "rowid": "1258531",
    "final_x": "3676509.01145",
    "final_y": "547600.96725",
    "longitude": "-90.08327611534577",
    "latitude": "29.999863409748606",
    "geocoded_column": {
      "latitude": "29.999863409748606",
      "longitude": "-90.08327611534577"
    }
  },
  {
    "service_request": "2026-1258530",
    "request_type": "Trash/Recycling",
    "request_reason": "Damaged Caused By Contractor",
    "date_created": "2026-02-13T15:11:40.000",
    "date_modified": "2026-02-13T15:11:41.000",
    "request_status": "Pending",
    "responsible_agency": "Department of Sanitation",
    "final_address": "2656 Ramsey Dr",
    "address_councildis": "C",
    "status": "Assigned to Contractor",
    "contractor": "Richards Disposal",
    "rowid": "1258530",
    "final_x": "3703169.11121",
    "final_y": "521053.824633",
    "longitude": "-90.00003212642137",
    "latitude": "29.926041670146056",
    "geocoded_column": {
      "latitude": "29.926041670146056",
      "longitude": "-90.00003212642137"
    }
  },
  {
    "service_request": "2026-1258529",
    "request_type": "Safety & Permits",
    "request_reason": "Licenses & Permits",
    "date_created": "2026-02-13T15:08:26.000",
    "date_modified": "2026-02-13T15:08:28.000",
    "request_status": "Pending",
    "responsible_agency": "Safety and Permits",
    "final_address": "2832 St Ann St",
    "address_councildis": "A",
    "status": "Pending",
    "rowid": "1258529",
    "final_x": "3676221.36078",
    "final_y": "537707.722952",
    "longitude": "-90.08452543424423",
    "latitude": "29.97266904560213",
    "geocoded_column": {
      "latitude": "29.97266904560213",
      "longitude": "-90.08452543424423"
    }
  },
  {
    "service_request": "2026-1258528",
    "request_type": "Property Maintenance",
    "request_reason": "Property Maintenance",
    "date_created": "2026-02-13T15:06:27.000",
    "date_modified": "2026-02-13T15:06:28.000",
    "request_status": "Pending",
    "responsible_agency": "Department of Code Enforcement",
    "final_address": "1322 Brooklyn Ave",
    "address_councildis": "C",
    "status": "Pending",
    "rowid": "1258528",
    "final_x": "3686324.17602",
    "final_y": "526542.081406",
    "longitude": "-90.05301297602566",
    "latitude": "29.941660746376066",
    "geocoded_column": {
      "latitude": "29.941660746376066",
      "longitude": "-90.05301297602566"
    }
  },
  {
    "service_request": "2026-1258527",
    "request_type": "Health Related Request",
    "request_reason": "Noise Ordinance Complaint",
    "date_created": "2026-02-13T15:05:36.000",
    "date_modified": "2026-02-13T15:05:38.000",
    "request_status": "Pending",
    "responsible_agency": "Health Department",
    "final_address": "2444 Dreux Ave, New Orleans, Louisiana, 70122",
    "address_councildis": "D",
    "status": "Pending",
    "rowid": "1258527",
    "final_x": "3685710.50889",
    "final_y": "552075.21519",
    "longitude": "-90.05405043050037",
    "latitude": "30.011886738314047",
    "geocoded_column": {
      "latitude": "30.011886738314047",
      "longitude": "-90.05405043050037"
    }
  },
  {
    "service_request": "2026-1258526",
    "request_type": "Streetlights",
    "request_reason": "Streetlight Outage/Malfunction",
    "date_created": "2026-02-13T15:04:20.000",
    "date_modified": "2026-02-13T15:06:04.000",
    "request_status": "Pending",
    "responsible_agency": "Department of Public Works",
    "final_address": "3640 Louisiana Avenue Prkwy",
    "address_councildis": "B",
    "status": "Pending",
    "rowid": "1258526",
    "final_x": "3671412.58516",
    "final_y": "528251.802752",
    "longitude": "-90.10003389505832",
    "latitude": "29.94681163908817",
    "geocoded_column": {
      "latitude": "29.94681163908817",
      "longitude": "-90.10003389505832"
    }
  },
  {
    "service_request": "2026-1258525",
    "request_type": "Trash/Recycling",
    "request_reason": "Request a Large Item Pick Up",
    "date_created": "2026-02-13T15:02:06.000",
    "date_modified": "2026-02-13T15:02:08.000",
    "request_status": "Pending",
    "responsible_agency": "Department of Sanitation",
    "final_address": "6516 Bellaire Dr",
    "address_councildis": "A",
    "status": "Assigned to Contractor",
    "contractor": "IV Waste",
    "rowid": "1258525",
    "final_x": "3664431.94816",
    "final_y": "551450.278165",
    "longitude": "-90.12129963561242",
    "latitude": "30.010804436871908",
    "geocoded_column": {
      "latitude": "30.010804436871908",
      "longitude": "-90.12129963561242"
    }
  },
  {
    "service_request": "2026-1258524",
    "request_type": "Streetlights",
    "request_reason": "Streetlight Knocked Down/Leaning",
    "date_created": "2026-02-13T15:00:45.000",
    "date_modified": "2026-02-13T15:01:51.000",
    "request_status": "Pending",
    "responsible_agency": "Department of Public Works",
    "final_address": "3615 Louisiana Avenue Prkwy",
    "address_councildis": "B",
    "status": "Pending",
    "rowid": "1258524",
    "final_x": "3671519.47835",
    "final_y": "528292.407616",
    "longitude": "-90.09969501316901",
    "latitude": "29.94692012518076",
    "geocoded_column": {
      "latitude": "29.94692012518076",
      "longitude": "-90.09969501316901"
    }
  },
  {
    "service_request": "2026-1258523",
    "request_type": "General Services",
    "request_reason": "General Service Request",
    "date_created": "2026-02-13T14:59:32.000",
    "date_modified": "2026-02-13T15:25:41.000",
    "case_close_date": "2026-02-13T09:25:40.000",
    "request_status": "Closed",
    "responsible_agency": "Orleans Parish Communication District",
    "final_address": "4422 Chestnut St",
    "address_councildis": "B",
    "status": "Question Answered.",
    "rowid": "1258523",
    "final_x": "3670745.88046",
    "final_y": "519457.795575",
    "longitude": "-90.1024372004076",
    "latitude": "29.922650669594727",
    "geocoded_column": {
      "latitude": "29.922650669594727",
      "longitude": "-90.1024372004076"
    }
  },
  {
    "service_request": "2026-1258522",
    "request_type": "Street and Traffic Signs",
    "request_reason": "Traffic or Parking Sign Damaged or Missing",
    "date_created": "2026-02-13T14:58:35.000",
    "date_modified": "2026-02-13T14:58:36.000",
    "request_status": "Pending",
    "responsible_agency": "Department of Public Works",
    "final_address": "Saint Claude Avenue & Tupelo Street",
    "address_councildis": "E",
    "status": "Pending",
    "rowid": "1258522",
    "final_x": "3699465.41002",
    "final_y": "533389.969156",
    "longitude": "-90.01127425308601",
    "latitude": "29.960079733241045",
    "geocoded_column": {
      "latitude": "29.960079733241045",
      "longitude": "-90.01127425308601"
    }
  },
  {
    "service_request": "2026-1258521",
    "request_type": "Street and Traffic Signs",
    "request_reason": "Traffic or Parking Sign Damaged or Missing",
    "date_created": "2026-02-13T14:57:25.000",
    "date_modified": "2026-02-13T14:57:26.000",
    "request_status": "Pending",
    "responsible_agency": "Department of Public Works",
    "final_address": "N CLAIBORNE AVE & TUPELO ST",
    "address_councildis": "E",
    "status": "Pending",
    "rowid": "1258521",
    "final_x": "3700196.4",
    "final_y": "535047.78",
    "longitude": "-90.00890544988259",
    "latitude": "29.964614908925387",
    "geocoded_column": {
      "latitude": "29.964614908925387",
      "longitude": "-90.00890544988259"
    }
  },
  {
    "service_request": "2026-1258520",
    "request_type": "Trash/Recycling",
    "request_reason": "Request a Large Item Pick Up",
    "date_created": "2026-02-13T14:56:57.000",
    "date_modified": "2026-02-13T14:56:59.000",
    "request_status": "Pending",
    "responsible_agency": "Department of Sanitation",
    "final_address": "9930 Morrison Rd",
    "address_councildis": "E",
    "status": "Assigned to Contractor",
    "contractor": "Waste Pro",
    "rowid": "1258520",
    "final_x": "3708367.40171",
    "final_y": "563189.10416",
    "longitude": "-89.98205423723536",
    "latitude": "30.041730587281684",
    "geocoded_column": {
      "latitude": "30.041730587281684",
      "longitude": "-89.98205423723536"
    }
  },
  {
    "service_request": "2026-1258519",
    "request_type": "Trash/Recycling",
    "request_reason": "Request a Large Item Pick Up",
    "date_created": "2026-02-13T14:49:16.000",
    "date_modified": "2026-02-13T14:49:19.000",
    "request_status": "Pending",
    "responsible_agency": "Department of Sanitation",
    "final_address": "3 Acadiana Pl",
    "address_councildis": "E",
    "status": "Assigned to Contractor",
    "contractor": "Waste Pro",
    "rowid": "1258519",
    "final_x": "3725205.41881",
    "final_y": "564362.045921",
    "longitude": "-89.92879520369355",
    "latitude": "30.044398951492727",
    "geocoded_column": {
      "latitude": "30.044398951492727",
      "longitude": "-89.92879520369355"
    }
  },
  {
    "service_request": "2026-1258518",
    "request_type": "Trash/Recycling",
    "request_reason": "Missed Trash Pick-Up",
    "date_created": "2026-02-13T14:43:15.000",
    "date_modified": "2026-02-13T15:32:18.000",
    "case_close_date": "2026-02-13T09:32:16.000",
    "request_status": "Closed",
    "responsible_agency": "Department of Sanitation",
    "final_address": "1729 Prytania St",
    "address_councildis": "B",
    "status": "Invalid Request",
    "contractor": "IV Waste",
    "contractor_action": "Invalid Request",
    "rowid": "1258518",
    "final_x": "3679148.90645",
    "final_y": "524538.366524",
    "longitude": "-90.0757361850112",
    "latitude": "29.93636969466365",
    "geocoded_column": {
      "latitude": "29.93636969466365",
      "longitude": "-90.0757361850112"
    }
  },
  {
    "service_request": "2026-1258517",
    "request_type": "Trash/Recycling",
    "request_reason": "Request a Large Item Pick Up",
    "date_created": "2026-02-13T14:42:36.000",
    "date_modified": "2026-02-13T14:42:37.000",
    "request_status": "Pending",
    "responsible_agency": "Department of Sanitation",
    "final_address": "7920 Branch Dr",
    "address_councildis": "E",
    "status": "Assigned to Contractor",
    "contractor": "Waste Pro",
    "rowid": "1258517",
    "final_x": "3714046.59237",
    "final_y": "569554.612198",
    "longitude": "-89.96386565212174",
    "latitude": "30.05904776344523",
    "geocoded_column": {
      "latitude": "30.05904776344523",
      "longitude": "-89.96386565212174"
    }
  },
  {
    "service_request": "2026-1258516",
    "request_type": "Trash/Recycling",
    "request_reason": "Request a Large Item Pick Up",
    "date_created": "2026-02-13T14:35:56.000",
    "date_modified": "2026-02-13T14:35:58.000",
    "request_status": "Pending",
    "responsible_agency": "Department of Sanitation",
    "final_address": "7070 Queensway Dr",
    "address_councildis": "E",
    "status": "Assigned to Contractor",
    "contractor": "Waste Pro",
    "rowid": "1258516",
    "final_x": "3719056.67621",
    "final_y": "569556.520102",
    "longitude": "-89.94802930670895",
    "latitude": "30.0588874143819",
    "geocoded_column": {
      "latitude": "30.0588874143819",
      "longitude": "-89.94802930670895"
    }
  },
  {
    "service_request": "2026-1258515",
    "request_type": "Health Related Request",
    "request_reason": "Noise Ordinance Complaint",
    "date_created": "2026-02-13T14:33:05.000",
    "date_modified": "2026-02-13T14:33:06.000",
    "request_status": "Pending",
    "responsible_agency": "Health Department",
    "final_address": "2444 Dreux Ave, New Orleans, Louisiana, 70122",
    "address_councildis": "D",
    "status": "Pending",
    "rowid": "1258515",
    "final_x": "3685710.50889",
    "final_y": "552075.21519",
    "longitude": "-90.05405043050037",
    "latitude": "30.011886738314047",
    "geocoded_column": {
      "latitude": "30.011886738314047",
      "longitude": "-90.05405043050037"
    }
  },
  {
    "service_request": "2026-1258514",
    "request_type": "Abandoned Vehicles",
    "request_reason": "Abandoned/Junk Vehicles",
    "date_created": "2026-02-13T14:27:58.000",
    "date_modified": "2026-02-13T14:28:00.000",
    "request_status": "Pending",
    "responsible_agency": "Department of Public Works",
    "final_address": "2501 Napoleon Ave",
    "address_councildis": "B",
    "status": "Pending",
    "rowid": "1258514",
    "final_x": "3670618.87527",
    "final_y": "524085.494268",
    "longitude": "-90.10268121577735",
    "latitude": "29.935379109795438",
    "geocoded_column": {
      "latitude": "29.935379109795438",
      "longitude": "-90.10268121577735"
    }
  },
  {
    "service_request": "2026-1258513",
    "request_type": "Trash/Recycling",
    "request_reason": "Replace Trash Cart",
    "date_created": "2026-02-13T14:24:48.000",
    "date_modified": "2026-02-13T14:24:49.000",
    "request_status": "Pending",
    "responsible_agency": "Department of Sanitation",
    "final_address": "7332 Dogwood Dr",
    "address_councildis": "E",
    "status": "Assigned to Contractor",
    "contractor": "Waste Pro",
    "rowid": "1258513",
    "final_x": "3701491.84215",
    "final_y": "560207.756765",
    "longitude": "-90.00389272339761",
    "latitude": "30.03375420109268",
    "geocoded_column": {
      "latitude": "30.03375420109268",
      "longitude": "-90.00389272339761"
    }
  },
  {
    "service_request": "2026-1258512",
    "request_type": "Trash/Recycling",
    "request_reason": "Request a Large Item Pick Up",
    "date_created": "2026-02-13T14:20:37.000",
    "date_modified": "2026-02-13T15:30:17.000",
    "request_status": "Pending",
    "responsible_agency": "Department of Sanitation",
    "final_address": "1229 N Johnson St",
    "address_councildis": "D",
    "status": "Assigned to Contractor",
    "contractor": "IV Waste",
    "rowid": "1258512",
    "final_x": "3679864.69263",
    "final_y": "537140.93524",
    "longitude": "-90.07303881458745",
    "latitude": "29.971000890018807",
    "geocoded_column": {
      "latitude": "29.971000890018807",
      "longitude": "-90.07303881458745"
    }
  },
  {
    "service_request": "2026-1258511",
    "request_type": "Streetlights",
    "request_reason": "Streetlight Outage/Malfunction",
    "date_created": "2026-02-13T14:19:55.000",
    "date_modified": "2026-02-13T14:25:35.000",
    "request_status": "Pending",
    "responsible_agency": "Department of Public Works",
    "final_address": "I 610 E & FRANKLIN AVE",
    "address_councildis": "D",
    "status": "Pending",
    "rowid": "1258511",
    "final_x": "3687228.08",
    "final_y": "544851.05",
    "longitude": "-90.04951151641174",
    "latitude": "29.99197622912803",
    "geocoded_column": {
      "latitude": "29.99197622912803",
      "longitude": "-90.04951151641174"
    }
  },
  {
    "service_request": "2026-1258510",
    "request_type": "Trash/Recycling",
    "request_reason": "Request a Large Item Pick Up",
    "date_created": "2026-02-13T14:16:02.000",
    "date_modified": "2026-02-13T14:16:04.000",
    "request_status": "Pending",
    "responsible_agency": "Department of Sanitation",
    "final_address": "12700 Lincoln Beach Blvd",
    "address_councildis": "E",
    "status": "Assigned to Contractor",
    "contractor": "Waste Pro",
    "rowid": "1258510",
    "final_x": "3714473.03461",
    "final_y": "570249.035047",
    "longitude": "-89.9624914571783",
    "latitude": "30.06094311903613",
    "geocoded_column": {
      "latitude": "30.06094311903613",
      "longitude": "-89.9624914571783"
    }
  },
  {
    "service_request": "2026-1258509",
    "request_type": "Trash/Recycling",
    "request_reason": "Illegal Dumping",
    "date_created": "2026-02-13T14:15:58.000",
    "date_modified": "2026-02-13T14:16:00.000",
    "request_status": "Pending",
    "responsible_agency": "Department of Code Enforcement",
    "final_address": "2415 Lamanche St",
    "address_councildis": "E",
    "status": "Pending",
    "rowid": "1258509",
    "final_x": "3699747.3512",
    "final_y": "538669.714633",
    "longitude": "-90.01019142870926",
    "latitude": "29.97458818860911",
    "geocoded_column": {
      "latitude": "29.97458818860911",
      "longitude": "-90.01019142870926"
    }
  },
  {
    "service_request": "2026-1258508",
    "request_type": "Roads and Streets",
    "request_reason": "Pothole",
    "date_created": "2026-02-13T14:13:30.000",
    "date_modified": "2026-02-13T14:13:32.000",
    "request_status": "Pending",
    "responsible_agency": "Department of Public Works",
    "final_address": "7400 BLK Chef Menteur Hwy",
    "address_councildis": "E",
    "status": "Pending",
    "rowid": "1258508",
    "final_x": "3702935.02684",
    "final_y": "552423.491397",
    "longitude": "-89.99961844770628",
    "latitude": "30.012304351370346",
    "geocoded_column": {
      "latitude": "30.012304351370346",
      "longitude": "-89.99961844770628"
    }
  },