[
  {
    "service_request": "2022-891745",
    "request_type": "Abandoned Vehicles",
    "request_reason": "Abandoned/Junk Vehicles",
    "date_created": "2022-06-14T23:54:36.000",
    "date_modified": "2022-06-14T23:54:36.000",
    "request_status": "Pending",
    "responsible_agency": "Department of Public Works",
    "final_address": "3718 Nashville Ave",
    "address_councildis": "A",
    "status": "Pending",
    "rowid": "891745",
    "final_x": "3668325.24263",
    "final_y": "529268.533441",
    "longitude": "-90.10974751434915",
    "latitude": "29.949698327684708",
    "geocoded_column": {
      "latitude": "29.949698327684708",
      "longitude": "-90.10974751434915"
    }
  },
  {
    "service_request": "2022-891744",
    "request_type": "Trash/Recycling",
    "request_reason": "Missed Trash Pick-Up",
    "date_created": "2022-06-14T23:53:11.000",
    "date_modified": "2022-06-14T23:53:12.000",
    "request_status": "Pending",
    "responsible_agency": "Department of Sanitation",
    "final_address": "1558 N Rocheblave St",
    "address_councildis": "D",
    "status": "Assigned to Contractor",
    "contractor": "Metro Disposal",
    "rowid": "891744",
    "final_x": "3679836.15343",
    "final_y": "539327.647178",
    "longitude": "-90.0730529886429",
    "latitude": "29.97701445666532",
    "geocoded_column": {
      "latitude": "29.97701445666532",
      "longitude": "-90.0730529886429"
    }
  },
  {
    "service_request": "2022-891743",
    "request_type": "Health Related Questions",
    "request_reason": "Noise Ordinance Complaint",
    "date_created": "2022-06-14T23:45:49.000",
    "date_modified": "2022-06-14T23:45:49.000",
    "request_status": "Pending",
    "responsible_agency": "Health Department",
    "final_address": "718 Bourbon St, New Orleans, Louisiana, 70116",
    "address_councildis": "C",
    "status": "Pending",
    "rowid": "891743",
    "final_x": "3682364.17781",
    "final_y": "532746.008004",
    "longitude": "-90.06529872053143",
    "latitude": "29.95884052062511",
    "geocoded_column": {
      "latitude": "29.95884052062511",
      "longitude": "-90.06529872053143"
    }
  },
  {
    "service_request": "2022-891742",
    "request_type": "Health Related Questions",
    "request_reason": "Noise Ordinance Complaint",
    "date_created": "2022-06-14T23:45:23.000",
    "date_modified": "2022-06-14T23:45:23.000",
    "request_status": "Pending",
    "responsible_agency": "Health Department",
    "final_address": "718 Bourbon St, New Orleans, Louisiana, 70116",
    "address_councildis": "C",
    "status": "Pending",
    "rowid": "891742",
    "final_x": "3682364.17781",
    "final_y": "532746.008004",
    "longitude": "-90.06529872053143",
    "latitude": "29.95884052062511",
    "geocoded_column": {
      "latitude": "29.95884052062511",
      "longitude": "-90.06529872053143"
    }
  },
  {
    "service_request": "2022-891741",
    "request_type": "Health Related Questions",
    "request_reason": "Noise Ordinance Complaint",
    "date_created": "2022-06-14T23:43:57.000",
    "date_modified": "2022-06-14T23:43:57.000",
    "request_status": "Pending",
    "responsible_agency": "Health Department",
    "final_address": "718 Bourbon St, New Orleans, Louisiana, 70116",
    "address_councildis": "C",
    "status": "Pending",
    "rowid": "891741",
    "final_x": "3682364.17781",
    "final_y": "532746.008004",
    "longitude": "-90.06529872053143",
    "latitude": "29.95884052062511",
    "geocoded_column": {
      "latitude": "29.95884052062511",
      "longitude": "-90.06529872053143"
    }
  },
  {
    "service_request": "2022-891740",
    "request_type": "Health Related Questions",
    "request_reason": "Noise Ordinance Complaint",
    "date_created": "2022-06-14T23:41:45.000",
    "date_modified": "2022-06-14T23:41:45.000",
    "request_status": "Pending",
    "responsible_agency": "Health Department",
    "final_address": "718 Bourbon St, New Orleans, Louisiana, 70116",
    "address_councildis": "C",
    "status": "Pending",
    "rowid": "891740",
    "final_x": "3682364.17781",
    "final_y": "532746.008004",
    "longitude": "-90.06529872053143",
    "latitude": "29.95884052062511",
    "geocoded_column": {
      "latitude": "29.95884052062511",
      "longitude": "-90.06529872053143"
    }
  },
  {
    "service_request": "2022-891739",
    "request_type": "Trash/Recycling",
    "request_reason": "Missed Trash Pick-Up",
    "date_created": "2022-06-14T23:41:09.000",
    "date_modified": "2022-06-14T23:41:10.000",
    "request_status": "Pending",
    "responsible_agency": "Department of Sanitation",
    "final_address": "1526 Dufossat St",
    "address_councildis": "B",
    "status": "Assigned to Contractor",
    "contractor": "Richards Disposal",
    "rowid": "891739",
    "final_x": "3668068.2489",
    "final_y": "520682.173113",
    "longitude": "-90.1108482089379",
    "latitude": "29.926096140224107",
    "geocoded_column": {
      "latitude": "29.926096140224107",
      "longitude": "-90.1108482089379"
    }
  },
  {
    "service_request": "2022-891738",
    "request_type": "Health Related Questions",
    "request_reason": "Noise Ordinance Complaint",
    "date_created": "2022-06-14T23:39:53.000",
    "date_modified": "2022-06-14T23:39:53.000",
    "request_status": "Pending",
    "responsible_agency": "Health Department",
    "final_address": "718 Bourbon St, New Orleans, Louisiana, 70116",
    "address_councildis": "C",
    "status": "Pending",
    "rowid": "891738",
    "final_x": "3682364.17781",
    "final_y": "532746.008004",
    "longitude": "-90.06529872053143",
    "latitude": "29.95884052062511",
    "geocoded_column": {
      "latitude": "29.95884052062511",
      "longitude": "-90.06529872053143"
    }
  },
  {
    "service_request": "2022-891737",
    "request_type": "Trash/Recycling",
    "request_reason": "Missed Trash Pick-Up",
    "date_created": "2022-06-14T23:39:50.000",
    "date_modified": "2022-06-14T23:39:51.000",
    "request_status": "Pending",
    "responsible_agency": "Department of Sanitation",
    "final_address": "5200 Atlanta St",
    "address_councildis": "B",
    "status": "Assigned to Contractor",
    "contractor": "Richards Disposal",
    "rowid": "891737",
    "final_x": "3667983.80449",
    "final_y": "520661.062009",
    "longitude": "-90.11111548717626",
    "latitude": "29.92604056837358",
    "geocoded_column": {
      "latitude": "29.92604056837358",
      "longitude": "-90.11111548717626"
    }
  },
  {
    "service_request": "2022-891736",
    "request_type": "Health Related Questions",
    "request_reason": "Noise Ordinance Complaint",
    "date_created": "2022-06-14T23:39:15.000",
    "date_modified": "2022-06-14T23:39:15.000",
    "request_status": "Pending",
    "responsible_agency": "Health Department",
    "final_address": "718 Bourbon St, New Orleans, Louisiana, 70116",
    "address_councildis": "C",
    "status": "Pending",
    "rowid": "891736",
    "final_x": "3682364.17781",
    "final_y": "532746.008004",
    "longitude": "-90.06529872053143",
    "latitude": "29.95884052062511",
    "geocoded_column": {
      "latitude": "29.95884052062511",
      "longitude": "-90.06529872053143"
    }
  },
  {
    "service_request": "2022-891735",
    "request_type": "Health Related Questions",
    "request_reason": "Noise Ordinance Complaint",
    "date_created": "2022-06-14T23:38:52.000",
    "date_modified": "2022-06-14T23:38:52.000",
    "request_status": "Pending",
    "responsible_agency": "Health Department",
    "final_address": "718 Bourbon St, New Orleans, Louisiana, 70116",
    "address_councildis": "C",
    "status": "Pending",
    "rowid": "891735",
    "final_x": "3682364.17781",
    "final_y": "532746.008004",
    "longitude": "-90.06529872053143",
    "latitude": "29.95884052062511",
    "geocoded_column": {
      "latitude": "29.95884052062511",
      "longitude": "-90.06529872053143"
    }
  },
  {
    "service_request": "2022-891734",
    "request_type": "Health Related Questions",
    "request_reason": "Noise Ordinance Complaint",
    "date_created": "2022-06-14T23:36:47.000",
    "date_modified": "2022-06-14T23:36:47.000",
    "request_status": "Pending",
    "responsible_agency": "Health Department",
    "final_address": "718 Bourbon St, New Orleans, Louisiana, 70116",
    "address_councildis": "C",
    "status": "Pending",
    "rowid": "891734",
    "final_x": "3682364.17781",
    "final_y": "532746.008004",
    "longitude": "-90.06529872053143",
    "latitude": "29.95884052062511",
    "geocoded_column": {
      "latitude": "29.95884052062511",
      "longitude": "-90.06529872053143"
    }
  },
  {
    "service_request": "2022-891733",
    "request_type": "Trash/Recycling",
    "request_reason": "Request a Large Item Pick Up",
    "date_created": "2022-06-14T23:34:14.000",
    "date_modified": "2022-06-14T23:34:15.000",
    "request_status": "Pending",
    "responsible_agency": "Department of Sanitation",
    "final_address": "2314 Gravier St Unit 1",
    "address_councildis": "B",
    "status": "Assigned to Contractor",
    "contractor": "Richards Disposal",
    "rowid": "891733",
    "final_x": "3675380.08577",
    "final_y": "532581.44954",
    "longitude": "-90.08735838340603",
    "latitude": "29.958598710147758",
    "geocoded_column": {
      "latitude": "29.958598710147758",
      "longitude": "-90.08735838340603"
    }
  },
  {
    "service_request": "2022-891732",
    "request_type": "Trash/Recycling",
    "request_reason": "Start Trash Service",
    "date_created": "2022-06-14T23:24:27.000",
    "date_modified": "2022-06-14T23:24:27.000",
    "request_status": "Pending",
    "responsible_agency": "Department of Sanitation",
    "final_address": "1447 Annunciation St",
    "address_councildis": "B",
    "status": "Assigned to Contractor",
    "contractor": "Richards Disposal",
    "rowid": "891732",
    "final_x": "3681013.04111",
    "final_y": "523932.32646",
    "longitude": "-90.0698721470209",
    "latitude": "29.934646896736805",
    "geocoded_column": {
      "latitude": "29.934646896736805",
      "longitude": "-90.0698721470209"
    }
  },
  {
    "service_request": "2022-891731",
    "request_type": "Mosquito, Termite & Rodent Control",
    "request_reason": "Non-Rodent Complaint (Mice, Possums, Snakes)",
    "date_created": "2022-06-14T23:10:42.000",
    "date_modified": "2022-06-14T23:10:42.000",
    "request_status": "Pending",
    "responsible_agency": "Mosquito, Termite & Rodent Control Board",
    "final_address": "1660 N Tonti St",
    "address_councildis": "D",
    "status": "Pending",
    "rowid": "891731",
    "final_x": "3680561.82703",
    "final_y": "539688.439626",
    "longitude": "-90.07074852350748",
    "latitude": "29.977984544417247",
    "geocoded_column": {
      "latitude": "29.977984544417247",
      "longitude": "-90.07074852350748"
    }
  },
  {
    "service_request": "2022-891730",
    "request_type": "Property Maintenance",
    "request_reason": "Property Maintenance",
    "date_created": "2022-06-14T22:51:28.000",
    "date_modified": "2022-06-14T22:51:28.000",
    "request_status": "Pending",
    "responsible_agency": "Department of Code Enforcement",
    "final_address": "1416 Hendee St",
    "address_councildis": "C",
    "status": "Pending",
    "rowid": "891730",
    "final_x": "3690765.51356",
    "final_y": "526015.53555",
    "longitude": "-90.0390096033379",
    "latitude": "29.94007572321138",
    "geocoded_column": {
      "latitude": "29.94007572321138",
      "longitude": "-90.0390096033379"
    }
  },
  {
    "service_request": "2022-891729",
    "request_type": "Trash/Recycling",
    "request_reason": "Missed Trash Pick-Up",
    "date_created": "2022-06-14T22:02:37.000",
    "date_modified": "2022-06-14T22:02:38.000",
    "request_status": "Pending",
    "responsible_agency": "Department of Sanitation",
    "final_address": "3 Jay St",
    "address_councildis": "D",
    "status": "Assigned to Contractor",
    "contractor": "Metro Disposal",
    "rowid": "891729",
    "final_x": "3675987.05518",
    "final_y": "555633.967513",
    "longitude": "-90.08464845712248",
    "latitude": "30.021966939278535",
    "geocoded_column": {
      "latitude": "30.021966939278535",
      "longitude": "-90.08464845712248"
    }
  },
  {
    "service_request": "2022-891728",
    "request_type": "Abandoned Vehicles",
    "request_reason": "Vehicle Blocking Your Driveway",
    "date_created": "2022-06-14T21:58:21.000",
    "date_modified": "2022-06-14T21:58:21.000",
    "request_status": "Pending",
    "responsible_agency": "Department of Public Works",
    "final_address": "415 Pacific Ave",
    "address_councildis": "C",
    "status": "Pending",
    "rowid": "891728",
    "final_x": "3688480.41641",
    "final_y": "530185.487809",
    "longitude": "-90.0460760822425",
    "latitude": "29.951612445450404",
    "geocoded_column": {
      "latitude": "29.951612445450404",
      "longitude": "-90.0460760822425"
    }
  },
  {
    "service_request": "2022-891727",
    "request_type": "Traffic Signals/Signs/Striping/Streetlights",
    "request_reason": "Traffic Sign Missing/Damaged",
    "date_created": "2022-06-14T21:43:37.000",
    "date_modified": "2022-06-14T21:43:37.000",
    "request_status": "Pending",
    "responsible_agency": "Department of Public Works",
    "final_address": "402 Millaudon St",
    "address_councildis": "A",
    "status": "Pending",
    "rowid": "891727",
    "final_x": "3661907.0425",
    "final_y": "524686.381372",
    "longitude": "-90.13016472431049",
    "latitude": "29.937285762105923",
    "geocoded_column": {
      "latitude": "29.937285762105923",
      "longitude": "-90.13016472431049"
    }
  },
  {
    "service_request": "2022-891726",
    "request_type": "Property Maintenance",
    "request_reason": "Property Maintenance",
    "date_created": "2022-06-14T21:35:59.000",
    "date_modified": "2022-06-14T21:35:59.000",
    "request_status": "Pending",
    "responsible_agency": "Department of Code Enforcement",
    "final_address": "5225 St Roch Ave",
    "address_councildis": "D",
    "status": "Pending",
    "rowid": "891726",
    "final_x": "3685280.26735",
    "final_y": "552340.30447",
    "longitude": "-90.05540040314303",
    "latitude": "30.012628837755482",
    "geocoded_column": {
      "latitude": "30.012628837755482",
      "longitude": "-90.05540040314303"
    }
  },
  {
    "service_request": "2022-891725",
    "request_type": "Trash/Recycling",
    "request_reason": "Repair Trash Cart",
    "date_created": "2022-06-14T21:30:12.000",
    "date_modified": "2022-06-14T21:30:13.000",
    "request_status": "Pending",
    "responsible_agency": "Department of Sanitation",
    "final_address": "7366 Brevard Ave",
    "address_councildis": "E",
    "status": "Assigned to Contractor",
    "contractor": "Metro Disposal",
    "rowid": "891725",
    "final_x": "3706565.56235",
    "final_y": "562920.168096",
    "longitude": "-89.98775864987753",
    "latitude": "30.04104942315064",
    "geocoded_column": {
      "latitude": "30.04104942315064",
      "longitude": "-89.98775864987753"
    }
  },
  {
    "service_request": "2022-891724",
    "request_type": "Roads/Drainage",
    "request_reason": "Pothole",
    "date_created": "2022-06-14T21:18:27.000",
    "date_modified": "2022-06-14T21:18:27.000",
    "request_status": "Pending",
    "responsible_agency": "Department of Public Works",
    "final_address": "3922 Orleans Ave",
    "address_councildis": "A",
    "status": "Pending",
    "rowid": "891724",
    "final_x": "3673036.30766",
    "final_y": "539743.82241",
    "longitude": "-90.09451491299906",
    "latitude": "29.978362690545385",
    "geocoded_column": {
      "latitude": "29.978362690545385",
      "longitude": "-90.09451491299906"
    }
  },
  {
    "service_request": "2022-891723",
    "request_type": "Property Maintenance",
    "request_reason": "Property Maintenance",
    "date_created": "2022-06-14T20:59:57.000",
    "date_modified": "2022-06-14T20:59:57.000",
    "request_status": "Pending",
    "responsible_agency": "Department of Code Enforcement",
    "final_address": "1860 Burgundy St",
    "address_councildis": "C",
    "status": "Pending",
    "rowid": "891723",
    "final_x": "3683867.46351",
    "final_y": "535454.942598",
    "longitude": "-90.06045670835087",
    "latitude": "29.96624333054572",
    "geocoded_column": {
      "latitude": "29.96624333054572",
      "longitude": "-90.06045670835087"
    }
  },
  {
    "service_request": "2022-891722",
    "request_type": "Traffic Signals/Signs/Striping/Streetlights",
    "request_reason": "Traffic Signal Malfunctioning/Damaged",
    "date_created": "2022-06-14T20:52:46.000",
    "date_modified": "2022-06-14T20:52:46.000",
    "request_status": "Pending",
    "responsible_agency": "Department of Public Works",
    "final_address": "JEFFERSON AVE & S CLAIBORNE AVE",
    "address_councildis": "A",
    "status": "Pending",
    "rowid": "891722",
    "final_x": "3668388.0",
    "final_y": "526228.78",
    "longitude": "-90.10965185923143",
    "latitude": "29.941338149304734",
    "geocoded_column": {
      "latitude": "29.941338149304734",
      "longitude": "-90.10965185923143"
    }
  },
  {
    "service_request": "2022-891720",
    "request_type": "Property Maintenance",
    "request_reason": "Property Maintenance",
    "date_created": "2022-06-14T20:27:09.000",
    "date_modified": "2022-06-14T20:27:09.000",
    "request_status": "Pending",
    "responsible_agency": "Department of Code Enforcement",
    "final_address": "7321 Green St",
    "address_councildis": "A",
    "status": "Pending",
    "rowid": "891720",
    "final_x": "3664788.98989",
    "final_y": "528292.166464",
    "longitude": "-90.12094574516718",
    "latitude": "29.947116992476737",
    "geocoded_column": {
      "latitude": "29.947116992476737",
      "longitude": "-90.12094574516718"
    }
  },
  {
    "service_request": "2022-891718",
    "request_type": "Traffic Signals/Signs/Striping/Streetlights",
    "request_reason": "Street Light Outage/Malfunction",
    "date_created": "2022-06-14T19:49:15.000",
    "date_modified": "2022-06-14T19:49:16.000",
    "request_status": "Pending",
    "responsible_agency": "Department of Public Works",
    "final_address": "NAPOLEON AVE & MAGAZINE ST",
    "address_councildis": "B",
    "status": "Pending",
    "contractor": "Royal Engineering",
    "rowid": "891718",
    "final_x": "3671097.2",
    "final_y": "518798.38",
    "longitude": "-90.10135060208529",
    "latitude": "29.920827104580972",
    "geocoded_column": {
      "latitude": "29.920827104580972",
      "longitude": "-90.10135060208529"
    }
  },
  {
    "service_request": "2022-891716",
    "request_type": "Roads/Drainage",
    "request_reason": "Accessibility Ramps, Curbs and Sidewalk Repair",
    "date_created": "2022-06-14T19:36:03.000",
    "date_modified": "2022-06-14T19:36:03.000",
    "request_status": "Pending",
    "responsible_agency": "Department of Public Works",
    "final_address": "7516 Ligustrum Dr",
    "address_councildis": "E",
    "status": "Pending",
    "rowid": "891716",
    "final_x": "3701567.27671",
    "final_y": "560803.636446",
    "longitude": "-90.00363249097003",
    "latitude": "30.035390231534652",
    "geocoded_column": {
      "latitude": "30.035390231534652",
      "longitude": "-90.00363249097003"
    }
  },
  {
    "service_request": "2022-891715",
    "request_type": "Trash/Recycling",
    "request_reason": "Repair Trash Cart",
    "date_created": "2022-06-14T19:34:48.000",
    "date_modified": "2022-06-14T19:34:48.000",
    "request_status": "Pending",
    "responsible_agency": "Department of Sanitation",
    "final_address": "5821 Colbert St",
    "address_councildis": "A",
    "status": "Assigned to Contractor",
    "contractor": "Metro Disposal",
    "rowid": "891715",
    "final_x": "3667388.67578",
    "final_y": "546402.19976",
    "longitude": "-90.11212812283972",
    "latitude": "29.996837645331112",
    "geocoded_column": {
      "latitude": "29.996837645331112",
      "longitude": "-90.11212812283972"
    }
  },
  {
    "service_request": "2022-891714",
    "request_type": "Roads/Drainage",
    "request_reason": "Street Flooding / Drainage",
    "date_created": "2022-06-14T19:28:02.000",
    "date_modified": "2022-06-14T19:28:02.000",
    "request_status": "Pending",
    "responsible_agency": "Department of Public Works",
    "final_address": "7508 Ligustrum Dr",
    "address_councildis": "E",
    "status": "Pending",
    "rowid": "891714",
    "final_x": "3701588.75511",
    "final_y": "560752.20323",
    "longitude": "-90.003566502323",
    "latitude": "30.035248124874062",
    "geocoded_column": {
      "latitude": "30.035248124874062",
      "longitude": "-90.003566502323"
    }
  },
  {
    "service_request": "2022-891713",
    "request_type": "Trash/Recycling",
    "request_reason": "Request a Large Item Pick Up",
    "date_created": "2022-06-14T19:23:27.000",
    "date_modified": "2022-06-14T19:23:28.000",
    "request_status": "Pending",
    "responsible_agency": "Department of Sanitation",
    "final_address": "4119 Walmsley Ave",
    "address_councildis": "B",
    "status": "Assigned to Contractor",
    "contractor": "Richards Disposal",
    "rowid": "891713",
    "final_x": "3670284.97959",
    "final_y": "529679.956417",
    "longitude": "-90.1035457714537",
    "latitude": "29.9507719180585",
    "geocoded_column": {
      "latitude": "29.9507719180585",
      "longitude": "-90.1035457714537"
    }
  },
  {
    "service_request": "2022-891712",
    "request_type": "Property Maintenance",
    "request_reason": "Property Maintenance",
    "date_created": "2022-06-14T19:21:28.000",
    "date_modified": "2022-06-14T19:21:28.000",
    "request_status": "Pending",
    "responsible_agency": "Department of Code Enforcement",
    "final_address": "3943 S Pin Oak Ave",
    "address_councildis": "C",
    "status": "Pending",
    "rowid": "891712",
    "final_x": "3704908.03486",
    "final_y": "513422.793714",
    "longitude": "-89.99482428894986",
    "latitude": "29.905003212991986",
    "geocoded_column": {
      "latitude": "29.905003212991986",
      "longitude": "-89.99482428894986"
    }
  },
  {
    "service_request": "2022-891711",
    "request_type": "Trash/Recycling",
    "request_reason": "Illegal Dumping",
    "date_created": "2022-06-14T19:15:59.000",
    "date_modified": "2022-06-14T19:15:59.000",
    "request_status": "Pending",
    "responsible_agency": "Department of Sanitation",
    "final_address": "3661 White Oak Ave",
    "address_councildis": "C",
    "status": "Pending",
    "rowid": "891711",
    "final_x": "3703841.54628",
    "final_y": "514109.561522",
    "longitude": "-89.99816489105514",
    "latitude": "29.906925803496318",
    "geocoded_column": {
      "latitude": "29.906925803496318",
      "longitude": "-89.99816489105514"
    }
  },
  {
    "service_request": "2022-891710",
    "request_type": "Trash/Recycling",
    "request_reason": "Missed Trash Pick-Up",
    "date_created": "2022-06-14T18:52:52.000",
    "date_modified": "2022-06-14T18:52:53.000",
    "request_status": "Pending",
    "responsible_agency": "Department of Sanitation",
    "final_address": "3906 Prytania St",
    "address_councildis": "B",
    "status": "Assigned to Contractor",
    "contractor": "Richards Disposal",
    "rowid": "891710",
    "final_x": "3672667.36321",
    "final_y": "520459.226872",
    "longitude": "-90.09633770819607",
    "latitude": "29.925347388778505",
    "geocoded_column": {
      "latitude": "29.925347388778505",
      "longitude": "-90.09633770819607"
    }
  },
  {
    "service_request": "2022-891709",
    "request_type": "Abandoned Vehicles",
    "request_reason": "Vehicle Blocking Your Driveway",
    "date_created": "2022-06-14T18:43:33.000",
    "date_modified": "2022-06-14T18:43:33.000",
    "request_status": "Pending",
    "responsible_agency": "Department of Public Works",
    "final_address": "3000 St Peter St",
    "address_councildis": "A",
    "status": "Pending",
    "rowid": "891709",
    "final_x": "3675606.82094",
    "final_y": "537603.158344",
    "longitude": "-90.08646985935256",
    "latitude": "29.972399930460636",
    "geocoded_column": {
      "latitude": "29.972399930460636",
      "longitude": "-90.08646985935256"
    }
  },
  {
    "service_request": "2022-891708",
    "request_type": "Trash/Recycling",
    "request_reason": "Missed Trash Pick-Up",
    "date_created": "2022-06-14T18:40:59.000",
    "date_modified": "2022-06-14T18:41:00.000",
    "request_status": "Pending",
    "responsible_agency": "Department of Sanitation",
    "final_address": "700 Block of Jefferson Ave, New Orleans, Louisiana, 70115",
    "status": "Assigned to Contractor",
    "rowid": "891708",
    "longitude": "0.0",
    "latitude": "0.0",
    "geocoded_column": {
      "latitude": "0.0",
      "longitude": "0.0"
    }
  },
  {
    "service_request": "2022-891707",
    "request_type": "Abandoned Vehicles",
    "request_reason": "Abandoned/Junk Vehicles",
    "date_created": "2022-06-14T18:39:28.000",
    "date_modified": "2022-06-14T18:39:28.000",
    "request_status": "Pending",
    "responsible_agency": "Department of Public Works",
    "final_address": "4300 Bienville Ave",
    "address_councildis": "A",
    "status": "Pending",
    "rowid": "891707",
    "final_x": "3670695.87495",
    "final_y": "539547.552202",
    "longitude": "-90.10191353125076",
    "latitude": "29.97789238221124",
    "geocoded_column": {
      "latitude": "29.97789238221124",
      "longitude": "-90.10191353125076"
    }
  },
  {
    "service_request": "2022-891706",
    "request_type": "Traffic Signals/Signs/Striping/Streetlights",
    "request_reason": "Street Light Outage/Malfunction",
    "date_created": "2022-06-14T18:30:10.000",
    "date_modified": "2022-06-14T18:30:10.000",
    "request_status": "Pending",
    "responsible_agency": "Department of Public Works",
    "final_address": "919 St Charles Ave",
    "address_councildis": "B",
    "status": "Pending",
    "contractor": "Royal Engineering",
    "rowid": "891706",
    "final_x": "3680174.97122",
    "final_y": "527316.807551",
    "longitude": "-90.07240033685378",
    "latitude": "29.94397847949933",
    "geocoded_column": {
      "latitude": "29.94397847949933",
      "longitude": "-90.07240033685378"
    }
  },
  {
    "service_request": "2022-891705",
    "request_type": "Traffic Signals/Signs/Striping/Streetlights",
    "request_reason": "Street Name Sign Damaged or Missing",
    "date_created": "2022-06-14T18:25:55.000",
    "date_modified": "2022-06-14T18:25:55.000",
    "request_status": "Pending",
    "responsible_agency": "Department of Public Works",
    "final_address": "919 St Charles Ave",
    "address_councildis": "B",
    "status": "Pending",
    "rowid": "891705",
    "final_x": "3680174.97122",
    "final_y": "527316.807551",
    "longitude": "-90.07240033685378",
    "latitude": "29.94397847949933",
    "geocoded_column": {
      "latitude": "29.94397847949933",
      "longitude": "-90.07240033685378"
    }
  },
  {
    "service_request": "2022-891704",
    "request_type": "Trash/Recycling",
    "request_reason": "Missed Trash Pick-Up",
    "date_created": "2022-06-14T18:19:52.000",
    "date_modified": "2022-06-14T18:19:52.000",
    "request_status": "Pending",
    "responsible_agency": "Department of Sanitation",
    "final_address": "1525 Dufossat St",
    "address_councildis": "B",
    "status": "Assigned to Contractor",
    "contractor": "Richards Disposal",
    "rowid": "891704",
    "final_x": "3668161.69364",
    "final_y": "520678.110521",
    "longitude": "-90.11055336688219",
    "latitude": "29.926082227758133",
    "geocoded_column": {
      "latitude": "29.926082227758133",
      "longitude": "-90.11055336688219"
    }
  },
  {
    "service_request": "2022-891703",
    "request_type": "Trash/Recycling",
    "request_reason": "Request a Large Item Pick Up",
    "date_created": "2022-06-14T18:17:22.000",
    "date_modified": "2022-06-14T18:17:22.000",
    "request_status": "Pending",
    "responsible_agency": "Department of Sanitation",
    "final_address": "3607 St Charles Ave",
    "address_councildis": "B",
    "status": "Assigned to Contractor",
    "contractor": "Richards Disposal",
    "rowid": "891703",
    "final_x": "3673414.36302",
    "final_y": "521285.343609",
    "longitude": "-90.09395145324613",
    "latitude": "29.927596748880624",
    "geocoded_column": {
      "latitude": "29.927596748880624",
      "longitude": "-90.09395145324613"
    }
  },
  {
    "service_request": "2022-891702",
    "request_type": "Traffic Signals/Signs/Striping/Streetlights",
    "request_reason": "Traffic Sign Missing/Damaged",
    "date_created": "2022-06-14T18:16:54.000",
    "date_modified": "2022-06-14T18:16:55.000",
    "request_status": "Pending",
    "responsible_agency": "Department of Public Works",
    "final_address": "N TONTI ST & FRENCHMEN ST",
    "address_councildis": "D",
    "status": "Pending",
    "rowid": "891702",
    "final_x": "3684235.5",
    "final_y": "540690.28",
    "longitude": "-90.05911060345451",
    "latitude": "29.980627437615333",
    "geocoded_column": {
      "latitude": "29.980627437615333",
      "longitude": "-90.05911060345451"
    }
  },
  {
    "service_request": "2022-891701",
    "request_type": "Trash/Recycling",
    "request_reason": "Request a Large Item Pick Up",
    "date_created": "2022-06-14T18:12:14.000",
    "date_modified": "2022-06-14T18:12:14.000",
    "request_status": "Pending",
    "responsible_agency": "Department of Sanitation",
    "final_address": "3418 Baronne St",
    "address_councildis": "B",
    "status": "Assigned to Contractor",
    "contractor": "Richards Disposal",
    "rowid": "891701",
    "final_x": "3673746.16232",
    "final_y": "522116.098618",
    "longitude": "-90.09287565119241",
    "latitude": "29.929871184702566",
    "geocoded_column": {
      "latitude": "29.929871184702566",
      "longitude": "-90.09287565119241"
    }
  },
  {
    "service_request": "2022-891700",
    "request_type": "Trash/Recycling",
    "request_reason": "MIssed Recycling Pick-Up",
    "date_created": "2022-06-14T18:05:21.000",
    "date_modified": "2022-06-14T18:05:22.000",
    "request_status": "Pending",
    "responsible_agency": "Department of Sanitation",
    "final_address": "2308 Conti St",
    "address_councildis": "B",
    "status": "Assigned to Contractor",
    "contractor": "Richards Disposal",
    "rowid": "891700",
    "final_x": "3677312.6669",
    "final_y": "535033.132934",
    "longitude": "-90.08117119363384",
    "latitude": "29.96528208583582",
    "geocoded_column": {
      "latitude": "29.96528208583582",
      "longitude": "-90.08117119363384"
    }
  },
  {
    "service_request": "2022-891699",
    "request_type": "Abandoned Vehicles",
    "request_reason": "Abandoned/Junk Vehicles",
    "date_created": "2022-06-14T17:51:13.000",
    "date_modified": "2022-06-14T17:51:13.000",
    "request_status": "Pending",
    "responsible_agency": "Department of Public Works",
    "final_address": "4000 Tchoupitoulas St",
    "address_councildis": "B",
    "status": "Pending",
    "rowid": "891699",
    "final_x": "3672537.43764",
    "final_y": "517525.64543",
    "longitude": "-90.09684777301882",
    "latitude": "29.917284831917698",
    "geocoded_column": {
      "latitude": "29.917284831917698",
      "longitude": "-90.09684777301882"
    }
  },
  {
    "service_request": "2022-891698",
    "request_type": "Traffic Signals/Signs/Striping/Streetlights",
    "request_reason": "Traffic Signal Malfunctioning/Damaged",
    "date_created": "2022-06-14T17:50:23.000",
    "date_modified": "2022-06-14T17:50:23.000",
    "request_status": "Pending",
    "responsible_agency": "Department of Public Works",
    "final_address": "3400 S Claiborne Ave",
    "address_councildis": "B",
    "status": "Pending",
    "rowid": "891698",
    "final_x": "3672139.41991",
    "final_y": "526001.76147",
    "longitude": "-90.09781560952406",
    "latitude": "29.940603230055334",
    "geocoded_column": {
      "latitude": "29.940603230055334",
      "longitude": "-90.09781560952406"
    }
  },
  {
    "service_request": "2022-891696",
    "request_type": "Trash/Recycling",
    "request_reason": "Replace Trash Cart",
    "date_created": "2022-06-14T17:42:16.000",
    "date_modified": "2022-06-14T17:42:17.000",
    "request_status": "Pending",
    "responsible_agency": "Department of Sanitation",
    "final_address": "1222 Kentucky St",
    "address_councildis": "D",
    "status": "Assigned to Contractor",
    "contractor": "Metro Disposal",
    "rowid": "891696",
    "final_x": "3693381.73168",
    "final_y": "535500.158086",
    "longitude": "-90.03040934690831",
    "latitude": "29.966073613662505",
    "geocoded_column": {
      "latitude": "29.966073613662505",
      "longitude": "-90.03040934690831"
    }
  },
  {
    "service_request": "2022-891695",
    "request_type": "Property Maintenance",
    "request_reason": "Property Maintenance",
    "date_created": "2022-06-14T17:39:37.000",
    "date_modified": "2022-06-14T17:39:38.000",
    "request_status": "Pending",
    "responsible_agency": "Department of Code Enforcement",
    "final_address": "5542 Pratt Dr",
    "address_councildis": "D",
    "status": "Pending",
    "rowid": "891695",
    "final_x": "3680244.85423",
    "final_y": "552965.284759",
    "longitude": "-90.07128777912374",
    "latitude": "30.014500763127213",
    "geocoded_column": {
      "latitude": "30.014500763127213",
      "longitude": "-90.07128777912374"
    }
  },
  {
    "service_request": "2022-891694",
    "request_type": "Traffic Signals/Signs/Striping/Streetlights",
    "request_reason": "Disabled Parking Sign ",
    "date_created": "2022-06-14T17:33:20.000",
    "date_modified": "2022-06-14T17:33:21.000",
    "request_status": "Pending",
    "responsible_agency": "Department of Public Works",
    "final_address": "135 N Scott St",
    "address_councildis": "A",
    "status": "Pending",
    "rowid": "891694",
    "final_x": "3671957.90311",
    "final_y": "538141.410633",
    "longitude": "-90.09797547797906",
    "latitude": "29.97398861631243",
    "geocoded_column": {
      "latitude": "29.97398861631243",
      "longitude": "-90.09797547797906"
    }
  },
  {
    "service_request": "2022-891693",
    "request_type": "Trash/Recycling",
    "request_reason": "Request a Large Item Pick Up",
    "date_created": "2022-06-14T17:29:51.000",
    "date_modified": "2022-06-14T17:29:52.000",
    "request_status": "Pending",
    "responsible_agency": "Department of Sanitation",
    "final_address": "1633 Third St",
    "address_councildis": "B",
    "status": "Assigned to Contractor",
    "contractor": "Richards Disposal",
    "rowid": "891693",
    "final_x": "3676298.84629",
    "final_y": "523147.287867",
    "longitude": "-90.08478178566985",
    "latitude": "29.932630386043655",
    "geocoded_column": {
      "latitude": "29.932630386043655",
      "longitude": "-90.08478178566985"
    }
  },
  {
    "service_request": "2022-891692",
    "request_type": "Trash/Recycling",
    "request_reason": "Missed Trash Pick-Up",
    "date_created": "2022-06-14T17:26:43.000",
    "date_modified": "2022-06-14T17:26:44.000",
    "request_status": "Pending",
    "responsible_agency": "Department of Sanitation",
    "final_address": "413 Constantinople St",
    "address_councildis": "B",
    "status": "Assigned to Contractor",
    "contractor": "Richards Disposal",
    "rowid": "891692",
    "final_x": "3672691.84276",
    "final_y": "517475.15071",
    "longitude": "-90.09636212350053",
    "latitude": "29.917141405070293",
    "geocoded_column": {
      "latitude": "29.917141405070293",
      "longitude": "-90.09636212350053"
    }
  },
  {
    "service_request": "2022-891691",
    "request_type": "Property Maintenance",
    "request_reason": "Property Maintenance",
    "date_created": "2022-06-14T17:25:01.000",
    "date_modified": "2022-06-14T17:25:01.000",
    "request_status": "Pending",
    "responsible_agency": "Department of Code Enforcement",
    "final_address": "5542 Pratt Dr",
    "address_councildis": "D",
    "status": "Pending",
    "rowid": "891691",
    "final_x": "3680244.85423",
    "final_y": "552965.284759",
    "longitude": "-90.07128777912374",
    "latitude": "30.014500763127213",
    "geocoded_column": {
      "latitude": "30.014500763127213",
      "longitude": "-90.07128777912374"
    }
  },
  {
    "service_request": "2022-891690",
    "request_type": "Abandoned Vehicles",
    "request_reason": "Abandoned/Junk Vehicles",
    "date_created": "2022-06-14T17:23:19.000",
    "date_modified": "2022-06-14T17:23:22.000",
    "request_status": "Pending",
    "responsible_agency": "Department of Public Works",
    "final_address": "8333 Green St",
    "address_councildis": "A",
    "status": "Pending",
    "rowid": "891690",
    "final_x": "3662428.50899",
    "final_y": "530370.332802",
    "longitude": "-90.12832970155549",
    "latitude": "29.952899745802675",
    "geocoded_column": {
      "latitude": "29.952899745802675",
      "longitude": "-90.12832970155549"
    }
  },
  {
    "service_request": "2022-891689",
    "request_type": "Trash/Recycling",
    "request_reason": "Request a Large Item Pick Up",
    "date_created": "2022-06-14T17:20:06.000",
    "date_modified": "2022-06-14T17:20:07.000",
    "request_status": "Pending",
    "responsible_agency": "Department of Sanitation",
    "final_address": "8521 Morrison Rd",
    "address_councildis": "E",
    "status": "Assigned to Contractor",
    "contractor": "Metro Disposal",
    "rowid": "891689",
    "final_x": "3704443.51031",
    "final_y": "561369.103262",
    "longitude": "-89.99452229678239",
    "latitude": "30.036852954107587",
    "geocoded_column": {
      "latitude": "30.036852954107587",
      "longitude": "-89.99452229678239"
    }
  },
  {
    "service_request": "2022-891688",
    "request_type": "Trash/Recycling",
    "request_reason": "Request a Large Item Pick Up",
    "date_created": "2022-06-14T17:18:01.000",
    "date_modified": "2022-06-14T17:18:02.000",
    "request_status": "Pending",
    "responsible_agency": "Department of Sanitation",
    "final_address": "12801 Curran Rd",
    "address_councildis": "E",
    "status": "Assigned to Contractor",
    "contractor": "Metro Disposal",
    "rowid": "891688",
    "final_x": "3714980.42533",
    "final_y": "569334.857126",
    "longitude": "-89.96092223421199",
    "latitude": "30.058412806607173",
    "geocoded_column": {
      "latitude": "30.058412806607173",
      "longitude": "-89.96092223421199"
    }
  },
  {
    "service_request": "2022-891687",
    "request_type": "Trash/Recycling",
    "request_reason": "Replace Trash Cart",
    "date_created": "2022-06-14T17:02:08.000",
    "date_modified": "2022-06-14T17:02:08.000",
    "request_status": "Pending",
    "responsible_agency": "Department of Sanitation",
    "final_address": "320 S Gayoso St",
    "address_councildis": "B",
    "status": "Assigned to Contractor",
    "contractor": "Richards Disposal",
    "rowid": "891687",
    "final_x": "3673776.27054",
    "final_y": "535061.546118",
    "longitude": "-90.09233800150112",
    "latitude": "29.96546600026725",
    "geocoded_column": {
      "latitude": "29.96546600026725",
      "longitude": "-90.09233800150112"
    }
  },
  {
    "service_request": "2022-891685",
    "request_type": "Traffic Signals/Signs/Striping/Streetlights",
    "request_reason": "Traffic Signal Malfunctioning/Damaged",
    "date_created": "2022-06-14T16:58:33.000",
    "date_modified": "2022-06-14T16:58:33.000",
    "request_status": "Pending",
    "responsible_agency": "Department of Public Works",
    "final_address": "3400 S Claiborne Ave",
    "address_councildis": "B",
    "status": "Pending",
    "rowid": "891685",
    "final_x": "3672139.41991",
    "final_y": "526001.76147",
    "longitude": "-90.09781560952406",
    "latitude": "29.940603230055334",
    "geocoded_column": {
      "latitude": "29.940603230055334",
      "longitude": "-90.09781560952406"
    }
  },
  {
    "service_request": "2022-891684",
    "request_type": "Trash/Recycling",
    "request_reason": "MIssed Recycling Pick-Up",
    "date_created": "2022-06-14T16:52:40.000",
    "date_modified": "2022-06-14T16:52:40.000",
    "request_status": "Pending",
    "responsible_agency": "Department of Sanitation",
    "final_address": "3311 Dickens Dr, New Orleans, Louisiana, 70131",
    "address_councildis": "C",
    "status": "Assigned to Contractor",
    "contractor": "Richards Disposal",
    "rowid": "891684",
    "final_x": "3708253.05156",
    "final_y": "518487.489526",
    "longitude": "-89.98407914893478",
    "latitude": "29.918821506368825",
    "geocoded_column": {
      "latitude": "29.918821506368825",
      "longitude": "-89.98407914893478"
    }
  },
  {
    "service_request": "2022-891683",
    "request_type": "Trash/Recycling",
    "request_reason": "MIssed Recycling Pick-Up",
    "date_created": "2022-06-14T16:49:42.000",
    "date_modified": "2022-06-14T16:49:42.000",
    "request_status": "Pending",
    "responsible_agency": "Department of Sanitation",
    "final_address": "3131 Dickens Dr, New Orleans, Louisiana, 70131",
    "address_councildis": "C",
    "status": "Assigned to Contractor",
    "contractor": "Richards Disposal",
    "rowid": "891683",
    "final_x": "3708272.32113",
    "final_y": "518685.824119",
    "longitude": "-89.98401095336939",
    "latitude": "29.919366233392076",
    "geocoded_column": {
      "latitude": "29.919366233392076",
      "longitude": "-89.98401095336939"
    }
  },
  {
    "service_request": "2022-891682",
    "request_type": "Trash/Recycling",
    "request_reason": "Illegal Dumping",
    "date_created": "2022-06-14T16:48:34.000",
    "date_modified": "2022-06-14T16:48:34.000",
    "request_status": "Pending",
    "responsible_agency": "Department of Sanitation",
    "final_address": "2400 BLK Dante St",
    "address_councildis": "A",
    "status": "Pending",
    "rowid": "891682",
    "final_x": "3664462.14807",
    "final_y": "532196.260526",
    "longitude": "-90.1218473827414",
    "latitude": "29.957861491243474",
    "geocoded_column": {
      "latitude": "29.957861491243474",
      "longitude": "-90.1218473827414"
    }
  },
  {
    "service_request": "2022-891681",
    "request_type": "Trash/Recycling",
    "request_reason": "Request a Large Item Pick Up",
    "date_created": "2022-06-14T16:45:45.000",
    "date_modified": "2022-06-14T16:45:46.000",
    "request_status": "Pending",
    "responsible_agency": "Department of Sanitation",
    "final_address": "820 Eighth St",
    "address_councildis": "B",
    "status": "Assigned to Contractor",
    "contractor": "Richards Disposal",
    "rowid": "891681",
    "final_x": "3676585.64648",
    "final_y": "519426.058487",
    "longitude": "-90.08400446684745",
    "latitude": "29.92238961709767",
    "geocoded_column": {
      "latitude": "29.92238961709767",
      "longitude": "-90.08400446684745"
    }
  },
  {
    "service_request": "2022-891680",
    "request_type": "Trash/Recycling",
    "request_reason": "Request a Large Item Pick Up",
    "date_created": "2022-06-14T16:40:55.000",
    "date_modified": "2022-06-14T16:40:55.000",
    "request_status": "Pending",
    "responsible_agency": "Department of Sanitation",
    "final_address": "2016 Baronne St",
    "address_councildis": "B",
    "status": "Assigned to Contractor",
    "contractor": "Richards Disposal",
    "rowid": "891680",
    "final_x": "3677502.31131",
    "final_y": "524753.229948",
    "longitude": "-90.0809271317446",
    "latitude": "29.937010087561628",
    "geocoded_column": {
      "latitude": "29.937010087561628",
      "longitude": "-90.0809271317446"
    }
  },
  {
    "service_request": "2022-891679",
    "request_type": "Traffic Signals/Signs/Striping/Streetlights",
    "request_reason": "Street Light Outage/Malfunction",
    "date_created": "2022-06-14T16:33:17.000",
    "date_modified": "2022-06-14T16:33:18.000",
    "request_status": "Pending",
    "responsible_agency": "Department of Public Works",
    "final_address": "2346 Gentilly Blvd",
    "address_councildis": "D",
    "status": "Pending",
    "contractor": "Royal Engineering",
    "rowid": "891679",
    "final_x": "3681228.15932",
    "final_y": "544741.591183",
    "longitude": "-90.0684678387133",
    "latitude": "29.99185873469841",
    "geocoded_column": {
      "latitude": "29.99185873469841",
      "longitude": "-90.0684678387133"
    }
  },
  {
    "service_request": "2022-891678",
    "request_type": "Trash/Recycling",
    "request_reason": "Request a Large Item Pick Up",
    "date_created": "2022-06-14T16:32:09.000",
    "date_modified": "2022-06-14T16:32:10.000",
    "request_status": "Pending",
    "responsible_agency": "Department of Sanitation",
    "final_address": "1465 Madrid St, New Orleans, Louisiana, 70122",
    "address_councildis": "D",
    "status": "Assigned to Contractor",
    "contractor": "Metro Disposal",
    "rowid": "891678",
    "final_x": "3677987.42274",
    "final_y": "554672.732568",
    "longitude": "-90.07836106960818",
    "latitude": "30.01926380070262",
    "geocoded_column": {
      "latitude": "30.01926380070262",
      "longitude": "-90.07836106960818"
    }
  },
  {
    "service_request": "2022-891676",
    "request_type": "Trash/Recycling",
    "request_reason": "Request a Large Item Pick Up",
    "date_created": "2022-06-14T16:30:20.000",
    "date_modified": "2022-06-14T16:30:21.000",
    "request_status": "Pending",
    "responsible_agency": "Department of Sanitation",
    "final_address": "2329 General Meyer Ave",
    "address_councildis": "C",
    "status": "Assigned to Contractor",
    "contractor": "Richards Disposal",
    "rowid": "891676",
    "final_x": "3692652.05296",
    "final_y": "527621.965631",
    "longitude": "-90.03299598049206",
    "latitude": "29.944434123735533",
    "geocoded_column": {
      "latitude": "29.944434123735533",
      "longitude": "-90.03299598049206"
    }
  },
  {
    "service_request": "2022-891675",
    "request_type": "Trash/Recycling",
    "request_reason": "Repair Trash Cart",
    "date_created": "2022-06-14T16:22:35.000",
    "date_modified": "2022-06-14T16:22:36.000",
    "request_status": "Pending",
    "responsible_agency": "Department of Sanitation",
    "final_address": "3470 Vespasian St",
    "address_councildis": "C",
    "status": "Assigned to Contractor",
    "contractor": "Richards Disposal",
    "rowid": "891675",
    "final_x": "3696060.74736",
    "final_y": "522692.726778",
    "longitude": "-90.02241185147143",
    "latitude": "29.93077361091219",
    "geocoded_column": {
      "latitude": "29.93077361091219",
      "longitude": "-90.02241185147143"
    }
  },
  {
    "service_request": "2022-891674",
    "request_type": "Property Maintenance",
    "request_reason": "Property Maintenance",
    "date_created": "2022-06-14T16:19:40.000",
    "date_modified": "2022-06-14T16:19:40.000",
    "request_status": "Pending",
    "responsible_agency": "Department of Code Enforcement",
    "final_address": "2319 General Meyer Ave",
    "address_councildis": "C",
    "status": "Pending",
    "rowid": "891674",
    "final_x": "3692601.71062",
    "final_y": "527642.271935",
    "longitude": "-90.03315419771619",
    "latitude": "29.944491529870046",
    "geocoded_column": {
      "latitude": "29.944491529870046",
      "longitude": "-90.03315419771619"
    }
  },
  {
    "service_request": "2022-891673",
    "request_type": "Trash/Recycling",
    "request_reason": "Replace Trash Cart",
    "date_created": "2022-06-14T16:16:22.000",
    "date_modified": "2022-06-14T16:16:22.000",
    "request_status": "Pending",
    "responsible_agency": "Department of Sanitation",
    "final_address": "7925 Zimple St",
    "address_councildis": "A",
    "status": "Assigned to Contractor",
    "contractor": "Richards Disposal",
    "rowid": "891673",
    "final_x": "3662202.01178",
    "final_y": "527738.123967",
    "longitude": "-90.12913223003447",
    "latitude": "29.945668563892553",
    "geocoded_column": {
      "latitude": "29.945668563892553",
      "longitude": "-90.12913223003447"
    }
  },
  {
    "service_request": "2022-891672",
    "request_type": "Roads/Drainage",
    "request_reason": "Catch Basin - Clogged",
    "date_created": "2022-06-14T16:16:00.000",
    "date_modified": "2022-06-14T16:16:00.000",
    "request_status": "Pending",
    "responsible_agency": "Department of Public Works",
    "final_address": "6715 Pauline Dr",
    "address_councildis": "D",
    "status": "Pending",
    "rowid": "891672",
    "final_x": "3690841.2118",
    "final_y": "558461.779292",
    "longitude": "-90.03761224481123",
    "latitude": "30.029288899873418",
    "geocoded_column": {
      "latitude": "30.029288899873418",
      "longitude": "-90.03761224481123"
    }
  },
  {
    "service_request": "2022-891671",
    "request_type": "Trash/Recycling",
    "request_reason": "Repair Trash Cart",
    "date_created": "2022-06-14T16:12:16.000",
    "date_modified": "2022-06-14T16:12:17.000",
    "request_status": "Pending",
    "responsible_agency": "Department of Sanitation",
    "final_address": "1501 Tropic Dr",
    "address_councildis": "C",
    "status": "Assigned to Contractor",
    "contractor": "Richards Disposal",
    "rowid": "891671",
    "final_x": "3699469.82685",
    "final_y": "525502.222461",
    "longitude": "-90.0115476295033",
    "latitude": "29.93839106687814",
    "geocoded_column": {
      "latitude": "29.93839106687814",
      "longitude": "-90.0115476295033"
    }
  },
  {
    "service_request": "2022-891670",
    "request_type": "Traffic Signals/Signs/Striping/Streetlights",
    "request_reason": "Traffic Signal Malfunctioning/Damaged",
    "date_created": "2022-06-14T16:08:53.000",
    "date_modified": "2022-06-14T16:08:54.000",
    "request_status": "Pending",
    "responsible_agency": "Department of Public Works",
    "final_address": "CALLIOPE ST & S PETERS ST",
    "address_councildis": "B",
    "status": "Pending",
    "rowid": "891670",
    "final_x": "3682432.8",
    "final_y": "525229.98",
    "longitude": "-90.06534466674316",
    "latitude": "29.938171889887382",
    "geocoded_column": {
      "latitude": "29.938171889887382",
      "longitude": "-90.06534466674316"
    }
  },
  {
    "service_request": "2022-891669",
    "request_type": "Roads/Drainage",
    "request_reason": "Pothole",
    "date_created": "2022-06-14T16:06:01.000",
    "date_modified": "2022-06-14T16:06:01.000",
    "request_status": "Pending",
    "responsible_agency": "Department of Public Works",
    "final_address": "4736 De Montluzin St",
    "address_councildis": "D",
    "status": "Pending",
    "rowid": "891669",
    "final_x": "3687081.32438",
    "final_y": "550559.3853",
    "longitude": "-90.04977309951882",
    "latitude": "30.007676607354803",
    "geocoded_column": {
      "latitude": "30.007676607354803",
      "longitude": "-90.04977309951882"
    }
  },
  {
    "service_request": "2022-891668",
    "request_type": "Trash/Recycling",
    "request_reason": "Repair Recycling Cart",
    "date_created": "2022-06-14T16:02:11.000",
    "date_modified": "2022-06-14T16:02:12.000",
    "request_status": "Pending",
    "responsible_agency": "Department of Sanitation",
    "final_address": "306 Florida Blvd",
    "address_councildis": "A",
    "status": "Pending",
    "rowid": "891668",
    "final_x": "3666901.89044",
    "final_y": "545424.277584",
    "longitude": "-90.11369873993283",
    "latitude": "29.99416295112677",
    "geocoded_column": {
      "latitude": "29.99416295112677",
      "longitude": "-90.11369873993283"
    }
  },
  {
    "service_request": "2022-891667",
    "request_type": "Abandoned Vehicles",
    "request_reason": "Abandoned/Junk Vehicles",
    "date_created": "2022-06-14T16:00:16.000",
    "date_modified": "2022-06-14T16:00:16.000",
    "request_status": "Pending",
    "responsible_agency": "Department of Public Works",
    "final_address": "1808 Bartholomew St",
    "address_councildis": "D",
    "status": "Pending",
    "rowid": "891667",
    "final_x": "3692423.83741",
    "final_y": "538045.746441",
    "longitude": "-90.03334313675144",
    "latitude": "29.97310299571374",
    "geocoded_column": {
      "latitude": "29.97310299571374",
      "longitude": "-90.03334313675144"
    }
  },
  {
    "service_request": "2022-891666",
    "request_type": "Property Maintenance",
    "request_reason": "Property Maintenance",
    "date_created": "2022-06-14T15:59:14.000",
    "date_modified": "2022-06-14T15:59:14.000",
    "request_status": "Pending",
    "responsible_agency": "Department of Code Enforcement",
    "final_address": "4027 Tchoupitoulas St",
    "address_councildis": "B",
    "status": "Pending",
    "rowid": "891666",
    "final_x": "3672429.29422",
    "final_y": "517626.287798",
    "longitude": "-90.09718569391603",
    "latitude": "29.917564774854082",
    "geocoded_column": {
      "latitude": "29.917564774854082",
      "longitude": "-90.09718569391603"
    }
  },
  {
    "service_request": "2022-891665",
    "request_type": "Property Maintenance",
    "request_reason": "Property Maintenance",
    "date_created": "2022-06-14T15:58:56.000",
    "date_modified": "2022-06-14T15:58:56.000",
    "request_status": "Pending",
    "responsible_agency": "Department of Code Enforcement",
    "final_address": "7101 Deanne St",
    "address_councildis": "D",
    "status": "Pending",
    "rowid": "891665",
    "final_x": "3695678.73494",
    "final_y": "556604.753754",
    "longitude": "-90.02239299957587",
    "latitude": "30.02403148639341",
    "geocoded_column": {
      "latitude": "30.02403148639341",
      "longitude": "-90.02239299957587"
    }
  },
  {
    "service_request": "2022-891664",
    "request_type": "Property Maintenance",
    "request_reason": "Property Maintenance",
    "date_created": "2022-06-14T15:51:05.000",
    "date_modified": "2022-06-14T15:51:05.000",
    "request_status": "Pending",
    "responsible_agency": "Department of Code Enforcement",
    "final_address": "4027 Tchoupitoulas St",
    "address_councildis": "B",
    "status": "Pending",
    "rowid": "891664",
    "final_x": "3672429.29422",
    "final_y": "517626.287798",
    "longitude": "-90.09718569391603",
    "latitude": "29.917564774854082",
    "geocoded_column": {
      "latitude": "29.917564774854082",
      "longitude": "-90.09718569391603"
    }
  },
  {
    "service_request": "2022-891663",
    "request_type": "Trash/Recycling",
    "request_reason": "Request a Large Item Pick Up",
    "date_created": "2022-06-14T15:50:18.000",
    "date_modified": "2022-06-14T15:50:19.000",
    "request_status": "Pending",
    "responsible_agency": "Department of Sanitation",
    "final_address": "540 Whitney Ave",
    "address_councildis": "C",
    "status": "Assigned to Contractor",
    "contractor": "Richards Disposal",
    "rowid": "891663",
    "final_x": "3690312.12291",
    "final_y": "529502.704129",
    "longitude": "-90.04031678555744",
    "latitude": "29.94967831681867",
    "geocoded_column": {
      "latitude": "29.94967831681867",
      "longitude": "-90.04031678555744"
    }
  },
  {
    "service_request": "2022-891662",
    "request_type": "Trash/Recycling",
    "request_reason": "Request a Large Item Pick Up",
    "date_created": "2022-06-14T15:46:09.000",
    "date_modified": "2022-06-14T15:46:10.000",
    "request_status": "Pending",
    "responsible_agency": "Department of Sanitation",
    "final_address": "900 Wagner St",
    "address_councildis": "C",
    "status": "Assigned to Contractor",
    "contractor": "Richards Disposal",
    "rowid": "891662",
    "final_x": "3690552.42998",
    "final_y": "528178.06688",
    "longitude": "-90.03960525212644",
    "latitude": "29.946028561312282",
    "geocoded_column": {
      "latitude": "29.946028561312282",
      "longitude": "-90.03960525212644"
    }
  },
  {
    "service_request": "2022-891661",
    "request_type": "Roads/Drainage",
    "request_reason": "Catch Basin - Clogged",
    "date_created": "2022-06-14T15:46:05.000",
    "date_modified": "2022-06-14T15:46:05.000",
    "request_status": "Pending",
    "responsible_agency": "Department of Public Works",
    "final_address": "2701 Higgins Blvd",
    "address_councildis": "D",
    "status": "Pending",
    "rowid": "891661",
    "final_x": "3689404.51068",
    "final_y": "545147.594511",
    "longitude": "-90.04262608890794",
    "latitude": "29.992724389590062",
    "geocoded_column": {
      "latitude": "29.992724389590062",
      "longitude": "-90.04262608890794"
    }
  },
  {
    "service_request": "2022-891660",
    "request_type": "Tax and Revenue",
    "request_reason": "Pay Property Tax",
    "date_created": "2022-06-14T15:43:30.000",
    "date_modified": "2022-06-14T15:45:22.000",
    "request_status": "Pending",
    "responsible_agency": "Bureau of Treasury",
    "final_address": "7521 Farwood Dr",
    "address_councildis": "E",
    "status": "Pending",
    "rowid": "891660",
    "final_x": "3701954.87434",
    "final_y": "557059.533466",
    "longitude": "-90.00254504277464",
    "latitude": "30.02508302650678",
    "geocoded_column": {
      "latitude": "30.02508302650678",
      "longitude": "-90.00254504277464"
    }
  },
  {
    "service_request": "2022-891659",
    "request_type": "Trash/Recycling",
    "request_reason": "Replace Trash Cart",
    "date_created": "2022-06-14T15:41:14.000",
    "date_modified": "2022-06-14T15:43:05.000",
    "request_status": "Pending",
    "responsible_agency": "Department of Sanitation",
    "final_address": "New Orleans,LA",
    "address_councildis": "A",
    "status": "Assigned to Contractor",
    "contractor": "Richards Disposal",
    "rowid": "891659",
    "final_x": "3666317.9314",
    "final_y": "518098.719414",
    "longitude": "-90.11646008264077",
    "latitude": "29.9190436862832",
    "geocoded_column": {
      "latitude": "29.9190436862832",
      "longitude": "-90.11646008264077"
    }
  },
  {
    "service_request": "2022-891658",
    "request_type": "Trash/Recycling",
    "request_reason": "Request a Large Item Pick Up",
    "date_created": "2022-06-14T15:38:04.000",
    "date_modified": "2022-06-14T15:38:05.000",
    "request_status": "Pending",
    "responsible_agency": "Department of Sanitation",
    "final_address": "4700 Nighthart St",
    "address_councildis": "E",
    "status": "Assigned to Contractor",
    "contractor": "Metro Disposal",
    "rowid": "891658",
    "final_x": "3716064.8556",
    "final_y": "556727.404442",
    "longitude": "-89.95797283010907",
    "latitude": "30.02371166230089",
    "geocoded_column": {
      "latitude": "30.02371166230089",
      "longitude": "-89.95797283010907"
    }
  },
  {
    "service_request": "2022-891657",
    "request_type": "Property Maintenance",
    "request_reason": "Property Maintenance",
    "date_created": "2022-06-14T15:28:53.000",
    "date_modified": "2022-06-14T15:28:53.000",
    "request_status": "Pending",
    "responsible_agency": "Department of Code Enforcement",
    "final_address": "2425 Philip St",
    "address_councildis": "B",
    "status": "Pending",
    "rowid": "891657",
    "final_x": "3675421.22542",
    "final_y": "526014.681662",
    "longitude": "-90.08745394035351",
    "latitude": "29.940541047142915",
    "geocoded_column": {
      "latitude": "29.940541047142915",
      "longitude": "-90.08745394035351"
    }
  },
  {
    "service_request": "2022-891656",
    "request_type": "Roads/Drainage",
    "request_reason": "Catch Basin - Clogged",
    "date_created": "2022-06-14T15:28:03.000",
    "date_modified": "2022-06-14T15:28:03.000",
    "request_status": "Pending",
    "responsible_agency": "Department of Public Works",
    "final_address": "2717 Higgins Blvd",
    "address_councildis": "D",
    "status": "Pending",
    "rowid": "891656",
    "final_x": "3689545.7727",
    "final_y": "545150.417295",
    "longitude": "-90.0421797687947",
    "latitude": "29.992727775193423",
    "geocoded_column": {
      "latitude": "29.992727775193423",
      "longitude": "-90.0421797687947"
    }
  },
  {
    "service_request": "2022-891655",
    "request_type": "Roads/Drainage",
    "request_reason": "Street Flooding / Drainage",
    "date_created": "2022-06-14T15:25:38.000",
    "date_modified": "2022-06-14T15:25:38.000",
    "request_status": "Pending",
    "responsible_agency": "Department of Public Works",
    "final_address": "4980 Arts St",
    "address_councildis": "D",
    "status": "Pending",
    "rowid": "891655",
    "final_x": "3685762.96489",
    "final_y": "551463.936085",
    "longitude": "-90.05390626449136",
    "latitude": "30.01020433362246",
    "geocoded_column": {
      "latitude": "30.01020433362246",
      "longitude": "-90.05390626449136"
    }
  },
  {
    "service_request": "2022-891654",
    "request_type": "Abandoned Vehicles",
    "request_reason": "Abandoned/Junk Vehicles",
    "date_created": "2022-06-14T15:25:17.000",
    "date_modified": "2022-06-14T15:25:17.000",
    "request_status": "Pending",
    "responsible_agency": "Department of Public Works",
    "status": "Inspected",
    "rowid": "891654",
    "longitude": "0.0",
    "latitude": "0.0",
    "geocoded_column": {
      "latitude": "0.0",
      "longitude": "0.0"
    }
  },
  {
    "service_request": "2022-891653",
    "request_type": "Roads/Drainage",
    "request_reason": "Street Subsidence (Sinking)",
    "date_created": "2022-06-14T15:23:47.000",
    "date_modified": "2022-06-14T15:30:09.000",
    "request_status": "Pending",
    "responsible_agency": "Department of Public Works",
    "final_address": "2601 Jackson Ave",
    "address_councildis": "B",
    "status": "Pending",
    "rowid": "891653",
    "final_x": "3675224.61",
    "final_y": "526882.894782",
    "longitude": "-90.08804489881594",
    "latitude": "29.942934224668576",
    "geocoded_column": {
      "latitude": "29.942934224668576",
      "longitude": "-90.08804489881594"
    }
  },
  {
    "service_request": "2022-891652",
    "request_type": "Roads/Drainage",
    "request_reason": "Street Flooding / Drainage",
    "date_created": "2022-06-14T15:23:45.000",
    "date_modified": "2022-06-14T15:23:46.000",
    "request_status": "Pending",
    "responsible_agency": "Department of Public Works",
    "final_address": "5100 Arts St",
    "address_councildis": "D",
    "status": "Pending",
    "rowid": "891652",
    "final_x": "3685755.01295",
    "final_y": "551554.118805",
    "longitude": "-90.05392820625407",
    "latitude": "30.010452547329084",
    "geocoded_column": {
      "latitude": "30.010452547329084",
      "longitude": "-90.05392820625407"
    }
  },
  {
    "service_request": "2022-891651",
    "request_type": "Trash/Recycling",
    "request_reason": "Request a Large Item Pick Up",
    "date_created": "2022-06-14T15:18:58.000",
    "date_modified": "2022-06-14T15:18:59.000",
    "request_status": "Pending",
    "responsible_agency": "Department of Sanitation",
    "final_address": "27 Neron Pl",
    "address_councildis": "A",
    "status": "Assigned to Contractor",
    "contractor": "Richards Disposal",
    "rowid": "891651",
    "final_x": "3665127.87943",
    "final_y": "530776.048898",
    "longitude": "-90.11979268016171",
    "latitude": "29.953937001089827",
    "geocoded_column": {
      "latitude": "29.953937001089827",
      "longitude": "-90.11979268016171"
    }
  },
  {
    "service_request": "2022-891650",
    "request_type": "Trash/Recycling",
    "request_reason": "Replace Trash Cart",
    "date_created": "2022-06-14T15:14:12.000",
    "date_modified": "2022-06-14T15:14:13.000",
    "request_status": "Pending",
    "responsible_agency": "Department of Sanitation",
    "final_address": "1915 S Dupre St",
    "address_councildis": "B",
    "status": "Assigned to Contractor",
    "contractor": "Richards Disposal",
    "rowid": "891650",
    "final_x": "3670261.82298",
    "final_y": "529493.593281",
    "longitude": "-90.10362520352551",
    "latitude": "29.950260163903046",
    "geocoded_column": {
      "latitude": "29.950260163903046",
      "longitude": "-90.10362520352551"
    }
  },
  {
    "service_request": "2022-891649",
    "request_type": "Trash/Recycling",
    "request_reason": "Start Trash Service",
    "date_created": "2022-06-14T15:13:43.000",
    "date_modified": "2022-06-14T15:13:44.000",
    "request_status": "Pending",
    "responsible_agency": "Department of Sanitation",
    "final_address": "1423 Baronne St",
    "address_councildis": "B",
    "status": "Assigned to Contractor",
    "contractor": "Richards Disposal",
    "rowid": "891649",
    "final_x": "3678438.77064",
    "final_y": "526144.66995",
    "longitude": "-90.0779225481943",
    "latitude": "29.940807910469623",
    "geocoded_column": {
      "latitude": "29.940807910469623",
      "longitude": "-90.0779225481943"
    }
  },
  {
    "service_request": "2022-891648",
    "request_type": "Trash/Recycling",
    "request_reason": "Order Recycling Cart",
    "date_created": "2022-06-14T15:06:31.000",
    "date_modified": "2022-06-14T15:06:31.000",
    "request_status": "Pending",
    "responsible_agency": "Department of Sanitation",
    "final_address": "4825 Perrier St",
    "address_councildis": "B",
    "status": "Pending",
    "rowid": "891648",
    "final_x": "3669237.16218",
    "final_y": "519962.547704",
    "longitude": "-90.10718258644773",
    "latitude": "29.924083055980724",
    "geocoded_column": {
      "latitude": "29.924083055980724",
      "longitude": "-90.10718258644773"
    }
  },
  {
    "service_request": "2022-891647",
    "request_type": "Trash/Recycling",
    "request_reason": "Request a Large Item Pick Up",
    "date_created": "2022-06-14T15:06:22.000",
    "date_modified": "2022-06-14T15:08:21.000",
    "request_status": "Pending",
    "responsible_agency": "Department of Sanitation",
    "final_address": "1018 St Philip St",
    "address_councildis": "C",
    "contractor": "Richards Disposal",
    "rowid": "891647",
    "final_x": "3682208.60808",
    "final_y": "534085.109253",
    "longitude": "-90.0657431913575",
    "latitude": "29.962527324417863",
    "geocoded_column": {
      "latitude": "29.962527324417863",
      "longitude": "-90.0657431913575"
    }
  },
  {
    "service_request": "2022-891646",
    "request_type": "Roads/Drainage",
    "request_reason": "Catch Basin - Clogged",
    "date_created": "2022-06-14T15:05:35.000",
    "date_modified": "2022-06-14T15:05:35.000",
    "request_status": "Pending",
    "responsible_agency": "Department of Public Works",
    "final_address": "2717 Higgins Blvd",
    "address_councildis": "D",
    "status": "Pending",
    "rowid": "891646",
    "final_x": "3689545.7727",
    "final_y": "545150.417295",
    "longitude": "-90.0421797687947",
    "latitude": "29.992727775193423",
    "geocoded_column": {
      "latitude": "29.992727775193423",
      "longitude": "-90.0421797687947"
    }
  },
  {
    "service_request": "2022-891645",
    "request_type": "Trash/Recycling",
    "request_reason": "Replace Trash Cart",
    "date_created": "2022-06-14T15:02:42.000",
    "date_modified": "2022-06-14T15:02:43.000",
    "request_status": "Pending",
    "responsible_agency": "Department of Sanitation",
    "final_address": "6141 Craigie Rd",
    "address_councildis": "E",
    "status": "Assigned to Contractor",
    "contractor": "Metro Disposal",
    "rowid": "891645",
    "final_x": "3695975.48874",
    "final_y": "558920.902748",
    "longitude": "-90.0213715227464",
    "latitude": "30.030390674830926",
    "geocoded_column": {
      "latitude": "30.030390674830926",
      "longitude": "-90.0213715227464"
    }
  },
  {
    "service_request": "2022-891644",
    "request_type": "Trash/Recycling",
    "request_reason": "Order Recycling Cart",
    "date_created": "2022-06-14T15:00:21.000",
    "date_modified": "2022-06-14T15:00:21.000",
    "request_status": "Pending",
    "responsible_agency": "Department of Sanitation",
    "final_address": "6141 Craigie Rd",
    "address_councildis": "E",
    "status": "Pending",
    "rowid": "891644",
    "final_x": "3695975.48874",
    "final_y": "558920.902748",
    "longitude": "-90.0213715227464",
    "latitude": "30.030390674830926",
    "geocoded_column": {
      "latitude": "30.030390674830926",
      "longitude": "-90.0213715227464"
    }
  },
  {
    "service_request": "2022-891643",
    "request_type": "Trash/Recycling",
    "request_reason": "Request a Large Item Pick Up",
    "date_created": "2022-06-14T14:52:17.000",
    "date_modified": "2022-06-14T14:52:18.000",
    "request_status": "Pending",
    "responsible_agency": "Department of Sanitation",
    "final_address": "2825 Orleans Ave",
    "address_councildis": "A",
    "status": "Assigned to Contractor",
    "contractor": "Richards Disposal",
    "rowid": "891643",
    "final_x": "3676182.46037",
    "final_y": "537538.497416",
    "longitude": "-90.0846541131018",
    "latitude": "29.972204898819605",
    "geocoded_column": {
      "latitude": "29.972204898819605",
      "longitude": "-90.0846541131018"
    }
  },
  {
    "service_request": "2022-891642",
    "request_type": "Trash/Recycling",
    "request_reason": "Missed Trash Pick-Up",
    "date_created": "2022-06-14T14:50:01.000",
    "date_modified": "2022-06-14T14:50:02.000",
    "request_status": "Pending",
    "responsible_agency": "Department of Sanitation",
    "final_address": "4600 BLK S Saratoga St",
    "address_councildis": "B",
    "status": "Assigned to Contractor",
    "contractor": "Richards Disposal",
    "rowid": "891642",
    "final_x": "3669743.32353",
    "final_y": "522551.741102",
    "longitude": "-90.10549722917278",
    "latitude": "29.93118760878003",
    "geocoded_column": {
      "latitude": "29.93118760878003",
      "longitude": "-90.10549722917278"
    }
  },
  {
    "service_request": "2022-891641",
    "request_type": "Trash/Recycling",
    "request_reason": "Request a Large Item Pick Up",
    "date_created": "2022-06-14T14:44:02.000",
    "date_modified": "2022-06-14T14:44:02.000",
    "request_status": "Pending",
    "responsible_agency": "Department of Sanitation",
    "final_address": "2426 Barracks St",
    "address_councildis": "D",
    "status": "Assigned to Contractor",
    "contractor": "Richards Disposal",
    "rowid": "891641",
    "final_x": "3678923.1636",
    "final_y": "537987.982089",
    "longitude": "-90.07598293229198",
    "latitude": "29.973358419107047",
    "geocoded_column": {
      "latitude": "29.973358419107047",
      "longitude": "-90.07598293229198"
    }
  },
  {
    "service_request": "2022-891640",
    "request_type": "Property Maintenance",
    "request_reason": "Property Maintenance",
    "date_created": "2022-06-14T14:43:11.000",
    "date_modified": "2022-06-14T14:43:11.000",
    "request_status": "Pending",
    "responsible_agency": "Department of Code Enforcement",
    "final_address": "514 S Rampart St",
    "address_councildis": "B",
    "status": "Pending",
    "rowid": "891640",
    "final_x": "3679335.39695",
    "final_y": "529518.262657",
    "longitude": "-90.07497477274345",
    "latitude": "29.95005712320538",
    "geocoded_column": {
      "latitude": "29.95005712320538",
      "longitude": "-90.07497477274345"
    }
  },
  {
    "service_request": "2022-891639",
    "request_type": "Roads/Drainage",
    "request_reason": "Catch Basin - Clogged",
    "date_created": "2022-06-14T14:42:38.000",
    "date_modified": "2022-06-14T14:42:38.000",
    "request_status": "Pending",
    "responsible_agency": "Department of Public Works",
    "final_address": "2717 Higgins Blvd",
    "address_councildis": "D",
    "status": "Pending",
    "rowid": "891639",
    "final_x": "3689545.7727",
    "final_y": "545150.417295",
    "longitude": "-90.0421797687947",
    "latitude": "29.992727775193423",
    "geocoded_column": {
      "latitude": "29.992727775193423",
      "longitude": "-90.0421797687947"
    }
  },
  {
    "service_request": "2022-891638",
    "request_type": "Trash/Recycling",
    "request_reason": "Illegal Dumping",
    "date_created": "2022-06-14T14:41:58.000",
    "date_modified": "2022-06-14T14:41:58.000",
    "request_status": "Pending",
    "responsible_agency": "Department of Sanitation",
    "final_address": "4469 Woodland Dr",
    "address_councildis": "C",
    "status": "Pending",
    "rowid": "891638",
    "final_x": "3705518.49508",
    "final_y": "513561.359538",
    "longitude": "-89.99289255013865",
    "latitude": "29.905364599463695",
    "geocoded_column": {
      "latitude": "29.905364599463695",
      "longitude": "-89.99289255013865"
    }
  },
  {
    "service_request": "2022-891637",
    "request_type": "Traffic Signals/Signs/Striping/Streetlights",
    "request_reason": "Additional signage",
    "date_created": "2022-06-14T14:39:06.000",
    "date_modified": "2022-06-14T14:39:06.000",
    "request_status": "Pending",
    "responsible_agency": "Department of Public Works",
    "final_address": "859 Taft Pl",
    "address_councildis": "A",
    "status": "Pending",
    "rowid": "891637",
    "final_x": "3673779.51867",
    "final_y": "539852.676234",
    "longitude": "-90.0921638545366",
    "latitude": "29.978639886454335",
    "geocoded_column": {
      "latitude": "29.978639886454335",
      "longitude": "-90.0921638545366"
    }
  },
  {
    "service_request": "2022-891636",
    "request_type": "Roads/Drainage",
    "request_reason": "Pothole",
    "date_created": "2022-06-14T14:38:20.000",
    "date_modified": "2022-06-14T14:38:20.000",
    "request_status": "Pending",
    "responsible_agency": "Department of Public Works",
    "final_address": "7801 Panola St",
    "address_councildis": "A",
    "status": "Pending",
    "rowid": "891636",
    "final_x": "3664923.19725",
    "final_y": "530007.829889",
    "longitude": "-90.12046466165108",
    "latitude": "29.951830607120872",
    "geocoded_column": {
      "latitude": "29.951830607120872",
      "longitude": "-90.12046466165108"
    }
  },
  {
    "service_request": "2022-891635",
    "request_type": "Trash/Recycling",
    "request_reason": "Request a Large Item Pick Up",
    "date_created": "2022-06-14T14:38:04.000",
    "date_modified": "2022-06-14T14:39:35.000",
    "request_status": "Pending",
    "responsible_agency": "Department of Sanitation",
    "final_address": "1718 Burbank Dr",
    "address_councildis": "D",
    "status": "Assigned to Contractor",
    "contractor": "Metro Disposal",
    "rowid": "891635",
    "final_x": "3679785.48219",
    "final_y": "554357.592088",
    "longitude": "-90.07269077105926",
    "latitude": "30.018343007530742",
    "geocoded_column": {
      "latitude": "30.018343007530742",
      "longitude": "-90.07269077105926"
    }
  },
  {
    "service_request": "2022-891634",
    "request_type": "Property Maintenance",
    "request_reason": "Property Maintenance",
    "date_created": "2022-06-14T14:37:57.000",
    "date_modified": "2022-06-14T14:37:57.000",
    "request_status": "Pending",
    "responsible_agency": "Department of Code Enforcement",
    "final_address": "8531 Spruce St",
    "address_councildis": "A",
    "status": "Pending",
    "rowid": "891634",
    "final_x": "3662628.39258",
    "final_y": "531619.115203",
    "longitude": "-90.12765706429461",
    "latitude": "29.956327712212946",
    "geocoded_column": {
      "latitude": "29.956327712212946",
      "longitude": "-90.12765706429461"
    }
  },
  {
    "service_request": "2022-891633",
    "request_type": "Roads/Drainage",
    "request_reason": "Pothole",
    "date_created": "2022-06-14T14:37:06.000",
    "date_modified": "2022-06-14T14:37:06.000",
    "request_status": "Pending",
    "responsible_agency": "Department of Public Works",
    "final_address": "2100 Burdette St",
    "address_councildis": "A",
    "status": "Pending",
    "rowid": "891633",
    "final_x": "3664940.98804",
    "final_y": "530019.462081",
    "longitude": "-90.12040809777444",
    "latitude": "29.951862074062984",
    "geocoded_column": {
      "latitude": "29.951862074062984",
      "longitude": "-90.12040809777444"
    }
  },
  {
    "service_request": "2022-891632",
    "request_type": "Trash/Recycling",
    "request_reason": "Missed Trash Pick-Up",
    "date_created": "2022-06-14T14:37:05.000",
    "date_modified": "2022-06-14T14:37:06.000",
    "request_status": "Pending",
    "responsible_agency": "Department of Sanitation",
    "final_address": "1225 Amelia St",
    "address_councildis": "B",
    "status": "Assigned to Contractor",
    "contractor": "Richards Disposal",
    "rowid": "891632",
    "final_x": "3673550.60033",
    "final_y": "519740.946424",
    "longitude": "-90.0935741333045",
    "latitude": "29.923346100348226",
    "geocoded_column": {
      "latitude": "29.923346100348226",
      "longitude": "-90.0935741333045"
    }
  },
  {
    "service_request": "2022-891631",
    "request_type": "Property Maintenance",
    "request_reason": "Property Maintenance",
    "date_created": "2022-06-14T14:35:06.000",
    "date_modified": "2022-06-14T14:35:06.000",
    "request_status": "Pending",
    "responsible_agency": "Department of Code Enforcement",
    "final_address": "1739 Baronne St",
    "address_councildis": "B",
    "status": "Pending",
    "rowid": "891631",
    "final_x": "3677883.0676",
    "final_y": "525220.415741",
    "longitude": "-90.07970892596244",
    "latitude": "29.93828324589502",
    "geocoded_column": {
      "latitude": "29.93828324589502",
      "longitude": "-90.07970892596244"
    }
  },
  {
    "service_request": "2022-891630",
    "request_type": "Roads/Drainage",
    "request_reason": "Catch Basin - Clogged",
    "date_created": "2022-06-14T14:34:20.000",
    "date_modified": "2022-06-14T14:34:20.000",
    "request_status": "Pending",
    "responsible_agency": "Department of Public Works",
    "final_address": "2717 Higgins Blvd",
    "address_councildis": "D",
    "status": "Pending",
    "rowid": "891630",
    "final_x": "3689545.7727",
    "final_y": "545150.417295",
    "longitude": "-90.0421797687947",
    "latitude": "29.992727775193423",
    "geocoded_column": {
      "latitude": "29.992727775193423",
      "longitude": "-90.0421797687947"
    }
  },
  {
    "service_request": "2022-891629",
    "request_type": "Trash/Recycling",
    "request_reason": "Request a Large Item Pick Up",
    "date_created": "2022-06-14T14:29:21.000",
    "date_modified": "2022-06-14T14:29:22.000",
    "request_status": "Pending",
    "responsible_agency": "Department of Sanitation",
    "final_address": "7428 Benson St",
    "address_councildis": "E",
    "status": "Assigned to Contractor",
    "contractor": "Metro Disposal",
    "rowid": "891629",
    "final_x": "3704617.74794",
    "final_y": "561924.631583",
    "longitude": "-89.99395115139372",
    "latitude": "30.038374839630926",
    "geocoded_column": {
      "latitude": "30.038374839630926",
      "longitude": "-89.99395115139372"
    }
  },
  {
    "service_request": "2022-891628",
    "request_type": "Trash/Recycling",
    "request_reason": "Replace Trash Cart",
    "date_created": "2022-06-14T14:27:13.000",
    "date_modified": "2022-06-14T14:27:14.000",
    "request_status": "Pending",
    "responsible_agency": "Department of Sanitation",
    "final_address": "2824 Laurel St",
    "address_councildis": "B",
    "status": "Assigned to Contractor",
    "contractor": "Richards Disposal",
    "rowid": "891628",
    "final_x": "3677274.86382",
    "final_y": "520034.646072",
    "longitude": "-90.08180790463425",
    "latitude": "29.924042355155237",
    "geocoded_column": {
      "latitude": "29.924042355155237",
      "longitude": "-90.08180790463425"
    }
  },
  {
    "service_request": "2022-891627",
    "request_type": "Traffic Signals/Signs/Striping/Streetlights",
    "request_reason": "Street Light Outage/Malfunction",
    "date_created": "2022-06-14T14:25:36.000",
    "date_modified": "2022-06-14T14:25:37.000",
    "request_status": "Pending",
    "responsible_agency": "Department of Public Works",
    "final_address": "2831 Laurel St",
    "address_councildis": "B",
    "status": "Pending",
    "contractor": "Royal Engineering",
    "rowid": "891627",
    "final_x": "3677213.09275",
    "final_y": "520091.851896",
    "longitude": "-90.08200092205563",
    "latitude": "29.92420150766007",
    "geocoded_column": {
      "latitude": "29.92420150766007",
      "longitude": "-90.08200092205563"
    }
  },
  {
    "service_request": "2022-891626",
    "request_type": "Trash/Recycling",
    "request_reason": "Request a Large Item Pick Up",
    "date_created": "2022-06-14T14:21:43.000",
    "date_modified": "2022-06-14T14:21:43.000",
    "request_status": "Pending",
    "responsible_agency": "Department of Sanitation",
    "final_address": "315 N Gayoso St",
    "address_councildis": "B",
    "status": "Assigned to Contractor",
    "contractor": "Richards Disposal",
    "rowid": "891626",
    "final_x": "3674888.76616",
    "final_y": "536657.762567",
    "longitude": "-90.08877003455646",
    "latitude": "29.969821878452027",
    "geocoded_column": {
      "latitude": "29.969821878452027",
      "longitude": "-90.08877003455646"
    }
  },
  {
    "service_request": "2022-891625",
    "request_type": "Trash/Recycling",
    "request_reason": "Missed Trash Pick-Up",
    "date_created": "2022-06-14T14:20:42.000",
    "date_modified": "2022-06-14T14:20:54.000",
    "request_status": "Pending",
    "responsible_agency": "Department of Sanitation",
    "final_address": "2200 Feliciana St",
    "address_councildis": "D",
    "status": "Assigned to Contractor",
    "contractor": "Metro Disposal",
    "rowid": "891625",
    "final_x": "3689703.83382",
    "final_y": "540264.000715",
    "longitude": "-90.04185445541488",
    "latitude": "29.979286981245398",
    "geocoded_column": {
      "latitude": "29.979286981245398",
      "longitude": "-90.04185445541488"
    }
  },
  {
    "service_request": "2022-891624",
    "request_type": "Abandoned Vehicles",
    "request_reason": "Abandoned/Junk Vehicles",
    "date_created": "2022-06-14T14:14:47.000",
    "date_modified": "2022-06-14T14:14:47.000",
    "request_status": "Pending",
    "responsible_agency": "Department of Public Works",
    "final_address": "2212 Governor Nicholls St",
    "address_councildis": "D",
    "status": "Pending",
    "rowid": "891624",
    "final_x": "3679326.51451",
    "final_y": "537183.334728",
    "longitude": "-90.07473698050525",
    "latitude": "29.9711337392553",
    "geocoded_column": {
      "latitude": "29.9711337392553",
      "longitude": "-90.07473698050525"
    }
  },
  {
    "service_request": "2022-891623",
    "request_type": "Trash/Recycling",
    "request_reason": "Request a Large Item Pick Up",
    "date_created": "2022-06-14T14:13:03.000",
    "date_modified": "2022-06-14T14:13:03.000",
    "request_status": "Pending",
    "responsible_agency": "Department of Sanitation",
    "final_address": "1336 Congress St",
    "address_councildis": "C",
    "status": "Assigned to Contractor",
    "contractor": "Metro Disposal",
    "rowid": "891623",
    "final_x": "3690940.17379",
    "final_y": "536618.640455",
    "longitude": "-90.03807976986963",
    "latitude": "29.96922515870246",
    "geocoded_column": {
      "latitude": "29.96922515870246",
      "longitude": "-90.03807976986963"
    }
  },
  {
    "service_request": "2022-891622",
    "request_type": "Trash/Recycling",
    "request_reason": "Repair Trash Cart",
    "date_created": "2022-06-14T14:10:27.000",
    "date_modified": "2022-06-14T14:10:27.000",
    "case_close_date": "2022-02-23T18:00:00.000",
    "request_status": "Pending",
    "responsible_agency": "Department of Sanitation",
    "final_address": "3711 Chestnut St",
    "address_councildis": "B",
    "status": "Assigned to Contractor",
    "contractor": "Richards Disposal",
    "rowid": "891622",
    "final_x": "3673343.33179",
    "final_y": "519905.821304",
    "longitude": "-90.0942227749722",
    "latitude": "29.923805618143746",
    "geocoded_column": {
      "latitude": "29.923805618143746",
      "longitude": "-90.0942227749722"
    }
  },
  {
    "service_request": "2022-891621",
    "request_type": "Trash/Recycling",
    "request_reason": "Replace Trash Cart",
    "date_created": "2022-06-14T14:10:26.000",
    "date_modified": "2022-06-14T14:10:27.000",
    "request_status": "Pending",
    "responsible_agency": "Department of Sanitation",
    "final_address": "29 S Oak Ridge Ct",
    "address_councildis": "E",
    "status": "Assigned to Contractor",
    "contractor": "Metro Disposal",
    "rowid": "891621",
    "final_x": "3713853.86104",
    "final_y": "567820.232804",
    "longitude": "-89.96454034292587",
    "latitude": "30.054285264073794",
    "geocoded_column": {
      "latitude": "30.054285264073794",
      "longitude": "-89.96454034292587"
    }
  },
  {
    "service_request": "2022-891620",
    "request_type": "Property Maintenance",
    "request_reason": "Property Maintenance",
    "date_created": "2022-06-14T14:09:43.000",
    "date_modified": "2022-06-14T14:09:43.000",
    "request_status": "Pending",
    "responsible_agency": "Department of Code Enforcement",
    "final_address": "9431 Morrison Rd",
    "address_councildis": "E",
    "status": "Pending",
    "rowid": "891620",
    "final_x": "3706978.45316",
    "final_y": "562690.793952",
    "longitude": "-89.98646230287514",
    "latitude": "30.040405396933213",
    "geocoded_column": {
      "latitude": "30.040405396933213",
      "longitude": "-89.98646230287514"
    }
  },
  {
    "service_request": "2022-891619",
    "request_type": "Trash/Recycling",
    "request_reason": "Repair Trash Cart",
    "date_created": "2022-06-14T14:07:09.000",
    "date_modified": "2022-06-14T14:07:10.000",
    "request_status": "Pending",
    "responsible_agency": "Department of Sanitation",
    "final_address": "728 Harmony St",
    "address_councildis": "B",
    "status": "Assigned to Contractor",
    "contractor": "Richards Disposal",
    "rowid": "891619",
    "final_x": "3676345.92046",
    "final_y": "518863.116663",
    "longitude": "-90.08478054757074",
    "latitude": "29.920848893368476",
    "geocoded_column": {
      "latitude": "29.920848893368476",
      "longitude": "-90.08478054757074"
    }
  },
  {
    "service_request": "2022-891618",
    "request_type": "Trash/Recycling",
    "request_reason": "Request a Large Item Pick Up",
    "date_created": "2022-06-14T14:00:34.000",
    "date_modified": "2022-06-14T14:00:34.000",
    "request_status": "Pending",
    "responsible_agency": "Department of Sanitation",
    "final_address": "6548 Memphis St",
    "address_councildis": "A",
    "status": "Assigned to Contractor",
    "contractor": "Metro Disposal",
    "rowid": "891618",
    "final_x": "3669442.83226",
    "final_y": "551051.078869",
    "longitude": "-90.10548176260029",
    "latitude": "30.00956008636731",
    "geocoded_column": {
      "latitude": "30.00956008636731",
      "longitude": "-90.10548176260029"
    }
  },
  {
    "service_request": "2022-891617",
    "request_type": "Trash/Recycling",
    "request_reason": "Missed Trash Pick-Up",
    "date_created": "2022-06-14T14:00:20.000",
    "date_modified": "2022-06-14T14:00:20.000",
    "request_status": "Pending",
    "responsible_agency": "Department of Sanitation",
    "final_address": "225 S Scott St, New Orleans, Louisiana, 70119",
    "address_councildis": "A",
    "status": "Assigned to Contractor",
    "contractor": "Richards Disposal",
    "rowid": "891617",
    "final_x": "3671355.31131",
    "final_y": "537345.665032",
    "longitude": "-90.09990565552587",
    "latitude": "29.971818434375",
    "geocoded_column": {
      "latitude": "29.971818434375",
      "longitude": "-90.09990565552587"
    }
  },
  {
    "service_request": "2022-891616",
    "request_type": "Trash/Recycling",
    "request_reason": "Illegal Dumping",
    "date_created": "2022-06-14T14:00:10.000",
    "date_modified": "2022-06-14T14:00:10.000",
    "request_status": "Pending",
    "responsible_agency": "Department of Sanitation",
    "final_address": "1828 Wagner St",
    "address_councildis": "C",
    "status": "Pending",
    "rowid": "891616",
    "final_x": "3690368.18454",
    "final_y": "524078.428156",
    "longitude": "-90.04033303896034",
    "latitude": "29.93476167107427",
    "geocoded_column": {
      "latitude": "29.93476167107427",
      "longitude": "-90.04033303896034"
    }
  },
  {
    "service_request": "2022-891615",
    "request_type": "Trash/Recycling",
    "request_reason": "Repair Trash Cart",
    "date_created": "2022-06-14T13:51:31.000",
    "date_modified": "2022-06-14T13:51:31.000",
    "request_status": "Pending",
    "responsible_agency": "Department of Sanitation",
    "final_address": "900 Wagner St",
    "address_councildis": "C",
    "status": "Assigned to Contractor",
    "contractor": "Richards Disposal",
    "rowid": "891615",
    "final_x": "3690552.42998",
    "final_y": "528178.06688",
    "longitude": "-90.03960525212644",
    "latitude": "29.946028561312282",
    "geocoded_column": {
      "latitude": "29.946028561312282",
      "longitude": "-90.03960525212644"
    }
  },
  {
    "service_request": "2022-891614",
    "request_type": "Trash/Recycling",
    "request_reason": "Order Recycling Cart",
    "date_created": "2022-06-14T13:44:52.000",
    "date_modified": "2022-06-14T13:44:52.000",
    "request_status": "Pending",
    "responsible_agency": "Department of Sanitation",
    "final_address": "1005 Barracks St Unit 8",
    "address_councildis": "C",
    "status": "Pending",
    "rowid": "891614",
    "final_x": "3682965.43925",
    "final_y": "535011.528902",
    "longitude": "-90.06332080004961",
    "latitude": "29.965051617067726",
    "geocoded_column": {
      "latitude": "29.965051617067726",
      "longitude": "-90.06332080004961"
    }
  },
  {
    "service_request": "2022-891613",
    "request_type": "Trash/Recycling",
    "request_reason": "Replace Trash Cart",
    "date_created": "2022-06-14T13:41:25.000",
    "date_modified": "2022-06-14T13:41:26.000",
    "request_status": "Pending",
    "responsible_agency": "Department of Sanitation",
    "final_address": "901 Porteous St",
    "address_councildis": "A",
    "status": "Assigned to Contractor",
    "contractor": "Metro Disposal",
    "rowid": "891613",
    "final_x": "3670296.16058",
    "final_y": "551299.520789",
    "longitude": "-90.10277736183275",
    "latitude": "30.010218043777957",
    "geocoded_column": {
      "latitude": "30.010218043777957",
      "longitude": "-90.10277736183275"
    }
  },
  {
    "service_request": "2022-891612",
    "request_type": "Traffic Signals/Signs/Striping/Streetlights",
    "request_reason": "Street Light Outage/Malfunction",
    "date_created": "2022-06-14T13:34:45.000",
    "date_modified": "2022-06-14T13:34:48.000",
    "request_status": "Pending",
    "responsible_agency": "Department of Public Works",
    "final_address": "2165 Sere St",
    "address_councildis": "D",
    "status": "Pending",
    "contractor": "Royal Engineering",
    "rowid": "891612",
    "final_x": "3684033.73973",
    "final_y": "545948.402448",
    "longitude": "-90.05956323325232",
    "latitude": "29.995091580383377",
    "geocoded_column": {
      "latitude": "29.995091580383377",
      "longitude": "-90.05956323325232"
    }
  },
  {
    "service_request": "2022-891611",
    "request_type": "Roads/Drainage",
    "request_reason": "Debris in Roadway",
    "date_created": "2022-06-14T13:28:44.000",
    "date_modified": "2022-06-14T13:28:44.000",
    "request_status": "Pending",
    "responsible_agency": "Department of Public Works",
    "final_address": "7451 Hansbrough Ave",
    "address_councildis": "E",
    "status": "Pending",
    "rowid": "891611",
    "final_x": "3707900.30008",
    "final_y": "564095.545377",
    "longitude": "-89.9834966914344",
    "latitude": "30.0442380771983",
    "geocoded_column": {
      "latitude": "30.0442380771983",
      "longitude": "-89.9834966914344"
    }
  },
  {
    "service_request": "2022-891610",
    "request_type": "Traffic Signals/Signs/Striping/Streetlights",
    "request_reason": "Traffic Sign Missing/Damaged",
    "date_created": "2022-06-14T13:28:44.000",
    "date_modified": "2022-06-14T13:28:44.000",
    "request_status": "Pending",
    "responsible_agency": "Department of Public Works",
    "final_address": "FRENCHMEN ST & DECATUR ST",
    "address_councildis": "C",
    "status": "Pending",
    "rowid": "891610",
    "final_x": "3684765.5",
    "final_y": "534122.58",
    "longitude": "-90.05766757482102",
    "latitude": "29.962552332300636",
    "geocoded_column": {
      "latitude": "29.962552332300636",
      "longitude": "-90.05766757482102"
    }
  },
  {
    "service_request": "2022-891609",
    "request_type": "Trash/Recycling",
    "request_reason": "Return Trash Cart",
    "date_created": "2022-06-14T13:27:32.000",
    "date_modified": "2022-06-14T13:27:33.000",
    "request_status": "Pending",
    "responsible_agency": "Department of Sanitation",
    "final_address": "2919 Castiglione St",
    "address_councildis": "D",
    "status": "Assigned to Contractor",
    "contractor": "Metro Disposal",
    "rowid": "891609",
    "final_x": "3679229.34978",
    "final_y": "542440.065869",
    "longitude": "-90.07486150660526",
    "latitude": "29.98559086437853",
    "geocoded_column": {
      "latitude": "29.98559086437853",
      "longitude": "-90.07486150660526"
    }
  },
  {
    "service_request": "2022-891608",
    "request_type": "Property Maintenance",
    "request_reason": "Property Maintenance",
    "date_created": "2022-06-14T13:25:10.000",
    "date_modified": "2022-06-14T13:27:29.000",
    "request_status": "Pending",
    "responsible_agency": "Department of Code Enforcement",
    "final_address": "14818 Hayne Blvd",
    "address_councildis": "E",
    "status": "Pending",
    "rowid": "891608",
    "final_x": "3719840.71007",
    "final_y": "575029.777195",
    "longitude": "-89.94534150928304",
    "latitude": "30.073910483696864",
    "geocoded_column": {
      "latitude": "30.073910483696864",
      "longitude": "-89.94534150928304"
    }
  },
  {
    "service_request": "2022-891607",
    "request_type": "Trash/Recycling",
    "request_reason": "Replace Trash Cart",
    "date_created": "2022-06-14T13:25:06.000",
    "date_modified": "2022-06-14T13:25:07.000",
    "request_status": "Pending",
    "responsible_agency": "Department of Sanitation",
    "final_address": "4113 Tchoupitoulas St",
    "address_councildis": "B",
    "status": "Assigned to Contractor",
    "contractor": "Richards Disposal",
    "rowid": "891607",
    "final_x": "3672144.94753",
    "final_y": "517605.872246",
    "longitude": "-90.09808391382103",
    "latitude": "29.917517070333336",
    "geocoded_column": {
      "latitude": "29.917517070333336",
      "longitude": "-90.09808391382103"
    }
  },
  {
    "service_request": "2022-891606",
    "request_type": "Trash/Recycling",
    "request_reason": "Illegal Dumping",
    "date_created": "2022-06-14T13:25:02.000",
    "date_modified": "2022-06-14T13:25:02.000",
    "request_status": "Pending",
    "responsible_agency": "Department of Code Enforcement",
    "final_address": "14818 Hayne Blvd",
    "address_councildis": "E",
    "status": "Pending",
    "rowid": "891606",
    "final_x": "3719840.71007",
    "final_y": "575029.777195",
    "longitude": "-89.94534150928304",
    "latitude": "30.073910483696864",
    "geocoded_column": {
      "latitude": "30.073910483696864",
      "longitude": "-89.94534150928304"
    }
  },
  {
    "service_request": "2022-891604",
    "request_type": "Mosquito, Termite & Rodent Control",
    "request_reason": "Mosquito Complaint",
    "date_created": "2022-06-14T13:18:29.000",
    "date_modified": "2022-06-14T13:18:29.000",
    "request_status": "Pending",
    "responsible_agency": "Mosquito, Termite & Rodent Control Board",
    "final_address": "1 English Turn Ct",
    "address_councildis": "C",
    "status": "Pending",
    "rowid": "891604",
    "final_x": "3718246.48012",
    "final_y": "514951.349171",
    "longitude": "-89.95266997347049",
    "latitude": "29.908771029725997",
    "geocoded_column": {
      "latitude": "29.908771029725997",
      "longitude": "-89.95266997347049"
    }
  },
  {
    "service_request": "2022-891603",
    "request_type": "Safety & Permits",
    "request_reason": "Licenses & Permits",
    "date_created": "2022-06-14T13:18:04.000",
    "date_modified": "2022-06-14T13:18:05.000",
    "request_status": "Pending",
    "responsible_agency": "Safety and Permits",
    "final_address": "4442 Joycelyn Dr",
    "address_councildis": "C",
    "status": "Pending",
    "rowid": "891603",
    "final_x": "3707819.10929",
    "final_y": "514268.300595",
    "longitude": "-89.98560550892724",
    "latitude": "29.907234240956864",
    "geocoded_column": {
      "latitude": "29.907234240956864",
      "longitude": "-89.98560550892724"
    }
  },
  {
    "service_request": "2022-891602",
    "request_type": "Property Maintenance",
    "request_reason": "Property Maintenance",
    "date_created": "2022-06-14T13:16:23.000",
    "date_modified": "2022-06-14T13:16:23.000",
    "request_status": "Pending",
    "responsible_agency": "Department of Code Enforcement",
    "final_address": "7520 Hansbrough Ave",
    "address_councildis": "E",
    "status": "Pending",
    "rowid": "891602",
    "final_x": "3707746.49112",
    "final_y": "564205.497313",
    "longitude": "-89.98397870049673",
    "latitude": "30.044545382315647",
    "geocoded_column": {
      "latitude": "30.044545382315647",
      "longitude": "-89.98397870049673"
    }
  },
  {
    "service_request": "2022-891601",
    "request_type": "Abandoned Vehicles",
    "request_reason": "Abandoned/Junk Vehicles",
    "date_created": "2022-06-14T13:13:37.000",
    "date_modified": "2022-06-14T13:13:37.000",
    "request_status": "Pending",
    "responsible_agency": "Department of Public Works",
    "final_address": "7801 Bass St",
    "address_councildis": "E",
    "status": "Pending",
    "rowid": "891601",
    "final_x": "3720082.01599",
    "final_y": "573745.982698",
    "longitude": "-89.9446278446755",
    "latitude": "30.070372553100313",
    "geocoded_column": {
      "latitude": "30.070372553100313",
      "longitude": "-89.9446278446755"
    }
  },
  {
    "service_request": "2022-891600",
    "request_type": "Trash/Recycling",
    "request_reason": "Illegal Dumping",
    "date_created": "2022-06-14T13:12:28.000",
    "date_modified": "2022-06-14T13:12:28.000",
    "request_status": "Pending",
    "responsible_agency": "Department of Sanitation",
    "final_address": "1 English Turn Ct",
    "address_councildis": "C",
    "status": "Pending",
    "rowid": "891600",
    "final_x": "3718246.48012",
    "final_y": "514951.349171",
    "longitude": "-89.95266997347049",
    "latitude": "29.908771029725997",
    "geocoded_column": {
      "latitude": "29.908771029725997",
      "longitude": "-89.95266997347049"
    }
  },