[
  {
    "service_request": "2023-982064",
    "request_type": "Health Related Request",
    "request_reason": "Noise Ordinance Complaint",
    "date_created": "2023-03-11T02:03:10.000",
    "date_modified": "2023-03-11T02:03:10.000",
    "request_status": "Pending",
    "responsible_agency": "Health Department",
    "final_address": "1328 St Bernard Ave",
    "address_councildis": "C",
    "status": "Pending",
    "rowid": "982064",
    "final_x": "3682712.52284",
    "final_y": "536735.540615",
    "longitude": "-90.06405918653729",
    "latitude": "29.96979976049472",
    "geocoded_column": {
      "latitude": "29.96979976049472",
      "longitude": "-90.06405918653729"
    }
  },
  {
    "service_request": "2023-982063",
    "request_type": "Health Related Request",
    "request_reason": "Noise Ordinance Complaint",
    "date_created": "2023-03-11T02:01:44.000",
    "date_modified": "2023-03-11T02:01:44.000",
    "request_status": "Pending",
    "responsible_agency": "Health Department",
    "final_address": "1328 St Bernard Ave",
    "address_councildis": "C",
    "status": "Pending",
    "rowid": "982063",
    "final_x": "3682712.52284",
    "final_y": "536735.540615",
    "longitude": "-90.06405918653729",
    "latitude": "29.96979976049472",
    "geocoded_column": {
      "latitude": "29.96979976049472",
      "longitude": "-90.06405918653729"
    }
  },
  {
    "service_request": "2023-982062",
    "request_type": "Health Related Request",
    "request_reason": "Noise Ordinance Complaint",
    "date_created": "2023-03-11T01:59:52.000",
    "date_modified": "2023-03-11T01:59:52.000",
    "request_status": "Pending",
    "responsible_agency": "Health Department",
    "final_address": "1328 St Bernard Ave",
    "address_councildis": "C",
    "status": "Pending",
    "rowid": "982062",
    "final_x": "3682712.52284",
    "final_y": "536735.540615",
    "longitude": "-90.06405918653729",
    "latitude": "29.96979976049472",
    "geocoded_column": {
      "latitude": "29.96979976049472",
      "longitude": "-90.06405918653729"
    }
  },
  {
    "service_request": "2023-982061",
    "request_type": "Traffic Signals/Signs/Striping/Streetlights",
    "request_reason": "Street Light Outage/Malfunction",
    "date_created": "2023-03-11T01:14:32.000",
    "date_modified": "2023-03-11T01:17:32.000",
    "request_status": "Pending",
    "responsible_agency": "Department of Public Works",
    "final_address": "100 BLK N Claiborne Ave",
    "address_councildis": "B",
    "status": "Assigned to Contractor",
    "contractor": "Legacy Professional Services",
    "rowid": "982061",
    "final_x": "3678491.51404",
    "final_y": "533020.734927",
    "longitude": "-90.07751810290056",
    "latitude": "29.959713199431455",
    "geocoded_column": {
      "latitude": "29.959713199431455",
      "longitude": "-90.07751810290056"
    }
  },
  {
    "service_request": "2023-982060",
    "request_type": "Traffic Signals/Signs/Striping/Streetlights",
    "request_reason": "Traffic Sign Missing/Damaged",
    "date_created": "2023-03-10T22:03:08.000",
    "date_modified": "2023-03-10T22:03:08.000",
    "request_status": "Pending",
    "responsible_agency": "Department of Public Works",
    "final_address": "1236 N Rampart St",
    "address_councildis": "C",
    "status": "Pending",
    "rowid": "982060",
    "final_x": "3682747.4893",
    "final_y": "534803.014726",
    "longitude": "-90.06401636700578",
    "latitude": "29.964484915266773",
    "geocoded_column": {
      "latitude": "29.964484915266773",
      "longitude": "-90.06401636700578"
    }
  },
  {
    "service_request": "2023-982059",
    "request_type": "Traffic Signals/Signs/Striping/Streetlights",
    "request_reason": "Street Light Outage/Malfunction",
    "date_created": "2023-03-10T22:01:10.000",
    "date_modified": "2023-03-10T22:04:21.000",
    "request_status": "Pending",
    "responsible_agency": "Department of Public Works",
    "final_address": "5531 Rosemary Pl",
    "address_councildis": "A",
    "status": "Assigned to Contractor",
    "contractor": "Legacy Professional Services",
    "rowid": "982059",
    "final_x": "3667159.09645",
    "final_y": "544147.882382",
    "longitude": "-90.11292920161203",
    "latitude": "29.99064577061318",
    "geocoded_column": {
      "latitude": "29.99064577061318",
      "longitude": "-90.11292920161203"
    }
  },
  {
    "service_request": "2023-982058",
    "request_type": "Trash/Recycling",
    "request_reason": "Illegal Dumping",
    "date_created": "2023-03-10T21:29:55.000",
    "date_modified": "2023-03-10T21:29:55.000",
    "request_status": "Pending",
    "responsible_agency": "Department of Sanitation",
    "final_address": "1029 Barracks St",
    "address_councildis": "C",
    "status": "Pending",
    "rowid": "982058",
    "final_x": "3682849.82031",
    "final_y": "535032.671366",
    "longitude": "-90.06368517777754",
    "latitude": "29.96511327470576",
    "geocoded_column": {
      "latitude": "29.96511327470576",
      "longitude": "-90.06368517777754"
    }
  },
  {
    "service_request": "2023-982057",
    "request_type": "Roads/Drainage",
    "request_reason": "Catch Basin - Clogged",
    "date_created": "2023-03-10T20:42:41.000",
    "date_modified": "2023-03-10T20:42:41.000",
    "request_status": "Pending",
    "responsible_agency": "Department of Public Works",
    "final_address": "817 Harmony St",
    "address_councildis": "B",
    "status": "Pending",
    "rowid": "982057",
    "final_x": "3676255.76833",
    "final_y": "519162.107703",
    "longitude": "-90.08505483546676",
    "latitude": "29.921673723213996",
    "geocoded_column": {
      "latitude": "29.921673723213996",
      "longitude": "-90.08505483546676"
    }
  },
  {
    "service_request": "2023-982056",
    "request_type": "Traffic Signals/Signs/Striping/Streetlights",
    "request_reason": "Street Light Outage/Malfunction",
    "date_created": "2023-03-10T20:30:51.000",
    "date_modified": "2023-03-10T20:30:52.000",
    "request_status": "Pending",
    "responsible_agency": "Department of Public Works",
    "final_address": "144 18Th St",
    "address_councildis": "A",
    "status": "Assigned to Contractor",
    "contractor": "Legacy Professional Services",
    "rowid": "982056",
    "final_x": "3665737.09485",
    "final_y": "548648.305747",
    "longitude": "-90.11727010110681",
    "latitude": "30.003061960300787",
    "geocoded_column": {
      "latitude": "30.003061960300787",
      "longitude": "-90.11727010110681"
    }
  },
  {
    "service_request": "2023-982055",
    "request_type": "Roads/Drainage",
    "request_reason": "Debris in Roadway",
    "date_created": "2023-03-10T20:00:56.000",
    "date_modified": "2023-03-10T20:00:56.000",
    "request_status": "Pending",
    "responsible_agency": "Department of Public Works",
    "final_address": "511 S Rendon St",
    "address_councildis": "B",
    "status": "Pending",
    "rowid": "982055",
    "final_x": "3672510.96097",
    "final_y": "535103.255174",
    "longitude": "-90.09633237877988",
    "latitude": "29.965618306466258",
    "geocoded_column": {
      "latitude": "29.965618306466258",
      "longitude": "-90.09633237877988"
    }
  },
  {
    "service_request": "2023-982054",
    "request_type": "Traffic Signals/Signs/Striping/Streetlights",
    "request_reason": "Additional signage",
    "date_created": "2023-03-10T19:53:12.000",
    "date_modified": "2023-03-10T19:53:12.000",
    "request_status": "Pending",
    "responsible_agency": "Department of Public Works",
    "final_address": "1501 Tropic Dr",
    "address_councildis": "C",
    "status": "Pending",
    "rowid": "982054",
    "final_x": "3699469.82685",
    "final_y": "525502.222461",
    "longitude": "-90.0115476295033",
    "latitude": "29.93839106687814",
    "geocoded_column": {
      "latitude": "29.93839106687814",
      "longitude": "-90.0115476295033"
    }
  },
  {
    "service_request": "2023-982053",
    "request_type": "Trash/Recycling",
    "request_reason": "Replace Trash Cart",
    "date_created": "2023-03-10T19:52:18.000",
    "date_modified": "2023-03-10T19:52:19.000",
    "request_status": "Pending",
    "responsible_agency": "Department of Sanitation",
    "final_address": "412 S Alexander St, New Orleans, Louisiana, 70119",
    "address_councildis": "A",
    "status": "Assigned to Contractor",
    "contractor": "Richards Disposal",
    "rowid": "982053",
    "final_x": "3669193.39585",
    "final_y": "538059.347977",
    "longitude": "-90.10670921491145",
    "latitude": "29.97384463502483",
    "geocoded_column": {
      "latitude": "29.97384463502483",
      "longitude": "-90.10670921491145"
    }
  },
  {
    "service_request": "2023-982052",
    "request_type": "Trash/Recycling",
    "request_reason": "MIssed Recycling Pick-Up",
    "date_created": "2023-03-10T19:33:47.000",
    "date_modified": "2023-03-10T19:33:48.000",
    "request_status": "Pending",
    "responsible_agency": "Department of Sanitation",
    "final_address": "2806 N Rampart St",
    "address_councildis": "C",
    "status": "Assigned to Contractor",
    "contractor": "IV Waste",
    "rowid": "982052",
    "final_x": "3687670.53148",
    "final_y": "535841.522247",
    "longitude": "-90.04843303715046",
    "latitude": "29.967189576934842",
    "geocoded_column": {
      "latitude": "29.967189576934842",
      "longitude": "-90.04843303715046"
    }
  },
  {
    "service_request": "2023-982051",
    "request_type": "Trash/Recycling",
    "request_reason": "Order Trash Cart",
    "date_created": "2023-03-10T19:26:45.000",
    "date_modified": "2023-03-10T19:26:46.000",
    "request_status": "Pending",
    "responsible_agency": "Department of Sanitation",
    "final_address": "220 Whitney Ave",
    "address_councildis": "C",
    "status": "Assigned to Contractor",
    "contractor": "Richards Disposal",
    "rowid": "982051",
    "final_x": "3690374.5887",
    "final_y": "530815.670658",
    "longitude": "-90.04007276333849",
    "latitude": "29.953286583363383",
    "geocoded_column": {
      "latitude": "29.953286583363383",
      "longitude": "-90.04007276333849"
    }
  },
  {
    "service_request": "2023-982050",
    "request_type": "Trash/Recycling",
    "request_reason": "Order Recycling Cart",
    "date_created": "2023-03-10T19:24:51.000",
    "date_modified": "2023-03-10T19:24:51.000",
    "request_status": "Pending",
    "responsible_agency": "Department of Sanitation",
    "final_address": "4525 Toulouse St",
    "address_councildis": "A",
    "status": "Pending",
    "rowid": "982050",
    "final_x": "3670637.47412",
    "final_y": "540975.665675",
    "longitude": "-90.10204951367645",
    "latitude": "29.981820934762453",
    "geocoded_column": {
      "latitude": "29.981820934762453",
      "longitude": "-90.10204951367645"
    }
  },
  {
    "service_request": "2023-982049",
    "request_type": "Property Maintenance",
    "request_reason": "Property Maintenance",
    "date_created": "2023-03-10T19:20:32.000",
    "date_modified": "2023-03-10T19:20:32.000",
    "request_status": "Pending",
    "responsible_agency": "Department of Code Enforcement",
    "final_address": "GENTILLY BLVD & BAYOU RD",
    "address_councildis": "A",
    "status": "Pending",
    "rowid": "982049",
    "final_x": "3678311.9",
    "final_y": "539948.68",
    "longitude": "-90.07784558031426",
    "latitude": "29.978768092085296",
    "geocoded_column": {
      "latitude": "29.978768092085296",
      "longitude": "-90.07784558031426"
    }
  },
  {
    "service_request": "2023-982048",
    "request_type": "Trash/Recycling",
    "request_reason": "Start Trash Service",
    "date_created": "2023-03-10T19:02:00.000",
    "date_modified": "2023-03-10T19:02:00.000",
    "request_status": "Pending",
    "responsible_agency": "Department of Sanitation",
    "final_address": "1708 Desire St",
    "address_councildis": "D",
    "status": "Assigned to Contractor",
    "contractor": "IV Waste",
    "rowid": "982048",
    "final_x": "3690722.50025",
    "final_y": "538046.877769",
    "longitude": "-90.03871623549315",
    "latitude": "29.973159071062742",
    "geocoded_column": {
      "latitude": "29.973159071062742",
      "longitude": "-90.03871623549315"
    }
  },
  {
    "service_request": "2023-982047",
    "request_type": "Abandoned Vehicles",
    "request_reason": "Abandoned/Junk Vehicles",
    "date_created": "2023-03-10T19:01:46.000",
    "date_modified": "2023-03-10T19:01:46.000",
    "request_status": "Pending",
    "responsible_agency": "Department of Public Works",
    "final_address": "5324 Warrington Dr",
    "address_councildis": "D",
    "status": "Pending",
    "rowid": "982047",
    "final_x": "3680845.29595",
    "final_y": "552599.298774",
    "longitude": "-90.0694034347132",
    "latitude": "30.013476236298033",
    "geocoded_column": {
      "latitude": "30.013476236298033",
      "longitude": "-90.0694034347132"
    }
  },
  {
    "service_request": "2023-982046",
    "request_type": "Trash/Recycling",
    "request_reason": "Replace Trash Cart",
    "date_created": "2023-03-10T18:48:43.000",
    "date_modified": "2023-03-10T18:48:43.000",
    "request_status": "Pending",
    "responsible_agency": "Department of Sanitation",
    "final_address": "332 Millaudon St",
    "address_councildis": "A",
    "status": "Assigned to Contractor",
    "contractor": "Richards Disposal",
    "rowid": "982046",
    "final_x": "3661581.48211",
    "final_y": "524339.537596",
    "longitude": "-90.13120403261557",
    "latitude": "29.936341446973596",
    "geocoded_column": {
      "latitude": "29.936341446973596",
      "longitude": "-90.13120403261557"
    }
  },
  {
    "service_request": "2023-982045",
    "request_type": "Abandoned Vehicles",
    "request_reason": "Abandoned/Junk Vehicles",
    "date_created": "2023-03-10T18:42:39.000",
    "date_modified": "2023-03-10T18:42:39.000",
    "request_status": "Pending",
    "responsible_agency": "Department of Public Works",
    "final_address": "4201 State Street Dr",
    "address_councildis": "B",
    "status": "Pending",
    "rowid": "982045",
    "final_x": "3668504.64026",
    "final_y": "531072.514818",
    "longitude": "-90.10912021642544",
    "latitude": "29.95465341760769",
    "geocoded_column": {
      "latitude": "29.95465341760769",
      "longitude": "-90.10912021642544"
    }
  },
  {
    "service_request": "2023-982044",
    "request_type": "Trash/Recycling",
    "request_reason": "Order Recycling Cart",
    "date_created": "2023-03-10T18:22:11.000",
    "date_modified": "2023-03-10T18:22:11.000",
    "request_status": "Pending",
    "responsible_agency": "Department of Sanitation",
    "final_address": "2261 Beck St",
    "address_councildis": "C",
    "status": "Pending",
    "rowid": "982044",
    "final_x": "3700400.53623",
    "final_y": "522398.76249",
    "longitude": "-90.00872257281247",
    "latitude": "29.929828075880238",
    "geocoded_column": {
      "latitude": "29.929828075880238",
      "longitude": "-90.00872257281247"
    }
  },
  {
    "service_request": "2023-982043",
    "request_type": "Trash/Recycling",
    "request_reason": "MIssed Recycling Pick-Up",
    "date_created": "2023-03-10T17:58:16.000",
    "date_modified": "2023-03-10T17:58:17.000",
    "request_status": "Pending",
    "responsible_agency": "Department of Sanitation",
    "final_address": "8205 Neron Pl",
    "address_councildis": "A",
    "status": "Assigned to Contractor",
    "contractor": "Richards Disposal",
    "rowid": "982043",
    "final_x": "3664214.43226",
    "final_y": "531598.190851",
    "longitude": "-90.12264955618208",
    "latitude": "29.956224193580095",
    "geocoded_column": {
      "latitude": "29.956224193580095",
      "longitude": "-90.12264955618208"
    }
  },
  {
    "service_request": "2023-982042",
    "request_type": "Trash/Recycling",
    "request_reason": "Order Trash Cart",
    "date_created": "2023-03-10T17:49:47.000",
    "date_modified": "2023-03-10T17:49:48.000",
    "request_status": "Pending",
    "responsible_agency": "Department of Sanitation",
    "final_address": "1339 St Maurice Ave",
    "address_councildis": "E",
    "status": "Assigned to Contractor",
    "contractor": "Waste Pro",
    "rowid": "982042",
    "final_x": "3700279.4305",
    "final_y": "534109.702853",
    "longitude": "-90.00867749392403",
    "latitude": "29.962032893640895",
    "geocoded_column": {
      "latitude": "29.962032893640895",
      "longitude": "-90.00867749392403"
    }
  },
  {
    "service_request": "2023-982041",
    "request_type": "Trash/Recycling",
    "request_reason": "Request a Large Item Pick Up",
    "date_created": "2023-03-10T17:48:52.000",
    "date_modified": "2023-03-10T17:48:52.000",
    "request_status": "Pending",
    "responsible_agency": "Department of Sanitation",
    "final_address": "926 Taft Pl",
    "address_councildis": "A",
    "status": "Assigned to Contractor",
    "contractor": "Richards Disposal",
    "rowid": "982041",
    "final_x": "3673911.17633",
    "final_y": "540272.635467",
    "longitude": "-90.09173365759641",
    "latitude": "29.97979070870281",
    "geocoded_column": {
      "latitude": "29.97979070870281",
      "longitude": "-90.09173365759641"
    }
  },
  {
    "service_request": "2023-982040",
    "request_type": "Trash/Recycling",
    "request_reason": "Missed Trash Pick-Up",
    "date_created": "2023-03-10T17:48:22.000",
    "date_modified": "2023-03-10T17:48:54.000",
    "request_status": "Pending",
    "responsible_agency": "Department of Sanitation",
    "final_address": "1927 Painters St",
    "address_councildis": "D",
    "status": "Assigned to Contractor",
    "contractor": "IV Waste",
    "rowid": "982040",
    "final_x": "3687339.81999",
    "final_y": "539669.99105",
    "longitude": "-90.04934194439952",
    "latitude": "29.977726716623508",
    "geocoded_column": {
      "latitude": "29.977726716623508",
      "longitude": "-90.04934194439952"
    }
  },
  {
    "service_request": "2023-982039",
    "request_type": "Trash/Recycling",
    "request_reason": "Order Recycling Cart",
    "date_created": "2023-03-10T17:45:46.000",
    "date_modified": "2023-03-10T17:45:46.000",
    "request_status": "Pending",
    "responsible_agency": "Department of Sanitation",
    "final_address": "8511 Belfast St",
    "address_councildis": "A",
    "status": "Pending",
    "rowid": "982039",
    "final_x": "3664485.09978",
    "final_y": "533426.003012",
    "longitude": "-90.1217338471229",
    "latitude": "29.961242214044123",
    "geocoded_column": {
      "latitude": "29.961242214044123",
      "longitude": "-90.1217338471229"
    }
  },
  {
    "service_request": "2023-982038",
    "request_type": "Trash/Recycling",
    "request_reason": "Order Recycling Cart",
    "date_created": "2023-03-10T17:43:32.000",
    "date_modified": "2023-03-10T17:43:32.000",
    "request_status": "Pending",
    "responsible_agency": "Department of Sanitation",
    "final_address": "8509 Belfast St",
    "address_councildis": "A",
    "status": "Pending",
    "rowid": "982038",
    "final_x": "3664495.16461",
    "final_y": "533416.27898",
    "longitude": "-90.12170238874396",
    "latitude": "29.961215183504077",
    "geocoded_column": {
      "latitude": "29.961215183504077",
      "longitude": "-90.12170238874396"
    }
  },
  {
    "service_request": "2023-982037",
    "request_type": "Trash/Recycling",
    "request_reason": "Request a Large Item Pick Up",
    "date_created": "2023-03-10T17:27:44.000",
    "date_modified": "2023-03-10T17:27:45.000",
    "request_status": "Pending",
    "responsible_agency": "Department of Sanitation",
    "final_address": "5120 Bayouview Ct",
    "address_councildis": "E",
    "status": "Assigned to Contractor",
    "contractor": "Waste Pro",
    "rowid": "982037",
    "final_x": "3699086.40944",
    "final_y": "556222.448794",
    "longitude": "-90.01163939625833",
    "latitude": "30.02287265450608",
    "geocoded_column": {
      "latitude": "30.02287265450608",
      "longitude": "-90.01163939625833"
    }
  },
  {
    "service_request": "2023-982036",
    "request_type": "Abandoned Vehicles",
    "request_reason": "Abandoned/Junk Vehicles",
    "date_created": "2023-03-10T17:22:54.000",
    "date_modified": "2023-03-10T17:23:41.000",
    "request_status": "Pending",
    "responsible_agency": "Department of Public Works",
    "final_address": "ST ROCH AVE & PEACE CT",
    "address_councildis": "D",
    "status": "Pending",
    "rowid": "982036",
    "final_x": "3686159.8",
    "final_y": "541024.88",
    "longitude": "-90.05302103096388",
    "latitude": "29.981488489297817",
    "geocoded_column": {
      "latitude": "29.981488489297817",
      "longitude": "-90.05302103096388"
    }
  },
  {
    "service_request": "2023-982035",
    "request_type": "Trash/Recycling",
    "request_reason": "Missed Trash Pick-Up",
    "date_created": "2023-03-10T17:19:22.000",
    "date_modified": "2023-03-10T17:19:22.000",
    "request_status": "Pending",
    "responsible_agency": "Department of Sanitation",
    "final_address": "837 St Ferdinand St",
    "address_councildis": "C",
    "status": "Assigned to Contractor",
    "contractor": "IV Waste",
    "rowid": "982035",
    "final_x": "3687528.83932",
    "final_y": "535461.58183",
    "longitude": "-90.0488939511334",
    "latitude": "29.966149241310255",
    "geocoded_column": {
      "latitude": "29.966149241310255",
      "longitude": "-90.0488939511334"
    }
  },
  {
    "service_request": "2023-982034",
    "request_type": "Trash/Recycling",
    "request_reason": "Request a Large Item Pick Up",
    "date_created": "2023-03-10T17:04:47.000",
    "date_modified": "2023-03-10T17:04:47.000",
    "request_status": "Pending",
    "responsible_agency": "Department of Sanitation",
    "final_address": "1314 Fern St",
    "address_councildis": "A",
    "status": "Assigned to Contractor",
    "contractor": "Richards Disposal",
    "rowid": "982034",
    "final_x": "3662850.65587",
    "final_y": "528259.663232",
    "longitude": "-90.12706690221172",
    "latitude": "29.947083869851056",
    "geocoded_column": {
      "latitude": "29.947083869851056",
      "longitude": "-90.12706690221172"
    }
  },
  {
    "service_request": "2023-982033",
    "request_type": "Trash/Recycling",
    "request_reason": "Repair Recycling Cart",
    "date_created": "2023-03-10T17:00:19.000",
    "date_modified": "2023-03-10T17:00:20.000",
    "request_status": "Pending",
    "responsible_agency": "Department of Sanitation",
    "final_address": "1021 Second St",
    "address_councildis": "B",
    "status": "Pending",
    "rowid": "982033",
    "final_x": "3677960.86395",
    "final_y": "521185.798649",
    "longitude": "-90.07960268564648",
    "latitude": "29.9271870301759",
    "geocoded_column": {
      "latitude": "29.9271870301759",
      "longitude": "-90.07960268564648"
    }
  },
  {
    "service_request": "2023-982032",
    "request_type": "Roads/Drainage",
    "request_reason": "Street Flooding / Drainage",
    "date_created": "2023-03-10T16:56:10.000",
    "date_modified": "2023-03-10T16:56:10.000",
    "request_status": "Pending",
    "responsible_agency": "Department of Public Works",
    "final_address": "2600 BLK Louisa St",
    "address_councildis": "D",
    "status": "Pending",
    "rowid": "982032",
    "final_x": "3691009.26493",
    "final_y": "541638.677665",
    "longitude": "-90.03768231188337",
    "latitude": "29.983026330102568",
    "geocoded_column": {
      "latitude": "29.983026330102568",
      "longitude": "-90.03768231188337"
    }
  },
  {
    "service_request": "2023-982031",
    "request_type": "Trash/Recycling",
    "request_reason": "Request a Large Item Pick Up",
    "date_created": "2023-03-10T16:54:32.000",
    "date_modified": "2023-03-10T16:54:33.000",
    "request_status": "Pending",
    "responsible_agency": "Department of Sanitation",
    "final_address": "7503 Lafourche St",
    "address_councildis": "E",
    "status": "Assigned to Contractor",
    "contractor": "Waste Pro",
    "rowid": "982031",
    "final_x": "3710622.73297",
    "final_y": "564959.679394",
    "longitude": "-89.97486028429441",
    "latitude": "30.046525633814323",
    "geocoded_column": {
      "latitude": "30.046525633814323",
      "longitude": "-89.97486028429441"
    }
  },
  {
    "service_request": "2023-982030",
    "request_type": "Trash/Recycling",
    "request_reason": "Order Recycling Cart",
    "date_created": "2023-03-10T16:50:41.000",
    "date_modified": "2023-03-10T16:50:41.000",
    "request_status": "Pending",
    "responsible_agency": "Department of Sanitation",
    "final_address": "1445 Philip St",
    "address_councildis": "B",
    "status": "Pending",
    "rowid": "982030",
    "final_x": "3677746.97864",
    "final_y": "522973.396347",
    "longitude": "-90.08021615418409",
    "latitude": "29.932108773663956",
    "geocoded_column": {
      "latitude": "29.932108773663956",
      "longitude": "-90.08021615418409"
    }
  },
  {
    "service_request": "2023-982029",
    "request_type": "Roads/Drainage",
    "request_reason": "Street Flooding / Drainage",
    "date_created": "2023-03-10T16:48:02.000",
    "date_modified": "2023-03-10T16:48:02.000",
    "request_status": "Pending",
    "responsible_agency": "Department of Public Works",
    "final_address": "3984 Annunciation St",
    "address_councildis": "B",
    "status": "Pending",
    "rowid": "982029",
    "final_x": "3672658.40392",
    "final_y": "517868.034678",
    "longitude": "-90.0964542845713",
    "latitude": "29.91822270363695",
    "geocoded_column": {
      "latitude": "29.91822270363695",
      "longitude": "-90.0964542845713"
    }
  },
  {
    "service_request": "2023-982028",
    "request_type": "Roads/Drainage",
    "request_reason": "Damaged Sidewalk",
    "date_created": "2023-03-10T16:43:51.000",
    "date_modified": "2023-03-10T16:43:51.000",
    "request_status": "Pending",
    "responsible_agency": "Department of Public Works",
    "final_address": "4725 Duplessis St",
    "address_councildis": "D",
    "status": "Pending",
    "rowid": "982028",
    "final_x": "3678241.14062",
    "final_y": "550033.420116",
    "longitude": "-90.077720037028",
    "latitude": "30.006499717231048",
    "geocoded_column": {
      "latitude": "30.006499717231048",
      "longitude": "-90.077720037028"
    }
  },
  {
    "service_request": "2023-982027",
    "request_type": "Trash/Recycling",
    "request_reason": "Repair Trash Cart",
    "date_created": "2023-03-10T16:39:41.000",
    "date_modified": "2023-03-10T16:39:42.000",
    "request_status": "Pending",
    "responsible_agency": "Department of Sanitation",
    "final_address": "4400 Canal St",
    "address_councildis": "A",
    "status": "Assigned to Contractor",
    "contractor": "Richards Disposal",
    "rowid": "982027",
    "final_x": "3669921.30778",
    "final_y": "539132.76897",
    "longitude": "-90.10437394188354",
    "latitude": "29.976774734441904",
    "geocoded_column": {
      "latitude": "29.976774734441904",
      "longitude": "-90.10437394188354"
    }
  },
  {
    "service_request": "2023-982026",
    "request_type": "Trash/Recycling",
    "request_reason": "Request a Large Item Pick Up",
    "date_created": "2023-03-10T16:38:56.000",
    "date_modified": "2023-03-10T16:38:56.000",
    "request_status": "Pending",
    "responsible_agency": "Department of Sanitation",
    "final_address": "3984 Annunciation St",
    "address_councildis": "B",
    "status": "Assigned to Contractor",
    "contractor": "Richards Disposal",
    "rowid": "982026",
    "final_x": "3672658.40392",
    "final_y": "517868.034678",
    "longitude": "-90.0964542845713",
    "latitude": "29.91822270363695",
    "geocoded_column": {
      "latitude": "29.91822270363695",
      "longitude": "-90.0964542845713"
    }
  },
  {
    "service_request": "2023-982025",
    "request_type": "Trash/Recycling",
    "request_reason": "Missed Trash Pick-Up",
    "date_created": "2023-03-10T16:32:21.000",
    "date_modified": "2023-03-10T16:32:22.000",
    "request_status": "Pending",
    "responsible_agency": "Department of Sanitation",
    "final_address": "4902 S Saratoga St",
    "address_councildis": "B",
    "status": "Assigned to Contractor",
    "contractor": "Richards Disposal",
    "rowid": "982025",
    "final_x": "3669075.13294",
    "final_y": "522461.882618",
    "longitude": "-90.10760966150319",
    "latitude": "29.930960197600903",
    "geocoded_column": {
      "latitude": "29.930960197600903",
      "longitude": "-90.10760966150319"
    }
  },
  {
    "service_request": "2023-982024",
    "request_type": "Roads/Drainage",
    "request_reason": "Accessibility Ramps, Curbs and Sidewalk Repair",
    "date_created": "2023-03-10T16:30:18.000",
    "date_modified": "2023-03-10T16:30:18.000",
    "request_status": "Pending",
    "responsible_agency": "Department of Public Works",
    "final_address": "600 N Carrollton Ave",
    "address_councildis": "A",
    "status": "Pending",
    "rowid": "982024",
    "final_x": "3672465.91636",
    "final_y": "539621.186186",
    "longitude": "-90.09632060125843",
    "latitude": "29.978042426802066",
    "geocoded_column": {
      "latitude": "29.978042426802066",
      "longitude": "-90.09632060125843"
    }
  },
  {
    "service_request": "2023-982023",
    "request_type": "Trash/Recycling",
    "request_reason": "Request a Large Item Pick Up",
    "date_created": "2023-03-10T16:24:56.000",
    "date_modified": "2023-03-10T16:24:57.000",
    "request_status": "Pending",
    "responsible_agency": "Department of Sanitation",
    "final_address": "5668 General Haig St",
    "address_councildis": "A",
    "status": "Assigned to Contractor",
    "contractor": "IV Waste",
    "rowid": "982023",
    "final_x": "3670350.38625",
    "final_y": "544952.524815",
    "longitude": "-90.10282138547089",
    "latitude": "29.992764414790187",
    "geocoded_column": {
      "latitude": "29.992764414790187",
      "longitude": "-90.10282138547089"
    }
  },
  {
    "service_request": "2023-982022",
    "request_type": "Trash/Recycling",
    "request_reason": "MIssed Recycling Pick-Up",
    "date_created": "2023-03-10T16:23:51.000",
    "date_modified": "2023-03-10T16:23:51.000",
    "request_status": "Pending",
    "responsible_agency": "Department of Sanitation",
    "final_address": "4538 Bonita Dr",
    "address_councildis": "E",
    "status": "Assigned to Contractor",
    "contractor": "Waste Pro",
    "rowid": "982022",
    "final_x": "3704557.97482",
    "final_y": "553977.897048",
    "longitude": "-89.99443349933642",
    "latitude": "30.016526329811974",
    "geocoded_column": {
      "latitude": "30.016526329811974",
      "longitude": "-89.99443349933642"
    }
  },
  {
    "service_request": "2023-982021",
    "request_type": "Roads/Drainage",
    "request_reason": "Street Subsidence (Sinking)",
    "date_created": "2023-03-10T16:21:29.000",
    "date_modified": "2023-03-10T16:21:29.000",
    "request_status": "Pending",
    "responsible_agency": "Department of Public Works",
    "final_address": "711 Lyons St",
    "address_councildis": "B",
    "status": "Pending",
    "rowid": "982021",
    "final_x": "3669345.1545",
    "final_y": "517947.491446",
    "longitude": "-90.10690977349942",
    "latitude": "29.918539110955972",
    "geocoded_column": {
      "latitude": "29.918539110955972",
      "longitude": "-90.10690977349942"
    }
  },
  {
    "service_request": "2023-982020",
    "request_type": "Trash/Recycling",
    "request_reason": "MIssed Recycling Pick-Up",
    "date_created": "2023-03-10T16:13:20.000",
    "date_modified": "2023-03-10T16:13:21.000",
    "request_status": "Pending",
    "responsible_agency": "Department of Sanitation",
    "final_address": "436 S Gayoso St",
    "address_councildis": "B",
    "status": "Assigned to Contractor",
    "contractor": "Richards Disposal",
    "rowid": "982020",
    "final_x": "3673433.09844",
    "final_y": "534604.912517",
    "longitude": "-90.09343732954409",
    "latitude": "29.964220626513818",
    "geocoded_column": {
      "latitude": "29.964220626513818",
      "longitude": "-90.09343732954409"
    }
  },
  {
    "service_request": "2023-982019",
    "request_type": "Trash/Recycling",
    "request_reason": "Repair Recycling Cart",
    "date_created": "2023-03-10T16:11:29.000",
    "date_modified": "2023-03-10T16:11:29.000",
    "request_status": "Pending",
    "responsible_agency": "Department of Sanitation",
    "final_address": "2719 Eagle St",
    "address_councildis": "A",
    "status": "Pending",
    "rowid": "982019",
    "final_x": "3663906.07335",
    "final_y": "534132.162565",
    "longitude": "-90.12353877376006",
    "latitude": "29.96320074399675",
    "geocoded_column": {
      "latitude": "29.96320074399675",
      "longitude": "-90.12353877376006"
    }
  },
  {
    "service_request": "2023-982018",
    "request_type": "Trash/Recycling",
    "request_reason": "Replace Trash Cart",
    "date_created": "2023-03-10T16:07:10.000",
    "date_modified": "2023-03-10T16:07:11.000",
    "request_status": "Pending",
    "responsible_agency": "Department of Sanitation",
    "final_address": "3124 Robert St",
    "address_councildis": "B",
    "status": "Assigned to Contractor",
    "contractor": "Richards Disposal",
    "rowid": "982018",
    "final_x": "3668869.98279",
    "final_y": "526812.725822",
    "longitude": "-90.10811042877272",
    "latitude": "29.94292964926992",
    "geocoded_column": {
      "latitude": "29.94292964926992",
      "longitude": "-90.10811042877272"
    }
  },
  {
    "service_request": "2023-982017",
    "request_type": "Abandoned Vehicles",
    "request_reason": "Abandoned/Junk Vehicles",
    "date_created": "2023-03-10T16:06:54.000",
    "date_modified": "2023-03-10T16:06:54.000",
    "request_status": "Pending",
    "responsible_agency": "Department of Public Works",
    "final_address": "1305 Milan St",
    "address_councildis": "B",
    "status": "Pending",
    "rowid": "982017",
    "final_x": "3671727.29249",
    "final_y": "520209.107256",
    "longitude": "-90.09931372627864",
    "latitude": "29.92468751158915",
    "geocoded_column": {
      "latitude": "29.92468751158915",
      "longitude": "-90.09931372627864"
    }
  },
  {
    "service_request": "2023-982016",
    "request_type": "Trash/Recycling",
    "request_reason": "Request a Large Item Pick Up",
    "date_created": "2023-03-10T16:04:25.000",
    "date_modified": "2023-03-10T16:05:06.000",
    "request_status": "Pending",
    "responsible_agency": "Department of Sanitation",
    "final_address": "4501 Marque Dr",
    "address_councildis": "E",
    "status": "Assigned to Contractor",
    "contractor": "Waste Pro",
    "rowid": "982016",
    "final_x": "3710317.38757",
    "final_y": "554204.900056",
    "longitude": "-89.97622790255126",
    "latitude": "30.0169641976918",
    "geocoded_column": {
      "latitude": "30.0169641976918",
      "longitude": "-89.97622790255126"
    }
  },
  {
    "service_request": "2023-982015",
    "request_type": "Safety & Permits",
    "request_reason": "Licenses & Permits",
    "date_created": "2023-03-10T15:56:57.000",
    "date_modified": "2023-03-10T15:56:57.000",
    "request_status": "Pending",
    "responsible_agency": "Safety and Permits",
    "final_address": "79 Westpark Ct",
    "address_councildis": "C",
    "status": "Pending",
    "rowid": "982015",
    "final_x": "3695761.47798",
    "final_y": "521769.798842",
    "longitude": "-90.0233899056867",
    "latitude": "29.92824528537012",
    "geocoded_column": {
      "latitude": "29.92824528537012",
      "longitude": "-90.0233899056867"
    }
  },
  {
    "service_request": "2023-982014",
    "request_type": "Traffic Signals/Signs/Striping/Streetlights",
    "request_reason": "Street Light Outage/Malfunction",
    "date_created": "2023-03-10T15:55:25.000",
    "date_modified": "2023-03-10T15:57:37.000",
    "request_status": "Pending",
    "responsible_agency": "Department of Public Works",
    "final_address": "42 Westpark Ct",
    "address_councildis": "C",
    "status": "Assigned to Contractor",
    "contractor": "Legacy Professional Services",
    "rowid": "982014",
    "final_x": "3695859.79837",
    "final_y": "521728.834746",
    "longitude": "-90.02308101033877",
    "latitude": "29.92812955704764",
    "geocoded_column": {
      "latitude": "29.92812955704764",
      "longitude": "-90.02308101033877"
    }
  },
  {
    "service_request": "2023-982013",
    "request_type": "Trash/Recycling",
    "request_reason": "Request a Large Item Pick Up",
    "date_created": "2023-03-10T15:53:42.000",
    "date_modified": "2023-03-10T15:53:42.000",
    "request_status": "Pending",
    "responsible_agency": "Department of Sanitation",
    "final_address": "2327 Peniston St",
    "address_councildis": "B",
    "status": "Assigned to Contractor",
    "contractor": "Richards Disposal",
    "rowid": "982013",
    "final_x": "3672278.30561",
    "final_y": "523815.567419",
    "longitude": "-90.09745156870869",
    "latitude": "29.934587787832125",
    "geocoded_column": {
      "latitude": "29.934587787832125",
      "longitude": "-90.09745156870869"
    }
  },
  {
    "service_request": "2023-982012",
    "request_type": "Trash/Recycling",
    "request_reason": "Request a Large Item Pick Up",
    "date_created": "2023-03-10T15:50:16.000",
    "date_modified": "2023-03-10T15:50:16.000",
    "request_status": "Pending",
    "responsible_agency": "Department of Sanitation",
    "final_address": "3338 Marigny St",
    "address_councildis": "D",
    "status": "Assigned to Contractor",
    "contractor": "IV Waste",
    "rowid": "982012",
    "final_x": "3684656.84373",
    "final_y": "545114.317711",
    "longitude": "-90.05762425156638",
    "latitude": "29.99277908446342",
    "geocoded_column": {
      "latitude": "29.99277908446342",
      "longitude": "-90.05762425156638"
    }
  },
  {
    "service_request": "2023-982011",
    "request_type": "Roads/Drainage",
    "request_reason": "Catch Basin - Clogged",
    "date_created": "2023-03-10T15:47:27.000",
    "date_modified": "2023-03-10T15:47:27.000",
    "request_status": "Pending",
    "responsible_agency": "Department of Public Works",
    "final_address": "7600 Gannon Rd",
    "address_councildis": "E",
    "status": "Pending",
    "rowid": "982011",
    "final_x": "3716469.08671",
    "final_y": "569659.73431",
    "longitude": "-89.95620443875303",
    "latitude": "30.059256974348585",
    "geocoded_column": {
      "latitude": "30.059256974348585",
      "longitude": "-89.95620443875303"
    }
  },
  {
    "service_request": "2023-982010",
    "request_type": "Traffic Signals/Signs/Striping/Streetlights",
    "request_reason": "Street Light Outage/Malfunction",
    "date_created": "2023-03-10T15:46:13.000",
    "date_modified": "2023-03-10T15:46:13.000",
    "request_status": "Pending",
    "responsible_agency": "Department of Public Works",
    "final_address": "CARONDELET ST & GENERAL TAYLOR",
    "address_councildis": "B",
    "status": "Assigned to Contractor",
    "contractor": "Legacy Professional Services",
    "rowid": "982010",
    "final_x": "3672546.6",
    "final_y": "521418.08",
    "longitude": "-90.09668625381171",
    "latitude": "29.927987511316214",
    "geocoded_column": {
      "latitude": "29.927987511316214",
      "longitude": "-90.09668625381171"
    }
  },
  {
    "service_request": "2023-982009",
    "request_type": "Trash/Recycling",
    "request_reason": "Repair Trash Cart",
    "date_created": "2023-03-10T15:45:12.000",
    "date_modified": "2023-03-10T15:45:13.000",
    "request_status": "Pending",
    "responsible_agency": "Department of Sanitation",
    "final_address": "2524 St Thomas St",
    "address_councildis": "B",
    "status": "Assigned to Contractor",
    "contractor": "Richards Disposal",
    "rowid": "982009",
    "final_x": "3678671.40603",
    "final_y": "519663.211",
    "longitude": "-90.07741236722671",
    "latitude": "29.922979013342065",
    "geocoded_column": {
      "latitude": "29.922979013342065",
      "longitude": "-90.07741236722671"
    }
  },
  {
    "service_request": "2023-982008",
    "request_type": "Traffic Signals/Signs/Striping/Streetlights",
    "request_reason": "Street Light Outage/Malfunction",
    "date_created": "2023-03-10T15:40:27.000",
    "date_modified": "2023-03-10T15:40:27.000",
    "request_status": "Pending",
    "responsible_agency": "Department of Public Works",
    "final_address": "9339 Stroelitz St",
    "address_councildis": "A",
    "status": "Assigned to Contractor",
    "contractor": "Legacy Professional Services",
    "rowid": "982008",
    "final_x": "3664634.96986",
    "final_y": "538047.056265",
    "longitude": "-90.12110620278995",
    "latitude": "29.97394422742938",
    "geocoded_column": {
      "latitude": "29.97394422742938",
      "longitude": "-90.12110620278995"
    }
  },
  {
    "service_request": "2023-982007",
    "request_type": "Trash/Recycling",
    "request_reason": "Illegal Dumping",
    "date_created": "2023-03-10T15:35:35.000",
    "date_modified": "2023-03-10T15:35:35.000",
    "request_status": "Pending",
    "responsible_agency": "Department of Sanitation",
    "final_address": "PARIS RD & I 10 E SERVICE RD",
    "address_councildis": "E",
    "status": "Pending",
    "rowid": "982007",
    "final_x": "3721432.3",
    "final_y": "569031.98",
    "longitude": "-89.94054041721856",
    "latitude": "30.057365963027966",
    "geocoded_column": {
      "latitude": "30.057365963027966",
      "longitude": "-89.94054041721856"
    }
  },
  {
    "service_request": "2023-982006",
    "request_type": "Roads/Drainage",
    "request_reason": "Pothole",
    "date_created": "2023-03-10T15:29:14.000",
    "date_modified": "2023-03-10T15:29:14.000",
    "request_status": "Pending",
    "responsible_agency": "Department of Public Works",
    "final_address": "3847 Desire Prkwy",
    "address_councildis": "D",
    "status": "Pending",
    "rowid": "982006",
    "final_x": "3692609.19139",
    "final_y": "547175.631377",
    "longitude": "-90.03243039548445",
    "latitude": "29.99820110467982",
    "geocoded_column": {
      "latitude": "29.99820110467982",
      "longitude": "-90.03243039548445"
    }
  },
  {
    "service_request": "2023-982005",
    "request_type": "Trash/Recycling",
    "request_reason": "Repair Trash Cart",
    "date_created": "2023-03-10T15:26:31.000",
    "date_modified": "2023-03-10T15:26:31.000",
    "request_status": "Pending",
    "responsible_agency": "Department of Sanitation",
    "final_address": "4418 Sullen Pl",
    "address_councildis": "C",
    "status": "Assigned to Contractor",
    "contractor": "Richards Disposal",
    "rowid": "982005",
    "final_x": "3707417.1932",
    "final_y": "514473.946483",
    "longitude": "-89.9868663637528",
    "latitude": "29.907812688815447",
    "geocoded_column": {
      "latitude": "29.907812688815447",
      "longitude": "-89.9868663637528"
    }
  },
  {
    "service_request": "2023-982004",
    "request_type": "Trash/Recycling",
    "request_reason": "Repair Trash Cart",
    "date_created": "2023-03-10T15:23:49.000",
    "date_modified": "2023-03-10T15:23:50.000",
    "request_status": "Pending",
    "responsible_agency": "Department of Sanitation",
    "final_address": "2118 Timoleon St",
    "address_councildis": "D",
    "status": "Assigned to Contractor",
    "contractor": "IV Waste",
    "rowid": "982004",
    "final_x": "3683201.11976",
    "final_y": "551016.316181",
    "longitude": "-90.06201576679224",
    "latitude": "30.00905194621062",
    "geocoded_column": {
      "latitude": "30.00905194621062",
      "longitude": "-90.06201576679224"
    }
  },
  {
    "service_request": "2023-982003",
    "request_type": "Roads/Drainage",
    "request_reason": "Catch Basin - Clogged",
    "date_created": "2023-03-10T15:23:35.000",
    "date_modified": "2023-03-10T15:26:04.000",
    "request_status": "Pending",
    "responsible_agency": "Department of Public Works",
    "final_address": "3847 Desire Prkwy",
    "address_councildis": "D",
    "status": "Pending",
    "rowid": "982003",
    "final_x": "3692609.19139",
    "final_y": "547175.631377",
    "longitude": "-90.03243039548445",
    "latitude": "29.99820110467982",
    "geocoded_column": {
      "latitude": "29.99820110467982",
      "longitude": "-90.03243039548445"
    }
  },
  {
    "service_request": "2023-982002",
    "request_type": "Trash/Recycling",
    "request_reason": "Order Trash Cart",
    "date_created": "2023-03-10T15:21:26.000",
    "date_modified": "2023-03-10T15:29:27.000",
    "case_close_date": "2023-03-10T09:29:27.000",
    "request_status": "Closed",
    "responsible_agency": "Department of Sanitation",
    "final_address": "8305 Sycamore St",
    "address_councildis": "A",
    "status": "Canceled By Citizen",
    "contractor": "Richards Disposal",
    "rowid": "982002",
    "final_x": "3663780.87424",
    "final_y": "531524.576323",
    "longitude": "-90.1240210458095",
    "latitude": "29.956034366452887",
    "geocoded_column": {
      "latitude": "29.956034366452887",
      "longitude": "-90.1240210458095"
    }
  },
  {
    "service_request": "2023-982000",
    "request_type": "Trash/Recycling",
    "request_reason": "Request a Large Item Pick Up",
    "date_created": "2023-03-10T15:17:13.000",
    "date_modified": "2023-03-10T15:17:14.000",
    "request_status": "Pending",
    "responsible_agency": "Department of Sanitation",
    "final_address": "2808 Castiglione St",
    "address_councildis": "D",
    "status": "Assigned to Contractor",
    "contractor": "IV Waste",
    "rowid": "982000",
    "final_x": "3679536.37352",
    "final_y": "542103.004812",
    "longitude": "-90.07390344562069",
    "latitude": "29.98465478868601",
    "geocoded_column": {
      "latitude": "29.98465478868601",
      "longitude": "-90.07390344562069"
    }
  },
  {
    "service_request": "2023-981999",
    "request_type": "Trash/Recycling",
    "request_reason": "MIssed Recycling Pick-Up",
    "date_created": "2023-03-10T15:14:18.000",
    "date_modified": "2023-03-10T15:14:18.000",
    "request_status": "Pending",
    "responsible_agency": "Department of Sanitation",
    "final_address": "2432 Soniat St",
    "address_councildis": "B",
    "status": "Assigned to Contractor",
    "contractor": "Richards Disposal",
    "rowid": "981999",
    "final_x": "3668491.50599",
    "final_y": "524576.762556",
    "longitude": "-90.10938078289585",
    "latitude": "29.936792593778666",
    "geocoded_column": {
      "latitude": "29.936792593778666",
      "longitude": "-90.10938078289585"
    }
  },
  {
    "service_request": "2023-981998",
    "request_type": "Traffic Signals/Signs/Striping/Streetlights",
    "request_reason": "Street Light Outage/Malfunction",
    "date_created": "2023-03-10T15:12:26.000",
    "date_modified": "2023-03-10T15:12:27.000",
    "request_status": "Pending",
    "responsible_agency": "Department of Public Works",
    "final_address": "1238 Third St",
    "address_councildis": "B",
    "status": "Assigned to Contractor",
    "contractor": "Legacy Professional Services",
    "rowid": "981998",
    "final_x": "3677139.57621",
    "final_y": "521698.769209",
    "longitude": "-90.08217760126199",
    "latitude": "29.928622215928",
    "geocoded_column": {
      "latitude": "29.928622215928",
      "longitude": "-90.08217760126199"
    }
  },
  {
    "service_request": "2023-981997",
    "request_type": "Parks & Parkways",
    "request_reason": "Request Tree Service (Right of Way/Public Property)",
    "date_created": "2023-03-10T15:11:12.000",
    "date_modified": "2023-03-10T15:11:12.000",
    "request_status": "Pending",
    "responsible_agency": "Department of Parks & Parkway",
    "final_address": "1238 Third St",
    "address_councildis": "B",
    "status": "Pending",
    "rowid": "981997",
    "final_x": "3677139.57621",
    "final_y": "521698.769209",
    "longitude": "-90.08217760126199",
    "latitude": "29.928622215928",
    "geocoded_column": {
      "latitude": "29.928622215928",
      "longitude": "-90.08217760126199"
    }
  },
  {
    "service_request": "2023-981996",
    "request_type": "Trash/Recycling",
    "request_reason": "Replace Recycling Cart",
    "date_created": "2023-03-10T15:10:07.000",
    "date_modified": "2023-03-10T15:10:07.000",
    "request_status": "Pending",
    "responsible_agency": "Department of Sanitation",
    "final_address": "2408 Pine Street",
    "address_councildis": "A",
    "status": "Pending",
    "rowid": "981996",
    "final_x": "3666358.19073",
    "final_y": "530441.541698",
    "longitude": "-90.11591906807385",
    "latitude": "29.952981329720956",
    "geocoded_column": {
      "latitude": "29.952981329720956",
      "longitude": "-90.11591906807385"
    }
  },
  {
    "service_request": "2023-981995",
    "request_type": "Trash/Recycling",
    "request_reason": "Repair Trash Cart",
    "date_created": "2023-03-10T15:10:03.000",
    "date_modified": "2023-03-10T15:10:04.000",
    "request_status": "Pending",
    "responsible_agency": "Department of Sanitation",
    "final_address": "840 Pauline St",
    "address_councildis": "C",
    "status": "Assigned to Contractor",
    "contractor": "IV Waste",
    "rowid": "981995",
    "final_x": "3690974.43504",
    "final_y": "534605.279174",
    "longitude": "-90.03804344709236",
    "latitude": "29.963688057636013",
    "geocoded_column": {
      "latitude": "29.963688057636013",
      "longitude": "-90.03804344709236"
    }
  },
  {
    "service_request": "2023-981994",
    "request_type": "Trash/Recycling",
    "request_reason": "Missed Trash Pick-Up",
    "date_created": "2023-03-10T15:09:49.000",
    "date_modified": "2023-03-10T15:09:49.000",
    "request_status": "Pending",
    "responsible_agency": "Department of Sanitation",
    "final_address": "2432 Soniat St",
    "address_councildis": "B",
    "status": "Assigned to Contractor",
    "contractor": "Richards Disposal",
    "rowid": "981994",
    "final_x": "3668491.50599",
    "final_y": "524576.762556",
    "longitude": "-90.10938078289585",
    "latitude": "29.936792593778666",
    "geocoded_column": {
      "latitude": "29.936792593778666",
      "longitude": "-90.10938078289585"
    }
  },
  {
    "service_request": "2023-981993",
    "request_type": "Trash/Recycling",
    "request_reason": "Replace Trash Cart",
    "date_created": "2023-03-10T15:08:37.000",
    "date_modified": "2023-03-10T15:08:38.000",
    "request_status": "Pending",
    "responsible_agency": "Department of Sanitation",
    "final_address": "917 Belleville St",
    "address_councildis": "C",
    "status": "Assigned to Contractor",
    "contractor": "Richards Disposal",
    "rowid": "981993",
    "final_x": "3687730.61027",
    "final_y": "528176.72256",
    "longitude": "-90.04851472181743",
    "latitude": "29.946112167993796",
    "geocoded_column": {
      "latitude": "29.946112167993796",
      "longitude": "-90.04851472181743"
    }
  },
  {
    "service_request": "2023-981992",
    "request_type": "Trash/Recycling",
    "request_reason": "Missed Trash Pick-Up",
    "date_created": "2023-03-10T15:05:15.000",
    "date_modified": "2023-03-10T15:05:16.000",
    "request_status": "Pending",
    "responsible_agency": "Department of Sanitation",
    "final_address": "1930 Josephine St",
    "address_councildis": "B",
    "status": "Assigned to Contractor",
    "contractor": "Richards Disposal",
    "rowid": "981992",
    "final_x": "3676934.0829",
    "final_y": "525159.730941",
    "longitude": "-90.08270705430522",
    "latitude": "29.938144897016212",
    "geocoded_column": {
      "latitude": "29.938144897016212",
      "longitude": "-90.08270705430522"
    }
  },
  {
    "service_request": "2023-981988",
    "request_type": "Parks & Parkways",
    "request_reason": "Request Tree Service (Right of Way/Public Property)",
    "date_created": "2023-03-10T15:03:22.000",
    "date_modified": "2023-03-10T15:03:23.000",
    "request_status": "Pending",
    "responsible_agency": "Department of Parks & Parkway",
    "final_address": "7405 Burthe St",
    "address_councildis": "A",
    "status": "Pending",
    "rowid": "981988",
    "final_x": "3663007.43584",
    "final_y": "526049.75091",
    "longitude": "-90.12664536744468",
    "latitude": "29.941002778128567",
    "geocoded_column": {
      "latitude": "29.941002778128567",
      "longitude": "-90.12664536744468"
    }
  },
  {
    "service_request": "2023-981987",
    "request_type": "Abandoned Vehicles",
    "request_reason": "Abandoned/Junk Vehicles",
    "date_created": "2023-03-10T15:01:30.000",
    "date_modified": "2023-03-10T15:01:31.000",
    "request_status": "Pending",
    "responsible_agency": "Department of Public Works",
    "final_address": "2269 N Miro St",
    "address_councildis": "D",
    "status": "Pending",
    "rowid": "981987",
    "final_x": "3685375.50287",
    "final_y": "540450.965323",
    "longitude": "-90.05551841409293",
    "latitude": "29.97993449907862",
    "geocoded_column": {
      "latitude": "29.97993449907862",
      "longitude": "-90.05551841409293"
    }
  },
  {
    "service_request": "2023-981986",
    "request_type": "Trash/Recycling",
    "request_reason": "Order Trash Cart",
    "date_created": "2023-03-10T14:54:34.000",
    "date_modified": "2023-03-10T14:54:35.000",
    "request_status": "Pending",
    "responsible_agency": "Department of Sanitation",
    "final_address": "13901 Curran Rd",
    "address_councildis": "E",
    "status": "Assigned to Contractor",
    "contractor": "Waste Pro",
    "rowid": "981986",
    "final_x": "3718164.63404",
    "final_y": "572000.249128",
    "longitude": "-89.95075573809582",
    "latitude": "30.06563627366684",
    "geocoded_column": {
      "latitude": "30.06563627366684",
      "longitude": "-89.95075573809582"
    }
  },
  {
    "service_request": "2023-981985",
    "request_type": "Trash/Recycling",
    "request_reason": "Illegal Dumping",
    "date_created": "2023-03-10T14:52:48.000",
    "date_modified": "2023-03-10T14:52:49.000",
    "request_status": "Pending",
    "responsible_agency": "Department of Sanitation",
    "final_address": "ST CLAUDE AVE & SISTER ST",
    "address_councildis": "E",
    "status": "Pending",
    "rowid": "981985",
    "final_x": "3694685.2",
    "final_y": "534672.08",
    "longitude": "-90.02632287535035",
    "latitude": "29.963755873326953",
    "geocoded_column": {
      "latitude": "29.963755873326953",
      "longitude": "-90.02632287535035"
    }
  },
  {
    "service_request": "2023-981984",
    "request_type": "Roads/Drainage",
    "request_reason": "Street Subsidence (Sinking)",
    "date_created": "2023-03-10T14:52:07.000",
    "date_modified": "2023-03-10T14:52:07.000",
    "request_status": "Pending",
    "responsible_agency": "Department of Public Works",
    "final_address": "6959 W Laverne St",
    "address_councildis": "D",
    "status": "Pending",
    "rowid": "981984",
    "final_x": "3696011.10998",
    "final_y": "556582.219354",
    "longitude": "-90.02134357836816",
    "latitude": "30.02395906526082",
    "geocoded_column": {
      "latitude": "30.02395906526082",
      "longitude": "-90.02134357836816"
    }
  },
  {
    "service_request": "2023-981983",
    "request_type": "Trash/Recycling",
    "request_reason": "Missed Trash Pick-Up",
    "date_created": "2023-03-10T14:51:58.000",
    "date_modified": "2023-03-10T14:53:52.000",
    "request_status": "Pending",
    "responsible_agency": "Department of Sanitation",
    "final_address": "2408 Soniat St",
    "address_councildis": "B",
    "status": "Assigned to Contractor",
    "contractor": "Richards Disposal",
    "rowid": "981983",
    "final_x": "3668483.17857",
    "final_y": "524365.787772",
    "longitude": "-90.10941418748773",
    "latitude": "29.936212725480406",
    "geocoded_column": {
      "latitude": "29.936212725480406",
      "longitude": "-90.10941418748773"
    }
  },
  {
    "service_request": "2023-981981",
    "request_type": "Roads/Drainage",
    "request_reason": "Street Flooding / Drainage",
    "date_created": "2023-03-10T14:48:58.000",
    "date_modified": "2023-03-10T14:48:58.000",
    "request_status": "Pending",
    "responsible_agency": "Department of Public Works",
    "final_address": "6959 W Laverne St",
    "address_councildis": "D",
    "status": "Pending",
    "rowid": "981981",
    "final_x": "3696011.10998",
    "final_y": "556582.219354",
    "longitude": "-90.02134357836816",
    "latitude": "30.02395906526082",
    "geocoded_column": {
      "latitude": "30.02395906526082",
      "longitude": "-90.02134357836816"
    }
  },
  {
    "service_request": "2023-981980",
    "request_type": "Roads/Drainage",
    "request_reason": "Pothole",
    "date_created": "2023-03-10T14:45:29.000",
    "date_modified": "2023-03-10T14:45:29.000",
    "request_status": "Pending",
    "responsible_agency": "Department of Public Works",
    "final_address": "5012 Warrington Dr",
    "address_councildis": "D",
    "status": "Pending",
    "rowid": "981980",
    "final_x": "3680961.24219",
    "final_y": "551019.541845",
    "longitude": "-90.06909217507712",
    "latitude": "30.009128958378366",
    "geocoded_column": {
      "latitude": "30.009128958378366",
      "longitude": "-90.06909217507712"
    }
  },
  {
    "service_request": "2023-981979",
    "request_type": "Trash/Recycling",
    "request_reason": "Repair Trash Cart",
    "date_created": "2023-03-10T14:42:28.000",
    "date_modified": "2023-03-10T14:42:28.000",
    "request_status": "Pending",
    "responsible_agency": "Department of Sanitation",
    "final_address": "321 Leboeuf St",
    "address_councildis": "C",
    "status": "Assigned to Contractor",
    "contractor": "Richards Disposal",
    "rowid": "981979",
    "final_x": "3689835.08291",
    "final_y": "530495.899266",
    "longitude": "-90.04178766601764",
    "latitude": "29.952424054514974",
    "geocoded_column": {
      "latitude": "29.952424054514974",
      "longitude": "-90.04178766601764"
    }
  },
  {
    "service_request": "2023-981978",
    "request_type": "Trash/Recycling",
    "request_reason": "Repair Trash Cart",
    "date_created": "2023-03-10T14:40:19.000",
    "date_modified": "2023-03-10T14:40:20.000",
    "request_status": "Pending",
    "responsible_agency": "Department of Sanitation",
    "final_address": "2415 Eads St",
    "address_councildis": "D",
    "status": "Assigned to Contractor",
    "contractor": "IV Waste",
    "rowid": "981978",
    "final_x": "3687943.66511",
    "final_y": "541484.436236",
    "longitude": "-90.0473704849845",
    "latitude": "29.98269717881359",
    "geocoded_column": {
      "latitude": "29.98269717881359",
      "longitude": "-90.0473704849845"
    }
  },
  {
    "service_request": "2023-981977",
    "request_type": "Abandoned Vehicles",
    "request_reason": "Abandoned/Junk Vehicles",
    "date_created": "2023-03-10T14:38:25.000",
    "date_modified": "2023-03-10T14:38:25.000",
    "request_status": "Pending",
    "responsible_agency": "Department of Public Works",
    "final_address": "3130 N Villere St",
    "address_councildis": "C",
    "status": "Pending",
    "rowid": "981977",
    "final_x": "3689298.17046",
    "final_y": "536737.887879",
    "longitude": "-90.04326108252124",
    "latitude": "29.96960398181218",
    "geocoded_column": {
      "latitude": "29.96960398181218",
      "longitude": "-90.04326108252124"
    }
  },
  {
    "service_request": "2023-981976",
    "request_type": "Trash/Recycling",
    "request_reason": "Missed Trash Pick-Up",
    "date_created": "2023-03-10T14:35:49.000",
    "date_modified": "2023-03-10T14:35:49.000",
    "request_status": "Pending",
    "responsible_agency": "Department of Sanitation",
    "final_address": "5015 St Claude Ave",
    "address_councildis": "E",
    "status": "Assigned to Contractor",
    "contractor": "Waste Pro",
    "rowid": "981976",
    "final_x": "3696113.05085",
    "final_y": "534351.361221",
    "longitude": "-90.02182547915295",
    "latitude": "29.962829149857008",
    "geocoded_column": {
      "latitude": "29.962829149857008",
      "longitude": "-90.02182547915295"
    }
  },
  {
    "service_request": "2023-981975",
    "request_type": "Trash/Recycling",
    "request_reason": "Replace Trash Cart",
    "date_created": "2023-03-10T14:33:48.000",
    "date_modified": "2023-03-10T14:33:49.000",
    "request_status": "Pending",
    "responsible_agency": "Department of Sanitation",
    "final_address": "2201 Robert St",
    "address_councildis": "B",
    "status": "Assigned to Contractor",
    "contractor": "Richards Disposal",
    "rowid": "981975",
    "final_x": "3668848.1394",
    "final_y": "523611.885499",
    "longitude": "-90.10828743784307",
    "latitude": "29.934129012184208",
    "geocoded_column": {
      "latitude": "29.934129012184208",
      "longitude": "-90.10828743784307"
    }
  },
  {
    "service_request": "2023-981974",
    "request_type": "Abandoned Vehicles",
    "request_reason": "Abandoned/Junk Vehicles",
    "date_created": "2023-03-10T14:32:52.000",
    "date_modified": "2023-03-10T14:32:52.000",
    "request_status": "Pending",
    "responsible_agency": "Department of Public Works",
    "final_address": "3117 N Villere St",
    "address_councildis": "C",
    "status": "Pending",
    "rowid": "981974",
    "final_x": "3689429.97321",
    "final_y": "537103.568072",
    "longitude": "-90.04283183289137",
    "latitude": "29.97060539285459",
    "geocoded_column": {
      "latitude": "29.97060539285459",
      "longitude": "-90.04283183289137"
    }
  },
  {
    "service_request": "2023-981973",
    "request_type": "Trash/Recycling",
    "request_reason": "Request a Large Item Pick Up",
    "date_created": "2023-03-10T14:30:27.000",
    "date_modified": "2023-03-10T14:30:28.000",
    "request_status": "Pending",
    "responsible_agency": "Department of Sanitation",
    "final_address": "13035 Lemans St",
    "address_councildis": "E",
    "status": "Assigned to Contractor",
    "contractor": "Waste Pro",
    "rowid": "981973",
    "final_x": "3723837.79935",
    "final_y": "562815.307744",
    "longitude": "-89.93317717564759",
    "latitude": "30.04019208340101",
    "geocoded_column": {
      "latitude": "30.04019208340101",
      "longitude": "-89.93317717564759"
    }
  },
  {
    "service_request": "2023-981972",
    "request_type": "Trash/Recycling",
    "request_reason": "Missed Trash Pick-Up",
    "date_created": "2023-03-10T14:29:39.000",
    "date_modified": "2023-03-10T14:29:39.000",
    "request_status": "Pending",
    "responsible_agency": "Department of Sanitation",
    "final_address": "7242 Hayne Blvd",
    "address_councildis": "E",
    "status": "Assigned to Contractor",
    "contractor": "Waste Pro",
    "rowid": "981972",
    "final_x": "3699277.4552",
    "final_y": "561623.100895",
    "longitude": "-90.01083878195931",
    "latitude": "30.037716306087553",
    "geocoded_column": {
      "latitude": "30.037716306087553",
      "longitude": "-90.01083878195931"
    }
  },
  {
    "service_request": "2023-981971",
    "request_type": "Trash/Recycling",
    "request_reason": "Order Trash Cart",
    "date_created": "2023-03-10T14:28:05.000",
    "date_modified": "2023-03-10T14:28:06.000",
    "request_status": "Pending",
    "responsible_agency": "Department of Sanitation",
    "final_address": "7242 Hayne Blvd",
    "address_councildis": "E",
    "status": "Assigned to Contractor",
    "contractor": "Waste Pro",
    "rowid": "981971",
    "final_x": "3699277.4552",
    "final_y": "561623.100895",
    "longitude": "-90.01083878195931",
    "latitude": "30.037716306087553",
    "geocoded_column": {
      "latitude": "30.037716306087553",
      "longitude": "-90.01083878195931"
    }
  },
  {
    "service_request": "2023-981970",
    "request_type": "Abandoned Vehicles",
    "request_reason": "Abandoned/Junk Vehicles",
    "date_created": "2023-03-10T14:26:09.000",
    "date_modified": "2023-03-10T14:28:33.000",
    "request_status": "Pending",
    "responsible_agency": "Department of Public Works",
    "final_address": "S ST PATRICK ST & PALMYRA ST",
    "address_councildis": "A",
    "status": "Pending",
    "rowid": "981970",
    "final_x": "3668634.8",
    "final_y": "539210.08",
    "longitude": "-90.10843453919752",
    "latitude": "29.977025191623188",
    "geocoded_column": {
      "latitude": "29.977025191623188",
      "longitude": "-90.10843453919752"
    }
  },
  {
    "service_request": "2023-981968",
    "request_type": "Trash/Recycling",
    "request_reason": "Missed Trash Pick-Up",
    "date_created": "2023-03-10T14:22:51.000",
    "date_modified": "2023-03-10T14:22:51.000",
    "request_status": "Pending",
    "responsible_agency": "Department of Sanitation",
    "final_address": "20 Neron Pl",
    "address_councildis": "A",
    "status": "Assigned to Contractor",
    "contractor": "Richards Disposal",
    "rowid": "981968",
    "final_x": "3665002.91904",
    "final_y": "530773.532482",
    "longitude": "-90.12018733970334",
    "latitude": "29.95393372017727",
    "geocoded_column": {
      "latitude": "29.95393372017727",
      "longitude": "-90.12018733970334"
    }
  },
  {
    "service_request": "2023-981967",
    "request_type": "Trash/Recycling",
    "request_reason": "Missed Trash Pick-Up",
    "date_created": "2023-03-10T14:21:21.000",
    "date_modified": "2023-03-10T14:21:21.000",
    "request_status": "Pending",
    "responsible_agency": "Department of Sanitation",
    "final_address": "6910 Manchester St",
    "address_councildis": "E",
    "status": "Assigned to Contractor",
    "contractor": "Waste Pro",
    "rowid": "981967",
    "final_x": "3698773.20215",
    "final_y": "559970.858013",
    "longitude": "-90.0124925241548",
    "latitude": "30.03318927091478",
    "geocoded_column": {
      "latitude": "30.03318927091478",
      "longitude": "-90.0124925241548"
    }
  },
  {
    "service_request": "2023-981966",
    "request_type": "Trash/Recycling",
    "request_reason": "Order Trash Cart",
    "date_created": "2023-03-10T14:13:55.000",
    "date_modified": "2023-03-10T14:13:55.000",
    "request_status": "Pending",
    "responsible_agency": "Department of Sanitation",
    "final_address": "3425 S Liberty St",
    "address_councildis": "B",
    "status": "Assigned to Contractor",
    "contractor": "Richards Disposal",
    "rowid": "981966",
    "final_x": "3672963.63681",
    "final_y": "523764.787067",
    "longitude": "-90.09528972092338",
    "latitude": "29.934427815361854",
    "geocoded_column": {
      "latitude": "29.934427815361854",
      "longitude": "-90.09528972092338"
    }
  },
  {
    "service_request": "2023-981965",
    "request_type": "Mosquito, Termite & Rodent Control",
    "request_reason": "Non-Rodent Complaint (Mice, Possums, Snakes)",
    "date_created": "2023-03-10T14:10:31.000",
    "date_modified": "2023-03-10T14:10:32.000",
    "request_status": "Pending",
    "responsible_agency": "Mosquito, Termite & Rodent Control Board",
    "final_address": "1205 St Charles Ave Unit 1208",
    "address_councildis": "B",
    "status": "Pending",
    "rowid": "981965",
    "final_x": "3679502.21128",
    "final_y": "526401.976126",
    "longitude": "-90.07455615576019",
    "latitude": "29.94148333693563",
    "geocoded_column": {
      "latitude": "29.94148333693563",
      "longitude": "-90.07455615576019"
    }
  },
  {
    "service_request": "2023-981964",
    "request_type": "Trash/Recycling",
    "request_reason": "Request a Large Item Pick Up",
    "date_created": "2023-03-10T14:06:28.000",
    "date_modified": "2023-03-10T14:51:15.000",
    "request_status": "Pending",
    "responsible_agency": "Department of Sanitation",
    "final_address": "6696 Bellaire Dr",
    "address_councildis": "A",
    "status": "Assigned to Contractor",
    "contractor": "IV Waste",
    "rowid": "981964",
    "final_x": "3664516.46573",
    "final_y": "552748.033558",
    "longitude": "-90.12098922950027",
    "latitude": "30.014370353602764",
    "geocoded_column": {
      "latitude": "30.014370353602764",
      "longitude": "-90.12098922950027"
    }
  },
  {
    "service_request": "2023-981963",
    "request_type": "Roads/Drainage",
    "request_reason": "Man hole cover issue",
    "date_created": "2023-03-10T14:04:56.000",
    "date_modified": "2023-03-10T14:04:56.000",
    "request_status": "Pending",
    "responsible_agency": "Department of Public Works",
    "final_address": "1350 Bourbon St",
    "address_councildis": "C",
    "status": "Pending",
    "rowid": "981963",
    "final_x": "3683700.26441",
    "final_y": "534514.026181",
    "longitude": "-90.06101771273805",
    "latitude": "29.963661240674625",
    "geocoded_column": {
      "latitude": "29.963661240674625",
      "longitude": "-90.06101771273805"
    }
  },
  {
    "service_request": "2023-981962",
    "request_type": "Roads/Drainage",
    "request_reason": "Damaged Sidewalk",
    "date_created": "2023-03-10T14:03:27.000",
    "date_modified": "2023-03-10T14:03:27.000",
    "request_status": "Pending",
    "responsible_agency": "Department of Public Works",
    "final_address": "939 Iberville St",
    "address_councildis": "C",
    "status": "Pending",
    "rowid": "981962",
    "final_x": "3680749.64213",
    "final_y": "531673.316611",
    "longitude": "-90.07043434462538",
    "latitude": "29.955940012904332",
    "geocoded_column": {
      "latitude": "29.955940012904332",
      "longitude": "-90.07043434462538"
    }
  },
  {
    "service_request": "2023-981961",
    "request_type": "Abandoned Vehicles",
    "request_reason": "Abandoned/Junk Vehicles",
    "date_created": "2023-03-10T14:00:58.000",
    "date_modified": "2023-03-10T14:00:59.000",
    "request_status": "Pending",
    "responsible_agency": "Department of Public Works",
    "final_address": "1900 BLK Cambronne St",
    "address_councildis": "A",
    "status": "Pending",
    "rowid": "981961",
    "final_x": "3662939.93393",
    "final_y": "531047.545632",
    "longitude": "-90.12669232191656",
    "latitude": "29.954747063676496",
    "geocoded_column": {
      "latitude": "29.954747063676496",
      "longitude": "-90.12669232191656"
    }
  },
  {
    "service_request": "2023-981960",
    "request_type": "Trash/Recycling",
    "request_reason": "Missed Trash Pick-Up",
    "date_created": "2023-03-10T13:59:51.000",
    "date_modified": "2023-03-10T14:00:04.000",
    "request_status": "Pending",
    "responsible_agency": "Department of Sanitation",
    "final_address": "7310 S Claiborne Ave",
    "address_councildis": "A",
    "status": "Assigned to Contractor",
    "contractor": "Richards Disposal",
    "rowid": "981960",
    "final_x": "3666113.65223",
    "final_y": "530062.686913",
    "longitude": "-90.11670391777486",
    "latitude": "29.951946744040228",
    "geocoded_column": {
      "latitude": "29.951946744040228",
      "longitude": "-90.11670391777486"
    }
  },
  {
    "service_request": "2023-981959",
    "request_type": "Parks & Parkways",
    "request_reason": "Request Tree Service (Right of Way/Public Property)",
    "date_created": "2023-03-10T13:56:39.000",
    "date_modified": "2023-03-10T13:56:39.000",
    "request_status": "Pending",
    "responsible_agency": "Department of Parks & Parkway",
    "final_address": "933 Hillary St",
    "address_councildis": "A",
    "status": "Pending",
    "rowid": "981959",
    "final_x": "3662801.12762",
    "final_y": "526571.502654",
    "longitude": "-90.12727938477502",
    "latitude": "29.942443401621805",
    "geocoded_column": {
      "latitude": "29.942443401621805",
      "longitude": "-90.12727938477502"
    }
  },
  {
    "service_request": "2023-981958",
    "request_type": "Trash/Recycling",
    "request_reason": "MIssed Recycling Pick-Up",
    "date_created": "2023-03-10T13:56:35.000",
    "date_modified": "2023-03-10T13:56:35.000",
    "request_status": "Pending",
    "responsible_agency": "Department of Sanitation",
    "final_address": "3 Neron Pl",
    "address_councildis": "A",
    "status": "Assigned to Contractor",
    "contractor": "Richards Disposal",
    "rowid": "981958",
    "final_x": "3664770.83828",
    "final_y": "531111.829442",
    "longitude": "-90.12090885606904",
    "latitude": "29.954870681133077",
    "geocoded_column": {
      "latitude": "29.954870681133077",
      "longitude": "-90.12090885606904"
    }
  },
  {
    "service_request": "2023-981957",
    "request_type": "Trash/Recycling",
    "request_reason": "Illegal Dumping",
    "date_created": "2023-03-10T13:50:43.000",
    "date_modified": "2023-03-10T13:50:43.000",
    "request_status": "Pending",
    "responsible_agency": "Department of Sanitation",
    "final_address": "ORETHA CASTLE HALEY BLVD & DRYADES ST & CALLIOPE ST",
    "address_councildis": "B",
    "status": "Pending",
    "rowid": "981957",
    "final_x": "3678705.21",
    "final_y": "527297.49",
    "longitude": "-90.07704144738564",
    "latitude": "29.943969753650155",
    "geocoded_column": {
      "latitude": "29.943969753650155",
      "longitude": "-90.07704144738564"
    }
  },
  {
    "service_request": "2023-981956",
    "request_type": "Abandoned Vehicles",
    "request_reason": "Abandoned/Junk Vehicles",
    "date_created": "2023-03-10T13:44:35.000",
    "date_modified": "2023-03-10T13:44:35.000",
    "request_status": "Pending",
    "responsible_agency": "Department of Public Works",
    "final_address": "1712 Painters St",
    "address_councildis": "D",
    "status": "Pending",
    "rowid": "981956",
    "final_x": "3687340.0509",
    "final_y": "538844.551817",
    "longitude": "-90.04937042785761",
    "latitude": "29.975457042402297",
    "geocoded_column": {
      "latitude": "29.975457042402297",
      "longitude": "-90.04937042785761"
    }
  },
  {
    "service_request": "2023-981955",
    "request_type": "Trash/Recycling",
    "request_reason": "Request a Large Item Pick Up",
    "date_created": "2023-03-10T13:44:08.000",
    "date_modified": "2023-03-10T13:44:09.000",
    "request_status": "Pending",
    "responsible_agency": "Department of Sanitation",
    "final_address": "1712 Painters St",
    "address_councildis": "D",
    "status": "Assigned to Contractor",
    "contractor": "IV Waste",
    "rowid": "981955",
    "final_x": "3687340.0509",
    "final_y": "538844.551817",
    "longitude": "-90.04937042785761",
    "latitude": "29.975457042402297",
    "geocoded_column": {
      "latitude": "29.975457042402297",
      "longitude": "-90.04937042785761"
    }
  },
  {
    "service_request": "2023-981954",
    "request_type": "Trash/Recycling",
    "request_reason": "Request a Large Item Pick Up",
    "date_created": "2023-03-10T13:43:50.000",
    "date_modified": "2023-03-10T14:57:55.000",
    "case_close_date": "2023-03-10T08:57:54.000",
    "request_status": "Closed",
    "responsible_agency": "Department of Sanitation",
    "final_address": "1712 Painters St",
    "address_councildis": "D",
    "status": "Assigned to Contractor",
    "contractor": "IV Waste",
    "contractor_action": "Completed",
    "rowid": "981954",
    "final_x": "3687340.0509",
    "final_y": "538844.551817",
    "longitude": "-90.04937042785761",
    "latitude": "29.975457042402297",
    "geocoded_column": {
      "latitude": "29.975457042402297",
      "longitude": "-90.04937042785761"
    }
  },
  {
    "service_request": "2023-981953",
    "request_type": "Trash/Recycling",
    "request_reason": "Order Recycling Cart",
    "date_created": "2023-03-10T13:39:56.000",
    "date_modified": "2023-03-10T13:39:57.000",
    "request_status": "Pending",
    "responsible_agency": "Department of Sanitation",
    "final_address": "8429 Cohn St",
    "address_councildis": "A",
    "status": "Pending",
    "rowid": "981953",
    "final_x": "3662682.1433",
    "final_y": "531096.35501",
    "longitude": "-90.12750470787222",
    "latitude": "29.95488873566993",
    "geocoded_column": {
      "latitude": "29.95488873566993",
      "longitude": "-90.12750470787222"
    }
  },
  {
    "service_request": "2023-981952",
    "request_type": "Trash/Recycling",
    "request_reason": "Missed Trash Pick-Up",
    "date_created": "2023-03-10T13:34:11.000",
    "date_modified": "2023-03-10T13:34:11.000",
    "request_status": "Pending",
    "responsible_agency": "Department of Sanitation",
    "final_address": "1655 Alabo St",
    "address_councildis": "E",
    "status": "Assigned to Contractor",
    "contractor": "Waste Pro",
    "rowid": "981952",
    "final_x": "3699531.2682",
    "final_y": "535676.040775",
    "longitude": "-90.01098297906002",
    "latitude": "29.966363523395273",
    "geocoded_column": {
      "latitude": "29.966363523395273",
      "longitude": "-90.01098297906002"
    }
  },
  {
    "service_request": "2023-981951",
    "request_type": "Trash/Recycling",
    "request_reason": "Request a Large Item Pick Up",
    "date_created": "2023-03-10T13:29:30.000",
    "date_modified": "2023-03-10T13:29:31.000",
    "request_status": "Pending",
    "responsible_agency": "Department of Sanitation",
    "final_address": "4425 St Roch Ave",
    "address_councildis": "D",
    "status": "Assigned to Contractor",
    "contractor": "IV Waste",
    "rowid": "981951",
    "final_x": "3685516.65878",
    "final_y": "549306.566675",
    "longitude": "-90.05476049034768",
    "latitude": "30.00427991158131",
    "geocoded_column": {
      "latitude": "30.00427991158131",
      "longitude": "-90.05476049034768"
    }
  },
  {
    "service_request": "2023-981950",
    "request_type": "Trash/Recycling",
    "request_reason": "Order Recycling Cart",
    "date_created": "2023-03-10T13:27:23.000",
    "date_modified": "2023-03-10T13:27:23.000",
    "request_status": "Pending",
    "responsible_agency": "Department of Sanitation",
    "final_address": "2224 Calhoun St",
    "address_councildis": "A",
    "status": "Pending",
    "rowid": "981950",
    "final_x": "3665828.48135",
    "final_y": "525320.339773",
    "longitude": "-90.11776320985302",
    "latitude": "29.938915141027543",
    "geocoded_column": {
      "latitude": "29.938915141027543",
      "longitude": "-90.11776320985302"
    }
  },
  {
    "service_request": "2023-981949",
    "request_type": "Roads/Drainage",
    "request_reason": "Damaged Sidewalk",
    "date_created": "2023-03-10T13:27:16.000",
    "date_modified": "2023-03-10T13:31:03.000",
    "request_status": "Pending",
    "responsible_agency": "Department of Public Works",
    "final_address": "Corner of Gen Diaz and Harrison in front of bank",
    "address_councildis": "A",
    "rowid": "981949",
    "final_x": "3669677.8",
    "final_y": "549142.98",
    "longitude": "-90.10480404873553",
    "latitude": "30.00430655731503",
    "geocoded_column": {
      "latitude": "30.00430655731503",
      "longitude": "-90.10480404873553"
    }
  },
  {
    "service_request": "2023-981948",
    "request_type": "Trash/Recycling",
    "request_reason": "Order Trash Cart",
    "date_created": "2023-03-10T13:25:09.000",
    "date_modified": "2023-03-10T13:25:10.000",
    "request_status": "Pending",
    "responsible_agency": "Department of Sanitation",
    "final_address": "534 Chartres St Unit 3",
    "address_councildis": "C",
    "status": "Assigned to Contractor",
    "contractor": "Empire Services",
    "rowid": "981948",
    "final_x": "3682579.88111",
    "final_y": "531862.421123",
    "longitude": "-90.06464847775146",
    "latitude": "29.956404392456708",
    "geocoded_column": {
      "latitude": "29.956404392456708",
      "longitude": "-90.06464847775146"
    }
  },
  {
    "service_request": "2023-981947",
    "request_type": "Trash/Recycling",
    "request_reason": "MIssed Recycling Pick-Up",
    "date_created": "2023-03-10T13:24:42.000",
    "date_modified": "2023-03-10T13:24:43.000",
    "request_status": "Pending",
    "responsible_agency": "Department of Sanitation",
    "final_address": "5936 Magazine St",
    "address_councildis": "A",
    "status": "Assigned to Contractor",
    "contractor": "Richards Disposal",
    "rowid": "981947",
    "final_x": "3664943.89069",
    "final_y": "519096.530359",
    "longitude": "-90.12076391255584",
    "latitude": "29.921827406830214",
    "geocoded_column": {
      "latitude": "29.921827406830214",
      "longitude": "-90.12076391255584"
    }
  },
  {
    "service_request": "2023-981946",
    "request_type": "Trash/Recycling",
    "request_reason": "MIssed Recycling Pick-Up",
    "date_created": "2023-03-10T13:24:10.000",
    "date_modified": "2023-03-10T13:24:10.000",
    "request_status": "Pending",
    "responsible_agency": "Department of Sanitation",
    "final_address": "5936 Magazine St",
    "address_councildis": "A",
    "status": "Assigned to Contractor",
    "contractor": "Richards Disposal",
    "rowid": "981946",
    "final_x": "3664943.89069",
    "final_y": "519096.530359",
    "longitude": "-90.12076391255584",
    "latitude": "29.921827406830214",
    "geocoded_column": {
      "latitude": "29.921827406830214",
      "longitude": "-90.12076391255584"
    }
  },
  {
    "service_request": "2023-981945",
    "request_type": "Trash/Recycling",
    "request_reason": "Order Recycling Cart",
    "date_created": "2023-03-10T13:23:32.000",
    "date_modified": "2023-03-10T13:23:33.000",
    "request_status": "Pending",
    "responsible_agency": "Department of Sanitation",
    "final_address": "534 Chartres St Unit 3",
    "address_councildis": "C",
    "status": "Pending",
    "rowid": "981945",
    "final_x": "3682579.88111",
    "final_y": "531862.421123",
    "longitude": "-90.06464847775146",
    "latitude": "29.956404392456708",
    "geocoded_column": {
      "latitude": "29.956404392456708",
      "longitude": "-90.06464847775146"
    }
  },
  {
    "service_request": "2023-981944",
    "request_type": "Abandoned Vehicles",
    "request_reason": "Abandoned/Junk Vehicles",
    "date_created": "2023-03-10T13:23:22.000",
    "date_modified": "2023-03-10T13:23:22.000",
    "request_status": "Pending",
    "responsible_agency": "Department of Public Works",
    "final_address": "4201 State Street Dr",
    "address_councildis": "B",
    "status": "Pending",
    "rowid": "981944",
    "final_x": "3668504.64026",
    "final_y": "531072.514818",
    "longitude": "-90.10912021642544",
    "latitude": "29.95465341760769",
    "geocoded_column": {
      "latitude": "29.95465341760769",
      "longitude": "-90.10912021642544"
    }
  },
  {
    "service_request": "2023-981943",
    "request_type": "Trash/Recycling",
    "request_reason": "Order Recycling Cart",
    "date_created": "2023-03-10T13:22:26.000",
    "date_modified": "2023-03-10T13:22:27.000",
    "request_status": "Pending",
    "responsible_agency": "Department of Sanitation",
    "final_address": "2201 St Roch Ave",
    "address_councildis": "D",
    "status": "Pending",
    "rowid": "981943",
    "final_x": "3686243.6687",
    "final_y": "540521.226763",
    "longitude": "-90.05277391337327",
    "latitude": "29.980101043707904",
    "geocoded_column": {
      "latitude": "29.980101043707904",
      "longitude": "-90.05277391337327"
    }
  },
  {
    "service_request": "2023-981942",
    "request_type": "Trash/Recycling",
    "request_reason": "Missed Trash Pick-Up",
    "date_created": "2023-03-10T13:22:20.000",
    "date_modified": "2023-03-10T13:22:21.000",
    "request_status": "Pending",
    "responsible_agency": "Department of Sanitation",
    "final_address": "5512 Chestnut St, New Orleans, Louisiana, 70115",
    "address_councildis": "A",
    "status": "Assigned to Contractor",
    "contractor": "Richards Disposal",
    "rowid": "981942",
    "final_x": "3666485.59943",
    "final_y": "519541.463031",
    "longitude": "-90.11588245255203",
    "latitude": "29.923005880934127",
    "geocoded_column": {
      "latitude": "29.923005880934127",
      "longitude": "-90.11588245255203"
    }
  },
  {
    "service_request": "2023-981941",
    "request_type": "Trash/Recycling",
    "request_reason": "Missed Trash Pick-Up",
    "date_created": "2023-03-10T13:21:16.000",
    "date_modified": "2023-03-10T13:21:16.000",
    "request_status": "Pending",
    "responsible_agency": "Department of Sanitation",
    "final_address": "1036 Jefferson Ave",
    "address_councildis": "A",
    "status": "Assigned to Contractor",
    "contractor": "Richards Disposal",
    "rowid": "981941",
    "final_x": "3666809.81178",
    "final_y": "519471.317943",
    "longitude": "-90.11486139067169",
    "latitude": "29.922803528119932",
    "geocoded_column": {
      "latitude": "29.922803528119932",
      "longitude": "-90.11486139067169"
    }
  },
  {
    "service_request": "2023-981940",
    "request_type": "Trash/Recycling",
    "request_reason": "Missed Trash Pick-Up",
    "date_created": "2023-03-10T13:11:41.000",
    "date_modified": "2023-03-10T13:11:42.000",
    "request_status": "Pending",
    "responsible_agency": "Department of Sanitation",
    "final_address": "5507 Chestnut St",
    "address_councildis": "A",
    "status": "Assigned to Contractor",
    "contractor": "Richards Disposal",
    "rowid": "981940",
    "final_x": "3666509.39444",
    "final_y": "519654.60748",
    "longitude": "-90.11580354566038",
    "latitude": "29.923316297349935",
    "geocoded_column": {
      "latitude": "29.923316297349935",
      "longitude": "-90.11580354566038"
    }
  },
  {
    "service_request": "2023-981939",
    "request_type": "Trash/Recycling",
    "request_reason": "Request a Large Item Pick Up",
    "date_created": "2023-03-10T13:11:09.000",
    "date_modified": "2023-03-10T13:11:10.000",
    "request_status": "Pending",
    "responsible_agency": "Department of Sanitation",
    "final_address": "5613 N Villere St",
    "address_councildis": "E",
    "status": "Assigned to Contractor",
    "contractor": "Waste Pro",
    "rowid": "981939",
    "final_x": "3698479.05207",
    "final_y": "534893.31303",
    "longitude": "-90.01433429450884",
    "latitude": "29.964244649031198",
    "geocoded_column": {
      "latitude": "29.964244649031198",
      "longitude": "-90.01433429450884"
    }
  },
  {
    "service_request": "2023-981938",
    "request_type": "Parks & Parkways",
    "request_reason": "Request Tree Service (Right of Way/Public Property)",
    "date_created": "2023-03-10T13:05:29.000",
    "date_modified": "2023-03-10T13:05:29.000",
    "request_status": "Pending",
    "responsible_agency": "Department of Parks & Parkway",
    "final_address": "6386 Canal Blvd",
    "address_councildis": "A",
    "status": "Pending",
    "rowid": "981938",
    "final_x": "3668585.21178",
    "final_y": "549999.489748",
    "longitude": "-90.10822681749111",
    "latitude": "30.006693825532285",
    "geocoded_column": {
      "latitude": "30.006693825532285",
      "longitude": "-90.10822681749111"
    }
  },
  {
    "service_request": "2023-981937",
    "request_type": "Trash/Recycling",
    "request_reason": "Request a Large Item Pick Up",
    "date_created": "2023-03-10T12:57:48.000",
    "date_modified": "2023-03-10T12:57:49.000",
    "request_status": "Pending",
    "responsible_agency": "Department of Sanitation",
    "final_address": "1829 Alvar St",
    "address_councildis": "D",
    "status": "Assigned to Contractor",
    "contractor": "IV Waste",
    "rowid": "981937",
    "final_x": "3692249.88272",
    "final_y": "538243.948169",
    "longitude": "-90.03388541901397",
    "latitude": "29.973653405545285",
    "geocoded_column": {
      "latitude": "29.973653405545285",
      "longitude": "-90.03388541901397"
    }
  },
  {
    "service_request": "2023-981936",
    "request_type": "Trash/Recycling",
    "request_reason": "Illegal Dumping",
    "date_created": "2023-03-10T12:57:20.000",
    "date_modified": "2023-03-10T12:57:21.000",
    "request_status": "Pending",
    "responsible_agency": "Department of Sanitation",
    "final_address": "CURRAN BLVD & SANDPIPER DR",
    "address_councildis": "E",
    "status": "Pending",
    "rowid": "981936",
    "final_x": "3715765.1",
    "final_y": "569884.38",
    "longitude": "-89.95842114274295",
    "latitude": "30.05989790237985",
    "geocoded_column": {
      "latitude": "30.05989790237985",
      "longitude": "-89.95842114274295"
    }
  },
  {
    "service_request": "2023-981935",
    "request_type": "Trash/Recycling",
    "request_reason": "Start Trash Service",
    "date_created": "2023-03-10T12:55:31.000",
    "date_modified": "2023-03-10T12:55:32.000",
    "request_status": "Pending",
    "responsible_agency": "Department of Sanitation",
    "final_address": "3431 Vespasian St",
    "address_councildis": "C",
    "status": "Assigned to Contractor",
    "contractor": "Richards Disposal",
    "rowid": "981935",
    "final_x": "3695832.87011",
    "final_y": "522580.12857",
    "longitude": "-90.02313528828672",
    "latitude": "29.930471170971508",
    "geocoded_column": {
      "latitude": "29.930471170971508",
      "longitude": "-90.02313528828672"
    }
  },
  {
    "service_request": "2023-981934",
    "request_type": "Trash/Recycling",
    "request_reason": "Dead Animal Pick Up",
    "date_created": "2023-03-10T12:55:25.000",
    "date_modified": "2023-03-10T12:55:26.000",
    "request_status": "Pending",
    "responsible_agency": "Department of Sanitation",
    "final_address": "MUSIC ST & N GALVEZ ST",
    "address_councildis": "D",
    "status": "Assigned to Contractor",
    "contractor": "IV Waste",
    "rowid": "981934",
    "final_x": "3686556.6",
    "final_y": "540138.38",
    "longitude": "-90.05179907139454",
    "latitude": "29.979038730299443",
    "geocoded_column": {
      "latitude": "29.979038730299443",
      "longitude": "-90.05179907139454"
    }
  },
  {
    "service_request": "2023-981933",
    "request_type": "Trash/Recycling",
    "request_reason": "Missed Trash Pick-Up",
    "date_created": "2023-03-10T12:53:47.000",
    "date_modified": "2023-03-10T13:26:28.000",
    "request_status": "Pending",
    "responsible_agency": "Department of Sanitation",
    "final_address": "4618 Arthur Dr",
    "address_councildis": "E",
    "status": "Assigned to Contractor",
    "contractor": "Waste Pro",
    "rowid": "981933",
    "final_x": "3707705.95659",
    "final_y": "554607.338136",
    "longitude": "-89.98446390128218",
    "latitude": "30.018155531764542",
    "geocoded_column": {
      "latitude": "30.018155531764542",
      "longitude": "-89.98446390128218"
    }
  },
  {
    "service_request": "2023-981932",
    "request_type": "Trash/Recycling",
    "request_reason": "Order Recycling Cart",
    "date_created": "2023-03-10T12:51:23.000",
    "date_modified": "2023-03-10T12:51:23.000",
    "request_status": "Pending",
    "responsible_agency": "Department of Sanitation",
    "final_address": "816 N Carrollton Ave",
    "address_councildis": "A",
    "status": "Pending",
    "rowid": "981932",
    "final_x": "3672952.07528",
    "final_y": "540200.788363",
    "longitude": "-90.09476534935874",
    "latitude": "29.97962169475027",
    "geocoded_column": {
      "latitude": "29.97962169475027",
      "longitude": "-90.09476534935874"
    }
  },
  {
    "service_request": "2023-981931",
    "request_type": "Trash/Recycling",
    "request_reason": "Missed Trash Pick-Up",
    "date_created": "2023-03-10T12:49:16.000",
    "date_modified": "2023-03-10T13:25:57.000",
    "case_close_date": "2023-03-10T07:25:57.000",
    "request_status": "Closed",
    "responsible_agency": "Department of Sanitation",
    "final_address": "1540 Poland Ave",
    "address_councildis": "D",
    "status": "Assigned to Contractor",
    "contractor": "IV Waste",
    "contractor_action": "Completed",
    "rowid": "981931",
    "final_x": "3693415.93206",
    "final_y": "536812.02068",
    "longitude": "-90.03025423020836",
    "latitude": "29.969679702024685",
    "geocoded_column": {
      "latitude": "29.969679702024685",
      "longitude": "-90.03025423020836"
    }
  },
  {
    "service_request": "2023-981930",
    "request_type": "Trash/Recycling",
    "request_reason": "Order Recycling Cart",
    "date_created": "2023-03-10T12:45:15.000",
    "date_modified": "2023-03-10T12:45:15.000",
    "request_status": "Pending",
    "responsible_agency": "Department of Sanitation",
    "final_address": "3726 Dickens Dr",
    "address_councildis": "C",
    "status": "Pending",
    "rowid": "981930",
    "final_x": "3707849.56689",
    "final_y": "517181.815093",
    "longitude": "-89.98540121076792",
    "latitude": "29.915244413546706",
    "geocoded_column": {
      "latitude": "29.915244413546706",
      "longitude": "-89.98540121076792"
    }
  },
  {
    "service_request": "2023-981929",
    "request_type": "Traffic Signals/Signs/Striping/Streetlights",
    "request_reason": "Street Light Outage/Malfunction",
    "date_created": "2023-03-10T12:42:39.000",
    "date_modified": "2023-03-10T12:42:40.000",
    "request_status": "Pending",
    "responsible_agency": "Department of Public Works",
    "final_address": "4628 Press Dr",
    "address_councildis": "D",
    "status": "Assigned to Contractor",
    "contractor": "Legacy Professional Services",
    "rowid": "981929",
    "final_x": "3689599.15311",
    "final_y": "550257.707732",
    "longitude": "-90.04182931159156",
    "latitude": "30.00676931223541",
    "geocoded_column": {
      "latitude": "30.00676931223541",
      "longitude": "-90.04182931159156"
    }
  },
  {
    "service_request": "2023-981928",
    "request_type": "Trash/Recycling",
    "request_reason": "Order Recycling Cart",
    "date_created": "2023-03-10T12:39:16.000",
    "date_modified": "2023-03-10T12:39:17.000",
    "request_status": "Pending",
    "responsible_agency": "Department of Sanitation",
    "final_address": "8927 Green St",
    "address_councildis": "A",
    "status": "Pending",
    "rowid": "981928",
    "final_x": "3660936.71206",
    "final_y": "531734.558723",
    "longitude": "-90.1329950368867",
    "latitude": "29.956693980841344",
    "geocoded_column": {
      "latitude": "29.956693980841344",
      "longitude": "-90.1329950368867"
    }
  },
  {
    "service_request": "2023-981927",
    "request_type": "Abandoned Vehicles",
    "request_reason": "Abandoned/Junk Vehicles",
    "date_created": "2023-03-10T12:35:56.000",
    "date_modified": "2023-03-10T12:37:20.000",
    "request_status": "Pending",
    "responsible_agency": "Department of Public Works",
    "final_address": "4201 State Street Dr",
    "address_councildis": "B",
    "status": "Pending",
    "rowid": "981927",
    "final_x": "3668504.64026",
    "final_y": "531072.514818",
    "longitude": "-90.10912021642544",
    "latitude": "29.95465341760769",
    "geocoded_column": {
      "latitude": "29.95465341760769",
      "longitude": "-90.10912021642544"
    }
  },
  {
    "service_request": "2023-981926",
    "request_type": "Roads/Drainage",
    "request_reason": "Accessibility Ramps, Curbs and Sidewalk Repair",
    "date_created": "2023-03-10T12:31:06.000",
    "date_modified": "2023-03-10T12:31:06.000",
    "request_status": "Pending",
    "responsible_agency": "Department of Public Works",
    "final_address": "741 Barracks St",
    "address_councildis": "C",
    "status": "Pending",
    "rowid": "981926",
    "final_x": "3683633.43273",
    "final_y": "534421.635973",
    "longitude": "-90.06123199917997",
    "latitude": "29.963409239691398",
    "geocoded_column": {
      "latitude": "29.963409239691398",
      "longitude": "-90.06123199917997"
    }
  },
  {
    "service_request": "2023-981925",
    "request_type": "Trash/Recycling",
    "request_reason": "Order Recycling Cart",
    "date_created": "2023-03-10T12:29:09.000",
    "date_modified": "2023-03-10T12:29:10.000",
    "request_status": "Pending",
    "responsible_agency": "Department of Sanitation",
    "final_address": "4750 Lennox Blvd",
    "address_councildis": "C",
    "status": "Pending",
    "rowid": "981925",
    "final_x": "3700823.25713",
    "final_y": "512792.861041",
    "longitude": "-90.00773893667247",
    "latitude": "29.903401682577666",
    "geocoded_column": {
      "latitude": "29.903401682577666",
      "longitude": "-90.00773893667247"
    }
  },
  {
    "service_request": "2023-981924",
    "request_type": "Trash/Recycling",
    "request_reason": "Replace Trash Cart",
    "date_created": "2023-03-10T12:27:31.000",
    "date_modified": "2023-03-10T13:27:43.000",
    "request_status": "Pending",
    "responsible_agency": "Department of Sanitation",
    "final_address": "3511 River Oaks Drive 70131",
    "address_councildis": "C",
    "status": "Assigned to Contractor",
    "rowid": "981924",
    "final_x": "3701316.83965",
    "final_y": "518134.013366",
    "longitude": "-90.00598593702196",
    "latitude": "29.918072326560722",
    "geocoded_column": {
      "latitude": "29.918072326560722",
      "longitude": "-90.00598593702196"
    }
  },
  {
    "service_request": "2023-981923",
    "request_type": "Trash/Recycling",
    "request_reason": "Missed Trash Pick-Up",
    "date_created": "2023-03-10T12:25:49.000",
    "date_modified": "2023-03-10T13:23:39.000",
    "case_close_date": "2023-03-10T07:23:39.000",
    "request_status": "Closed",
    "responsible_agency": "Department of Sanitation",
    "final_address": "6125 Pines Blvd",
    "address_councildis": "D",
    "status": "Duplicate Request",
    "contractor": "Waste Pro",
    "rowid": "981923",
    "final_x": "3696572.62506",
    "final_y": "556310.77513",
    "longitude": "-90.01957914226281",
    "latitude": "30.02319500647701",
    "geocoded_column": {
      "latitude": "30.02319500647701",
      "longitude": "-90.01957914226281"
    }
  },
  {
    "service_request": "2023-981922",
    "request_type": "Abandoned Vehicles",
    "request_reason": "Abandoned/Junk Vehicles",
    "date_created": "2023-03-10T12:24:49.000",
    "date_modified": "2023-03-10T12:24:50.000",
    "request_status": "Pending",
    "responsible_agency": "Department of Public Works",
    "final_address": "1141 Decatur St",
    "address_councildis": "C",
    "status": "Pending",
    "rowid": "981922",
    "final_x": "3684218.80828",
    "final_y": "533442.343172",
    "longitude": "-90.05941783179756",
    "latitude": "29.960698638839144",
    "geocoded_column": {
      "latitude": "29.960698638839144",
      "longitude": "-90.05941783179756"
    }
  },
  {
    "service_request": "2023-981921",
    "request_type": "Trash/Recycling",
    "request_reason": "Missed Trash Pick-Up",
    "date_created": "2023-03-10T12:24:04.000",
    "date_modified": "2023-03-10T12:24:04.000",
    "request_status": "Pending",
    "responsible_agency": "Department of Sanitation",
    "final_address": "3128 Peoples Ave",
    "address_councildis": "D",
    "status": "Assigned to Contractor",
    "contractor": "IV Waste",
    "rowid": "981921",
    "final_x": "3688617.62998",
    "final_y": "544575.873551",
    "longitude": "-90.0451319982629",
    "latitude": "29.991176710977808",
    "geocoded_column": {
      "latitude": "29.991176710977808",
      "longitude": "-90.0451319982629"
    }
  },