[
  {
    "service_request": "2023-1044379",
    "request_type": "Roads/Drainage",
    "request_reason": "Man hole cover issue",
    "date_created": "2023-10-19T01:06:13.000",
    "date_modified": "2023-10-19T01:06:13.000",
    "request_status": "Pending",
    "responsible_agency": "Department of Public Works",
    "final_address": "2706 Royal St",
    "address_councildis": "C",
    "status": "Pending",
    "rowid": "1044379",
    "final_x": "3687075.74146",
    "final_y": "534855.504262",
    "longitude": "-90.05034625095882",
    "latitude": "29.964496696495686",
    "geocoded_column": {
      "latitude": "29.964496696495686",
      "longitude": "-90.05034625095882"
    }
  },
  {
    "service_request": "2023-1044378",
    "request_type": "Traffic Signals/Signs/Striping/Streetlights",
    "request_reason": "Traffic Sign Missing/Damaged",
    "date_created": "2023-10-19T01:04:07.000",
    "date_modified": "2023-10-19T01:04:07.000",
    "request_status": "Pending",
    "responsible_agency": "Department of Public Works",
    "final_address": "2130 N Claiborne Ave",
    "address_councildis": "C",
    "status": "Pending",
    "rowid": "1044378",
    "final_x": "3684695.95586",
    "final_y": "537899.888777",
    "longitude": "-90.05775439735862",
    "latitude": "29.972940751190137",
    "geocoded_column": {
      "latitude": "29.972940751190137",
      "longitude": "-90.05775439735862"
    }
  },
  {
    "service_request": "2023-1044377",
    "request_type": "Health Related Request",
    "request_reason": "Noise Ordinance Complaint",
    "date_created": "2023-10-19T00:38:55.000",
    "date_modified": "2023-10-19T00:38:55.000",
    "request_status": "Pending",
    "responsible_agency": "Health Department",
    "final_address": "4801 Bienville Ave",
    "address_councildis": "A",
    "status": "Pending",
    "rowid": "1044377",
    "final_x": "3669301.71156",
    "final_y": "540770.138955",
    "longitude": "-90.1062754478953",
    "latitude": "29.981295206071636",
    "geocoded_column": {
      "latitude": "29.981295206071636",
      "longitude": "-90.1062754478953"
    }
  },
  {
    "service_request": "2023-1044376",
    "request_type": "Traffic Signals/Signs/Striping/Streetlights",
    "request_reason": "Street Light Outage/Malfunction",
    "date_created": "2023-10-18T22:32:18.000",
    "date_modified": "2023-10-18T22:32:18.000",
    "request_status": "Pending",
    "responsible_agency": "Department of Public Works",
    "final_address": "307 S Olympia St",
    "address_councildis": "A",
    "status": "Assigned to Contractor",
    "contractor": "Legacy Professional Services",
    "rowid": "1044376",
    "final_x": "3668829.3099",
    "final_y": "538940.521994",
    "longitude": "-90.10782931795029",
    "latitude": "29.976278279126632",
    "geocoded_column": {
      "latitude": "29.976278279126632",
      "longitude": "-90.10782931795029"
    }
  },
  {
    "service_request": "2023-1044375",
    "request_type": "Traffic Signals/Signs/Striping/Streetlights",
    "request_reason": "Traffic Sign Missing/Damaged",
    "date_created": "2023-10-18T21:30:20.000",
    "date_modified": "2023-10-18T21:30:20.000",
    "request_status": "Pending",
    "responsible_agency": "Department of Public Works",
    "final_address": "1326 Foucher St",
    "address_councildis": "B",
    "status": "Pending",
    "rowid": "1044375",
    "final_x": "3673706.26081",
    "final_y": "520191.603384",
    "longitude": "-90.09306737320914",
    "latitude": "29.924580630445455",
    "geocoded_column": {
      "latitude": "29.924580630445455",
      "longitude": "-90.09306737320914"
    }
  },
  {
    "service_request": "2023-1044374",
    "request_type": "Roads/Drainage",
    "request_reason": "Pothole",
    "date_created": "2023-10-18T21:21:45.000",
    "date_modified": "2023-10-18T21:21:45.000",
    "request_status": "Pending",
    "responsible_agency": "Department of Public Works",
    "final_address": "1217 Foucher St",
    "address_councildis": "B",
    "status": "Pending",
    "rowid": "1044374",
    "final_x": "3674050.86318",
    "final_y": "519817.288376",
    "longitude": "-90.09199237897313",
    "latitude": "29.923541123641915",
    "geocoded_column": {
      "latitude": "29.923541123641915",
      "longitude": "-90.09199237897313"
    }
  },
  {
    "service_request": "2023-1044371",
    "request_type": "Mosquito, Termite & Rodent Control",
    "request_reason": "Mosquito Complaint",
    "date_created": "2023-10-18T20:24:47.000",
    "date_modified": "2023-10-18T20:24:47.000",
    "request_status": "Pending",
    "responsible_agency": "Mosquito, Termite & Rodent Control Board",
    "final_address": "5855 W Louis Prima Dr",
    "address_councildis": "E",
    "status": "Pending",
    "rowid": "1044371",
    "final_x": "3715371.92594",
    "final_y": "562939.381024",
    "longitude": "-89.95992705612096",
    "latitude": "30.040814960685704",
    "geocoded_column": {
      "latitude": "30.040814960685704",
      "longitude": "-89.95992705612096"
    }
  },
  {
    "service_request": "2023-1044370",
    "request_type": "Trash/Recycling",
    "request_reason": "Request a Large Item Pick Up",
    "date_created": "2023-10-18T20:21:53.000",
    "date_modified": "2023-10-18T20:21:54.000",
    "request_status": "Pending",
    "responsible_agency": "Department of Sanitation",
    "final_address": "1900 Evergreen Ave",
    "address_councildis": "C",
    "status": "Assigned to Contractor",
    "contractor": "Richards Disposal",
    "rowid": "1044370",
    "final_x": "3688207.71107",
    "final_y": "524922.722748",
    "longitude": "-90.04712368087218",
    "latitude": "29.937150054821476",
    "geocoded_column": {
      "latitude": "29.937150054821476",
      "longitude": "-90.04712368087218"
    }
  },
  {
    "service_request": "2023-1044369",
    "request_type": "Traffic Signals/Signs/Striping/Streetlights",
    "request_reason": "Street Light Outage/Malfunction",
    "date_created": "2023-10-18T20:15:45.000",
    "date_modified": "2023-10-18T20:15:46.000",
    "request_status": "Pending",
    "responsible_agency": "Department of Public Works",
    "final_address": "330 Newton St",
    "address_councildis": "C",
    "status": "Assigned to Contractor",
    "contractor": "Legacy Professional Services",
    "rowid": "1044369",
    "final_x": "3686453.95266",
    "final_y": "527970.608319",
    "longitude": "-90.05255283301311",
    "latitude": "29.94558472359371",
    "geocoded_column": {
      "latitude": "29.94558472359371",
      "longitude": "-90.05255283301311"
    }
  },
  {
    "service_request": "2023-1044368",
    "request_type": "Traffic Signals/Signs/Striping/Streetlights",
    "request_reason": "Street Light Outage/Malfunction",
    "date_created": "2023-10-18T20:14:42.000",
    "date_modified": "2023-10-18T20:14:42.000",
    "request_status": "Pending",
    "responsible_agency": "Department of Public Works",
    "final_address": "328 Newton St",
    "address_councildis": "C",
    "status": "Assigned to Contractor",
    "contractor": "Legacy Professional Services",
    "rowid": "1044368",
    "final_x": "3686445.65462",
    "final_y": "527969.883839",
    "longitude": "-90.0525790581429",
    "latitude": "29.945582986555575",
    "geocoded_column": {
      "latitude": "29.945582986555575",
      "longitude": "-90.0525790581429"
    }
  },
  {
    "service_request": "2023-1044367",
    "request_type": "Traffic Signals/Signs/Striping/Streetlights",
    "request_reason": "Street Light Outage/Malfunction",
    "date_created": "2023-10-18T20:13:25.000",
    "date_modified": "2023-10-18T20:13:25.000",
    "request_status": "Pending",
    "responsible_agency": "Department of Public Works",
    "final_address": "330 Newton St",
    "address_councildis": "C",
    "status": "Assigned to Contractor",
    "contractor": "Legacy Professional Services",
    "rowid": "1044367",
    "final_x": "3686453.95266",
    "final_y": "527970.608319",
    "longitude": "-90.05255283301311",
    "latitude": "29.94558472359371",
    "geocoded_column": {
      "latitude": "29.94558472359371",
      "longitude": "-90.05255283301311"
    }
  },
  {
    "service_request": "2023-1044366",
    "request_type": "Trash/Recycling",
    "request_reason": "Missed Trash Pick-Up",
    "date_created": "2023-10-18T20:05:55.000",
    "date_modified": "2023-10-18T20:05:56.000",
    "request_status": "Pending",
    "responsible_agency": "Department of Sanitation",
    "final_address": "7828 Lady Gray St",
    "address_councildis": "E",
    "status": "Assigned to Contractor",
    "contractor": "Waste Pro",
    "rowid": "1044366",
    "final_x": "3709398.87749",
    "final_y": "566133.504611",
    "longitude": "-89.97868441123539",
    "latitude": "30.049793019961196",
    "geocoded_column": {
      "latitude": "30.049793019961196",
      "longitude": "-89.97868441123539"
    }
  },
  {
    "service_request": "2023-1044365",
    "request_type": "Trash/Recycling",
    "request_reason": "Missed Trash Pick-Up",
    "date_created": "2023-10-18T19:38:15.000",
    "date_modified": "2023-10-18T19:38:16.000",
    "request_status": "Pending",
    "responsible_agency": "Department of Sanitation",
    "final_address": "4256 Vendome Pl",
    "address_councildis": "B",
    "status": "Assigned to Contractor",
    "contractor": "Richards Disposal",
    "rowid": "1044365",
    "final_x": "3669057.08378",
    "final_y": "531486.060611",
    "longitude": "-90.1073618367837",
    "latitude": "29.955774291700784",
    "geocoded_column": {
      "latitude": "29.955774291700784",
      "longitude": "-90.1073618367837"
    }
  },
  {
    "service_request": "2023-1044364",
    "request_type": "Abandoned Vehicles",
    "request_reason": "Abandoned/Junk Vehicles",
    "date_created": "2023-10-18T19:12:47.000",
    "date_modified": "2023-10-18T19:12:47.000",
    "request_status": "Pending",
    "responsible_agency": "Department of Public Works",
    "final_address": "8215 Spruce St",
    "address_councildis": "A",
    "status": "Pending",
    "rowid": "1044364",
    "final_x": "3663518.89274",
    "final_y": "530811.88909",
    "longitude": "-90.12487203148662",
    "latitude": "29.954082307670184",
    "geocoded_column": {
      "latitude": "29.954082307670184",
      "longitude": "-90.12487203148662"
    }
  },
  {
    "service_request": "2023-1044363",
    "request_type": "Trash/Recycling",
    "request_reason": "Missed Trash Pick-Up",
    "date_created": "2023-10-18T19:01:51.000",
    "date_modified": "2023-10-18T19:01:52.000",
    "request_status": "Pending",
    "responsible_agency": "Department of Sanitation",
    "final_address": "4114 Willow St",
    "address_councildis": "B",
    "status": "Assigned to Contractor",
    "contractor": "Richards Disposal",
    "rowid": "1044363",
    "final_x": "3671445.98523",
    "final_y": "525499.442557",
    "longitude": "-90.1000219746371",
    "latitude": "29.93924255746779",
    "geocoded_column": {
      "latitude": "29.93924255746779",
      "longitude": "-90.1000219746371"
    }
  },
  {
    "service_request": "2023-1044361",
    "request_type": "Trash/Recycling",
    "request_reason": "Replace Trash Cart",
    "date_created": "2023-10-18T18:59:43.000",
    "date_modified": "2023-10-18T18:59:44.000",
    "request_status": "Pending",
    "responsible_agency": "Department of Sanitation",
    "final_address": "3620 Clermont Dr, New Orleans, Louisiana, 70122",
    "address_councildis": "D",
    "status": "Assigned to Contractor",
    "contractor": "IV Waste",
    "rowid": "1044361",
    "final_x": "3685766.77474",
    "final_y": "545758.830608",
    "longitude": "-90.0540954571272",
    "latitude": "29.99451723937093",
    "geocoded_column": {
      "latitude": "29.99451723937093",
      "longitude": "-90.0540954571272"
    }
  },
  {
    "service_request": "2023-1044360",
    "request_type": "Trash/Recycling",
    "request_reason": "Missed Trash Pick-Up",
    "date_created": "2023-10-18T18:58:20.000",
    "date_modified": "2023-10-18T18:58:20.000",
    "request_status": "Pending",
    "responsible_agency": "Department of Sanitation",
    "final_address": "3620 Clermont Dr, New Orleans, Louisiana, 70122",
    "address_councildis": "D",
    "status": "Assigned to Contractor",
    "contractor": "IV Waste",
    "rowid": "1044360",
    "final_x": "3685766.77474",
    "final_y": "545758.830608",
    "longitude": "-90.0540954571272",
    "latitude": "29.99451723937093",
    "geocoded_column": {
      "latitude": "29.99451723937093",
      "longitude": "-90.0540954571272"
    }
  },
  {
    "service_request": "2023-1044359",
    "request_type": "Traffic Signals/Signs/Striping/Streetlights",
    "request_reason": "Street Light Outage/Malfunction",
    "date_created": "2023-10-18T18:47:29.000",
    "date_modified": "2023-10-18T18:47:29.000",
    "request_status": "Pending",
    "responsible_agency": "Department of Public Works",
    "final_address": "5939 Law St, New Orleans, Louisiana, 70117",
    "address_councildis": "E",
    "status": "Assigned to Contractor",
    "contractor": "Legacy Professional Services",
    "rowid": "1044359",
    "final_x": "3701207.99818",
    "final_y": "538883.392649",
    "longitude": "-90.00557056064444",
    "latitude": "29.975129267389658",
    "geocoded_column": {
      "latitude": "29.975129267389658",
      "longitude": "-90.00557056064444"
    }
  },
  {
    "service_request": "2023-1044358",
    "request_type": "Traffic Signals/Signs/Striping/Streetlights",
    "request_reason": "Street Light Outage/Malfunction",
    "date_created": "2023-10-18T18:46:07.000",
    "date_modified": "2023-10-18T18:46:07.000",
    "request_status": "Pending",
    "responsible_agency": "Department of Public Works",
    "final_address": "2606 Gordon St, New Orleans, Louisiana, 70117",
    "address_councildis": "E",
    "status": "Assigned to Contractor",
    "contractor": "Legacy Professional Services",
    "rowid": "1044358",
    "final_x": "3701309.80452",
    "final_y": "538869.135625",
    "longitude": "-90.00524955372448",
    "latitude": "29.975086821609285",
    "geocoded_column": {
      "latitude": "29.975086821609285",
      "longitude": "-90.00524955372448"
    }
  },
  {
    "service_request": "2023-1044357",
    "request_type": "Trash/Recycling",
    "request_reason": "Missed Trash Pick-Up",
    "date_created": "2023-10-18T18:30:51.000",
    "date_modified": "2023-10-18T18:30:52.000",
    "request_status": "Pending",
    "responsible_agency": "Department of Sanitation",
    "final_address": "3620 Clermont Dr",
    "address_councildis": "D",
    "status": "Assigned to Contractor",
    "contractor": "IV Waste",
    "rowid": "1044357",
    "final_x": "3685766.77474",
    "final_y": "545758.830608",
    "longitude": "-90.0540954571272",
    "latitude": "29.99451723937093",
    "geocoded_column": {
      "latitude": "29.99451723937093",
      "longitude": "-90.0540954571272"
    }
  },
  {
    "service_request": "2023-1044356",
    "request_type": "Trash/Recycling",
    "request_reason": "Missed Trash Pick-Up",
    "date_created": "2023-10-18T18:28:29.000",
    "date_modified": "2023-10-18T18:28:29.000",
    "request_status": "Pending",
    "responsible_agency": "Department of Sanitation",
    "final_address": "3028 Fern St",
    "address_councildis": "B",
    "status": "Assigned to Contractor",
    "contractor": "Richards Disposal",
    "rowid": "1044356",
    "final_x": "3666987.79085",
    "final_y": "532853.675524",
    "longitude": "-90.11385000072318",
    "latitude": "29.959595499568675",
    "geocoded_column": {
      "latitude": "29.959595499568675",
      "longitude": "-90.11385000072318"
    }
  },
  {
    "service_request": "2023-1044355",
    "request_type": "Trash/Recycling",
    "request_reason": "Order Recycling Cart",
    "date_created": "2023-10-18T18:07:22.000",
    "date_modified": "2023-10-18T18:07:22.000",
    "request_status": "Pending",
    "responsible_agency": "Department of Sanitation",
    "final_address": "1230 Mandeville St",
    "address_councildis": "C",
    "status": "Pending",
    "rowid": "1044355",
    "final_x": "3685696.1341",
    "final_y": "536973.42708",
    "longitude": "-90.05462830086975",
    "latitude": "29.97036265155399",
    "geocoded_column": {
      "latitude": "29.97036265155399",
      "longitude": "-90.05462830086975"
    }
  },
  {
    "service_request": "2023-1044354",
    "request_type": "Trash/Recycling",
    "request_reason": "Missed Trash Pick-Up",
    "date_created": "2023-10-18T17:54:43.000",
    "date_modified": "2023-10-18T17:54:43.000",
    "request_status": "Pending",
    "responsible_agency": "Department of Sanitation",
    "final_address": "7900 Lafourche St",
    "address_councildis": "E",
    "status": "Assigned to Contractor",
    "contractor": "Waste Pro",
    "rowid": "1044354",
    "final_x": "3709624.07614",
    "final_y": "566390.268195",
    "longitude": "-89.9779630499595",
    "latitude": "30.050491693792274",
    "geocoded_column": {
      "latitude": "30.050491693792274",
      "longitude": "-89.9779630499595"
    }
  },
  {
    "service_request": "2023-1044353",
    "request_type": "Trash/Recycling",
    "request_reason": "Repair Trash Cart",
    "date_created": "2023-10-18T17:49:06.000",
    "date_modified": "2023-10-18T17:49:06.000",
    "request_status": "Pending",
    "responsible_agency": "Department of Sanitation",
    "final_address": "816 Joseph St",
    "address_councildis": "A",
    "status": "Assigned to Contractor",
    "contractor": "Richards Disposal",
    "rowid": "1044353",
    "final_x": "3666125.31968",
    "final_y": "519100.846711",
    "longitude": "-90.11703448425271",
    "latitude": "29.921804845255107",
    "geocoded_column": {
      "latitude": "29.921804845255107",
      "longitude": "-90.11703448425271"
    }
  },
  {
    "service_request": "2023-1044352",
    "request_type": "Trash/Recycling",
    "request_reason": "MIssed Recycling Pick-Up",
    "date_created": "2023-10-18T17:30:56.000",
    "date_modified": "2023-10-18T17:30:57.000",
    "request_status": "Pending",
    "responsible_agency": "Department of Sanitation",
    "final_address": "3221 Prytania St",
    "address_councildis": "B",
    "status": "Assigned to Contractor",
    "contractor": "Richards Disposal",
    "rowid": "1044352",
    "final_x": "3674906.41262",
    "final_y": "521341.856761",
    "longitude": "-90.08923947158844",
    "latitude": "29.927707681726567",
    "geocoded_column": {
      "latitude": "29.927707681726567",
      "longitude": "-90.08923947158844"
    }
  },
  {
    "service_request": "2023-1044351",
    "request_type": "Property Maintenance",
    "request_reason": "Property Maintenance",
    "date_created": "2023-10-18T17:27:53.000",
    "date_modified": "2023-10-18T17:27:53.000",
    "request_status": "Pending",
    "responsible_agency": "Department of Code Enforcement",
    "final_address": "4443 Wilson Ave",
    "address_councildis": "E",
    "status": "Pending",
    "rowid": "1044351",
    "final_x": "3703234.64132",
    "final_y": "553145.246167",
    "longitude": "-89.99864527971475",
    "latitude": "30.01427930928578",
    "geocoded_column": {
      "latitude": "30.01427930928578",
      "longitude": "-89.99864527971475"
    }
  },
  {
    "service_request": "2023-1044350",
    "request_type": "Trash/Recycling",
    "request_reason": "MIssed Recycling Pick-Up",
    "date_created": "2023-10-18T17:11:58.000",
    "date_modified": "2023-10-18T17:11:58.000",
    "request_status": "Pending",
    "responsible_agency": "Department of Sanitation",
    "final_address": "6038 St Roch Ave",
    "address_councildis": "D",
    "status": "Assigned to Contractor",
    "contractor": "IV Waste",
    "rowid": "1044350",
    "final_x": "3684849.52105",
    "final_y": "555387.567513",
    "longitude": "-90.05665405152598",
    "latitude": "30.02102089510698",
    "geocoded_column": {
      "latitude": "30.02102089510698",
      "longitude": "-90.05665405152598"
    }
  },
  {
    "service_request": "2023-1044349",
    "request_type": "Roads/Drainage",
    "request_reason": "Pothole",
    "date_created": "2023-10-18T17:01:17.000",
    "date_modified": "2023-10-18T17:01:17.000",
    "request_status": "Pending",
    "responsible_agency": "Department of Public Works",
    "final_address": "2816 S Prieur St",
    "address_councildis": "B",
    "status": "Pending",
    "rowid": "1044349",
    "final_x": "3672463.65953",
    "final_y": "527438.416959",
    "longitude": "-90.09674297829187",
    "latitude": "29.944543945999346",
    "geocoded_column": {
      "latitude": "29.944543945999346",
      "longitude": "-90.09674297829187"
    }
  },
  {
    "service_request": "2023-1044348",
    "request_type": "Trash/Recycling",
    "request_reason": "Request a Large Item Pick Up",
    "date_created": "2023-10-18T16:48:30.000",
    "date_modified": "2023-10-18T16:48:31.000",
    "request_status": "Pending",
    "responsible_agency": "Department of Sanitation",
    "final_address": "2666 Lavender St",
    "address_councildis": "D",
    "status": "Assigned to Contractor",
    "contractor": "IV Waste",
    "rowid": "1044348",
    "final_x": "3687620.9455",
    "final_y": "546890.271505",
    "longitude": "-90.04819829281874",
    "latitude": "29.99757124517534",
    "geocoded_column": {
      "latitude": "29.99757124517534",
      "longitude": "-90.04819829281874"
    }
  },
  {
    "service_request": "2023-1044347",
    "request_type": "Trash/Recycling",
    "request_reason": "Request a Large Item Pick Up",
    "date_created": "2023-10-18T16:45:48.000",
    "date_modified": "2023-10-18T16:45:49.000",
    "request_status": "Pending",
    "responsible_agency": "Department of Sanitation",
    "final_address": "1323 S Saratoga St",
    "address_councildis": "B",
    "status": "Assigned to Contractor",
    "contractor": "Richards Disposal",
    "rowid": "1044347",
    "final_x": "3677743.70971",
    "final_y": "526947.768702",
    "longitude": "-90.08008924643723",
    "latitude": "29.943037087478693",
    "geocoded_column": {
      "latitude": "29.943037087478693",
      "longitude": "-90.08008924643723"
    }
  },
  {
    "service_request": "2023-1044346",
    "request_type": "Trash/Recycling",
    "request_reason": "MIssed Recycling Pick-Up",
    "date_created": "2023-10-18T16:44:01.000",
    "date_modified": "2023-10-18T16:44:02.000",
    "request_status": "Pending",
    "responsible_agency": "Department of Sanitation",
    "final_address": "1012 Toledano St",
    "address_councildis": "B",
    "status": "Assigned to Contractor",
    "contractor": "Richards Disposal",
    "rowid": "1044346",
    "final_x": "3675473.17486",
    "final_y": "519543.143351",
    "longitude": "-90.08751207224745",
    "latitude": "29.92274486799866",
    "geocoded_column": {
      "latitude": "29.92274486799866",
      "longitude": "-90.08751207224745"
    }
  },
  {
    "service_request": "2023-1044345",
    "request_type": "Parks & Parkways",
    "request_reason": "Request Tree Service (Right of Way/Public Property)",
    "date_created": "2023-10-18T16:39:14.000",
    "date_modified": "2023-10-18T16:39:15.000",
    "request_status": "Pending",
    "responsible_agency": "Department of Parks & Parkway",
    "final_address": "2427 Burgundy St",
    "address_councildis": "C",
    "status": "Pending",
    "rowid": "1044345",
    "final_x": "3686061.69993",
    "final_y": "535694.109639",
    "longitude": "-90.0535189321767",
    "latitude": "29.96683375140224",
    "geocoded_column": {
      "latitude": "29.96683375140224",
      "longitude": "-90.0535189321767"
    }
  },
  {
    "service_request": "2023-1044344",
    "request_type": "Parks & Parkways",
    "request_reason": "Request Tree Service (Right of Way/Public Property)",
    "date_created": "2023-10-18T16:36:57.000",
    "date_modified": "2023-10-18T16:39:26.000",
    "request_status": "Pending",
    "responsible_agency": "Department of Parks & Parkway",
    "final_address": "1626 Mirabeau Ave",
    "address_councildis": "D",
    "status": "Pending",
    "rowid": "1044344",
    "final_x": "3680459.54088",
    "final_y": "550298.824404",
    "longitude": "-90.07070230914321",
    "latitude": "30.00716245544575",
    "geocoded_column": {
      "latitude": "30.00716245544575",
      "longitude": "-90.07070230914321"
    }
  },
  {
    "service_request": "2023-1044343",
    "request_type": "Trash/Recycling",
    "request_reason": "Missed Trash Pick-Up",
    "date_created": "2023-10-18T16:35:21.000",
    "date_modified": "2023-10-18T16:35:21.000",
    "request_status": "Pending",
    "responsible_agency": "Department of Sanitation",
    "final_address": "3028 Fern St",
    "address_councildis": "B",
    "status": "Assigned to Contractor",
    "contractor": "Richards Disposal",
    "rowid": "1044343",
    "final_x": "3666987.79085",
    "final_y": "532853.675524",
    "longitude": "-90.11385000072318",
    "latitude": "29.959595499568675",
    "geocoded_column": {
      "latitude": "29.959595499568675",
      "longitude": "-90.11385000072318"
    }
  },
  {
    "service_request": "2023-1044342",
    "request_type": "Roads/Drainage",
    "request_reason": "Pothole",
    "date_created": "2023-10-18T16:33:07.000",
    "date_modified": "2023-10-18T16:33:07.000",
    "request_status": "Pending",
    "responsible_agency": "Department of Public Works",
    "final_address": "2700 BLK Nashville Ave",
    "address_councildis": "A",
    "status": "Pending",
    "rowid": "1044342",
    "final_x": "3667464.82547",
    "final_y": "526195.465113",
    "longitude": "-90.11256762926904",
    "latitude": "29.941273620522164",
    "geocoded_column": {
      "latitude": "29.941273620522164",
      "longitude": "-90.11256762926904"
    }
  },
  {
    "service_request": "2023-1044341",
    "request_type": "Trash/Recycling",
    "request_reason": "Replace Recycling Cart",
    "date_created": "2023-10-18T16:30:32.000",
    "date_modified": "2023-10-18T16:30:32.000",
    "request_status": "Pending",
    "responsible_agency": "Department of Sanitation",
    "final_address": "4239 Dreux Ave",
    "address_councildis": "D",
    "status": "Pending",
    "rowid": "1044341",
    "final_x": "3689630.27791",
    "final_y": "552786.140182",
    "longitude": "-90.04164093297692",
    "latitude": "30.013720605836998",
    "geocoded_column": {
      "latitude": "30.013720605836998",
      "longitude": "-90.04164093297692"
    }
  },
  {
    "service_request": "2023-1044340",
    "request_type": "Trash/Recycling",
    "request_reason": "Illegal Dumping",
    "date_created": "2023-10-18T16:27:39.000",
    "date_modified": "2023-10-18T16:47:15.000",
    "request_status": "Pending",
    "responsible_agency": "Department of Sanitation",
    "final_address": "CHARBONNET ST & N CLAIBORNE AVE",
    "address_councildis": "E",
    "rowid": "1044340",
    "final_x": "3699123.5",
    "final_y": "535466.28",
    "longitude": "-90.01227833360534",
    "latitude": "29.965799689497423",
    "geocoded_column": {
      "latitude": "29.965799689497423",
      "longitude": "-90.01227833360534"
    }
  },
  {
    "service_request": "2023-1044339",
    "request_type": "Abandoned Vehicles",
    "request_reason": "Abandoned/Junk Vehicles",
    "date_created": "2023-10-18T16:26:54.000",
    "date_modified": "2023-10-18T16:26:55.000",
    "request_status": "Pending",
    "responsible_agency": "Department of Public Works",
    "final_address": "5235 Conti St",
    "address_councildis": "A",
    "status": "Pending",
    "rowid": "1044339",
    "final_x": "3668392.2594",
    "final_y": "541900.457804",
    "longitude": "-90.10910977936187",
    "latitude": "29.984429947564998",
    "geocoded_column": {
      "latitude": "29.984429947564998",
      "longitude": "-90.10910977936187"
    }
  },
  {
    "service_request": "2023-1044338",
    "request_type": "Trash/Recycling",
    "request_reason": "Repair Trash Cart",
    "date_created": "2023-10-18T16:26:02.000",
    "date_modified": "2023-10-18T16:26:02.000",
    "request_status": "Pending",
    "responsible_agency": "Department of Sanitation",
    "final_address": "2220 Valentine Ct",
    "address_councildis": "C",
    "status": "Assigned to Contractor",
    "contractor": "Richards Disposal",
    "rowid": "1044338",
    "final_x": "3699582.5985",
    "final_y": "522915.097147",
    "longitude": "-90.01128583884893",
    "latitude": "29.93127379204318",
    "geocoded_column": {
      "latitude": "29.93127379204318",
      "longitude": "-90.01128583884893"
    }
  },
  {
    "service_request": "2023-1044337",
    "request_type": "Trash/Recycling",
    "request_reason": "Return Trash Cart",
    "date_created": "2023-10-18T16:21:28.000",
    "date_modified": "2023-10-18T16:21:28.000",
    "request_status": "Pending",
    "responsible_agency": "Department of Sanitation",
    "final_address": "1621 Bordeaux St, New Orleans, Louisiana, 70115",
    "address_councildis": "B",
    "status": "Assigned to Contractor",
    "contractor": "Richards Disposal",
    "rowid": "1044337",
    "final_x": "3669403.42964",
    "final_y": "520900.215225",
    "longitude": "-90.10662604955981",
    "latitude": "29.92665645023131",
    "geocoded_column": {
      "latitude": "29.92665645023131",
      "longitude": "-90.10662604955981"
    }
  },
  {
    "service_request": "2023-1044336",
    "request_type": "Trash/Recycling",
    "request_reason": "MIssed Recycling Pick-Up",
    "date_created": "2023-10-18T16:15:26.000",
    "date_modified": "2023-10-18T16:15:26.000",
    "request_status": "Pending",
    "responsible_agency": "Department of Sanitation",
    "final_address": "4826 Gabriel Dr",
    "address_councildis": "E",
    "status": "Assigned to Contractor",
    "contractor": "Waste Pro",
    "rowid": "1044336",
    "final_x": "3708773.30968",
    "final_y": "556264.952154",
    "longitude": "-89.98102968717605",
    "latitude": "30.022678733318873",
    "geocoded_column": {
      "latitude": "30.022678733318873",
      "longitude": "-89.98102968717605"
    }
  },
  {
    "service_request": "2023-1044335",
    "request_type": "Abandoned Vehicles",
    "request_reason": "Abandoned/Junk Vehicles",
    "date_created": "2023-10-18T16:15:03.000",
    "date_modified": "2023-10-18T16:15:04.000",
    "request_status": "Pending",
    "responsible_agency": "Department of Public Works",
    "final_address": "3836 Virgil Blvd",
    "address_councildis": "D",
    "status": "Pending",
    "rowid": "1044335",
    "final_x": "3680443.35611",
    "final_y": "546606.290449",
    "longitude": "-90.07088197066898",
    "latitude": "29.99700979556607",
    "geocoded_column": {
      "latitude": "29.99700979556607",
      "longitude": "-90.07088197066898"
    }
  },
  {
    "service_request": "2023-1044334",
    "request_type": "Property Maintenance",
    "request_reason": "Property Maintenance",
    "date_created": "2023-10-18T16:11:58.000",
    "date_modified": "2023-10-18T16:11:58.000",
    "request_status": "Pending",
    "responsible_agency": "Department of Code Enforcement",
    "final_address": "2501 Somerset Dr",
    "address_councildis": "C",
    "status": "Pending",
    "rowid": "1044334",
    "final_x": "3702831.7505",
    "final_y": "521853.99161",
    "longitude": "-90.00106769948526",
    "latitude": "29.92825264137434",
    "geocoded_column": {
      "latitude": "29.92825264137434",
      "longitude": "-90.00106769948526"
    }
  },
  {
    "service_request": "2023-1044333",
    "request_type": "Property Maintenance",
    "request_reason": "Property Maintenance",
    "date_created": "2023-10-18T16:09:18.000",
    "date_modified": "2023-10-18T16:09:18.000",
    "request_status": "Pending",
    "responsible_agency": "Department of Code Enforcement",
    "final_address": "2501 Somerset Dr",
    "address_councildis": "C",
    "status": "Pending",
    "rowid": "1044333",
    "final_x": "3702831.7505",
    "final_y": "521853.99161",
    "longitude": "-90.00106769948526",
    "latitude": "29.92825264137434",
    "geocoded_column": {
      "latitude": "29.92825264137434",
      "longitude": "-90.00106769948526"
    }
  },
  {
    "service_request": "2023-1044332",
    "request_type": "Trash/Recycling",
    "request_reason": "MIssed Recycling Pick-Up",
    "date_created": "2023-10-18T16:04:12.000",
    "date_modified": "2023-10-18T16:04:13.000",
    "request_status": "Pending",
    "responsible_agency": "Department of Sanitation",
    "final_address": "4735 Citrus Dr",
    "address_councildis": "E",
    "status": "Assigned to Contractor",
    "contractor": "Waste Pro",
    "rowid": "1044332",
    "final_x": "3710860.75589",
    "final_y": "555734.933081",
    "longitude": "-89.97445377013526",
    "latitude": "30.02115348433167",
    "geocoded_column": {
      "latitude": "30.02115348433167",
      "longitude": "-89.97445377013526"
    }
  },
  {
    "service_request": "2023-1044331",
    "request_type": "Trash/Recycling",
    "request_reason": "Request a Large Item Pick Up",
    "date_created": "2023-10-18T16:04:08.000",
    "date_modified": "2023-10-18T16:04:09.000",
    "request_status": "Pending",
    "responsible_agency": "Department of Sanitation",
    "final_address": "5413 Burgundy St",
    "address_councildis": "E",
    "status": "Assigned to Contractor",
    "contractor": "Waste Pro",
    "rowid": "1044331",
    "final_x": "3697069.76682",
    "final_y": "533200.837316",
    "longitude": "-90.0188459887216",
    "latitude": "29.95963547257295",
    "geocoded_column": {
      "latitude": "29.95963547257295",
      "longitude": "-90.0188459887216"
    }
  },
  {
    "service_request": "2023-1044330",
    "request_type": "Trash/Recycling",
    "request_reason": "Request a Large Item Pick Up",
    "date_created": "2023-10-18T16:03:45.000",
    "date_modified": "2023-10-18T16:03:46.000",
    "request_status": "Pending",
    "responsible_agency": "Department of Sanitation",
    "final_address": "1621 Urquhart St",
    "address_councildis": "C",
    "status": "Assigned to Contractor",
    "contractor": "IV Waste",
    "rowid": "1044330",
    "final_x": "3682891.80309",
    "final_y": "536904.25556",
    "longitude": "-90.06348709874743",
    "latitude": "29.970258206393797",
    "geocoded_column": {
      "latitude": "29.970258206393797",
      "longitude": "-90.06348709874743"
    }
  },
  {
    "service_request": "2023-1044328",
    "request_type": "Trash/Recycling",
    "request_reason": "Request a Large Item Pick Up",
    "date_created": "2023-10-18T15:46:48.000",
    "date_modified": "2023-10-18T15:46:49.000",
    "request_status": "Pending",
    "responsible_agency": "Department of Sanitation",
    "final_address": "5306 Wildair Dr",
    "address_councildis": "D",
    "status": "Assigned to Contractor",
    "contractor": "IV Waste",
    "rowid": "1044328",
    "final_x": "3681607.8182",
    "final_y": "552291.980694",
    "longitude": "-90.0670049966972",
    "latitude": "30.012608073564852",
    "geocoded_column": {
      "latitude": "30.012608073564852",
      "longitude": "-90.0670049966972"
    }
  },
  {
    "service_request": "2023-1044327",
    "request_type": "Trash/Recycling",
    "request_reason": "Missed Trash Pick-Up",
    "date_created": "2023-10-18T15:43:19.000",
    "date_modified": "2023-10-18T15:43:20.000",
    "request_status": "Pending",
    "responsible_agency": "Department of Sanitation",
    "final_address": "10920 Wales St",
    "address_councildis": "E",
    "status": "Assigned to Contractor",
    "contractor": "Waste Pro",
    "rowid": "1044327",
    "final_x": "3709901.36549",
    "final_y": "566452.964259",
    "longitude": "-89.97708429877027",
    "latitude": "30.050655061133057",
    "geocoded_column": {
      "latitude": "30.050655061133057",
      "longitude": "-89.97708429877027"
    }
  },
  {
    "service_request": "2023-1044326",
    "request_type": "Roads/Drainage",
    "request_reason": "Pothole",
    "date_created": "2023-10-18T15:40:18.000",
    "date_modified": "2023-10-18T15:40:18.000",
    "request_status": "Pending",
    "responsible_agency": "Department of Public Works",
    "final_address": "TOURO ST & ABUNDANCE ST",
    "address_councildis": "D",
    "status": "Pending",
    "rowid": "1044326",
    "final_x": "3683637.4",
    "final_y": "543614.68",
    "longitude": "-90.06089709101865",
    "latitude": "29.988686781727555",
    "geocoded_column": {
      "latitude": "29.988686781727555",
      "longitude": "-90.06089709101865"
    }
  },
  {
    "service_request": "2023-1044325",
    "request_type": "Trash/Recycling",
    "request_reason": "MIssed Recycling Pick-Up",
    "date_created": "2023-10-18T15:39:32.000",
    "date_modified": "2023-10-18T15:39:33.000",
    "request_status": "Pending",
    "responsible_agency": "Department of Sanitation",
    "final_address": "4826 Schindler Dr",
    "address_councildis": "E",
    "status": "Assigned to Contractor",
    "contractor": "Waste Pro",
    "rowid": "1044325",
    "final_x": "3714229.39416",
    "final_y": "557034.37481",
    "longitude": "-89.9637608630563",
    "latitude": "30.024616159005927",
    "geocoded_column": {
      "latitude": "30.024616159005927",
      "longitude": "-89.9637608630563"
    }
  },
  {
    "service_request": "2023-1044324",
    "request_type": "Trash/Recycling",
    "request_reason": "Order Trash Cart",
    "date_created": "2023-10-18T15:37:07.000",
    "date_modified": "2023-10-18T15:37:07.000",
    "request_status": "Pending",
    "responsible_agency": "Department of Sanitation",
    "final_address": "3531 River Oaks Dr",
    "address_councildis": "C",
    "status": "Assigned to Contractor",
    "contractor": "Richards Disposal",
    "rowid": "1044324",
    "final_x": "3701299.34333",
    "final_y": "518011.16095",
    "longitude": "-90.00604565484174",
    "latitude": "29.917735081747708",
    "geocoded_column": {
      "latitude": "29.917735081747708",
      "longitude": "-90.00604565484174"
    }
  },
  {
    "service_request": "2023-1044322",
    "request_type": "Trash/Recycling",
    "request_reason": "Order Recycling Cart",
    "date_created": "2023-10-18T15:35:10.000",
    "date_modified": "2023-10-18T15:35:11.000",
    "request_status": "Pending",
    "responsible_agency": "Department of Sanitation",
    "final_address": "223 Bermuda St",
    "address_councildis": "C",
    "status": "Pending",
    "rowid": "1044322",
    "final_x": "3686144.59305",
    "final_y": "530904.284354",
    "longitude": "-90.05342611704216",
    "latitude": "29.953660837494727",
    "geocoded_column": {
      "latitude": "29.953660837494727",
      "longitude": "-90.05342611704216"
    }
  },
  {
    "service_request": "2023-1044321",
    "request_type": "Trash/Recycling",
    "request_reason": "Repair Trash Cart",
    "date_created": "2023-10-18T15:34:53.000",
    "date_modified": "2023-10-18T15:34:53.000",
    "request_status": "Pending",
    "responsible_agency": "Department of Sanitation",
    "final_address": "733 Wagner St",
    "address_councildis": "C",
    "status": "Assigned to Contractor",
    "contractor": "Richards Disposal",
    "rowid": "1044321",
    "final_x": "3690487.29353",
    "final_y": "528694.534016",
    "longitude": "-90.0397925008082",
    "latitude": "29.94745069063273",
    "geocoded_column": {
      "latitude": "29.94745069063273",
      "longitude": "-90.0397925008082"
    }
  },
  {
    "service_request": "2023-1044320",
    "request_type": "Roads/Drainage",
    "request_reason": "Street Flooding / Drainage",
    "date_created": "2023-10-18T15:34:39.000",
    "date_modified": "2023-10-18T15:34:39.000",
    "request_status": "Pending",
    "responsible_agency": "Department of Public Works",
    "final_address": "7814 Lady Gray St",
    "address_councildis": "E",
    "status": "Pending",
    "rowid": "1044320",
    "final_x": "3709482.88632",
    "final_y": "566004.408739",
    "longitude": "-89.97842371793797",
    "latitude": "30.049435327232203",
    "geocoded_column": {
      "latitude": "30.049435327232203",
      "longitude": "-89.97842371793797"
    }
  },
  {
    "service_request": "2023-1044319",
    "request_type": "Roads/Drainage",
    "request_reason": "Street Subsidence (Sinking)",
    "date_created": "2023-10-18T15:33:51.000",
    "date_modified": "2023-10-18T15:33:52.000",
    "request_status": "Pending",
    "responsible_agency": "Department of Public Works",
    "final_address": "622 St James St",
    "address_councildis": "B",
    "status": "Pending",
    "rowid": "1044319",
    "final_x": "3681517.14869",
    "final_y": "521958.707578",
    "longitude": "-90.06834947573664",
    "latitude": "29.929204802901964",
    "geocoded_column": {
      "latitude": "29.929204802901964",
      "longitude": "-90.06834947573664"
    }
  },
  {
    "service_request": "2023-1044318",
    "request_type": "Trash/Recycling",
    "request_reason": "Request a Large Item Pick Up",
    "date_created": "2023-10-18T15:33:44.000",
    "date_modified": "2023-10-18T15:33:45.000",
    "request_status": "Pending",
    "responsible_agency": "Department of Sanitation",
    "final_address": "1928 St Maurice Ave",
    "address_councildis": "E",
    "status": "Assigned to Contractor",
    "contractor": "Waste Pro",
    "rowid": "1044318",
    "final_x": "3701033.56836",
    "final_y": "536247.244551",
    "longitude": "-90.00621787946847",
    "latitude": "29.96788637114762",
    "geocoded_column": {
      "latitude": "29.96788637114762",
      "longitude": "-90.00621787946847"
    }
  },
  {
    "service_request": "2023-1044317",
    "request_type": "Roads/Drainage",
    "request_reason": "Pothole",
    "date_created": "2023-10-18T15:32:23.000",
    "date_modified": "2023-10-18T15:32:23.000",
    "request_status": "Pending",
    "responsible_agency": "Department of Public Works",
    "final_address": "4216 Chestnut St",
    "address_councildis": "B",
    "status": "Pending",
    "rowid": "1044317",
    "final_x": "3671574.31393",
    "final_y": "519539.203703",
    "longitude": "-90.09981939416457",
    "latitude": "29.922850019854593",
    "geocoded_column": {
      "latitude": "29.922850019854593",
      "longitude": "-90.09981939416457"
    }
  },
  {
    "service_request": "2023-1044316",
    "request_type": "Mosquito, Termite & Rodent Control",
    "request_reason": "Rodent Complaint (Rats)",
    "date_created": "2023-10-18T15:30:25.000",
    "date_modified": "2023-10-18T15:30:25.000",
    "request_status": "Pending",
    "responsible_agency": "Mosquito, Termite & Rodent Control Board",
    "final_address": "3706 General Pershing St",
    "address_councildis": "B",
    "status": "Pending",
    "rowid": "1044316",
    "final_x": "3670474.87707",
    "final_y": "528258.09216",
    "longitude": "-90.10299437641524",
    "latitude": "29.94685665147115",
    "geocoded_column": {
      "latitude": "29.94685665147115",
      "longitude": "-90.10299437641524"
    }
  },
  {
    "service_request": "2023-1044315",
    "request_type": "Trash/Recycling",
    "request_reason": "Request a Large Item Pick Up",
    "date_created": "2023-10-18T15:26:57.000",
    "date_modified": "2023-10-18T15:26:58.000",
    "request_status": "Pending",
    "responsible_agency": "Department of Sanitation",
    "final_address": "2712 Cambronne St",
    "address_councildis": "A",
    "status": "Assigned to Contractor",
    "contractor": "Richards Disposal",
    "rowid": "1044315",
    "final_x": "3664847.31936",
    "final_y": "533202.736132",
    "longitude": "-90.12059747936685",
    "latitude": "29.96061776686797",
    "geocoded_column": {
      "latitude": "29.96061776686797",
      "longitude": "-90.12059747936685"
    }
  },
  {
    "service_request": "2023-1044314",
    "request_type": "Trash/Recycling",
    "request_reason": "Request a Large Item Pick Up",
    "date_created": "2023-10-18T15:25:56.000",
    "date_modified": "2023-10-18T15:25:57.000",
    "request_status": "Pending",
    "responsible_agency": "Department of Sanitation",
    "final_address": "5415 Burgundy St",
    "address_councildis": "E",
    "status": "Assigned to Contractor",
    "contractor": "Waste Pro",
    "rowid": "1044314",
    "final_x": "3697082.16797",
    "final_y": "533198.77082",
    "longitude": "-90.01880690380933",
    "latitude": "29.959629399258237",
    "geocoded_column": {
      "latitude": "29.959629399258237",
      "longitude": "-90.01880690380933"
    }
  },
  {
    "service_request": "2023-1044313",
    "request_type": "Trash/Recycling",
    "request_reason": "Replace Trash Cart",
    "date_created": "2023-10-18T15:25:04.000",
    "date_modified": "2023-10-18T15:25:05.000",
    "request_status": "Pending",
    "responsible_agency": "Department of Sanitation",
    "final_address": "869 Navarre St",
    "address_councildis": "A",
    "status": "Assigned to Contractor",
    "contractor": "IV Waste",
    "rowid": "1044313",
    "final_x": "3669258.12161",
    "final_y": "543823.529614",
    "longitude": "-90.1063098523507",
    "latitude": "29.989692273043453",
    "geocoded_column": {
      "latitude": "29.989692273043453",
      "longitude": "-90.1063098523507"
    }
  },
  {
    "service_request": "2023-1044312",
    "request_type": "Roads/Drainage",
    "request_reason": "Pothole",
    "date_created": "2023-10-18T15:23:44.000",
    "date_modified": "2023-10-18T15:23:44.000",
    "request_status": "Pending",
    "responsible_agency": "Department of Public Works",
    "final_address": "1315 Peniston St",
    "address_councildis": "B",
    "status": "Pending",
    "rowid": "1044312",
    "final_x": "3673101.31451",
    "final_y": "520423.11276",
    "longitude": "-90.09496908964098",
    "latitude": "29.925235197927364",
    "geocoded_column": {
      "latitude": "29.925235197927364",
      "longitude": "-90.09496908964098"
    }
  },
  {
    "service_request": "2023-1044311",
    "request_type": "Trash/Recycling",
    "request_reason": "MIssed Recycling Pick-Up",
    "date_created": "2023-10-18T15:22:50.000",
    "date_modified": "2023-10-18T15:22:51.000",
    "request_status": "Pending",
    "responsible_agency": "Department of Sanitation",
    "final_address": "4850 Read Blvd",
    "address_councildis": "E",
    "status": "Assigned to Contractor",
    "contractor": "Waste Pro",
    "rowid": "1044311",
    "final_x": "3712602.74718",
    "final_y": "556810.45385",
    "longitude": "-89.96890915955319",
    "latitude": "30.02405382422736",
    "geocoded_column": {
      "latitude": "30.02405382422736",
      "longitude": "-89.96890915955319"
    }
  },
  {
    "service_request": "2023-1044310",
    "request_type": "Trash/Recycling",
    "request_reason": "Replace Trash Cart",
    "date_created": "2023-10-18T15:21:50.000",
    "date_modified": "2023-10-18T15:21:51.000",
    "request_status": "Pending",
    "responsible_agency": "Department of Sanitation",
    "final_address": "4036 DHemecourt St",
    "address_councildis": "A",
    "status": "Assigned to Contractor",
    "contractor": "Richards Disposal",
    "rowid": "1044310",
    "final_x": "3669929.4281",
    "final_y": "536695.837959",
    "longitude": "-90.1044308405548",
    "latitude": "29.970073754814724",
    "geocoded_column": {
      "latitude": "29.970073754814724",
      "longitude": "-90.1044308405548"
    }
  },
  {
    "service_request": "2023-1044309",
    "request_type": "Trash/Recycling",
    "request_reason": "Return Recycling Cart",
    "date_created": "2023-10-18T15:21:16.000",
    "date_modified": "2023-10-18T15:21:16.000",
    "request_status": "Pending",
    "responsible_agency": "Department of Sanitation",
    "final_address": "4850 Read Blvd",
    "address_councildis": "E",
    "status": "Pending",
    "rowid": "1044309",
    "final_x": "3712602.74718",
    "final_y": "556810.45385",
    "longitude": "-89.96890915955319",
    "latitude": "30.02405382422736",
    "geocoded_column": {
      "latitude": "30.02405382422736",
      "longitude": "-89.96890915955319"
    }
  },
  {
    "service_request": "2023-1044308",
    "request_type": "Abandoned Vehicles",
    "request_reason": "Abandoned/Junk Vehicles",
    "date_created": "2023-10-18T15:09:56.000",
    "date_modified": "2023-10-18T15:09:56.000",
    "request_status": "Pending",
    "responsible_agency": "Department of Public Works",
    "final_address": "1109 Governor Nicholls St",
    "address_councildis": "C",
    "status": "Pending",
    "rowid": "1044308",
    "final_x": "3682425.60853",
    "final_y": "534921.285446",
    "longitude": "-90.0650287070602",
    "latitude": "29.964819919576872",
    "geocoded_column": {
      "latitude": "29.964819919576872",
      "longitude": "-90.0650287070602"
    }
  },
  {
    "service_request": "2023-1044307",
    "request_type": "Trash/Recycling",
    "request_reason": "Repair Recycling Cart",
    "date_created": "2023-10-18T15:09:07.000",
    "date_modified": "2023-10-18T15:10:43.000",
    "request_status": "Pending",
    "responsible_agency": "Department of Sanitation",
    "final_address": "1019 N Miro St",
    "address_councildis": "D",
    "status": "Pending",
    "rowid": "1044307",
    "final_x": "3678812.99682",
    "final_y": "536984.415304",
    "longitude": "-90.07636563018427",
    "latitude": "29.970602278486666",
    "geocoded_column": {
      "latitude": "29.970602278486666",
      "longitude": "-90.07636563018427"
    }
  },
  {
    "service_request": "2023-1044306",
    "request_type": "Roads/Drainage",
    "request_reason": "Pothole",
    "date_created": "2023-10-18T15:09:03.000",
    "date_modified": "2023-10-18T15:09:03.000",
    "request_status": "Pending",
    "responsible_agency": "Department of Public Works",
    "final_address": "1421 Constantinople St",
    "address_councildis": "B",
    "status": "Pending",
    "rowid": "1044306",
    "final_x": "3672433.24257",
    "final_y": "520667.657465",
    "longitude": "-90.09706965638372",
    "latitude": "29.925927453713577",
    "geocoded_column": {
      "latitude": "29.925927453713577",
      "longitude": "-90.09706965638372"
    }
  },
  {
    "service_request": "2023-1044305",
    "request_type": "Roads/Drainage",
    "request_reason": "Pothole",
    "date_created": "2023-10-18T15:08:02.000",
    "date_modified": "2023-10-18T15:08:02.000",
    "request_status": "Pending",
    "responsible_agency": "Department of Public Works",
    "final_address": "4900 America St",
    "address_councildis": "E",
    "status": "Pending",
    "rowid": "1044305",
    "final_x": "3699631.99927",
    "final_y": "555293.773785",
    "longitude": "-90.00994935775002",
    "latitude": "30.020301837469788",
    "geocoded_column": {
      "latitude": "30.020301837469788",
      "longitude": "-90.00994935775002"
    }
  },
  {
    "service_request": "2023-1044304",
    "request_type": "Trash/Recycling",
    "request_reason": "Request a Large Item Pick Up",
    "date_created": "2023-10-18T15:06:51.000",
    "date_modified": "2023-10-18T15:06:51.000",
    "request_status": "Pending",
    "responsible_agency": "Department of Sanitation",
    "final_address": "7421 Dalewood Rd",
    "address_councildis": "E",
    "status": "Assigned to Contractor",
    "contractor": "Waste Pro",
    "rowid": "1044304",
    "final_x": "3700234.3512",
    "final_y": "559855.187357",
    "longitude": "-90.0078794053116",
    "latitude": "30.032824828389344",
    "geocoded_column": {
      "latitude": "30.032824828389344",
      "longitude": "-90.0078794053116"
    }
  },
  {
    "service_request": "2023-1044302",
    "request_type": "Property Maintenance",
    "request_reason": "Property Maintenance",
    "date_created": "2023-10-18T15:01:23.000",
    "date_modified": "2023-10-18T15:01:23.000",
    "request_status": "Pending",
    "responsible_agency": "Department of Code Enforcement",
    "final_address": "2501 Somerset Dr",
    "address_councildis": "C",
    "status": "Pending",
    "rowid": "1044302",
    "final_x": "3702831.7505",
    "final_y": "521853.99161",
    "longitude": "-90.00106769948526",
    "latitude": "29.92825264137434",
    "geocoded_column": {
      "latitude": "29.92825264137434",
      "longitude": "-90.00106769948526"
    }
  },
  {
    "service_request": "2023-1044301",
    "request_type": "Roads/Drainage",
    "request_reason": "Pothole",
    "date_created": "2023-10-18T15:01:10.000",
    "date_modified": "2023-10-18T15:01:10.000",
    "request_status": "Pending",
    "responsible_agency": "Department of Public Works",
    "final_address": "1312 Milan St",
    "address_councildis": "B",
    "status": "Pending",
    "rowid": "1044301",
    "final_x": "3671625.82823",
    "final_y": "520286.919608",
    "longitude": "-90.09963137110304",
    "latitude": "29.92490447494246",
    "geocoded_column": {
      "latitude": "29.92490447494246",
      "longitude": "-90.09963137110304"
    }
  },
  {
    "service_request": "2023-1044300",
    "request_type": "Trash/Recycling",
    "request_reason": "Replace Trash Cart",
    "date_created": "2023-10-18T14:59:29.000",
    "date_modified": "2023-10-18T14:59:29.000",
    "request_status": "Pending",
    "responsible_agency": "Department of Sanitation",
    "final_address": "2353 S Derbigny St",
    "address_councildis": "B",
    "status": "Assigned to Contractor",
    "contractor": "Richards Disposal",
    "rowid": "1044300",
    "final_x": "3673983.31816",
    "final_y": "527785.554559",
    "longitude": "-90.09193308837769",
    "latitude": "29.9454532777831",
    "geocoded_column": {
      "latitude": "29.9454532777831",
      "longitude": "-90.09193308837769"
    }
  },
  {
    "service_request": "2023-1044299",
    "request_type": "Trash/Recycling",
    "request_reason": "Request a Large Item Pick Up",
    "date_created": "2023-10-18T14:55:10.000",
    "date_modified": "2023-10-18T14:55:11.000",
    "request_status": "Pending",
    "responsible_agency": "Department of Sanitation",
    "final_address": "2125 Elysian Fields Ave",
    "address_councildis": "D",
    "status": "Assigned to Contractor",
    "contractor": "IV Waste",
    "rowid": "1044299",
    "final_x": "3684794.83221",
    "final_y": "540219.095115",
    "longitude": "-90.05736056407243",
    "latitude": "29.979314730080148",
    "geocoded_column": {
      "latitude": "29.979314730080148",
      "longitude": "-90.05736056407243"
    }
  },
  {
    "service_request": "2023-1044298",
    "request_type": "Trash/Recycling",
    "request_reason": "Request a Large Item Pick Up",
    "date_created": "2023-10-18T14:53:53.000",
    "date_modified": "2023-10-18T14:53:53.000",
    "request_status": "Pending",
    "responsible_agency": "Department of Sanitation",
    "final_address": "4754 Babylon St",
    "address_councildis": "D",
    "status": "Assigned to Contractor",
    "contractor": "Waste Pro",
    "rowid": "1044298",
    "final_x": "3696593.47517",
    "final_y": "554305.14332",
    "longitude": "-90.01958592080078",
    "latitude": "30.017679621061568",
    "geocoded_column": {
      "latitude": "30.017679621061568",
      "longitude": "-90.01958592080078"
    }
  },
  {
    "service_request": "2023-1044297",
    "request_type": "Trash/Recycling",
    "request_reason": "Illegal Dumping",
    "date_created": "2023-10-18T14:51:33.000",
    "date_modified": "2023-10-18T14:52:29.000",
    "case_close_date": "2023-10-18T09:52:29.000",
    "request_status": "Closed",
    "responsible_agency": "Department of Sanitation",
    "final_address": "2600 Reynes St",
    "address_councildis": "E",
    "status": "Resolved",
    "rowid": "1044297",
    "final_x": "3697513.7889",
    "final_y": "539938.712714",
    "longitude": "-90.01719948938111",
    "latitude": "29.978148204445507",
    "geocoded_column": {
      "latitude": "29.978148204445507",
      "longitude": "-90.01719948938111"
    }
  },
  {
    "service_request": "2023-1044296",
    "request_type": "Parks & Parkways",
    "request_reason": "Request Tree Service (Right of Way/Public Property)",
    "date_created": "2023-10-18T14:48:47.000",
    "date_modified": "2023-10-18T14:48:47.000",
    "request_status": "Pending",
    "responsible_agency": "Department of Parks & Parkway",
    "final_address": "5964 Argonne Blvd",
    "address_councildis": "A",
    "status": "Pending",
    "rowid": "1044296",
    "final_x": "3670083.29018",
    "final_y": "546977.824977",
    "longitude": "-90.10359643624032",
    "latitude": "29.99834117431971",
    "geocoded_column": {
      "latitude": "29.99834117431971",
      "longitude": "-90.10359643624032"
    }
  },
  {
    "service_request": "2023-1044295",
    "request_type": "Trash/Recycling",
    "request_reason": "Illegal Dumping",
    "date_created": "2023-10-18T14:47:45.000",
    "date_modified": "2023-10-18T14:48:35.000",
    "case_close_date": "2023-10-18T09:48:35.000",
    "request_status": "Closed",
    "responsible_agency": "Department of Sanitation",
    "final_address": "LAW ST & LIZARDI ST",
    "address_councildis": "E",
    "status": "Resolved",
    "rowid": "1044295",
    "final_x": "3698117.6",
    "final_y": "539749.28",
    "longitude": "-90.01529933170288",
    "latitude": "29.97760824909893",
    "geocoded_column": {
      "latitude": "29.97760824909893",
      "longitude": "-90.01529933170288"
    }
  },
  {
    "service_request": "2023-1044294",
    "request_type": "Trash/Recycling",
    "request_reason": "Request a Large Item Pick Up",
    "date_created": "2023-10-18T14:45:50.000",
    "date_modified": "2023-10-18T14:45:51.000",
    "request_status": "Pending",
    "responsible_agency": "Department of Sanitation",
    "final_address": "6159 Argonne Blvd",
    "address_councildis": "A",
    "status": "Assigned to Contractor",
    "contractor": "IV Waste",
    "rowid": "1044294",
    "final_x": "3670343.59079",
    "final_y": "548241.559378",
    "longitude": "-90.10273127096005",
    "latitude": "30.00180832044375",
    "geocoded_column": {
      "latitude": "30.00180832044375",
      "longitude": "-90.10273127096005"
    }
  },
  {
    "service_request": "2023-1044293",
    "request_type": "Trash/Recycling",
    "request_reason": "Dead Animal Pick Up",
    "date_created": "2023-10-18T14:40:24.000",
    "date_modified": "2023-10-18T14:40:25.000",
    "request_status": "Pending",
    "responsible_agency": "Department of Sanitation",
    "final_address": "2600 BLK Florida Ave",
    "address_councildis": "D",
    "status": "Assigned to Contractor",
    "contractor": "IV Waste",
    "rowid": "1044293",
    "final_x": "3686913.02673",
    "final_y": "542389.398277",
    "longitude": "-90.05059375129038",
    "latitude": "29.98521726745714",
    "geocoded_column": {
      "latitude": "29.98521726745714",
      "longitude": "-90.05059375129038"
    }
  },
  {
    "service_request": "2023-1044292",
    "request_type": "Property Maintenance",
    "request_reason": "Property Maintenance",
    "date_created": "2023-10-18T14:37:00.000",
    "date_modified": "2023-10-18T14:37:01.000",
    "request_status": "Pending",
    "responsible_agency": "Department of Code Enforcement",
    "final_address": "1819 New Orleans St",
    "address_councildis": "D",
    "status": "Pending",
    "rowid": "1044292",
    "final_x": "3682218.40904",
    "final_y": "538856.688137",
    "longitude": "-90.06554552518398",
    "latitude": "29.97564722213871",
    "geocoded_column": {
      "latitude": "29.97564722213871",
      "longitude": "-90.06554552518398"
    }
  },
  {
    "service_request": "2023-1044291",
    "request_type": "Trash/Recycling",
    "request_reason": "Replace Trash Cart",
    "date_created": "2023-10-18T14:33:41.000",
    "date_modified": "2023-10-18T14:33:42.000",
    "request_status": "Pending",
    "responsible_agency": "Department of Sanitation",
    "final_address": "1609 Governor Nicholls St",
    "address_councildis": "D",
    "status": "Assigned to Contractor",
    "contractor": "Richards Disposal",
    "rowid": "1044291",
    "final_x": "3681182.08661",
    "final_y": "535997.775239",
    "longitude": "-90.06891815331386",
    "latitude": "29.96781768567278",
    "geocoded_column": {
      "latitude": "29.96781768567278",
      "longitude": "-90.06891815331386"
    }
  },
  {
    "service_request": "2023-1044290",
    "request_type": "Trash/Recycling",
    "request_reason": "MIssed Recycling Pick-Up",
    "date_created": "2023-10-18T14:32:28.000",
    "date_modified": "2023-10-18T14:32:29.000",
    "request_status": "Pending",
    "responsible_agency": "Department of Sanitation",
    "final_address": "4718 Lurline St",
    "address_councildis": "E",
    "status": "Assigned to Contractor",
    "contractor": "Waste Pro",
    "rowid": "1044290",
    "final_x": "3711915.11486",
    "final_y": "555937.896089",
    "longitude": "-89.9711147026227",
    "latitude": "30.02167712972963",
    "geocoded_column": {
      "latitude": "30.02167712972963",
      "longitude": "-89.9711147026227"
    }
  },
  {
    "service_request": "2023-1044289",
    "request_type": "Trash/Recycling",
    "request_reason": "Request a Large Item Pick Up",
    "date_created": "2023-10-18T14:32:27.000",
    "date_modified": "2023-10-18T14:32:28.000",
    "request_status": "Pending",
    "responsible_agency": "Department of Sanitation",
    "final_address": "2115 Burdette St",
    "address_councildis": "A",
    "status": "Assigned to Contractor",
    "contractor": "Richards Disposal",
    "rowid": "1044289",
    "final_x": "3665104.63021",
    "final_y": "530002.079809",
    "longitude": "-90.11989197260776",
    "latitude": "29.951809514383996",
    "geocoded_column": {
      "latitude": "29.951809514383996",
      "longitude": "-90.11989197260776"
    }
  },
  {
    "service_request": "2023-1044288",
    "request_type": "Trash/Recycling",
    "request_reason": "Missed Trash Pick-Up",
    "date_created": "2023-10-18T14:24:33.000",
    "date_modified": "2023-10-18T14:24:34.000",
    "request_status": "Pending",
    "responsible_agency": "Department of Sanitation",
    "final_address": "4910 Lancelot Dr",
    "address_councildis": "E",
    "status": "Assigned to Contractor",
    "contractor": "Waste Pro",
    "rowid": "1044288",
    "final_x": "3707274.47576",
    "final_y": "556523.590874",
    "longitude": "-89.98575600038606",
    "latitude": "30.02343844215454",
    "geocoded_column": {
      "latitude": "30.02343844215454",
      "longitude": "-89.98575600038606"
    }
  },
  {
    "service_request": "2023-1044286",
    "request_type": "Traffic Signals/Signs/Striping/Streetlights",
    "request_reason": "Street Light Knocked Down/Leaning",
    "date_created": "2023-10-18T14:12:13.000",
    "date_modified": "2023-10-18T14:22:40.000",
    "request_status": "Pending",
    "responsible_agency": "Department of Public Works",
    "final_address": "1600 St Roch Ave",
    "address_councildis": "D",
    "contractor": "Legacy Professional Services",
    "rowid": "1044286",
    "final_x": "3686258.76156",
    "final_y": "538293.784393",
    "longitude": "-90.05280486533707",
    "latitude": "29.973975896426182",
    "geocoded_column": {
      "latitude": "29.973975896426182",
      "longitude": "-90.05280486533707"
    }
  },
  {
    "service_request": "2023-1044285",
    "request_type": "Abandoned Vehicles",
    "request_reason": "Abandoned/Junk Vehicles",
    "date_created": "2023-10-18T14:10:30.000",
    "date_modified": "2023-10-18T14:10:30.000",
    "request_status": "Pending",
    "responsible_agency": "Department of Public Works",
    "final_address": "1141 Touro St",
    "address_councildis": "C",
    "status": "Pending",
    "rowid": "1044285",
    "final_x": "3684230.36213",
    "final_y": "536580.366791",
    "longitude": "-90.0592711658042",
    "latitude": "29.969326767771854",
    "geocoded_column": {
      "latitude": "29.969326767771854",
      "longitude": "-90.0592711658042"
    }
  },
  {
    "service_request": "2023-1044284",
    "request_type": "Property Maintenance",
    "request_reason": "Property Maintenance",
    "date_created": "2023-10-18T14:06:13.000",
    "date_modified": "2023-10-18T14:06:13.000",
    "request_status": "Pending",
    "responsible_agency": "Department of Code Enforcement",
    "final_address": "8416 Belfast St",
    "address_councildis": "A",
    "status": "Pending",
    "rowid": "1044284",
    "final_x": "3664658.12852",
    "final_y": "533161.222916",
    "longitude": "-90.12119629591173",
    "latitude": "29.960509123571352",
    "geocoded_column": {
      "latitude": "29.960509123571352",
      "longitude": "-90.12119629591173"
    }
  },
  {
    "service_request": "2023-1044283",
    "request_type": "Trash/Recycling",
    "request_reason": "Order Recycling Cart",
    "date_created": "2023-10-18T14:04:18.000",
    "date_modified": "2023-10-18T14:04:19.000",
    "request_status": "Pending",
    "responsible_agency": "Department of Sanitation",
    "final_address": "424 30Th St",
    "address_councildis": "A",
    "status": "Pending",
    "rowid": "1044283",
    "final_x": "3664631.02445",
    "final_y": "550500.4109",
    "longitude": "-90.1207024323992",
    "latitude": "30.008186840048083",
    "geocoded_column": {
      "latitude": "30.008186840048083",
      "longitude": "-90.1207024323992"
    }
  },
  {
    "service_request": "2023-1044282",
    "request_type": "Abandoned Vehicles",
    "request_reason": "Abandoned/Junk Vehicles",
    "date_created": "2023-10-18T14:03:42.000",
    "date_modified": "2023-10-18T14:03:42.000",
    "request_status": "Pending",
    "responsible_agency": "Department of Public Works",
    "final_address": "1813 N Robertson St",
    "address_councildis": "C",
    "status": "Pending",
    "rowid": "1044282",
    "final_x": "3683509.39823",
    "final_y": "537733.624392",
    "longitude": "-90.06150759753184",
    "latitude": "29.972519848920914",
    "geocoded_column": {
      "latitude": "29.972519848920914",
      "longitude": "-90.06150759753184"
    }
  },
  {
    "service_request": "2023-1044281",
    "request_type": "Traffic Signals/Signs/Striping/Streetlights",
    "request_reason": "Street Name Sign Damaged or Missing",
    "date_created": "2023-10-18T14:03:42.000",
    "date_modified": "2023-10-18T14:03:42.000",
    "request_status": "Pending",
    "responsible_agency": "Department of Public Works",
    "final_address": "DUELS ST & ANNETTE ST",
    "address_councildis": "D",
    "status": "Pending",
    "rowid": "1044281",
    "final_x": "3682644.3",
    "final_y": "542415.88",
    "longitude": "-90.06407592814828",
    "latitude": "29.9854207906899",
    "geocoded_column": {
      "latitude": "29.9854207906899",
      "longitude": "-90.06407592814828"
    }
  },
  {
    "service_request": "2023-1044280",
    "request_type": "Abandoned Vehicles",
    "request_reason": "Abandoned/Junk Vehicles",
    "date_created": "2023-10-18T13:59:48.000",
    "date_modified": "2023-10-18T13:59:48.000",
    "request_status": "Pending",
    "responsible_agency": "Department of Public Works",
    "final_address": "1813 N Robertson St",
    "address_councildis": "C",
    "status": "Pending",
    "rowid": "1044280",
    "final_x": "3683509.39823",
    "final_y": "537733.624392",
    "longitude": "-90.06150759753184",
    "latitude": "29.972519848920914",
    "geocoded_column": {
      "latitude": "29.972519848920914",
      "longitude": "-90.06150759753184"
    }
  },
  {
    "service_request": "2023-1044279",
    "request_type": "Traffic Signals/Signs/Striping/Streetlights",
    "request_reason": "Request for Traffic Calming due to Speeding",
    "date_created": "2023-10-18T13:59:07.000",
    "date_modified": "2023-10-18T13:59:08.000",
    "request_status": "Pending",
    "responsible_agency": "Department of Public Works",
    "final_address": "4811 Stephen Girard Ave",
    "address_councildis": "D",
    "status": "Pending",
    "rowid": "1044279",
    "final_x": "3691916.5",
    "final_y": "550863.881109",
    "longitude": "-90.03448652392453",
    "latitude": "30.00836404295527",
    "geocoded_column": {
      "latitude": "30.00836404295527",
      "longitude": "-90.03448652392453"
    }
  },
  {
    "service_request": "2023-1044278",
    "request_type": "Trash/Recycling",
    "request_reason": "Replace Recycling Cart",
    "date_created": "2023-10-18T13:57:01.000",
    "date_modified": "2023-10-18T13:57:01.000",
    "request_status": "Pending",
    "responsible_agency": "Department of Sanitation",
    "final_address": "339 Verret St",
    "address_councildis": "C",
    "status": "Pending",
    "rowid": "1044278",
    "final_x": "3686859.60066",
    "final_y": "530500.455618",
    "longitude": "-90.05118269537697",
    "latitude": "29.952528466882402",
    "geocoded_column": {
      "latitude": "29.952528466882402",
      "longitude": "-90.05118269537697"
    }
  },
  {
    "service_request": "2023-1044277",
    "request_type": "Traffic Signals/Signs/Striping/Streetlights",
    "request_reason": "Street Light Outage/Malfunction",
    "date_created": "2023-10-18T13:56:51.000",
    "date_modified": "2023-10-18T13:56:52.000",
    "request_status": "Pending",
    "responsible_agency": "Department of Public Works",
    "final_address": "4811 Stephen Girard Ave",
    "address_councildis": "D",
    "status": "Assigned to Contractor",
    "contractor": "Legacy Professional Services",
    "rowid": "1044277",
    "final_x": "3691916.5",
    "final_y": "550863.881109",
    "longitude": "-90.03448652392453",
    "latitude": "30.00836404295527",
    "geocoded_column": {
      "latitude": "30.00836404295527",
      "longitude": "-90.03448652392453"
    }
  },
  {
    "service_request": "2023-1044276",
    "request_type": "Traffic Signals/Signs/Striping/Streetlights",
    "request_reason": "Request for Stop Sign",
    "date_created": "2023-10-18T13:53:47.000",
    "date_modified": "2023-10-18T13:53:47.000",
    "request_status": "Pending",
    "responsible_agency": "Department of Public Works",
    "final_address": "1100 Annunciation St",
    "address_councildis": "B",
    "status": "Pending",
    "rowid": "1044276",
    "final_x": "3681623.52476",
    "final_y": "526045.870526",
    "longitude": "-90.06787117363561",
    "latitude": "29.94043991677798",
    "geocoded_column": {
      "latitude": "29.94043991677798",
      "longitude": "-90.06787117363561"
    }
  },
  {
    "service_request": "2023-1044275",
    "request_type": "Trash/Recycling",
    "request_reason": "Missed Trash Pick-Up",
    "date_created": "2023-10-18T13:50:31.000",
    "date_modified": "2023-10-18T13:50:31.000",
    "request_status": "Pending",
    "responsible_agency": "Department of Sanitation",
    "final_address": "6858 Mayo Rd",
    "address_councildis": "E",
    "status": "Assigned to Contractor",
    "contractor": "Waste Pro",
    "rowid": "1044275",
    "final_x": "3701824.35543",
    "final_y": "557532.396699",
    "longitude": "-90.00294011090502",
    "latitude": "30.026387385486693",
    "geocoded_column": {
      "latitude": "30.026387385486693",
      "longitude": "-90.00294011090502"
    }
  },
  {
    "service_request": "2023-1044274",
    "request_type": "Traffic Signals/Signs/Striping/Streetlights",
    "request_reason": "Additional signage",
    "date_created": "2023-10-18T13:49:37.000",
    "date_modified": "2023-10-18T13:49:37.000",
    "request_status": "Pending",
    "responsible_agency": "Department of Public Works",
    "final_address": "729 Girod St",
    "address_councildis": "B",
    "status": "Pending",
    "rowid": "1044274",
    "final_x": "3680279.43503",
    "final_y": "528644.995904",
    "longitude": "-90.07202435554618",
    "latitude": "29.947627392006343",
    "geocoded_column": {
      "latitude": "29.947627392006343",
      "longitude": "-90.07202435554618"
    }
  },
  {
    "service_request": "2023-1044273",
    "request_type": "Trash/Recycling",
    "request_reason": "Request a Large Item Pick Up",
    "date_created": "2023-10-18T13:48:24.000",
    "date_modified": "2023-10-18T13:48:25.000",
    "request_status": "Pending",
    "responsible_agency": "Department of Sanitation",
    "final_address": "1204 St Andrew St",
    "address_councildis": "B",
    "status": "Assigned to Contractor",
    "contractor": "Richards Disposal",
    "rowid": "1044273",
    "final_x": "3679204.79842",
    "final_y": "522901.448507",
    "longitude": "-90.07561645587563",
    "latitude": "29.93186702208105",
    "geocoded_column": {
      "latitude": "29.93186702208105",
      "longitude": "-90.07561645587563"
    }
  },
  {
    "service_request": "2023-1044271",
    "request_type": "Trash/Recycling",
    "request_reason": "Order Trash Cart",
    "date_created": "2023-10-18T13:44:40.000",
    "date_modified": "2023-10-18T13:44:40.000",
    "request_status": "Pending",
    "responsible_agency": "Department of Sanitation",
    "final_address": "1727 Terpsichore St",
    "address_councildis": "B",
    "status": "Assigned to Contractor",
    "contractor": "Richards Disposal",
    "rowid": "1044271",
    "final_x": "3678473.53262",
    "final_y": "525666.570685",
    "longitude": "-90.07782933756411",
    "latitude": "29.939492248348547",
    "geocoded_column": {
      "latitude": "29.939492248348547",
      "longitude": "-90.07782933756411"
    }
  },
  {
    "service_request": "2023-1044270",
    "request_type": "Trash/Recycling",
    "request_reason": "Missed Trash Pick-Up",
    "date_created": "2023-10-18T13:39:36.000",
    "date_modified": "2023-10-18T13:39:37.000",
    "request_status": "Pending",
    "responsible_agency": "Department of Sanitation",
    "final_address": "4740 Crowder Blvd",
    "address_councildis": "E",
    "status": "Assigned to Contractor",
    "contractor": "Waste Pro",
    "rowid": "1044270",
    "final_x": "3706314.85886",
    "final_y": "555782.329113",
    "longitude": "-89.98881564708256",
    "latitude": "30.0214312564467",
    "geocoded_column": {
      "latitude": "30.0214312564467",
      "longitude": "-89.98881564708256"
    }
  },
  {
    "service_request": "2023-1044269",
    "request_type": "Roads/Drainage",
    "request_reason": "Pothole",
    "date_created": "2023-10-18T13:36:52.000",
    "date_modified": "2023-10-18T13:37:46.000",
    "case_close_date": "2023-10-18T08:37:46.000",
    "request_status": "Closed",
    "responsible_agency": "Department of Public Works",
    "final_address": "2719 General Taylor St",
    "address_councildis": "B",
    "status": "Resolved",
    "rowid": "1044269",
    "final_x": "3671732.24449",
    "final_y": "525031.984765",
    "longitude": "-90.0991341124276",
    "latitude": "29.93794872514013",
    "geocoded_column": {
      "latitude": "29.93794872514013",
      "longitude": "-90.0991341124276"
    }
  },
  {
    "service_request": "2023-1044268",
    "request_type": "Trash/Recycling",
    "request_reason": "MIssed Recycling Pick-Up",
    "date_created": "2023-10-18T13:35:49.000",
    "date_modified": "2023-10-18T13:35:49.000",
    "request_status": "Pending",
    "responsible_agency": "Department of Sanitation",
    "final_address": "2714 Dryades St",
    "address_councildis": "B",
    "status": "Assigned to Contractor",
    "contractor": "Richards Disposal",
    "rowid": "1044268",
    "final_x": "3675496.28347",
    "final_y": "523516.312315",
    "longitude": "-90.087302743938",
    "latitude": "29.933669104638085",
    "geocoded_column": {
      "latitude": "29.933669104638085",
      "longitude": "-90.087302743938"
    }
  },
  {
    "service_request": "2023-1044267",
    "request_type": "Trash/Recycling",
    "request_reason": "Missed Trash Pick-Up",
    "date_created": "2023-10-18T13:35:45.000",
    "date_modified": "2023-10-18T13:35:46.000",
    "request_status": "Pending",
    "responsible_agency": "Department of Sanitation",
    "final_address": "7575 Avalon Way",
    "address_councildis": "E",
    "status": "Assigned to Contractor",
    "contractor": "Waste Pro",
    "rowid": "1044267",
    "final_x": "3709154.51512",
    "final_y": "564436.679969",
    "longitude": "-89.9795201062446",
    "latitude": "30.0451353752817",
    "geocoded_column": {
      "latitude": "30.0451353752817",
      "longitude": "-89.9795201062446"
    }
  },
  {
    "service_request": "2023-1044266",
    "request_type": "Trash/Recycling",
    "request_reason": "Repair Recycling Cart",
    "date_created": "2023-10-18T13:32:08.000",
    "date_modified": "2023-10-18T13:32:09.000",
    "request_status": "Pending",
    "responsible_agency": "Department of Sanitation",
    "final_address": "3518 Camp St",
    "address_councildis": "B",
    "status": "Pending",
    "rowid": "1044266",
    "final_x": "3674184.0706",
    "final_y": "519640.998904",
    "longitude": "-90.09157792253482",
    "latitude": "29.923052415483507",
    "geocoded_column": {
      "latitude": "29.923052415483507",
      "longitude": "-90.09157792253482"
    }
  },
  {
    "service_request": "2023-1044265",
    "request_type": "Trash/Recycling",
    "request_reason": "Return Trash Cart",
    "date_created": "2023-10-18T13:30:53.000",
    "date_modified": "2023-10-18T13:30:54.000",
    "request_status": "Pending",
    "responsible_agency": "Department of Sanitation",
    "final_address": "3758 Herald St",
    "address_councildis": "C",
    "status": "Assigned to Contractor",
    "contractor": "Richards Disposal",
    "rowid": "1044265",
    "final_x": "3702237.38404",
    "final_y": "517040.984053",
    "longitude": "-90.0031203520618",
    "latitude": "29.91503751683337",
    "geocoded_column": {
      "latitude": "29.91503751683337",
      "longitude": "-90.0031203520618"
    }
  },
  {
    "service_request": "2023-1044264",
    "request_type": "Trash/Recycling",
    "request_reason": "Repair Trash Cart",
    "date_created": "2023-10-18T13:30:22.000",
    "date_modified": "2023-10-18T13:30:23.000",
    "request_status": "Pending",
    "responsible_agency": "Department of Sanitation",
    "final_address": "3758 Herald St",
    "address_councildis": "C",
    "status": "Assigned to Contractor",
    "contractor": "Richards Disposal",
    "rowid": "1044264",
    "final_x": "3702237.38404",
    "final_y": "517040.984053",
    "longitude": "-90.0031203520618",
    "latitude": "29.91503751683337",
    "geocoded_column": {
      "latitude": "29.91503751683337",
      "longitude": "-90.0031203520618"
    }
  },
  {
    "service_request": "2023-1044263",
    "request_type": "Trash/Recycling",
    "request_reason": "Illegal Dumping",
    "date_created": "2023-10-18T13:26:44.000",
    "date_modified": "2023-10-18T13:27:22.000",
    "case_close_date": "2023-10-18T08:27:22.000",
    "request_status": "Closed",
    "responsible_agency": "Department of Sanitation",
    "final_address": "9002 Forshey St",
    "address_councildis": "A",
    "status": "Resolved",
    "rowid": "1044263",
    "final_x": "3664601.54554",
    "final_y": "536060.062023",
    "longitude": "-90.12127814490202",
    "latitude": "29.968481623941642",
    "geocoded_column": {
      "latitude": "29.968481623941642",
      "longitude": "-90.12127814490202"
    }
  },
  {
    "service_request": "2023-1044262",
    "request_type": "Trash/Recycling",
    "request_reason": "Illegal Dumping",
    "date_created": "2023-10-18T13:24:35.000",
    "date_modified": "2023-10-18T13:25:14.000",
    "case_close_date": "2023-10-18T08:25:14.000",
    "request_status": "Closed",
    "responsible_agency": "Department of Sanitation",
    "final_address": "2500 Forstall St",
    "address_councildis": "E",
    "status": "Resolved",
    "rowid": "1044262",
    "final_x": "3697702.36951",
    "final_y": "539487.409994",
    "longitude": "-90.01662026723655",
    "latitude": "29.976901327855206",
    "geocoded_column": {
      "latitude": "29.976901327855206",
      "longitude": "-90.01662026723655"
    }
  },
  {
    "service_request": "2023-1044261",
    "request_type": "Trash/Recycling",
    "request_reason": "Illegal Dumping",
    "date_created": "2023-10-18T13:22:51.000",
    "date_modified": "2023-10-18T13:23:26.000",
    "case_close_date": "2023-10-18T08:23:26.000",
    "request_status": "Closed",
    "responsible_agency": "Department of Sanitation",
    "final_address": "BENEFIT ST & I 610 E",
    "address_councildis": "D",
    "status": "Resolved",
    "rowid": "1044261",
    "final_x": "3682352.5",
    "final_y": "544387.88",
    "longitude": "-90.06492865311435",
    "latitude": "29.990851979504725",
    "geocoded_column": {
      "latitude": "29.990851979504725",
      "longitude": "-90.06492865311435"
    }
  },
  {
    "service_request": "2023-1044260",
    "request_type": "Trash/Recycling",
    "request_reason": "Missed Trash Pick-Up",
    "date_created": "2023-10-18T13:22:32.000",
    "date_modified": "2023-10-18T13:22:33.000",
    "request_status": "Pending",
    "responsible_agency": "Department of Sanitation",
    "final_address": "11438 Prentiss Ave",
    "address_councildis": "E",
    "status": "Assigned to Contractor",
    "contractor": "Waste Pro",
    "rowid": "1044260",
    "final_x": "3717721.05138",
    "final_y": "556451.735322",
    "longitude": "-89.95275014204758",
    "latitude": "30.022898917168895",
    "geocoded_column": {
      "latitude": "30.022898917168895",
      "longitude": "-89.95275014204758"
    }
  },
  {
    "service_request": "2023-1044259",
    "request_type": "Trash/Recycling",
    "request_reason": "Return Trash Cart",
    "date_created": "2023-10-18T13:21:10.000",
    "date_modified": "2023-10-18T13:21:11.000",
    "request_status": "Pending",
    "responsible_agency": "Department of Sanitation",
    "final_address": "233 Broadway St",
    "address_councildis": "A",
    "status": "Assigned to Contractor",
    "contractor": "Richards Disposal",
    "rowid": "1044259",
    "final_x": "3661275.84301",
    "final_y": "522087.152442",
    "longitude": "-90.13224348811468",
    "latitude": "29.930156909064298",
    "geocoded_column": {
      "latitude": "29.930156909064298",
      "longitude": "-90.13224348811468"
    }
  },
  {
    "service_request": "2023-1044258",
    "request_type": "Trash/Recycling",
    "request_reason": "Illegal Dumping",
    "date_created": "2023-10-18T13:21:07.000",
    "date_modified": "2023-10-18T13:21:41.000",
    "case_close_date": "2023-10-18T08:21:41.000",
    "request_status": "Closed",
    "responsible_agency": "Department of Sanitation",
    "final_address": "5906 Beechcraft St",
    "address_councildis": "D",
    "status": "Resolved",
    "rowid": "1044258",
    "final_x": "3696322.32432",
    "final_y": "553259.396567",
    "longitude": "-90.02048050426829",
    "latitude": "30.0148127566708",
    "geocoded_column": {
      "latitude": "30.0148127566708",
      "longitude": "-90.02048050426829"
    }
  },
  {
    "service_request": "2023-1044257",
    "request_type": "Trash/Recycling",
    "request_reason": "Illegal Dumping",
    "date_created": "2023-10-18T13:19:34.000",
    "date_modified": "2023-10-18T13:20:07.000",
    "case_close_date": "2023-10-18T08:20:07.000",
    "request_status": "Closed",
    "responsible_agency": "Department of Sanitation",
    "final_address": "5913 Beechcraft St",
    "address_councildis": "D",
    "status": "Resolved",
    "rowid": "1044257",
    "final_x": "3696377.11312",
    "final_y": "553188.926039",
    "longitude": "-90.02030995037913",
    "latitude": "30.0146172630276",
    "geocoded_column": {
      "latitude": "30.0146172630276",
      "longitude": "-90.02030995037913"
    }
  },
  {
    "service_request": "2023-1044256",
    "request_type": "Trash/Recycling",
    "request_reason": "Illegal Dumping",
    "date_created": "2023-10-18T13:17:32.000",
    "date_modified": "2023-10-18T13:18:18.000",
    "case_close_date": "2023-10-18T08:18:18.000",
    "request_status": "Closed",
    "responsible_agency": "Department of Sanitation",
    "final_address": "5942 Beechcraft St",
    "address_councildis": "D",
    "status": "Resolved",
    "rowid": "1044256",
    "final_x": "3696462.80707",
    "final_y": "553273.517399",
    "longitude": "-90.02003613752692",
    "latitude": "30.014847157120887",
    "geocoded_column": {
      "latitude": "30.014847157120887",
      "longitude": "-90.02003613752692"
    }
  },
  {
    "service_request": "2023-1044255",
    "request_type": "Trash/Recycling",
    "request_reason": "Illegal Dumping",
    "date_created": "2023-10-18T13:15:59.000",
    "date_modified": "2023-10-18T13:16:29.000",
    "case_close_date": "2023-10-18T08:16:29.000",
    "request_status": "Closed",
    "responsible_agency": "Department of Sanitation",
    "final_address": "6043 Beechcraft St",
    "address_councildis": "D",
    "status": "Resolved",
    "rowid": "1044255",
    "final_x": "3696657.67869",
    "final_y": "553219.354967",
    "longitude": "-90.01942240254866",
    "latitude": "30.014692088041617",
    "geocoded_column": {
      "latitude": "30.014692088041617",
      "longitude": "-90.01942240254866"
    }
  },
  {
    "service_request": "2023-1044254",
    "request_type": "Trash/Recycling",
    "request_reason": "Illegal Dumping",
    "date_created": "2023-10-18T13:14:39.000",
    "date_modified": "2023-10-18T13:15:17.000",
    "case_close_date": "2023-10-18T08:15:17.000",
    "request_status": "Closed",
    "responsible_agency": "Department of Sanitation",
    "final_address": "1 N Johnson St",
    "address_councildis": "E",
    "status": "Resolved",
    "rowid": "1044254",
    "final_x": "3697086.87325",
    "final_y": "537722.650056",
    "longitude": "-90.01862813963545",
    "latitude": "29.972068306425683",
    "geocoded_column": {
      "latitude": "29.972068306425683",
      "longitude": "-90.01862813963545"
    }
  },
  {
    "service_request": "2023-1044253",
    "request_type": "Roads/Drainage",
    "request_reason": "Road Shoulder Repair",
    "date_created": "2023-10-18T13:14:04.000",
    "date_modified": "2023-10-18T13:14:04.000",
    "request_status": "Pending",
    "responsible_agency": "Department of Public Works",
    "final_address": "1515 Dufossat St",
    "address_councildis": "B",
    "status": "Pending",
    "rowid": "1044253",
    "final_x": "3668192.20609",
    "final_y": "520568.892024",
    "longitude": "-90.11046072712098",
    "latitude": "29.925781016168",
    "geocoded_column": {
      "latitude": "29.925781016168",
      "longitude": "-90.11046072712098"
    }
  },
  {
    "service_request": "2023-1044251",
    "request_type": "Trash/Recycling",
    "request_reason": "Illegal Dumping",
    "date_created": "2023-10-18T13:12:35.000",
    "date_modified": "2023-10-18T13:13:13.000",
    "case_close_date": "2023-10-18T08:13:12.000",
    "request_status": "Closed",
    "responsible_agency": "Department of Sanitation",
    "final_address": "PAUGER ST & N JOHNSON ST",
    "address_councildis": "D",
    "status": "Resolved",
    "rowid": "1044251",
    "final_x": "3683608.7",
    "final_y": "539527.28",
    "longitude": "-90.06113109146264",
    "latitude": "29.97744874574606",
    "geocoded_column": {
      "latitude": "29.97744874574606",
      "longitude": "-90.06113109146264"
    }
  },
  {
    "service_request": "2023-1044250",
    "request_type": "Trash/Recycling",
    "request_reason": "Return Trash Cart",
    "date_created": "2023-10-18T13:11:51.000",
    "date_modified": "2023-10-18T13:11:52.000",
    "request_status": "Pending",
    "responsible_agency": "Department of Sanitation",
    "final_address": "3415 Frenchmen St",
    "address_councildis": "D",
    "status": "Assigned to Contractor",
    "contractor": "IV Waste",
    "rowid": "1044250",
    "final_x": "3684000.01461",
    "final_y": "545249.119567",
    "longitude": "-90.0596943204499",
    "latitude": "29.993169832647236",
    "geocoded_column": {
      "latitude": "29.993169832647236",
      "longitude": "-90.0596943204499"
    }
  },
  {
    "service_request": "2023-1044249",
    "request_type": "Trash/Recycling",
    "request_reason": "Illegal Dumping",
    "date_created": "2023-10-18T13:10:50.000",
    "date_modified": "2023-10-18T13:11:38.000",
    "case_close_date": "2023-10-18T08:11:38.000",
    "request_status": "Closed",
    "responsible_agency": "Department of Sanitation",
    "final_address": "6062 Beechcraft St",
    "address_councildis": "D",
    "status": "Resolved",
    "rowid": "1044249",
    "final_x": "3696748.90531",
    "final_y": "553300.711063",
    "longitude": "-90.01913122418887",
    "latitude": "30.014912910048473",
    "geocoded_column": {
      "latitude": "30.014912910048473",
      "longitude": "-90.01913122418887"
    }
  },
  {
    "service_request": "2023-1044248",
    "request_type": "Trash/Recycling",
    "request_reason": "Missed Trash Pick-Up",
    "date_created": "2023-10-18T13:07:59.000",
    "date_modified": "2023-10-18T13:08:00.000",
    "request_status": "Pending",
    "responsible_agency": "Department of Sanitation",
    "final_address": "4600 Gabriel Dr",
    "address_councildis": "E",
    "status": "Assigned to Contractor",
    "contractor": "Waste Pro",
    "rowid": "1044248",
    "final_x": "3708908.6355",
    "final_y": "554789.224664",
    "longitude": "-89.980657139579",
    "latitude": "30.01861666553566",
    "geocoded_column": {
      "latitude": "30.01861666553566",
      "longitude": "-89.980657139579"
    }
  },
  {
    "service_request": "2023-1044247",
    "request_type": "Roads/Drainage",
    "request_reason": "Pothole",
    "date_created": "2023-10-18T13:05:57.000",
    "date_modified": "2023-10-18T13:06:23.000",
    "case_close_date": "2023-10-18T08:06:23.000",
    "request_status": "Closed",
    "responsible_agency": "Department of Public Works",
    "final_address": "2910 Louisiana Ave",
    "address_councildis": "B",
    "status": "Resolved",
    "rowid": "1044247",
    "final_x": "3672258.84097",
    "final_y": "525822.829949",
    "longitude": "-90.09744466942452",
    "latitude": "29.940107685438807",
    "geocoded_column": {
      "latitude": "29.940107685438807",
      "longitude": "-90.09744466942452"
    }
  },
  {
    "service_request": "2023-1044246",
    "request_type": "Trash/Recycling",
    "request_reason": "Order Recycling Cart",
    "date_created": "2023-10-18T13:05:14.000",
    "date_modified": "2023-10-18T13:05:14.000",
    "request_status": "Pending",
    "responsible_agency": "Department of Sanitation",
    "final_address": "1516 N Villere St",
    "address_councildis": "C",
    "status": "Pending",
    "rowid": "1044246",
    "final_x": "3682401.50069",
    "final_y": "536864.698184",
    "longitude": "-90.06503690749405",
    "latitude": "29.97016436881686",
    "geocoded_column": {
      "latitude": "29.97016436881686",
      "longitude": "-90.06503690749405"
    }
  },
  {
    "service_request": "2023-1044245",
    "request_type": "Abandoned Vehicles",
    "request_reason": "Abandoned/Junk Vehicles",
    "date_created": "2023-10-18T13:04:06.000",
    "date_modified": "2023-10-18T13:04:07.000",
    "request_status": "Pending",
    "responsible_agency": "Department of Public Works",
    "final_address": "2673 New Orleans St",
    "address_councildis": "D",
    "status": "Pending",
    "rowid": "1044245",
    "final_x": "3681952.90012",
    "final_y": "542247.226829",
    "longitude": "-90.06626566368047",
    "latitude": "29.984978094323274",
    "geocoded_column": {
      "latitude": "29.984978094323274",
      "longitude": "-90.06626566368047"
    }
  },
  {
    "service_request": "2023-1044244",
    "request_type": "Trash/Recycling",
    "request_reason": "Request a Large Item Pick Up",
    "date_created": "2023-10-18T13:03:49.000",
    "date_modified": "2023-10-18T13:03:50.000",
    "request_status": "Pending",
    "responsible_agency": "Department of Sanitation",
    "final_address": "2135 State St",
    "address_councildis": "A",
    "status": "Assigned to Contractor",
    "contractor": "Richards Disposal",
    "rowid": "1044244",
    "final_x": "3666534.78413",
    "final_y": "524602.584252",
    "longitude": "-90.11555740509043",
    "latitude": "29.93692092139152",
    "geocoded_column": {
      "latitude": "29.93692092139152",
      "longitude": "-90.11555740509043"
    }
  },
  {
    "service_request": "2023-1044243",
    "request_type": "Trash/Recycling",
    "request_reason": "Missed Trash Pick-Up",
    "date_created": "2023-10-18T13:03:31.000",
    "date_modified": "2023-10-18T13:03:32.000",
    "request_status": "Pending",
    "responsible_agency": "Department of Sanitation",
    "final_address": "11016 Hayne Blvd",
    "address_councildis": "E",
    "status": "Assigned to Contractor",
    "contractor": "Waste Pro",
    "rowid": "1044243",
    "final_x": "3709834.39601",
    "final_y": "567168.276388",
    "longitude": "-89.97726920769502",
    "latitude": "30.05262405957101",
    "geocoded_column": {
      "latitude": "30.05262405957101",
      "longitude": "-89.97726920769502"
    }
  },
  {
    "service_request": "2023-1044242",
    "request_type": "Roads/Drainage",
    "request_reason": "Pothole",
    "date_created": "2023-10-18T13:02:35.000",
    "date_modified": "2023-10-18T13:03:05.000",
    "case_close_date": "2023-10-18T08:03:05.000",
    "request_status": "Closed",
    "responsible_agency": "Department of Public Works",
    "final_address": "1853 Treasure St",
    "address_councildis": "D",
    "status": "Resolved",
    "rowid": "1044242",
    "final_x": "3681866.69314",
    "final_y": "543877.62171",
    "longitude": "-90.06648101869821",
    "latitude": "29.989463727283894",
    "geocoded_column": {
      "latitude": "29.989463727283894",
      "longitude": "-90.06648101869821"
    }
  },
  {
    "service_request": "2023-1044241",
    "request_type": "Trash/Recycling",
    "request_reason": "Order Recycling Cart",
    "date_created": "2023-10-18T13:02:29.000",
    "date_modified": "2023-10-18T13:02:29.000",
    "request_status": "Pending",
    "responsible_agency": "Department of Sanitation",
    "final_address": "4815 Dreux Ave",
    "address_councildis": "D",
    "status": "Pending",
    "rowid": "1044241",
    "final_x": "3691213.16726",
    "final_y": "553247.146071",
    "longitude": "-90.03662335583506",
    "latitude": "30.014939042126144",
    "geocoded_column": {
      "latitude": "30.014939042126144",
      "longitude": "-90.03662335583506"
    }
  },
  {
    "service_request": "2023-1044240",
    "request_type": "Roads/Drainage",
    "request_reason": "Damaged Sidewalk",
    "date_created": "2023-10-18T13:01:02.000",
    "date_modified": "2023-10-18T13:01:02.000",
    "request_status": "Pending",
    "responsible_agency": "Department of Public Works",
    "final_address": "6301 Berkley Dr",
    "address_councildis": "C",
    "status": "Pending",
    "rowid": "1044240",
    "final_x": "3707345.93656",
    "final_y": "518024.657782",
    "longitude": "-89.98695957988993",
    "latitude": "29.917578219389622",
    "geocoded_column": {
      "latitude": "29.917578219389622",
      "longitude": "-89.98695957988993"
    }
  },
  {
    "service_request": "2023-1044239",
    "request_type": "Roads/Drainage",
    "request_reason": "Alley Way",
    "date_created": "2023-10-18T12:58:48.000",
    "date_modified": "2023-10-18T12:59:24.000",
    "case_close_date": "2023-10-18T07:59:24.000",
    "request_status": "Closed",
    "responsible_agency": "Department of Public Works",
    "final_address": "5700 BLK Canal Blvd",
    "address_councildis": "A",
    "status": "Resolved",
    "rowid": "1044239",
    "final_x": "3668391.29507",
    "final_y": "545696.956622",
    "longitude": "-90.10898469455317",
    "latitude": "29.994869049741773",
    "geocoded_column": {
      "latitude": "29.994869049741773",
      "longitude": "-90.10898469455317"
    }
  },
  {
    "service_request": "2023-1044237",
    "request_type": "Roads/Drainage",
    "request_reason": "Damaged Sidewalk",
    "date_created": "2023-10-18T12:55:43.000",
    "date_modified": "2023-10-18T12:55:43.000",
    "request_status": "Pending",
    "responsible_agency": "Department of Public Works",
    "final_address": "6301 Berkley Dr",
    "address_councildis": "C",
    "status": "Pending",
    "rowid": "1044237",
    "final_x": "3707345.93656",
    "final_y": "518024.657782",
    "longitude": "-89.98695957988993",
    "latitude": "29.917578219389622",
    "geocoded_column": {
      "latitude": "29.917578219389622",
      "longitude": "-89.98695957988993"
    }
  },
  {
    "service_request": "2023-1044236",
    "request_type": "Roads/Drainage",
    "request_reason": "Alley Way",
    "date_created": "2023-10-18T12:54:58.000",
    "date_modified": "2023-10-18T12:55:19.000",
    "case_close_date": "2023-10-18T07:55:18.000",
    "request_status": "Closed",
    "responsible_agency": "Department of Public Works",
    "final_address": "5800 BLK General Diaz St",
    "address_councildis": "A",
    "status": "Resolved",
    "rowid": "1044236",
    "final_x": "3669412.42361",
    "final_y": "546196.856213",
    "longitude": "-90.10574213832867",
    "latitude": "29.99621356035742",
    "geocoded_column": {
      "latitude": "29.99621356035742",
      "longitude": "-90.10574213832867"
    }
  },
  {
    "service_request": "2023-1044235",
    "request_type": "Property Maintenance",
    "request_reason": "Property Maintenance",
    "date_created": "2023-10-18T12:54:31.000",
    "date_modified": "2023-10-18T12:54:32.000",
    "request_status": "Pending",
    "responsible_agency": "Department of Code Enforcement",
    "final_address": "WILSON AVE & PRENTISS AVE",
    "address_councildis": "E",
    "status": "Pending",
    "rowid": "1044235",
    "final_x": "3702968.6",
    "final_y": "555145.38",
    "longitude": "-89.9994122643868",
    "latitude": "30.019787429911187",
    "geocoded_column": {
      "latitude": "30.019787429911187",
      "longitude": "-89.9994122643868"
    }
  },
  {
    "service_request": "2023-1044234",
    "request_type": "Traffic Signals/Signs/Striping/Streetlights",
    "request_reason": "Request for Stop Sign",
    "date_created": "2023-10-18T12:53:19.000",
    "date_modified": "2023-10-18T12:53:19.000",
    "request_status": "Pending",
    "responsible_agency": "Department of Public Works",
    "final_address": "FILMORE ST & FRANKLIN AVE",
    "address_councildis": "D",
    "status": "Pending",
    "rowid": "1044234",
    "final_x": "3686672.3",
    "final_y": "552564.88",
    "longitude": "-90.0509944168611",
    "latitude": "30.013203576330486",
    "geocoded_column": {
      "latitude": "30.013203576330486",
      "longitude": "-90.0509944168611"
    }
  },
  {
    "service_request": "2023-1044233",
    "request_type": "Traffic Signals/Signs/Striping/Streetlights",
    "request_reason": "Street Light Outage/Malfunction",
    "date_created": "2023-10-18T12:52:06.000",
    "date_modified": "2023-10-18T12:52:07.000",
    "request_status": "Pending",
    "responsible_agency": "Department of Public Works",
    "final_address": "7601 Trapier Ave",
    "address_councildis": "E",
    "status": "Assigned to Contractor",
    "contractor": "Legacy Professional Services",
    "rowid": "1044233",
    "final_x": "3706709.33419",
    "final_y": "563482.524256",
    "longitude": "-89.98728340688494",
    "latitude": "30.042591036231535",
    "geocoded_column": {
      "latitude": "30.042591036231535",
      "longitude": "-89.98728340688494"
    }
  },