[
  {
    "service_request": "2026-1277330",
    "request_type": "Abandoned Vehicles",
    "request_reason": "Abandoned/Junk Vehicles",
    "date_created": "2026-04-28T23:19:09.000",
    "date_modified": "2026-04-28T23:19:11.000",
    "request_status": "Pending",
    "responsible_agency": "Department of Public Works",
    "final_address": "7301 Crowder Blvd",
    "address_councildis": "E",
    "status": "Pending",
    "rowid": "1277330",
    "final_x": "3703781.6154",
    "final_y": "561158.039902",
    "longitude": "-89.99662179289489",
    "latitude": "30.036293860614613",
    "geocoded_column": {
      "latitude": "30.036293860614613",
      "longitude": "-89.99662179289489"
    }
  },
  {
    "service_request": "2026-1277329",
    "request_type": "Streetlights",
    "request_reason": "Streetlight Outage/Malfunction",
    "date_created": "2026-04-28T23:09:38.000",
    "date_modified": "2026-04-28T23:09:40.000",
    "request_status": "Pending",
    "responsible_agency": "Department of Public Works",
    "final_address": "540 S Broad St",
    "address_councildis": "B",
    "status": "Pending",
    "rowid": "1277329",
    "final_x": "3674171.78241",
    "final_y": "533407.733636",
    "longitude": "-90.09114560889088",
    "latitude": "29.96090678730102",
    "geocoded_column": {
      "latitude": "29.96090678730102",
      "longitude": "-90.09114560889088"
    }
  },
  {
    "service_request": "2026-1277328",
    "request_type": "Trash/Recycling",
    "request_reason": "Replace Trash Cart",
    "date_created": "2026-04-28T23:08:26.000",
    "date_modified": "2026-04-28T23:08:28.000",
    "request_status": "Pending",
    "responsible_agency": "Department of Sanitation",
    "final_address": "4790 Lennox Blvd",
    "address_councildis": "C",
    "status": "Assigned to Contractor",
    "contractor": "Richards Disposal",
    "rowid": "1277328",
    "final_x": "3700814.241",
    "final_y": "512535.911089",
    "longitude": "-90.00777677250298",
    "latitude": "29.902695443520557",
    "geocoded_column": {
      "latitude": "29.902695443520557",
      "longitude": "-90.00777677250298"
    }
  },
  {
    "service_request": "2026-1277327",
    "request_type": "Streetlights",
    "request_reason": "Streetlight Outage/Malfunction",
    "date_created": "2026-04-28T23:01:30.000",
    "date_modified": "2026-04-28T23:01:31.000",
    "request_status": "Pending",
    "responsible_agency": "Department of Public Works",
    "final_address": "2701 Napoleon Ave",
    "address_councildis": "B",
    "status": "Pending",
    "rowid": "1277327",
    "final_x": "3670546.51975",
    "final_y": "524833.215036",
    "longitude": "-90.10288429437807",
    "latitude": "29.93743723708239",
    "geocoded_column": {
      "latitude": "29.93743723708239",
      "longitude": "-90.10288429437807"
    }
  },
  {
    "service_request": "2026-1277326",
    "request_type": "Health Related Request",
    "request_reason": "Noise Ordinance Complaint",
    "date_created": "2026-04-28T22:43:08.000",
    "date_modified": "2026-04-28T22:43:10.000",
    "request_status": "Pending",
    "responsible_agency": "Health Department",
    "final_address": "801 Bourbon St, New Orleans, Louisiana, 70116",
    "address_councildis": "C",
    "status": "Pending",
    "rowid": "1277326",
    "final_x": "3682490.98735",
    "final_y": "533018.672772",
    "longitude": "-90.06488875731978",
    "latitude": "29.959586396383013",
    "geocoded_column": {
      "latitude": "29.959586396383013",
      "longitude": "-90.06488875731978"
    }
  },
  {
    "service_request": "2026-1277325",
    "request_type": "Health Related Request",
    "request_reason": "Noise Ordinance Complaint",
    "date_created": "2026-04-28T22:42:31.000",
    "date_modified": "2026-04-28T22:42:33.000",
    "request_status": "Pending",
    "responsible_agency": "Health Department",
    "final_address": "800 Bourbon St, New Orleans, Louisiana, 70116",
    "address_councildis": "C",
    "status": "Pending",
    "rowid": "1277325",
    "final_x": "3682553.51528",
    "final_y": "533013.631428",
    "longitude": "-90.06469148499534",
    "latitude": "29.95957063099051",
    "geocoded_column": {
      "latitude": "29.95957063099051",
      "longitude": "-90.06469148499534"
    }
  },
  {
    "service_request": "2026-1277324",
    "request_type": "Trash/Recycling",
    "request_reason": "Order Recycling Cart",
    "date_created": "2026-04-28T22:35:19.000",
    "date_modified": "2026-04-28T22:35:21.000",
    "request_status": "Pending",
    "responsible_agency": "Department of Sanitation",
    "final_address": "4919 Bergerac St",
    "address_councildis": "E",
    "status": "Pending",
    "rowid": "1277324",
    "final_x": "3726023.34803",
    "final_y": "561728.938207",
    "longitude": "-89.92631239993587",
    "latitude": "30.03713140312292",
    "geocoded_column": {
      "latitude": "30.03713140312292",
      "longitude": "-89.92631239993587"
    }
  },
  {
    "service_request": "2026-1277323",
    "request_type": "Trash/Recycling",
    "request_reason": "Request a Large Item Pick Up",
    "date_created": "2026-04-28T21:55:15.000",
    "date_modified": "2026-04-28T21:55:18.000",
    "request_status": "Pending",
    "responsible_agency": "Department of Sanitation",
    "final_address": "4320 General Pershing St",
    "address_councildis": "B",
    "status": "Assigned to Contractor",
    "contractor": "IV Waste",
    "rowid": "1277323",
    "final_x": "3669458.25946",
    "final_y": "529713.152897",
    "longitude": "-90.10615501738499",
    "latitude": "29.950887569075395",
    "geocoded_column": {
      "latitude": "29.950887569075395",
      "longitude": "-90.10615501738499"
    }
  },
  {
    "service_request": "2026-1277322",
    "request_type": "Health Related Request",
    "request_reason": "Noise Ordinance Complaint",
    "date_created": "2026-04-28T21:43:08.000",
    "date_modified": "2026-04-28T21:43:09.000",
    "request_status": "Pending",
    "responsible_agency": "Health Department",
    "final_address": "801 Bourbon St, New Orleans, Louisiana, 70116",
    "address_councildis": "C",
    "status": "Pending",
    "rowid": "1277322",
    "final_x": "3682490.98735",
    "final_y": "533018.672772",
    "longitude": "-90.06488875731978",
    "latitude": "29.959586396383013",
    "geocoded_column": {
      "latitude": "29.959586396383013",
      "longitude": "-90.06488875731978"
    }
  },
  {
    "service_request": "2026-1277321",
    "request_type": "Health Related Request",
    "request_reason": "Noise Ordinance Complaint",
    "date_created": "2026-04-28T21:42:33.000",
    "date_modified": "2026-04-28T21:42:35.000",
    "request_status": "Pending",
    "responsible_agency": "Health Department",
    "final_address": "800 Bourbon St, New Orleans, Louisiana, 70116",
    "address_councildis": "C",
    "status": "Pending",
    "rowid": "1277321",
    "final_x": "3682553.51528",
    "final_y": "533013.631428",
    "longitude": "-90.06469148499534",
    "latitude": "29.95957063099051",
    "geocoded_column": {
      "latitude": "29.95957063099051",
      "longitude": "-90.06469148499534"
    }
  },
  {
    "service_request": "2026-1277320",
    "request_type": "Utility Poles",
    "request_reason": "Wires Sagging/Hanging Low",
    "date_created": "2026-04-28T21:29:20.000",
    "date_modified": "2026-04-28T21:29:23.000",
    "request_status": "Pending",
    "responsible_agency": "Utility Company Collective",
    "final_address": "500 BLK Homedale St",
    "address_councildis": "A",
    "status": "Pending",
    "rowid": "1277320",
    "final_x": "3667573.84493",
    "final_y": "544634.157567",
    "longitude": "-90.11160273170414",
    "latitude": "29.991970708356444",
    "geocoded_column": {
      "latitude": "29.991970708356444",
      "longitude": "-90.11160273170414"
    }
  },
  {
    "service_request": "2026-1277319",
    "request_type": "Trash/Recycling",
    "request_reason": "Request a Large Item Pick Up",
    "date_created": "2026-04-28T21:18:56.000",
    "date_modified": "2026-04-28T21:18:59.000",
    "request_status": "Pending",
    "responsible_agency": "Department of Sanitation",
    "final_address": "4842 Gabriel Dr",
    "address_councildis": "E",
    "status": "Assigned to Contractor",
    "contractor": "Waste Pro",
    "rowid": "1277319",
    "final_x": "3708759.61144",
    "final_y": "556382.21609",
    "longitude": "-89.98106859726059",
    "latitude": "30.023001607871134",
    "geocoded_column": {
      "latitude": "30.023001607871134",
      "longitude": "-89.98106859726059"
    }
  },
  {
    "service_request": "2026-1277318",
    "request_type": "Trash/Recycling",
    "request_reason": "MIssed Recycling Pick-Up",
    "date_created": "2026-04-28T21:06:04.000",
    "date_modified": "2026-04-28T21:06:06.000",
    "request_status": "Pending",
    "responsible_agency": "Department of Sanitation",
    "final_address": "7740 Windward Ct",
    "address_councildis": "E",
    "status": "Assigned to Contractor",
    "contractor": "Waste Pro",
    "rowid": "1277318",
    "final_x": "3715389.16664",
    "final_y": "569932.075558",
    "longitude": "-89.95960762699765",
    "latitude": "30.0600414432529",
    "geocoded_column": {
      "latitude": "30.0600414432529",
      "longitude": "-89.95960762699765"
    }
  },
  {
    "service_request": "2026-1277317",
    "request_type": "Health Related Request",
    "request_reason": "Noise Ordinance Complaint",
    "date_created": "2026-04-28T21:05:51.000",
    "date_modified": "2026-04-28T21:05:52.000",
    "request_status": "Pending",
    "responsible_agency": "Health Department",
    "final_address": "4917 Freret St",
    "address_councildis": "B",
    "status": "Pending",
    "rowid": "1277317",
    "final_x": "3669008.03982",
    "final_y": "523947.662332",
    "longitude": "-90.10777129855815",
    "latitude": "29.935047589072305",
    "geocoded_column": {
      "latitude": "29.935047589072305",
      "longitude": "-90.10777129855815"
    }
  },
  {
    "service_request": "2026-1277316",
    "request_type": "Traffic Signals",
    "request_reason": "Traffic Signal Malfunctioning or Damaged",
    "date_created": "2026-04-28T21:05:40.000",
    "date_modified": "2026-04-28T21:05:42.000",
    "request_status": "Pending",
    "responsible_agency": "Department of Public Works",
    "final_address": "4600 Washington Ave",
    "address_councildis": "B",
    "status": "Pending",
    "rowid": "1277316",
    "final_x": "3669817.90618",
    "final_y": "532640.313092",
    "longitude": "-90.10492034640713",
    "latitude": "29.95892569995415",
    "geocoded_column": {
      "latitude": "29.95892569995415",
      "longitude": "-90.10492034640713"
    }
  },
  {
    "service_request": "2026-1277315",
    "request_type": "Trash/Recycling",
    "request_reason": "Order Recycling Cart",
    "date_created": "2026-04-28T20:59:06.000",
    "date_modified": "2026-04-28T20:59:08.000",
    "request_status": "Pending",
    "responsible_agency": "Department of Sanitation",
    "final_address": "4618 Annunciation St",
    "address_councildis": "B",
    "status": "Pending",
    "rowid": "1277315",
    "final_x": "3670256.40359",
    "final_y": "517617.759862",
    "longitude": "-90.10404460035134",
    "latitude": "29.917605603306395",
    "geocoded_column": {
      "latitude": "29.917605603306395",
      "longitude": "-90.10404460035134"
    }
  },
  {
    "service_request": "2026-1277314",
    "request_type": "Drainage",
    "request_reason": "Catch Basin Not Draining",
    "date_created": "2026-04-28T20:56:56.000",
    "date_modified": "2026-04-28T20:56:57.000",
    "request_status": "Pending",
    "responsible_agency": "Sewerage & Water Board",
    "final_address": "1441 State St",
    "address_councildis": "A",
    "status": "Pending",
    "rowid": "1277314",
    "final_x": "3665523.58208",
    "final_y": "521520.715833",
    "longitude": "-90.11885296057069",
    "latitude": "29.928476273247483",
    "geocoded_column": {
      "latitude": "29.928476273247483",
      "longitude": "-90.11885296057069"
    }
  },
  {
    "service_request": "2026-1277313",
    "request_type": "Drainage",
    "request_reason": "Catch Basin Not Draining",
    "date_created": "2026-04-28T20:55:40.000",
    "date_modified": "2026-04-28T20:55:42.000",
    "request_status": "Pending",
    "responsible_agency": "Sewerage & Water Board",
    "final_address": "1441 State St",
    "address_councildis": "A",
    "status": "Pending",
    "rowid": "1277313",
    "final_x": "3665523.58208",
    "final_y": "521520.715833",
    "longitude": "-90.11885296057069",
    "latitude": "29.928476273247483",
    "geocoded_column": {
      "latitude": "29.928476273247483",
      "longitude": "-90.11885296057069"
    }
  },
  {
    "service_request": "2026-1277312",
    "request_type": "Drainage",
    "request_reason": "Catch Basin Not Draining",
    "date_created": "2026-04-28T20:50:57.000",
    "date_modified": "2026-04-28T20:51:00.000",
    "request_status": "Pending",
    "responsible_agency": "Sewerage & Water Board",
    "final_address": "1441 State St",
    "address_councildis": "A",
    "status": "Pending",
    "rowid": "1277312",
    "final_x": "3665523.58208",
    "final_y": "521520.715833",
    "longitude": "-90.11885296057069",
    "latitude": "29.928476273247483",
    "geocoded_column": {
      "latitude": "29.928476273247483",
      "longitude": "-90.11885296057069"
    }
  },
  {
    "service_request": "2026-1277311",
    "request_type": "Property Maintenance",
    "request_reason": "Property Maintenance",
    "date_created": "2026-04-28T20:46:49.000",
    "date_modified": "2026-04-28T20:46:51.000",
    "request_status": "Pending",
    "responsible_agency": "Department of Code Enforcement",
    "final_address": "1111 Kentucky St",
    "address_councildis": "D",
    "status": "Pending",
    "rowid": "1277311",
    "final_x": "3693388.51229",
    "final_y": "535086.367942",
    "longitude": "-90.03040279285946",
    "latitude": "29.964935624853343",
    "geocoded_column": {
      "latitude": "29.964935624853343",
      "longitude": "-90.03040279285946"
    }
  },
  {
    "service_request": "2026-1277310",
    "request_type": "Property Maintenance",
    "request_reason": "Property Maintenance",
    "date_created": "2026-04-28T20:41:49.000",
    "date_modified": "2026-04-28T20:41:51.000",
    "request_status": "Pending",
    "responsible_agency": "Department of Code Enforcement",
    "final_address": "3618 Clematis St",
    "address_councildis": "D",
    "status": "Pending",
    "rowid": "1277310",
    "final_x": "3686273.66633",
    "final_y": "546154.716752",
    "longitude": "-90.05248027433014",
    "latitude": "29.99559021410322",
    "geocoded_column": {
      "latitude": "29.99559021410322",
      "longitude": "-90.05248027433014"
    }
  },
  {
    "service_request": "2026-1277309",
    "request_type": "Trash/Recycling",
    "request_reason": "Repair Trash Cart",
    "date_created": "2026-04-28T20:38:40.000",
    "date_modified": "2026-04-28T20:38:41.000",
    "request_status": "Pending",
    "responsible_agency": "Department of Sanitation",
    "final_address": "316 40Th St",
    "address_councildis": "A",
    "status": "Assigned to Contractor",
    "contractor": "IV Waste",
    "rowid": "1277309",
    "final_x": "3665266.7689",
    "final_y": "553297.091799",
    "longitude": "-90.11860024335459",
    "latitude": "30.015858222157213",
    "geocoded_column": {
      "latitude": "30.015858222157213",
      "longitude": "-90.11860024335459"
    }
  },
  {
    "service_request": "2026-1277308",
    "request_type": "Property Maintenance",
    "request_reason": "Property Maintenance",
    "date_created": "2026-04-28T20:34:51.000",
    "date_modified": "2026-04-28T20:34:52.000",
    "request_status": "Pending",
    "responsible_agency": "Department of Code Enforcement",
    "final_address": "20501 Old Spanish Trl",
    "address_councildis": "E",
    "status": "Pending",
    "rowid": "1277308",
    "final_x": "3761719.41309",
    "final_y": "572407.974057",
    "longitude": "-89.81306014220682",
    "latitude": "30.065240373314854",
    "geocoded_column": {
      "latitude": "30.065240373314854",
      "longitude": "-89.81306014220682"
    }
  },
  {
    "service_request": "2026-1277307",
    "request_type": "Streetlights",
    "request_reason": "Streetlight Outage/Malfunction",
    "date_created": "2026-04-28T20:34:05.000",
    "date_modified": "2026-04-28T20:34:06.000",
    "request_status": "Pending",
    "responsible_agency": "Department of Public Works",
    "final_address": "450 S Claiborne Ave",
    "address_councildis": "B",
    "status": "Pending",
    "rowid": "1277307",
    "final_x": "3677456.56398",
    "final_y": "531294.549186",
    "longitude": "-90.08084582474136",
    "latitude": "29.954997917723286",
    "geocoded_column": {
      "latitude": "29.954997917723286",
      "longitude": "-90.08084582474136"
    }
  },
  {
    "service_request": "2026-1277306",
    "request_type": "Trash/Recycling",
    "request_reason": "Replace Trash Cart",
    "date_created": "2026-04-28T20:29:21.000",
    "date_modified": "2026-04-28T20:29:23.000",
    "request_status": "Pending",
    "responsible_agency": "Department of Sanitation",
    "final_address": "510 Turquoise St",
    "address_councildis": "D",
    "status": "Assigned to Contractor",
    "contractor": "IV Waste",
    "rowid": "1277306",
    "final_x": "3668257.11201",
    "final_y": "555269.284441",
    "longitude": "-90.10908549450917",
    "latitude": "30.021193547466115",
    "geocoded_column": {
      "latitude": "30.021193547466115",
      "longitude": "-90.10908549450917"
    }
  },
  {
    "service_request": "2026-1277305",
    "request_type": "Trash/Recycling",
    "request_reason": "Replace Trash Cart",
    "date_created": "2026-04-28T20:08:43.000",
    "date_modified": "2026-04-28T20:08:45.000",
    "request_status": "Pending",
    "responsible_agency": "Department of Sanitation",
    "final_address": "5737 E Louis Prima Dr",
    "address_councildis": "E",
    "status": "Assigned to Contractor",
    "contractor": "Waste Pro",
    "rowid": "1277305",
    "final_x": "3716224.43327",
    "final_y": "562295.961247",
    "longitude": "-89.95725729314398",
    "latitude": "30.039017693152502",
    "geocoded_column": {
      "latitude": "30.039017693152502",
      "longitude": "-89.95725729314398"
    }
  },
  {
    "service_request": "2026-1277304",
    "request_type": "Trash/Recycling",
    "request_reason": "Replace Trash Cart",
    "date_created": "2026-04-28T20:06:36.000",
    "date_modified": "2026-04-28T20:06:38.000",
    "request_status": "Pending",
    "responsible_agency": "Department of Sanitation",
    "final_address": "7463 Dominican St",
    "address_councildis": "A",
    "status": "Assigned to Contractor",
    "contractor": "IV Waste",
    "rowid": "1277304",
    "final_x": "3661737.1111",
    "final_y": "524886.643004",
    "longitude": "-90.13069457556422",
    "latitude": "29.937841323508398",
    "geocoded_column": {
      "latitude": "29.937841323508398",
      "longitude": "-90.13069457556422"
    }
  },
  {
    "service_request": "2026-1277303",
    "request_type": "Trash/Recycling",
    "request_reason": "Request a Large Item Pick Up",
    "date_created": "2026-04-28T19:56:22.000",
    "date_modified": "2026-04-28T19:56:25.000",
    "request_status": "Pending",
    "responsible_agency": "Department of Sanitation",
    "final_address": "2542 Myrtle St",
    "address_councildis": "D",
    "status": "Assigned to Contractor",
    "contractor": "IV Waste",
    "rowid": "1277303",
    "final_x": "3686892.92335",
    "final_y": "546007.598736",
    "longitude": "-90.05052930514198",
    "latitude": "29.995166644248396",
    "geocoded_column": {
      "latitude": "29.995166644248396",
      "longitude": "-90.05052930514198"
    }
  },
  {
    "service_request": "2026-1277302",
    "request_type": "Trash/Recycling",
    "request_reason": "Request a Large Item Pick Up",
    "date_created": "2026-04-28T19:48:16.000",
    "date_modified": "2026-04-28T19:48:18.000",
    "request_status": "Pending",
    "responsible_agency": "Department of Sanitation",
    "final_address": "7527 Oak St",
    "address_councildis": "A",
    "status": "Assigned to Contractor",
    "contractor": "IV Waste",
    "rowid": "1277302",
    "final_x": "3663534.83309",
    "final_y": "527005.28627",
    "longitude": "-90.12494845620685",
    "latitude": "29.943614912847497",
    "geocoded_column": {
      "latitude": "29.943614912847497",
      "longitude": "-90.12494845620685"
    }
  },
  {
    "service_request": "2026-1277301",
    "request_type": "Roads and Streets",
    "request_reason": "Abandoned Service Cut",
    "date_created": "2026-04-28T19:41:39.000",
    "date_modified": "2026-04-28T19:41:41.000",
    "request_status": "Pending",
    "responsible_agency": "Department of Public Works",
    "final_address": "438 Vallette St",
    "address_councildis": "C",
    "status": "Pending",
    "rowid": "1277301",
    "final_x": "3687573.65762",
    "final_y": "530034.487425",
    "longitude": "-90.04894452560644",
    "latitude": "29.951225224929786",
    "geocoded_column": {
      "latitude": "29.951225224929786",
      "longitude": "-90.04894452560644"
    }
  },
  {
    "service_request": "2026-1277300",
    "request_type": "Roads and Streets",
    "request_reason": "Pothole",
    "date_created": "2026-04-28T19:37:57.000",
    "date_modified": "2026-04-28T19:37:59.000",
    "request_status": "Pending",
    "responsible_agency": "Department of Public Works",
    "final_address": "1012 Evelina St",
    "address_councildis": "C",
    "status": "Pending",
    "rowid": "1277300",
    "final_x": "3688571.85859",
    "final_y": "529498.167169",
    "longitude": "-90.04581173851783",
    "latitude": "29.9497197246028",
    "geocoded_column": {
      "latitude": "29.9497197246028",
      "longitude": "-90.04581173851783"
    }
  },
  {
    "service_request": "2026-1277299",
    "request_type": "Safety & Permits",
    "request_reason": "Zoning Enforcement",
    "date_created": "2026-04-28T19:34:34.000",
    "date_modified": "2026-04-28T19:34:36.000",
    "request_status": "Pending",
    "responsible_agency": "Safety and Permits",
    "final_address": "4701 Sherwood Dr",
    "address_councildis": "E",
    "status": "Pending",
    "rowid": "1277299",
    "final_x": "3718109.24332",
    "final_y": "556572.957594",
    "longitude": "-89.95151893923584",
    "latitude": "30.023219363828403",
    "geocoded_column": {
      "latitude": "30.023219363828403",
      "longitude": "-89.95151893923584"
    }
  },
  {
    "service_request": "2026-1277298",
    "request_type": "Drainage",
    "request_reason": "Catch Basin Not Draining",
    "date_created": "2026-04-28T19:29:43.000",
    "date_modified": "2026-04-28T19:29:46.000",
    "request_status": "Pending",
    "responsible_agency": "Sewerage & Water Board",
    "final_address": "838 Dublin St",
    "address_councildis": "A",
    "status": "Pending",
    "rowid": "1277298",
    "final_x": "3660928.04723",
    "final_y": "527822.738943",
    "longitude": "-90.13315177869468",
    "latitude": "29.945937980628706",
    "geocoded_column": {
      "latitude": "29.945937980628706",
      "longitude": "-90.13315177869468"
    }
  },
  {
    "service_request": "2026-1277297",
    "request_type": "Trash/Recycling",
    "request_reason": "Order Second Trash Cart",
    "date_created": "2026-04-28T19:21:42.000",
    "date_modified": "2026-04-28T19:21:45.000",
    "request_status": "Pending",
    "responsible_agency": "Department of Sanitation",
    "final_address": "2237 Benton St",
    "address_councildis": "E",
    "status": "Assigned to Contractor",
    "contractor": "Waste Pro",
    "rowid": "1277297",
    "final_x": "3700548.62756",
    "final_y": "537746.104712",
    "longitude": "-90.00769456606814",
    "latitude": "29.972023130222063",
    "geocoded_column": {
      "latitude": "29.972023130222063",
      "longitude": "-90.00769456606814"
    }
  },
  {
    "service_request": "2026-1277296",
    "request_type": "Traffic Signals",
    "request_reason": "Traffic Signal Malfunctioning or Damaged",
    "date_created": "2026-04-28T19:18:21.000",
    "date_modified": "2026-04-28T19:18:23.000",
    "request_status": "Pending",
    "responsible_agency": "Department of Public Works",
    "final_address": "4600 Washington Ave",
    "address_councildis": "B",
    "status": "Pending",
    "rowid": "1277296",
    "final_x": "3669817.90618",
    "final_y": "532640.313092",
    "longitude": "-90.10492034640713",
    "latitude": "29.95892569995415",
    "geocoded_column": {
      "latitude": "29.95892569995415",
      "longitude": "-90.10492034640713"
    }
  },
  {
    "service_request": "2026-1277295",
    "request_type": "New Orleans Recreation Development Commission (NORDC)",
    "request_reason": "Facilities and Parks Maintenance/Clean Up",
    "date_created": "2026-04-28T19:14:58.000",
    "date_modified": "2026-04-28T19:15:01.000",
    "request_status": "Pending",
    "responsible_agency": "New Orleans Recreation Development Commission",
    "final_address": "604 Verret St",
    "address_councildis": "C",
    "status": "Pending",
    "rowid": "1277295",
    "final_x": "3687082.71497",
    "final_y": "529426.237377",
    "longitude": "-90.05051617702954",
    "latitude": "29.94956786761005",
    "geocoded_column": {
      "latitude": "29.94956786761005",
      "longitude": "-90.05051617702954"
    }
  },
  {
    "service_request": "2026-1277293",
    "request_type": "Trash/Recycling",
    "request_reason": "Repair Trash Cart",
    "date_created": "2026-04-28T19:04:34.000",
    "date_modified": "2026-04-28T19:04:35.000",
    "request_status": "Pending",
    "responsible_agency": "Department of Sanitation",
    "final_address": "1831 Charbonnet St",
    "address_councildis": "E",
    "status": "Assigned to Contractor",
    "contractor": "Waste Pro",
    "rowid": "1277293",
    "final_x": "3699443.95466",
    "final_y": "536491.351367",
    "longitude": "-90.01122900405717",
    "latitude": "29.968608105113475",
    "geocoded_column": {
      "latitude": "29.968608105113475",
      "longitude": "-90.01122900405717"
    }
  },
  {
    "service_request": "2026-1277292",
    "request_type": "Trash/Recycling",
    "request_reason": "Request a Large Item Pick Up",
    "date_created": "2026-04-28T19:02:32.000",
    "date_modified": "2026-04-28T19:02:34.000",
    "request_status": "Pending",
    "responsible_agency": "Department of Sanitation",
    "final_address": "1831 Charbonnet St",
    "address_councildis": "E",
    "status": "Assigned to Contractor",
    "contractor": "Waste Pro",
    "rowid": "1277292",
    "final_x": "3699443.95466",
    "final_y": "536491.351367",
    "longitude": "-90.01122900405717",
    "latitude": "29.968608105113475",
    "geocoded_column": {
      "latitude": "29.968608105113475",
      "longitude": "-90.01122900405717"
    }
  },
  {
    "service_request": "2026-1277291",
    "request_type": "Trash/Recycling",
    "request_reason": "Request a Large Item Pick Up",
    "date_created": "2026-04-28T19:00:50.000",
    "date_modified": "2026-04-28T19:00:53.000",
    "request_status": "Pending",
    "responsible_agency": "Department of Sanitation",
    "final_address": "2921 Preston Pl",
    "address_councildis": "C",
    "status": "Assigned to Contractor",
    "contractor": "Richards Disposal",
    "rowid": "1277291",
    "final_x": "3708574.12868",
    "final_y": "519060.175031",
    "longitude": "-89.9830443827841",
    "latitude": "29.920385791750356",
    "geocoded_column": {
      "latitude": "29.920385791750356",
      "longitude": "-89.9830443827841"
    }
  },
  {
    "service_request": "2026-1277290",
    "request_type": "Trash/Recycling",
    "request_reason": "Request a Large Item Pick Up",
    "date_created": "2026-04-28T18:34:33.000",
    "date_modified": "2026-04-28T18:34:36.000",
    "request_status": "Pending",
    "responsible_agency": "Department of Sanitation",
    "final_address": "4439 Bancroft Dr",
    "address_councildis": "D",
    "status": "Assigned to Contractor",
    "contractor": "IV Waste",
    "rowid": "1277290",
    "final_x": "3676597.32577",
    "final_y": "548617.626515",
    "longitude": "-90.08296207965438",
    "latitude": "30.002656213930862",
    "geocoded_column": {
      "latitude": "30.002656213930862",
      "longitude": "-90.08296207965438"
    }
  },
  {
    "service_request": "2026-1277289",
    "request_type": "Trash/Recycling",
    "request_reason": "Missed Trash Pick-Up",
    "date_created": "2026-04-28T18:20:17.000",
    "date_modified": "2026-04-28T18:20:19.000",
    "request_status": "Pending",
    "responsible_agency": "Department of Sanitation",
    "final_address": "8419 Curran Rd",
    "address_councildis": "E",
    "status": "Assigned to Contractor",
    "contractor": "Waste Pro",
    "rowid": "1277289",
    "final_x": "3703473.16158",
    "final_y": "562290.101855",
    "longitude": "-89.99755485526966",
    "latitude": "30.039416477239463",
    "geocoded_column": {
      "latitude": "30.039416477239463",
      "longitude": "-89.99755485526966"
    }
  },
  {
    "service_request": "2026-1277288",
    "request_type": "Trash/Recycling",
    "request_reason": "Replace Recycling Cart",
    "date_created": "2026-04-28T18:16:08.000",
    "date_modified": "2026-04-28T18:16:09.000",
    "request_status": "Pending",
    "responsible_agency": "Department of Sanitation",
    "final_address": "1808 W Homestead Dr",
    "address_councildis": "C",
    "status": "Pending",
    "rowid": "1277288",
    "final_x": "3696964.57635",
    "final_y": "525304.051517",
    "longitude": "-90.01946408329191",
    "latitude": "29.93792539104885",
    "geocoded_column": {
      "latitude": "29.93792539104885",
      "longitude": "-90.01946408329191"
    }
  },
  {
    "service_request": "2026-1277287",
    "request_type": "Trash/Recycling",
    "request_reason": "Replace Trash Cart",
    "date_created": "2026-04-28T18:13:54.000",
    "date_modified": "2026-04-28T18:13:56.000",
    "request_status": "Pending",
    "responsible_agency": "Department of Sanitation",
    "final_address": "1808 W Homestead Dr",
    "address_councildis": "C",
    "status": "Assigned to Contractor",
    "contractor": "Richards Disposal",
    "rowid": "1277287",
    "final_x": "3696964.57635",
    "final_y": "525304.051517",
    "longitude": "-90.01946408329191",
    "latitude": "29.93792539104885",
    "geocoded_column": {
      "latitude": "29.93792539104885",
      "longitude": "-90.01946408329191"
    }
  },
  {
    "service_request": "2026-1277286",
    "request_type": "Street and Traffic Signs",
    "request_reason": "Street Name Sign Damaged or Missing",
    "date_created": "2026-04-28T18:12:24.000",
    "date_modified": "2026-04-28T18:12:26.000",
    "request_status": "Pending",
    "responsible_agency": "Department of Public Works",
    "final_address": "7411 Fieldston Rd",
    "address_councildis": "E",
    "status": "Pending",
    "rowid": "1277286",
    "final_x": "3700778.46429",
    "final_y": "560031.969309",
    "longitude": "-90.00615350072945",
    "latitude": "30.033293592707338",
    "geocoded_column": {
      "latitude": "30.033293592707338",
      "longitude": "-90.00615350072945"
    }
  },
  {
    "service_request": "2026-1277285",
    "request_type": "Trash/Recycling",
    "request_reason": "Repair Recycling Cart",
    "date_created": "2026-04-28T18:10:20.000",
    "date_modified": "2026-04-28T18:10:23.000",
    "request_status": "Pending",
    "responsible_agency": "Department of Sanitation",
    "final_address": "1022 Valmont St",
    "address_councildis": "B",
    "status": "Pending",
    "rowid": "1277285",
    "final_x": "3667470.09505",
    "final_y": "519204.191287",
    "longitude": "-90.11278611127194",
    "latitude": "29.922049691039543",
    "geocoded_column": {
      "latitude": "29.922049691039543",
      "longitude": "-90.11278611127194"
    }
  },
  {
    "service_request": "2026-1277283",
    "request_type": "General Services",
    "request_reason": "General Service Request",
    "date_created": "2026-04-28T17:47:16.000",
    "date_modified": "2026-04-28T17:47:19.000",
    "request_status": "Pending",
    "responsible_agency": "Orleans Parish Communication District",
    "final_address": "1939 S Carrollton Ave, New Orleans, Louisiana, 70118",
    "address_councildis": "A",
    "status": "Pending",
    "rowid": "1277283",
    "final_x": "3663946.55635",
    "final_y": "530292.444609",
    "longitude": "-90.1235389542535",
    "latitude": "29.952641594683236",
    "geocoded_column": {
      "latitude": "29.952641594683236",
      "longitude": "-90.1235389542535"
    }
  },
  {
    "service_request": "2026-1277282",
    "request_type": "Trash/Recycling",
    "request_reason": "Missed Trash Pick-Up",
    "date_created": "2026-04-28T17:39:13.000",
    "date_modified": "2026-04-28T17:39:15.000",
    "request_status": "Pending",
    "responsible_agency": "Department of Sanitation",
    "final_address": "719 Alix St",
    "address_councildis": "C",
    "status": "Assigned to Contractor",
    "contractor": "Richards Disposal",
    "rowid": "1277282",
    "final_x": "3687707.69238",
    "final_y": "530301.16141",
    "longitude": "-90.04851186976938",
    "latitude": "29.951954355153113",
    "geocoded_column": {
      "latitude": "29.951954355153113",
      "longitude": "-90.04851186976938"
    }
  },
  {
    "service_request": "2026-1277281",
    "request_type": "Trash/Recycling",
    "request_reason": "Request a Large Item Pick Up",
    "date_created": "2026-04-28T17:36:04.000",
    "date_modified": "2026-04-28T17:36:05.000",
    "request_status": "Pending",
    "responsible_agency": "Department of Sanitation",
    "final_address": "131 Millaudon St",
    "address_councildis": "A",
    "status": "Assigned to Contractor",
    "contractor": "IV Waste",
    "rowid": "1277281",
    "final_x": "3660857.76448",
    "final_y": "523432.896763",
    "longitude": "-90.13351881742025",
    "latitude": "29.93386932754744",
    "geocoded_column": {
      "latitude": "29.93386932754744",
      "longitude": "-90.13351881742025"
    }
  },
  {
    "service_request": "2026-1277280",
    "request_type": "Parks & Grass Service",
    "request_reason": "Request Grass Cutting Service (City Owned Property)",
    "date_created": "2026-04-28T17:35:17.000",
    "date_modified": "2026-04-28T17:35:18.000",
    "request_status": "Pending",
    "responsible_agency": "Department of Parks & Parkways",
    "final_address": "6210 Providence Pl",
    "address_councildis": "D",
    "status": "Pending",
    "rowid": "1277280",
    "final_x": "3688377.14927",
    "final_y": "556244.437466",
    "longitude": "-90.04547735435676",
    "latitude": "30.02326842416946",
    "geocoded_column": {
      "latitude": "30.02326842416946",
      "longitude": "-90.04547735435676"
    }
  },
  {
    "service_request": "2026-1277279",
    "request_type": "Trash/Recycling",
    "request_reason": "Request a Large Item Pick Up",
    "date_created": "2026-04-28T17:31:50.000",
    "date_modified": "2026-04-28T17:31:53.000",
    "request_status": "Pending",
    "responsible_agency": "Department of Sanitation",
    "final_address": "3135 Dauphine St Apt A1",
    "address_councildis": "C",
    "status": "Assigned to Contractor",
    "contractor": "IV Waste",
    "rowid": "1277279",
    "final_x": "3689166.38678",
    "final_y": "534959.415814",
    "longitude": "-90.04374047743033",
    "latitude": "29.964717885311742",
    "geocoded_column": {
      "latitude": "29.964717885311742",
      "longitude": "-90.04374047743033"
    }
  },
  {
    "service_request": "2026-1277278",
    "request_type": "Streetlights",
    "request_reason": "Streetlight Outage/Malfunction",
    "date_created": "2026-04-28T17:25:30.000",
    "date_modified": "2026-04-28T17:25:31.000",
    "request_status": "Pending",
    "responsible_agency": "Department of Public Works",
    "final_address": "6830 Marshal Foch St",
    "address_councildis": "A",
    "status": "Pending",
    "rowid": "1277278",
    "final_x": "3670245.61038",
    "final_y": "552819.122838",
    "longitude": "-90.1028855142422",
    "latitude": "30.014397905734747",
    "geocoded_column": {
      "latitude": "30.014397905734747",
      "longitude": "-90.1028855142422"
    }
  },
  {
    "service_request": "2026-1277277",
    "request_type": "Trash/Recycling",
    "request_reason": "Request a Large Item Pick Up",
    "date_created": "2026-04-28T17:21:19.000",
    "date_modified": "2026-04-28T17:21:21.000",
    "request_status": "Pending",
    "responsible_agency": "Department of Sanitation",
    "final_address": "406 S Hennessey St",
    "address_councildis": "A",
    "status": "Assigned to Contractor",
    "contractor": "IV Waste",
    "rowid": "1277277",
    "final_x": "3669533.24954",
    "final_y": "537887.594697",
    "longitude": "-90.10564169071753",
    "latitude": "29.973362363246398",
    "geocoded_column": {
      "latitude": "29.973362363246398",
      "longitude": "-90.10564169071753"
    }
  },
  {
    "service_request": "2026-1277276",
    "request_type": "Trash/Recycling",
    "request_reason": "Replace Trash Cart",
    "date_created": "2026-04-28T17:15:18.000",
    "date_modified": "2026-04-28T17:15:20.000",
    "request_status": "Pending",
    "responsible_agency": "Department of Sanitation",
    "final_address": "3711 Danneel St",
    "address_councildis": "B",
    "status": "Assigned to Contractor",
    "contractor": "IV Waste",
    "rowid": "1277276",
    "final_x": "3672691.58753",
    "final_y": "522582.621946",
    "longitude": "-90.09618886943838",
    "latitude": "29.93118532309063",
    "geocoded_column": {
      "latitude": "29.93118532309063",
      "longitude": "-90.09618886943838"
    }
  },
  {
    "service_request": "2026-1277275",
    "request_type": "Trash/Recycling",
    "request_reason": "Request a Large Item Pick Up",
    "date_created": "2026-04-28T17:14:50.000",
    "date_modified": "2026-04-28T17:14:52.000",
    "request_status": "Pending",
    "responsible_agency": "Department of Sanitation",
    "final_address": "4822 Nottingham Dr",
    "address_councildis": "E",
    "status": "Assigned to Contractor",
    "contractor": "Waste Pro",
    "rowid": "1277275",
    "final_x": "3716281.04607",
    "final_y": "557266.235803",
    "longitude": "-89.95726927273842",
    "latitude": "30.025186097226108",
    "geocoded_column": {
      "latitude": "30.025186097226108",
      "longitude": "-89.95726927273842"
    }
  },
  {
    "service_request": "2026-1277274",
    "request_type": "Abandoned Vehicles",
    "request_reason": "Abandoned/Junk Vehicles",
    "date_created": "2026-04-28T17:12:46.000",
    "date_modified": "2026-04-28T17:12:47.000",
    "request_status": "Pending",
    "responsible_agency": "Department of Public Works",
    "final_address": "5506 Cameron Blvd",
    "address_councildis": "D",
    "status": "Pending",
    "rowid": "1277274",
    "final_x": "3682427.43599",
    "final_y": "553005.759575",
    "longitude": "-90.06439048515433",
    "latitude": "30.014545774240172",
    "geocoded_column": {
      "latitude": "30.014545774240172",
      "longitude": "-90.06439048515433"
    }
  },
  {
    "service_request": "2026-1277273",
    "request_type": "Safety & Permits",
    "request_reason": "Zoning Enforcement",
    "date_created": "2026-04-28T17:12:30.000",
    "date_modified": "2026-04-28T17:12:32.000",
    "request_status": "Pending",
    "responsible_agency": "Safety and Permits",
    "final_address": "1604 Foucher St",
    "address_councildis": "B",
    "status": "Pending",
    "rowid": "1277273",
    "final_x": "3673366.87547",
    "final_y": "521455.750521",
    "longitude": "-90.09409554237862",
    "latitude": "29.92806672526964",
    "geocoded_column": {
      "latitude": "29.92806672526964",
      "longitude": "-90.09409554237862"
    }
  },
  {
    "service_request": "2026-1277272",
    "request_type": "Trash/Recycling",
    "request_reason": "Damaged Caused By Contractor",
    "date_created": "2026-04-28T17:06:06.000",
    "date_modified": "2026-04-28T17:06:09.000",
    "request_status": "Pending",
    "responsible_agency": "Department of Sanitation",
    "final_address": "3140 State Street Dr",
    "address_councildis": "A",
    "status": "Assigned to Contractor",
    "contractor": "IV Waste",
    "rowid": "1277272",
    "final_x": "3667463.29709",
    "final_y": "527898.210623",
    "longitude": "-90.11251517799934",
    "latitude": "29.945955665374207",
    "geocoded_column": {
      "latitude": "29.945955665374207",
      "longitude": "-90.11251517799934"
    }
  },
  {
    "service_request": "2026-1277271",
    "request_type": "Drainage",
    "request_reason": "Catch Basin Not Draining",
    "date_created": "2026-04-28T17:01:02.000",
    "date_modified": "2026-04-28T17:01:19.000",
    "request_status": "Pending",
    "responsible_agency": "Sewerage & Water Board",
    "final_address": "446 Pelican Ave",
    "address_councildis": "C",
    "status": "Pending",
    "rowid": "1277271",
    "final_x": "3686792.84553",
    "final_y": "530767.036034",
    "longitude": "-90.05138406002935",
    "latitude": "29.95326352543922",
    "geocoded_column": {
      "latitude": "29.95326352543922",
      "longitude": "-90.05138406002935"
    }
  },
  {
    "service_request": "2026-1277270",
    "request_type": "Trash/Recycling",
    "request_reason": "Request a Large Item Pick Up",
    "date_created": "2026-04-28T16:58:56.000",
    "date_modified": "2026-04-28T16:58:58.000",
    "request_status": "Pending",
    "responsible_agency": "Department of Sanitation",
    "final_address": "4629 Papania Dr",
    "address_councildis": "E",
    "status": "Assigned to Contractor",
    "contractor": "Waste Pro",
    "rowid": "1277270",
    "final_x": "3715709.9797",
    "final_y": "556425.493146",
    "longitude": "-89.95910559515045",
    "latitude": "30.02289323359068",
    "geocoded_column": {
      "latitude": "30.02289323359068",
      "longitude": "-89.95910559515045"
    }
  },
  {
    "service_request": "2026-1277269",
    "request_type": "Trash/Recycling",
    "request_reason": "Request a Large Item Pick Up",
    "date_created": "2026-04-28T16:56:49.000",
    "date_modified": "2026-04-28T16:56:50.000",
    "request_status": "Pending",
    "responsible_agency": "Department of Sanitation",
    "final_address": "73 Spanish Fort Blvd",
    "address_councildis": "D",
    "status": "Assigned to Contractor",
    "contractor": "IV Waste",
    "rowid": "1277269",
    "final_x": "3674024.45038",
    "final_y": "555532.769369",
    "longitude": "-90.09085326388386",
    "latitude": "30.02174734286639",
    "geocoded_column": {
      "latitude": "30.02174734286639",
      "longitude": "-90.09085326388386"
    }
  },
  {
    "service_request": "2026-1277268",
    "request_type": "Trash/Recycling",
    "request_reason": "MIssed Recycling Pick-Up",
    "date_created": "2026-04-28T16:52:47.000",
    "date_modified": "2026-04-28T16:59:57.000",
    "request_status": "Pending",
    "responsible_agency": "Department of Sanitation",
    "final_address": "2 Morrison Ct",
    "address_councildis": "E",
    "status": "Pending",
    "rowid": "1277268",
    "final_x": "3704139.93316",
    "final_y": "561188.095198",
    "longitude": "-89.9954883375005",
    "latitude": "30.036365002450303",
    "geocoded_column": {
      "latitude": "30.036365002450303",
      "longitude": "-89.9954883375005"
    }
  },
  {
    "service_request": "2026-1277267",
    "request_type": "Safety & Permits",
    "request_reason": "Licenses & Permits",
    "date_created": "2026-04-28T16:47:29.000",
    "date_modified": "2026-04-28T16:47:30.000",
    "request_status": "Pending",
    "responsible_agency": "Safety and Permits",
    "final_address": "4120 Piedmont Dr",
    "address_councildis": "D",
    "status": "Pending",
    "rowid": "1277267",
    "final_x": "3684930.70812",
    "final_y": "547784.263698",
    "longitude": "-90.0566651965475",
    "latitude": "30.00011209248585",
    "geocoded_column": {
      "latitude": "30.00011209248585",
      "longitude": "-90.0566651965475"
    }
  },
  {
    "service_request": "2026-1277266",
    "request_type": "Trash/Recycling",
    "request_reason": "Request a Large Item Pick Up",
    "date_created": "2026-04-28T16:45:55.000",
    "date_modified": "2026-04-28T16:45:56.000",
    "request_status": "Pending",
    "responsible_agency": "Department of Sanitation",
    "final_address": "932 Picheloup Pl",
    "address_councildis": "A",
    "status": "Assigned to Contractor",
    "contractor": "IV Waste",
    "rowid": "1277266",
    "final_x": "3673657.19188",
    "final_y": "540507.829771",
    "longitude": "-90.09252780160499",
    "latitude": "29.980444977424774",
    "geocoded_column": {
      "latitude": "29.980444977424774",
      "longitude": "-90.09252780160499"
    }
  },
  {
    "service_request": "2026-1277265",
    "request_type": "Street and Traffic Signs",
    "request_reason": "Traffic or Parking Sign Damaged or Missing",
    "date_created": "2026-04-28T16:42:26.000",
    "date_modified": "2026-04-28T16:42:28.000",
    "request_status": "Pending",
    "responsible_agency": "Department of Public Works",
    "final_address": "3176 Toulouse St",
    "address_councildis": "A",
    "status": "Pending",
    "rowid": "1277265",
    "final_x": "3674690.96072",
    "final_y": "537842.518729",
    "longitude": "-90.08935410313273",
    "latitude": "29.973085461589733",
    "geocoded_column": {
      "latitude": "29.973085461589733",
      "longitude": "-90.08935410313273"
    }
  },
  {
    "service_request": "2026-1277264",
    "request_type": "Street and Traffic Signs",
    "request_reason": "Traffic or Parking Sign Damaged or Missing",
    "date_created": "2026-04-28T16:40:31.000",
    "date_modified": "2026-04-28T16:40:33.000",
    "request_status": "Pending",
    "responsible_agency": "Department of Public Works",
    "final_address": "1120 N Galvez St",
    "address_councildis": "C",
    "status": "Pending",
    "rowid": "1277264",
    "final_x": "3679424.91791",
    "final_y": "537021.045448",
    "longitude": "-90.07443184035837",
    "latitude": "29.970684527076994",
    "geocoded_column": {
      "latitude": "29.970684527076994",
      "longitude": "-90.07443184035837"
    }
  },
  {
    "service_request": "2026-1277263",
    "request_type": "Trash/Recycling",
    "request_reason": "Request a Large Item Pick Up",
    "date_created": "2026-04-28T16:38:35.000",
    "date_modified": "2026-04-28T16:38:38.000",
    "request_status": "Pending",
    "responsible_agency": "Department of Sanitation",
    "final_address": "729 S Salcedo St",
    "address_councildis": "B",
    "status": "Assigned to Contractor",
    "contractor": "IV Waste",
    "rowid": "1277263",
    "final_x": "3672376.92775",
    "final_y": "533894.188997",
    "longitude": "-90.09679685526667",
    "latitude": "29.962297757268804",
    "geocoded_column": {
      "latitude": "29.962297757268804",
      "longitude": "-90.09679685526667"
    }
  },
  {
    "service_request": "2026-1277262",
    "request_type": "Trash/Recycling",
    "request_reason": "Repair Trash Cart",
    "date_created": "2026-04-28T16:20:46.000",
    "date_modified": "2026-04-28T16:20:47.000",
    "request_status": "Pending",
    "responsible_agency": "Department of Sanitation",
    "final_address": "6175 Vicksburg St",
    "address_councildis": "A",
    "status": "Assigned to Contractor",
    "contractor": "IV Waste",
    "rowid": "1277262",
    "final_x": "3669068.44366",
    "final_y": "548441.33877",
    "longitude": "-90.10675285211634",
    "latitude": "30.002395238391333",
    "geocoded_column": {
      "latitude": "30.002395238391333",
      "longitude": "-90.10675285211634"
    }
  },
  {
    "service_request": "2026-1277261",
    "request_type": "Trash/Recycling",
    "request_reason": "Replace Trash Cart",
    "date_created": "2026-04-28T16:14:26.000",
    "date_modified": "2026-04-28T16:14:28.000",
    "request_status": "Pending",
    "responsible_agency": "Department of Sanitation",
    "final_address": "1216 Hagan St",
    "address_councildis": "A",
    "status": "Assigned to Contractor",
    "contractor": "IV Waste",
    "rowid": "1277261",
    "final_x": "3675748.81333",
    "final_y": "539880.346186",
    "longitude": "-90.08594313081893",
    "latitude": "29.97865716859926",
    "geocoded_column": {
      "latitude": "29.97865716859926",
      "longitude": "-90.08594313081893"
    }
  },
  {
    "service_request": "2026-1277260",
    "request_type": "Streetlights",
    "request_reason": "Streetlight Outage/Malfunction",
    "date_created": "2026-04-28T16:12:54.000",
    "date_modified": "2026-04-28T16:12:56.000",
    "request_status": "Pending",
    "responsible_agency": "Department of Public Works",
    "final_address": "2127 Pine St",
    "address_councildis": "A",
    "status": "Pending",
    "rowid": "1277260",
    "final_x": "3665869.53799",
    "final_y": "529503.852801",
    "longitude": "-90.11749344160808",
    "latitude": "29.95041725639224",
    "geocoded_column": {
      "latitude": "29.95041725639224",
      "longitude": "-90.11749344160808"
    }
  },
  {
    "service_request": "2026-1277259",
    "request_type": "Property Maintenance",
    "request_reason": "Property Maintenance",
    "date_created": "2026-04-28T16:11:16.000",
    "date_modified": "2026-04-28T16:11:18.000",
    "request_status": "Pending",
    "responsible_agency": "Department of Code Enforcement",
    "final_address": "2747 St Ann St",
    "address_councildis": "C",
    "status": "Pending",
    "rowid": "1277259",
    "final_x": "3676599.07048",
    "final_y": "537505.754312",
    "longitude": "-90.08333951514001",
    "latitude": "29.972102376425692",
    "geocoded_column": {
      "latitude": "29.972102376425692",
      "longitude": "-90.08333951514001"
    }
  },
  {
    "service_request": "2026-1277258",
    "request_type": "Trash/Recycling",
    "request_reason": "Order Recycling Cart",
    "date_created": "2026-04-28T16:10:24.000",
    "date_modified": "2026-04-28T16:10:27.000",
    "request_status": "Pending",
    "responsible_agency": "Department of Sanitation",
    "final_address": "4422 Elba St",
    "address_councildis": "B",
    "status": "Pending",
    "rowid": "1277258",
    "final_x": "3669631.54906",
    "final_y": "530425.26221",
    "longitude": "-90.10558376279702",
    "latitude": "29.952840531915776",
    "geocoded_column": {
      "latitude": "29.952840531915776",
      "longitude": "-90.10558376279702"
    }
  },
  {
    "service_request": "2026-1277257",
    "request_type": "Trash/Recycling",
    "request_reason": "Request a Large Item Pick Up",
    "date_created": "2026-04-28T16:09:24.000",
    "date_modified": "2026-04-28T16:09:25.000",
    "request_status": "Pending",
    "responsible_agency": "Department of Sanitation",
    "final_address": "4975 Redwood St",
    "address_councildis": "E",
    "status": "Assigned to Contractor",
    "contractor": "Waste Pro",
    "rowid": "1277257",
    "final_x": "3712414.6492",
    "final_y": "557643.141659",
    "longitude": "-89.96947218977422",
    "latitude": "30.026349544272808",
    "geocoded_column": {
      "latitude": "30.026349544272808",
      "longitude": "-89.96947218977422"
    }
  },
  {
    "service_request": "2026-1277256",
    "request_type": "Abandoned Vehicles",
    "request_reason": "Abandoned/Junk Vehicles",
    "date_created": "2026-04-28T16:02:12.000",
    "date_modified": "2026-04-28T16:02:14.000",
    "request_status": "Pending",
    "responsible_agency": "Department of Public Works",
    "final_address": "4000 BLK Vincennes Pl",
    "address_councildis": "B",
    "status": "Pending",
    "rowid": "1277256",
    "final_x": "3668453.81758",
    "final_y": "530164.35875",
    "longitude": "-90.10931132798616",
    "latitude": "29.952157778820375",
    "geocoded_column": {
      "latitude": "29.952157778820375",
      "longitude": "-90.10931132798616"
    }
  },
  {
    "service_request": "2026-1277255",
    "request_type": "Trash/Recycling",
    "request_reason": "Order Trash Cart",
    "date_created": "2026-04-28T16:02:00.000",
    "date_modified": "2026-04-28T16:02:01.000",
    "request_status": "Pending",
    "responsible_agency": "Department of Sanitation",
    "final_address": "1422 Chartres St Apt B",
    "address_councildis": "C",
    "status": "Assigned to Contractor",
    "contractor": "IV Waste",
    "rowid": "1277255",
    "final_x": "3684516.52399",
    "final_y": "534336.515269",
    "longitude": "-90.05844628910002",
    "latitude": "29.963148199900214",
    "geocoded_column": {
      "latitude": "29.963148199900214",
      "longitude": "-90.05844628910002"
    }
  },
  {
    "service_request": "2026-1277254",
    "request_type": "Trash/Recycling",
    "request_reason": "Request a Large Item Pick Up",
    "date_created": "2026-04-28T16:00:33.000",
    "date_modified": "2026-04-28T16:00:34.000",
    "request_status": "Pending",
    "responsible_agency": "Department of Sanitation",
    "final_address": "5610 Clements Dr",
    "address_councildis": "E",
    "status": "Assigned to Contractor",
    "contractor": "Waste Pro",
    "rowid": "1277254",
    "final_x": "3702389.11786",
    "final_y": "556309.50281",
    "longitude": "-90.00120046410092",
    "latitude": "30.023006856725793",
    "geocoded_column": {
      "latitude": "30.023006856725793",
      "longitude": "-90.00120046410092"
    }
  },
  {
    "service_request": "2026-1277253",
    "request_type": "Trash/Recycling",
    "request_reason": "Request a Large Item Pick Up",
    "date_created": "2026-04-28T16:00:25.000",
    "date_modified": "2026-04-28T16:00:26.000",
    "request_status": "Pending",
    "responsible_agency": "Department of Sanitation",
    "final_address": "1422 Chartres St Apt B",
    "address_councildis": "C",
    "status": "Assigned to Contractor",
    "contractor": "IV Waste",
    "rowid": "1277253",
    "final_x": "3684516.52399",
    "final_y": "534336.515269",
    "longitude": "-90.05844628910002",
    "latitude": "29.963148199900214",
    "geocoded_column": {
      "latitude": "29.963148199900214",
      "longitude": "-90.05844628910002"
    }
  },
  {
    "service_request": "2026-1277252",
    "request_type": "Property Maintenance",
    "request_reason": "Property Maintenance",
    "date_created": "2026-04-28T15:57:53.000",
    "date_modified": "2026-04-28T15:57:55.000",
    "request_status": "Pending",
    "responsible_agency": "Department of Code Enforcement",
    "final_address": "6237 London Ave",
    "address_councildis": "D",
    "status": "Pending",
    "rowid": "1277252",
    "final_x": "3680617.17039",
    "final_y": "555852.897241",
    "longitude": "-90.07001085523875",
    "latitude": "30.022429365126367",
    "geocoded_column": {
      "latitude": "30.022429365126367",
      "longitude": "-90.07001085523875"
    }
  },
  {
    "service_request": "2026-1277251",
    "request_type": "Streetlights",
    "request_reason": "Streetlight Outage/Malfunction",
    "date_created": "2026-04-28T15:55:01.000",
    "date_modified": "2026-04-28T15:58:07.000",
    "request_status": "Pending",
    "responsible_agency": "Department of Public Works",
    "final_address": "2800 BLK Holiday Dr",
    "address_councildis": "C",
    "status": "Pending",
    "rowid": "1277251",
    "final_x": "3698814.06657",
    "final_y": "520686.127051",
    "longitude": "-90.0137930148176",
    "latitude": "29.92516924983915",
    "geocoded_column": {
      "latitude": "29.92516924983915",
      "longitude": "-90.0137930148176"
    }
  },
  {
    "service_request": "2026-1277250",
    "request_type": "Abandoned Vehicles",
    "request_reason": "Abandoned/Junk Vehicles",
    "date_created": "2026-04-28T15:54:43.000",
    "date_modified": "2026-04-28T15:56:02.000",
    "request_status": "Pending",
    "responsible_agency": "Department of Public Works",
    "final_address": "2100 BLK Fourth St",
    "address_councildis": "B",
    "status": "Pending",
    "rowid": "1277250",
    "final_x": "3675102.67765",
    "final_y": "524344.650573",
    "longitude": "-90.08851693009318",
    "latitude": "29.935958528116977",
    "geocoded_column": {
      "latitude": "29.935958528116977",
      "longitude": "-90.08851693009318"
    }
  },
  {
    "service_request": "2026-1277249",
    "request_type": "Trash/Recycling",
    "request_reason": "Request a Large Item Pick Up",
    "date_created": "2026-04-28T15:51:52.000",
    "date_modified": "2026-04-28T15:51:54.000",
    "request_status": "Pending",
    "responsible_agency": "Department of Sanitation",
    "final_address": "6621 Pauline Dr",
    "address_councildis": "D",
    "status": "Assigned to Contractor",
    "contractor": "IV Waste",
    "rowid": "1277249",
    "final_x": "3690949.97801",
    "final_y": "558124.244699",
    "longitude": "-90.03728061162535",
    "latitude": "30.028357424840358",
    "geocoded_column": {
      "latitude": "30.028357424840358",
      "longitude": "-90.03728061162535"
    }
  },
  {
    "service_request": "2026-1277248",
    "request_type": "Trash/Recycling",
    "request_reason": "Replace Trash Cart",
    "date_created": "2026-04-28T15:50:23.000",
    "date_modified": "2026-04-28T15:50:25.000",
    "request_status": "Pending",
    "responsible_agency": "Department of Sanitation",
    "final_address": "3414 First St",
    "address_councildis": "B",
    "status": "Assigned to Contractor",
    "contractor": "IV Waste",
    "rowid": "1277248",
    "final_x": "3673311.06068",
    "final_y": "528610.280576",
    "longitude": "-90.09402746230369",
    "latitude": "29.94774101236716",
    "geocoded_column": {
      "latitude": "29.94774101236716",
      "longitude": "-90.09402746230369"
    }
  },
  {
    "service_request": "2026-1277247",
    "request_type": "Street and Traffic Signs",
    "request_reason": "Additional Signage Request",
    "date_created": "2026-04-28T15:49:41.000",
    "date_modified": "2026-04-28T15:59:44.000",
    "request_status": "Pending",
    "responsible_agency": "Department of Public Works",
    "final_address": "TULANE AVE & S GAYOSO ST",
    "address_councildis": "B",
    "status": "Pending",
    "rowid": "1277247",
    "final_x": "3673193.5",
    "final_y": "534350.68",
    "longitude": "-90.09420264475847",
    "latitude": "29.96352869912607",
    "geocoded_column": {
      "latitude": "29.96352869912607",
      "longitude": "-90.09420264475847"
    }
  },
  {
    "service_request": "2026-1277246",
    "request_type": "Trash/Recycling",
    "request_reason": "Request a Large Item Pick Up",
    "date_created": "2026-04-28T15:47:48.000",
    "date_modified": "2026-04-28T15:47:49.000",
    "request_status": "Pending",
    "responsible_agency": "Department of Sanitation",
    "final_address": "1417 Pauline St",
    "address_councildis": "D",
    "status": "Assigned to Contractor",
    "contractor": "IV Waste",
    "rowid": "1277246",
    "final_x": "3691564.82761",
    "final_y": "536714.444295",
    "longitude": "-90.03610364884955",
    "latitude": "29.969469155179993",
    "geocoded_column": {
      "latitude": "29.969469155179993",
      "longitude": "-90.03610364884955"
    }
  },
  {
    "service_request": "2026-1277245",
    "request_type": "Abandoned Vehicles",
    "request_reason": "Abandoned/Junk Vehicles",
    "date_created": "2026-04-28T15:45:03.000",
    "date_modified": "2026-04-28T15:45:05.000",
    "request_status": "Pending",
    "responsible_agency": "Department of Public Works",
    "final_address": "4521 Palmyra St",
    "address_councildis": "A",
    "status": "Pending",
    "rowid": "1277245",
    "final_x": "3669086.82881",
    "final_y": "538919.919306",
    "longitude": "-90.10701669052456",
    "latitude": "29.976214052983764",
    "geocoded_column": {
      "latitude": "29.976214052983764",
      "longitude": "-90.10701669052456"
    }
  },
  {
    "service_request": "2026-1277244",
    "request_type": "Trash/Recycling",
    "request_reason": "Missed Trash Pick-Up",
    "date_created": "2026-04-28T15:44:42.000",
    "date_modified": "2026-04-28T16:21:36.000",
    "case_close_date": "2026-04-28T11:21:34.000",
    "request_status": "Closed",
    "responsible_agency": "Department of Sanitation",
    "final_address": "8708 Monroe Ct",
    "address_councildis": "A",
    "status": "Invalid Request",
    "contractor": "IV Waste",
    "contractor_action": "Invalid Request",
    "rowid": "1277244",
    "final_x": "3662088.08647",
    "final_y": "531816.348227",
    "longitude": "-90.12935663533834",
    "latitude": "29.956885660563973",
    "geocoded_column": {
      "latitude": "29.956885660563973",
      "longitude": "-90.12935663533834"
    }
  },
  {
    "service_request": "2026-1277243",
    "request_type": "Tree Service",
    "request_reason": "Street or Sidewalk Blocked",
    "date_created": "2026-04-28T15:42:51.000",
    "date_modified": "2026-04-28T15:42:53.000",
    "request_status": "Pending",
    "responsible_agency": "Department of Parks & Parkways",
    "final_address": "4700 Coronado Dr",
    "address_councildis": "E",
    "status": "Pending",
    "rowid": "1277243",
    "final_x": "3714081.08824",
    "final_y": "556208.961818",
    "longitude": "-89.96426064189482",
    "latitude": "30.022351472970552",
    "geocoded_column": {
      "latitude": "30.022351472970552",
      "longitude": "-89.96426064189482"
    }
  },
  {
    "service_request": "2026-1277242",
    "request_type": "Trash/Recycling",
    "request_reason": "Missed Trash Pick-Up",
    "date_created": "2026-04-28T15:40:54.000",
    "date_modified": "2026-04-28T16:20:28.000",
    "case_close_date": "2026-04-28T11:20:26.000",
    "request_status": "Closed",
    "responsible_agency": "Department of Sanitation",
    "final_address": "8712 Monroe Ct",
    "address_councildis": "A",
    "status": "Invalid Request",
    "contractor": "IV Waste",
    "contractor_action": "Invalid Request",
    "rowid": "1277242",
    "final_x": "3662064.99149",
    "final_y": "531835.697795",
    "longitude": "-90.12942892039375",
    "latitude": "29.956939532845897",
    "geocoded_column": {
      "latitude": "29.956939532845897",
      "longitude": "-90.12942892039375"
    }
  },
  {
    "service_request": "2026-1277241",
    "request_type": "Trash/Recycling",
    "request_reason": "Request a Large Item Pick Up",
    "date_created": "2026-04-28T15:40:05.000",
    "date_modified": "2026-04-28T15:40:07.000",
    "request_status": "Pending",
    "responsible_agency": "Department of Sanitation",
    "final_address": "819 Lyons St",
    "address_councildis": "B",
    "status": "Assigned to Contractor",
    "contractor": "IV Waste",
    "rowid": "1277241",
    "final_x": "3669361.35361",
    "final_y": "518411.19583",
    "longitude": "-90.10684297441664",
    "latitude": "29.919813674852172",
    "geocoded_column": {
      "latitude": "29.919813674852172",
      "longitude": "-90.10684297441664"
    }
  },
  {
    "service_request": "2026-1277240",
    "request_type": "Trash/Recycling",
    "request_reason": "Request a Large Item Pick Up",
    "date_created": "2026-04-28T15:39:17.000",
    "date_modified": "2026-04-28T15:39:18.000",
    "request_status": "Pending",
    "responsible_agency": "Department of Sanitation",
    "final_address": "2217 Laurel St",
    "address_councildis": "B",
    "status": "Assigned to Contractor",
    "contractor": "IV Waste",
    "rowid": "1277240",
    "final_x": "3679142.22107",
    "final_y": "521407.923321",
    "longitude": "-90.07586574805345",
    "latitude": "29.92776220555056",
    "geocoded_column": {
      "latitude": "29.92776220555056",
      "longitude": "-90.07586574805345"
    }
  },
  {
    "service_request": "2026-1277239",
    "request_type": "Roads and Streets",
    "request_reason": "Push-up/Pavement Expansion",
    "date_created": "2026-04-28T15:38:21.000",
    "date_modified": "2026-04-28T16:00:34.000",
    "request_status": "Pending",
    "responsible_agency": "Department of Public Works",
    "final_address": "3800 BLK N Johnson St",
    "address_councildis": "D",
    "status": "Pending",
    "rowid": "1277239",
    "final_x": "3692192.61886",
    "final_y": "538798.831967",
    "longitude": "-90.03404639864986",
    "latitude": "29.975180924210992",
    "geocoded_column": {
      "latitude": "29.975180924210992",
      "longitude": "-90.03404639864986"
    }
  },
  {
    "service_request": "2026-1277238",
    "request_type": "Trash/Recycling",
    "request_reason": "Illegal Dumping",
    "date_created": "2026-04-28T15:33:56.000",
    "date_modified": "2026-04-28T15:33:57.000",
    "request_status": "Pending",
    "responsible_agency": "Department of Sanitation",
    "final_address": "3712 Herschel St",
    "address_councildis": "C",
    "status": "Pending",
    "rowid": "1277238",
    "final_x": "3697383.69379",
    "final_y": "521206.070457",
    "longitude": "-90.01828938289724",
    "latitude": "29.926644131756852",
    "geocoded_column": {
      "latitude": "29.926644131756852",
      "longitude": "-90.01828938289724"
    }
  },
  {
    "service_request": "2026-1277237",
    "request_type": "Trash/Recycling",
    "request_reason": "Missed Trash Pick-Up",
    "date_created": "2026-04-28T15:31:54.000",
    "date_modified": "2026-04-28T16:02:21.000",
    "case_close_date": "2026-04-28T11:02:20.000",
    "request_status": "Closed",
    "responsible_agency": "Department of Sanitation",
    "final_address": "4624 Cleveland Ave",
    "address_councildis": "A",
    "status": "Invalid Request",
    "contractor": "IV Waste",
    "contractor_action": "Invalid Request",
    "rowid": "1277237",
    "final_x": "3668953.49556",
    "final_y": "539399.402314",
    "longitude": "-90.10742159589572",
    "latitude": "29.97753639263195",
    "geocoded_column": {
      "latitude": "29.97753639263195",
      "longitude": "-90.10742159589572"
    }
  },
  {
    "service_request": "2026-1277236",
    "request_type": "Trash/Recycling",
    "request_reason": "Repair Trash Cart",
    "date_created": "2026-04-28T15:31:35.000",
    "date_modified": "2026-04-28T15:31:37.000",
    "request_status": "Pending",
    "responsible_agency": "Department of Sanitation",
    "final_address": "6500 Fleur-De-Lis Dr",
    "address_councildis": "A",
    "status": "Assigned to Contractor",
    "contractor": "IV Waste",
    "rowid": "1277236",
    "final_x": "3665242.58106",
    "final_y": "551238.852437",
    "longitude": "-90.11874559929593",
    "latitude": "30.01019948765514",
    "geocoded_column": {
      "latitude": "30.01019948765514",
      "longitude": "-90.11874559929593"
    }
  },
  {
    "service_request": "2026-1277235",
    "request_type": "General Services",
    "request_reason": "General Service Request",
    "date_created": "2026-04-28T15:30:07.000",
    "date_modified": "2026-04-28T15:41:47.000",
    "case_close_date": "2026-04-28T10:41:46.000",
    "request_status": "Closed",
    "responsible_agency": "Orleans Parish Communication District",
    "final_address": "632 Elysian Fields Ave",
    "address_councildis": "C",
    "status": "Question Answered.",
    "rowid": "1277235",
    "final_x": "3685041.33628",
    "final_y": "534784.108038",
    "longitude": "-90.05677324981151",
    "latitude": "29.96436285930971",
    "geocoded_column": {
      "latitude": "29.96436285930971",
      "longitude": "-90.05677324981151"
    }
  },
  {
    "service_request": "2026-1277234",
    "request_type": "Trash/Recycling",
    "request_reason": "Repair Trash Cart",
    "date_created": "2026-04-28T15:30:05.000",
    "date_modified": "2026-04-28T15:30:07.000",
    "request_status": "Pending",
    "responsible_agency": "Department of Sanitation",
    "final_address": "4624 Cleveland Ave",
    "address_councildis": "A",
    "status": "Assigned to Contractor",
    "contractor": "IV Waste",
    "rowid": "1277234",
    "final_x": "3668953.49556",
    "final_y": "539399.402314",
    "longitude": "-90.10742159589572",
    "latitude": "29.97753639263195",
    "geocoded_column": {
      "latitude": "29.97753639263195",
      "longitude": "-90.10742159589572"
    }
  },
  {
    "service_request": "2026-1277233",
    "request_type": "Trash/Recycling",
    "request_reason": "Request a Large Item Pick Up",
    "date_created": "2026-04-28T15:27:07.000",
    "date_modified": "2026-04-28T15:27:29.000",
    "request_status": "Pending",
    "responsible_agency": "Department of Sanitation",
    "final_address": "7860 Sand St",
    "address_councildis": "E",
    "status": "Assigned to Contractor",
    "contractor": "Waste Pro",
    "rowid": "1277233",
    "final_x": "3720003.04281",
    "final_y": "574366.087595",
    "longitude": "-89.9448537434209",
    "latitude": "30.072080210771624",
    "geocoded_column": {
      "latitude": "30.072080210771624",
      "longitude": "-89.9448537434209"
    }
  },
  {
    "service_request": "2026-1277232",
    "request_type": "Trash/Recycling",
    "request_reason": "Request a Large Item Pick Up",
    "date_created": "2026-04-28T15:26:13.000",
    "date_modified": "2026-04-28T15:26:15.000",
    "request_status": "Pending",
    "responsible_agency": "Department of Sanitation",
    "final_address": "819 Lyons St",
    "address_councildis": "B",
    "status": "Assigned to Contractor",
    "contractor": "IV Waste",
    "rowid": "1277232",
    "final_x": "3669361.35361",
    "final_y": "518411.19583",
    "longitude": "-90.10684297441664",
    "latitude": "29.919813674852172",
    "geocoded_column": {
      "latitude": "29.919813674852172",
      "longitude": "-90.10684297441664"
    }
  },
  {
    "service_request": "2026-1277231",
    "request_type": "General Services",
    "request_reason": "General Service Request",
    "date_created": "2026-04-28T15:24:53.000",
    "date_modified": "2026-04-28T15:26:27.000",
    "case_close_date": "2026-04-28T10:26:27.000",
    "request_status": "Closed",
    "responsible_agency": "Orleans Parish Communication District",
    "final_address": "1225 Dauphine St",
    "address_councildis": "C",
    "status": "Referred to External Agency",
    "rowid": "1277231",
    "final_x": "3683144.49039",
    "final_y": "534533.477829",
    "longitude": "-90.0627721073393",
    "latitude": "29.96373168298492",
    "geocoded_column": {
      "latitude": "29.96373168298492",
      "longitude": "-90.0627721073393"
    }
  },
  {
    "service_request": "2026-1277230",
    "request_type": "Safety & Permits",
    "request_reason": "Zoning Enforcement",
    "date_created": "2026-04-28T15:24:34.000",
    "date_modified": "2026-04-28T15:26:19.000",
    "request_status": "Pending",
    "responsible_agency": "Safety and Permits",
    "final_address": "1017 Montegut St",
    "address_councildis": "C",
    "status": "Pending",
    "rowid": "1277230",
    "final_x": "3688392.75043",
    "final_y": "535850.845191",
    "longitude": "-90.04615193819691",
    "latitude": "29.967192923430794",
    "geocoded_column": {
      "latitude": "29.967192923430794",
      "longitude": "-90.04615193819691"
    }
  },
  {
    "service_request": "2026-1277229",
    "request_type": "Trash/Recycling",
    "request_reason": "Repair Trash Cart",
    "date_created": "2026-04-28T15:23:44.000",
    "date_modified": "2026-04-28T15:24:44.000",
    "request_status": "Pending",
    "responsible_agency": "Department of Sanitation",
    "final_address": "6901 Lake Barrington Dr",
    "address_councildis": "E",
    "status": "Assigned to Contractor",
    "contractor": "Waste Pro",
    "rowid": "1277229",
    "final_x": "3713156.54898",
    "final_y": "563786.355617",
    "longitude": "-89.96689640904722",
    "latitude": "30.04321662547573",
    "geocoded_column": {
      "latitude": "30.04321662547573",
      "longitude": "-89.96689640904722"
    }
  },
  {
    "service_request": "2026-1277228",
    "request_type": "Drainage",
    "request_reason": "Catch Basin Frame and Cover Missing or Damaged",
    "date_created": "2026-04-28T15:23:13.000",
    "date_modified": "2026-04-28T15:23:15.000",
    "request_status": "Pending",
    "responsible_agency": "Sewerage & Water Board",
    "final_address": "2831 Marigny St",
    "address_councildis": "D",
    "status": "Pending",
    "rowid": "1277228",
    "final_x": "3684913.81999",
    "final_y": "543271.677198",
    "longitude": "-90.05687735180449",
    "latitude": "29.987704609329924",
    "geocoded_column": {
      "latitude": "29.987704609329924",
      "longitude": "-90.05687735180449"
    }
  },
  {
    "service_request": "2026-1277227",
    "request_type": "Trash/Recycling",
    "request_reason": "Repair Trash Cart",
    "date_created": "2026-04-28T15:19:24.000",
    "date_modified": "2026-04-28T15:19:26.000",
    "request_status": "Pending",
    "responsible_agency": "Department of Sanitation",
    "final_address": "20 Newcomb Blvd",
    "address_councildis": "A",
    "status": "Assigned to Contractor",
    "contractor": "IV Waste",
    "rowid": "1277227",
    "final_x": "3663788.66253",
    "final_y": "525181.704765",
    "longitude": "-90.12420780125025",
    "latitude": "29.938593282846682",
    "geocoded_column": {
      "latitude": "29.938593282846682",
      "longitude": "-90.12420780125025"
    }
  },
  {
    "service_request": "2026-1277226",
    "request_type": "Trash/Recycling",
    "request_reason": "Request a Large Item Pick Up",
    "date_created": "2026-04-28T15:19:20.000",
    "date_modified": "2026-04-28T15:19:21.000",
    "request_status": "Pending",
    "responsible_agency": "Department of Sanitation",
    "final_address": "7860 Sand St",
    "address_councildis": "E",
    "status": "Assigned to Contractor",
    "contractor": "Waste Pro",
    "rowid": "1277226",
    "final_x": "3720003.04281",
    "final_y": "574366.087595",
    "longitude": "-89.9448537434209",
    "latitude": "30.072080210771624",
    "geocoded_column": {
      "latitude": "30.072080210771624",
      "longitude": "-89.9448537434209"
    }
  },
  {
    "service_request": "2026-1277225",
    "request_type": "Trash/Recycling",
    "request_reason": "Request a Large Item Pick Up",
    "date_created": "2026-04-28T15:16:12.000",
    "date_modified": "2026-04-28T15:16:14.000",
    "request_status": "Pending",
    "responsible_agency": "Department of Sanitation",
    "final_address": "2316 Choctaw Ct",
    "address_councildis": "E",
    "status": "Assigned to Contractor",
    "contractor": "Waste Pro",
    "rowid": "1277225",
    "final_x": "3698659.9192",
    "final_y": "538592.876681",
    "longitude": "-90.01362857866349",
    "latitude": "29.97441139441578",
    "geocoded_column": {
      "latitude": "29.97441139441578",
      "longitude": "-90.01362857866349"
    }
  },
  {
    "service_request": "2026-1277224",
    "request_type": "Trash/Recycling",
    "request_reason": "Request a Large Item Pick Up",
    "date_created": "2026-04-28T15:15:25.000",
    "date_modified": "2026-04-28T15:15:27.000",
    "request_status": "Pending",
    "responsible_agency": "Department of Sanitation",
    "final_address": "4785 Pauline Dr",
    "address_councildis": "D",
    "status": "Assigned to Contractor",
    "contractor": "IV Waste",
    "rowid": "1277224",
    "final_x": "3692932.164",
    "final_y": "551723.662805",
    "longitude": "-90.03124686929627",
    "latitude": "30.010696428534256",
    "geocoded_column": {
      "latitude": "30.010696428534256",
      "longitude": "-90.03124686929627"
    }
  },
  {
    "service_request": "2026-1277223",
    "request_type": "Trash/Recycling",
    "request_reason": "Request a Large Item Pick Up",
    "date_created": "2026-04-28T15:15:23.000",
    "date_modified": "2026-04-28T15:15:25.000",
    "request_status": "Pending",
    "responsible_agency": "Department of Sanitation",
    "final_address": "5353 Perrier St",
    "address_councildis": "B",
    "status": "Assigned to Contractor",
    "contractor": "IV Waste",
    "rowid": "1277223",
    "final_x": "3667230.41421",
    "final_y": "520102.297272",
    "longitude": "-90.11351250634239",
    "latitude": "29.924526217147832",
    "geocoded_column": {
      "latitude": "29.924526217147832",
      "longitude": "-90.11351250634239"
    }
  },
  {
    "service_request": "2026-1277222",
    "request_type": "Roads and Streets",
    "request_reason": "Sidewalk Damaged or Missing",
    "date_created": "2026-04-28T15:13:20.000",
    "date_modified": "2026-04-28T15:13:23.000",
    "request_status": "Pending",
    "responsible_agency": "Department of Public Works",
    "final_address": "1135 Dauphine St",
    "address_councildis": "C",
    "status": "Pending",
    "rowid": "1277222",
    "final_x": "3683015.43452",
    "final_y": "534317.629253",
    "longitude": "-90.06318720820617",
    "latitude": "29.9631421077453",
    "geocoded_column": {
      "latitude": "29.9631421077453",
      "longitude": "-90.06318720820617"
    }
  },
  {
    "service_request": "2026-1277221",
    "request_type": "Tree Service",
    "request_reason": "Tree Trim",
    "date_created": "2026-04-28T15:11:04.000",
    "date_modified": "2026-04-28T15:11:06.000",
    "request_status": "Pending",
    "responsible_agency": "Department of Parks & Parkways",
    "final_address": "3216 Louisiana Avenue Prkwy",
    "address_councildis": "B",
    "status": "Pending",
    "rowid": "1277221",
    "final_x": "3671814.25249",
    "final_y": "527088.421055",
    "longitude": "-90.09880525710943",
    "latitude": "29.943600826421644",
    "geocoded_column": {
      "latitude": "29.943600826421644",
      "longitude": "-90.09880525710943"
    }
  },
  {
    "service_request": "2026-1277220",
    "request_type": "Mosquito, Termite & Rodent Control",
    "request_reason": "Non-Rodent Complaint (Possums & Snakes)",
    "date_created": "2026-04-28T15:10:05.000",
    "date_modified": "2026-04-28T15:10:07.000",
    "request_status": "Pending",
    "responsible_agency": "Mosquito, Termite & Rodent Control Board",
    "final_address": "2316 Choctaw Ct",
    "address_councildis": "E",
    "status": "Pending",
    "rowid": "1277220",
    "final_x": "3698659.9192",
    "final_y": "538592.876681",
    "longitude": "-90.01362857866349",
    "latitude": "29.97441139441578",
    "geocoded_column": {
      "latitude": "29.97441139441578",
      "longitude": "-90.01362857866349"
    }
  },
  {
    "service_request": "2026-1277219",
    "request_type": "Streetlights",
    "request_reason": "Streetlight Outage/Malfunction",
    "date_created": "2026-04-28T15:07:05.000",
    "date_modified": "2026-04-28T15:07:08.000",
    "request_status": "Pending",
    "responsible_agency": "Department of Public Works",
    "final_address": "3901 Macarthur Blvd",
    "address_councildis": "C",
    "status": "Pending",
    "rowid": "1277219",
    "final_x": "3698084.55895",
    "final_y": "520378.098488",
    "longitude": "-90.01610700175507",
    "latitude": "29.92434535626145",
    "geocoded_column": {
      "latitude": "29.92434535626145",
      "longitude": "-90.01610700175507"
    }
  },
  {
    "service_request": "2026-1277218",
    "request_type": "Property Maintenance",
    "request_reason": "Property Maintenance",
    "date_created": "2026-04-28T15:02:00.000",
    "date_modified": "2026-04-28T15:15:56.000",
    "case_close_date": "2026-04-28T10:15:56.000",
    "request_status": "Closed",
    "responsible_agency": "Department of Code Enforcement",
    "final_address": "4516 S Robertson St",
    "address_councildis": "B",
    "status": "Referred to Code Enforcement",
    "rowid": "1277218",
    "final_x": "3669948.49806",
    "final_y": "524303.036476",
    "longitude": "-90.10479024132798",
    "latitude": "29.935997061313838",
    "geocoded_column": {
      "latitude": "29.935997061313838",
      "longitude": "-90.10479024132798"
    }
  },
  {
    "service_request": "2026-1277217",
    "request_type": "Property Maintenance",
    "request_reason": "Property Maintenance",
    "date_created": "2026-04-28T14:58:37.000",
    "date_modified": "2026-04-28T15:10:46.000",
    "request_status": "Pending",
    "responsible_agency": "Department of Code Enforcement",
    "final_address": "6115 S Hermes St",
    "address_councildis": "D",
    "status": "Pending",
    "rowid": "1277217",
    "final_x": "3696545.24067",
    "final_y": "555078.383897",
    "longitude": "-90.01971031337534",
    "latitude": "30.019807261011994",
    "geocoded_column": {
      "latitude": "30.019807261011994",
      "longitude": "-90.01971031337534"
    }
  },
  {
    "service_request": "2026-1277215",
    "request_type": "Property Maintenance",
    "request_reason": "Property Maintenance",
    "date_created": "2026-04-28T14:52:06.000",
    "date_modified": "2026-04-28T15:27:45.000",
    "case_close_date": "2026-04-28T10:27:45.000",
    "request_status": "Closed",
    "responsible_agency": "Department of Code Enforcement",
    "final_address": "1728 Mazant St",
    "address_councildis": "D",
    "status": "Referred to Code Enforcement",
    "rowid": "1277215",
    "final_x": "3692695.49149",
    "final_y": "537745.419528",
    "longitude": "-90.03249597109908",
    "latitude": "29.972268726192304",
    "geocoded_column": {
      "latitude": "29.972268726192304",
      "longitude": "-90.03249597109908"
    }
  },
  {
    "service_request": "2026-1277214",
    "request_type": "Trash/Recycling",
    "request_reason": "Repair Trash Cart",
    "date_created": "2026-04-28T14:46:42.000",
    "date_modified": "2026-04-28T14:46:44.000",
    "request_status": "Pending",
    "responsible_agency": "Department of Sanitation",
    "final_address": "127 S Rendon St",
    "address_councildis": "B",
    "status": "Assigned to Contractor",
    "contractor": "IV Waste",
    "rowid": "1277214",
    "final_x": "3673398.56129",
    "final_y": "536280.469895",
    "longitude": "-90.09348914151425",
    "latitude": "29.96882887279105",
    "geocoded_column": {
      "latitude": "29.96882887279105",
      "longitude": "-90.09348914151425"
    }
  },
  {
    "service_request": "2026-1277213",
    "request_type": "Trash/Recycling",
    "request_reason": "Illegal Dumping",
    "date_created": "2026-04-28T14:44:38.000",
    "date_modified": "2026-04-28T14:44:40.000",
    "request_status": "Pending",
    "responsible_agency": "Department of Sanitation",
    "final_address": "1700 BLK N Roman St",
    "address_councildis": "D",
    "status": "Pending",
    "rowid": "1277213",
    "final_x": "3682755.22566",
    "final_y": "538716.749454",
    "longitude": "-90.06385500761832",
    "latitude": "29.975246097017983",
    "geocoded_column": {
      "latitude": "29.975246097017983",
      "longitude": "-90.06385500761832"
    }
  },
  {
    "service_request": "2026-1277212",
    "request_type": "Trash/Recycling",
    "request_reason": "Repair Trash Cart",
    "date_created": "2026-04-28T14:43:05.000",
    "date_modified": "2026-04-28T14:43:07.000",
    "request_status": "Pending",
    "responsible_agency": "Department of Sanitation",
    "final_address": "922 Charbonnet St",
    "address_councildis": "E",
    "status": "Assigned to Contractor",
    "contractor": "Waste Pro",
    "rowid": "1277212",
    "final_x": "3698410.3793",
    "final_y": "533004.47002",
    "longitude": "-90.01461980317758",
    "latitude": "29.959053176444797",
    "geocoded_column": {
      "latitude": "29.959053176444797",
      "longitude": "-90.01461980317758"
    }
  },
  {
    "service_request": "2026-1277211",
    "request_type": "Tree Service",
    "request_reason": "Tree Trim",
    "date_created": "2026-04-28T14:41:18.000",
    "date_modified": "2026-04-28T14:41:19.000",
    "request_status": "Pending",
    "responsible_agency": "Department of Parks & Parkways",
    "final_address": "2641 Hudson Pl",
    "address_councildis": "C",
    "status": "Pending",
    "rowid": "1277211",
    "final_x": "3703346.37668",
    "final_y": "521176.738617",
    "longitude": "-89.99946803855156",
    "latitude": "29.926373968126807",
    "geocoded_column": {
      "latitude": "29.926373968126807",
      "longitude": "-89.99946803855156"
    }
  },
  {
    "service_request": "2026-1277209",
    "request_type": "Trash/Recycling",
    "request_reason": "Repair Trash Cart",
    "date_created": "2026-04-28T14:41:10.000",
    "date_modified": "2026-04-28T14:41:12.000",
    "request_status": "Pending",
    "responsible_agency": "Department of Sanitation",
    "final_address": "8737 Marks St",
    "address_councildis": "A",
    "status": "Assigned to Contractor",
    "contractor": "IV Waste",
    "rowid": "1277209",
    "final_x": "3667173.49377",
    "final_y": "537662.189128",
    "longitude": "-90.11310189164611",
    "latitude": "29.972811882450916",
    "geocoded_column": {
      "latitude": "29.972811882450916",
      "longitude": "-90.11310189164611"
    }
  },
  {
    "service_request": "2026-1277210",
    "request_type": "Tree Service",
    "request_reason": "Tree Trim",
    "date_created": "2026-04-28T14:41:10.000",
    "date_modified": "2026-04-28T14:41:11.000",
    "request_status": "Pending",
    "responsible_agency": "Department of Parks & Parkways",
    "final_address": "2640 Hudson Pl",
    "address_councildis": "C",
    "status": "Pending",
    "rowid": "1277210",
    "final_x": "3703450.71332",
    "final_y": "521186.455225",
    "longitude": "-89.99913832246932",
    "latitude": "29.926397345334575",
    "geocoded_column": {
      "latitude": "29.926397345334575",
      "longitude": "-89.99913832246932"
    }
  },
  {
    "service_request": "2026-1277208",
    "request_type": "Safety & Permits",
    "request_reason": "Licenses & Permits",
    "date_created": "2026-04-28T14:38:34.000",
    "date_modified": "2026-04-28T14:38:36.000",
    "request_status": "Pending",
    "responsible_agency": "Safety and Permits",
    "final_address": "4520 LaSalle St",
    "address_councildis": "B",
    "status": "Pending",
    "rowid": "1277208",
    "final_x": "3670020.12295",
    "final_y": "523476.685499",
    "longitude": "-90.10459209484821",
    "latitude": "29.933722750326787",
    "geocoded_column": {
      "latitude": "29.933722750326787",
      "longitude": "-90.10459209484821"
    }
  },
  {
    "service_request": "2026-1277207",
    "request_type": "Trash/Recycling",
    "request_reason": "Request a Large Item Pick Up",
    "date_created": "2026-04-28T14:35:22.000",
    "date_modified": "2026-04-28T14:35:26.000",
    "request_status": "Pending",
    "responsible_agency": "Department of Sanitation",
    "final_address": "4828 Shalimar Dr",
    "address_councildis": "D",
    "status": "Assigned to Contractor",
    "contractor": "Waste Pro",
    "rowid": "1277207",
    "final_x": "3697078.70813",
    "final_y": "554681.533464",
    "longitude": "-90.01803913184729",
    "latitude": "30.018699245506404",
    "geocoded_column": {
      "latitude": "30.018699245506404",
      "longitude": "-90.01803913184729"
    }
  },
  {
    "service_request": "2026-1277206",
    "request_type": "Trash/Recycling",
    "request_reason": "Return Trash Cart",
    "date_created": "2026-04-28T14:30:15.000",
    "date_modified": "2026-04-28T14:30:17.000",
    "request_status": "Pending",
    "responsible_agency": "Department of Sanitation",
    "final_address": "9100 Morrison Rd",
    "address_councildis": "E",
    "status": "Assigned to Contractor",
    "contractor": "Waste Pro",
    "rowid": "1277206",
    "final_x": "3706214.87294",
    "final_y": "562019.668447",
    "longitude": "-89.98890033274857",
    "latitude": "30.038584724275047",
    "geocoded_column": {
      "latitude": "30.038584724275047",
      "longitude": "-89.98890033274857"
    }
  },
  {
    "service_request": "2026-1277205",
    "request_type": "Tree Service",
    "request_reason": "Tree Trim",
    "date_created": "2026-04-28T14:28:52.000",
    "date_modified": "2026-04-28T14:28:53.000",
    "request_status": "Pending",
    "responsible_agency": "Department of Parks & Parkways",
    "final_address": "2209 Calhoun St",
    "address_councildis": "A",
    "status": "Pending",
    "rowid": "1277205",
    "final_x": "3665859.21844",
    "final_y": "525147.740669",
    "longitude": "-90.11767195012914",
    "latitude": "29.938439652073026",
    "geocoded_column": {
      "latitude": "29.938439652073026",
      "longitude": "-90.11767195012914"
    }
  },
  {
    "service_request": "2026-1277204",
    "request_type": "Streetlights",
    "request_reason": "Streetlight Outage/Malfunction",
    "date_created": "2026-04-28T14:16:54.000",
    "date_modified": "2026-04-28T14:20:19.000",
    "request_status": "Pending",
    "responsible_agency": "Department of Public Works",
    "final_address": "5200 BLK N Prieur St",
    "address_councildis": "E",
    "status": "Pending",
    "rowid": "1277204",
    "final_x": "3697502.64269",
    "final_y": "537078.574909",
    "longitude": "-90.01733844032988",
    "latitude": "29.970284207353615",
    "geocoded_column": {
      "latitude": "29.970284207353615",
      "longitude": "-90.01733844032988"
    }
  },
  {
    "service_request": "2026-1277203",
    "request_type": "Trash/Recycling",
    "request_reason": "Illegal Dumping",
    "date_created": "2026-04-28T14:13:38.000",
    "date_modified": "2026-04-28T14:13:40.000",
    "request_status": "Pending",
    "responsible_agency": "Department of Sanitation",
    "final_address": "2800 BLK N VillerÃ© St",
    "address_councildis": "C",
    "status": "Pending",
    "rowid": "1277203",
    "final_x": "3688152.92123",
    "final_y": "537388.297714",
    "longitude": "-90.0468548070071",
    "latitude": "29.971427785384126",
    "geocoded_column": {
      "latitude": "29.971427785384126",
      "longitude": "-90.0468548070071"
    }
  },
  {
    "service_request": "2026-1277202",
    "request_type": "Property Maintenance",
    "request_reason": "Property Maintenance",
    "date_created": "2026-04-28T14:12:17.000",
    "date_modified": "2026-04-28T14:23:08.000",
    "case_close_date": "2026-04-28T09:23:07.000",
    "request_status": "Closed",
    "responsible_agency": "Department of Code Enforcement",
    "final_address": "1031 Egania St",
    "address_councildis": "E",
    "status": "Referred to Code Enforcement",
    "rowid": "1277202",
    "final_x": "3696789.70301",
    "final_y": "533877.453061",
    "longitude": "-90.01970586667764",
    "latitude": "29.961504757533483",
    "geocoded_column": {
      "latitude": "29.961504757533483",
      "longitude": "-90.01970586667764"
    }
  },
  {
    "service_request": "2026-1277201",
    "request_type": "Trash/Recycling",
    "request_reason": "MIssed Recycling Pick-Up",
    "date_created": "2026-04-28T14:11:13.000",
    "date_modified": "2026-04-28T14:11:15.000",
    "request_status": "Pending",
    "responsible_agency": "Department of Sanitation",
    "final_address": "12970 Chanelle Ct",
    "address_councildis": "E",
    "status": "Assigned to Contractor",
    "contractor": "Waste Pro",
    "rowid": "1277201",
    "final_x": "3717190.9532",
    "final_y": "567724.617956",
    "longitude": "-89.95399633127306",
    "latitude": "30.053912329621085",
    "geocoded_column": {
      "latitude": "30.053912329621085",
      "longitude": "-89.95399633127306"
    }
  },
  {
    "service_request": "2026-1277200",
    "request_type": "Trash/Recycling",
    "request_reason": "Repair Recycling Cart",
    "date_created": "2026-04-28T14:10:10.000",
    "date_modified": "2026-04-28T14:10:12.000",
    "request_status": "Pending",
    "responsible_agency": "Department of Sanitation",
    "final_address": "12970 Chanelle Ct",
    "address_councildis": "E",
    "status": "Pending",
    "rowid": "1277200",
    "final_x": "3717190.9532",
    "final_y": "567724.617956",
    "longitude": "-89.95399633127306",
    "latitude": "30.053912329621085",
    "geocoded_column": {
      "latitude": "30.053912329621085",
      "longitude": "-89.95399633127306"
    }
  },
  {
    "service_request": "2026-1277199",
    "request_type": "Abandoned Vehicles",
    "request_reason": "Abandoned/Junk Vehicles",
    "date_created": "2026-04-28T14:05:48.000",
    "date_modified": "2026-04-28T14:05:49.000",
    "request_status": "Pending",
    "responsible_agency": "Department of Public Works",
    "final_address": "TOULOUSE ST & N SCOTT ST",
    "address_councildis": "A",
    "status": "Pending",
    "rowid": "1277199",
    "final_x": "3672865.0",
    "final_y": "539257.28",
    "longitude": "-90.0950725721395",
    "latitude": "29.977029956133553",
    "geocoded_column": {
      "latitude": "29.977029956133553",
      "longitude": "-90.0950725721395"
    }
  },
  {
    "service_request": "2026-1277198",
    "request_type": "Trash/Recycling",
    "request_reason": "Replace Trash Cart",
    "date_created": "2026-04-28T14:05:30.000",
    "date_modified": "2026-04-28T14:05:32.000",
    "request_status": "Pending",
    "responsible_agency": "Department of Sanitation",
    "final_address": "5641 Chartres St Apt B",
    "address_councildis": "E",
    "status": "Assigned to Contractor",
    "contractor": "Waste Pro",
    "rowid": "1277198",
    "final_x": "3697838.91242",
    "final_y": "531905.297539",
    "longitude": "-90.01646423349408",
    "latitude": "29.956048912716746",
    "geocoded_column": {
      "latitude": "29.956048912716746",
      "longitude": "-90.01646423349408"
    }
  },
  {
    "service_request": "2026-1277197",
    "request_type": "Trash/Recycling",
    "request_reason": "Request a Large Item Pick Up",
    "date_created": "2026-04-28T14:01:04.000",
    "date_modified": "2026-04-28T14:01:05.000",
    "request_status": "Pending",
    "responsible_agency": "Department of Sanitation",
    "final_address": "7209 W Tamaron Blvd",
    "address_councildis": "E",
    "status": "Assigned to Contractor",
    "contractor": "Waste Pro",
    "rowid": "1277197",
    "final_x": "3717925.52204",
    "final_y": "569385.89559",
    "longitude": "-89.95161124812182",
    "latitude": "30.05845582148128",
    "geocoded_column": {
      "latitude": "30.05845582148128",
      "longitude": "-89.95161124812182"
    }
  },
  {
    "service_request": "2026-1277196",
    "request_type": "Abandoned Vehicles",
    "request_reason": "Abandoned/Junk Vehicles",
    "date_created": "2026-04-28T13:59:32.000",
    "date_modified": "2026-04-28T13:59:33.000",
    "request_status": "Pending",
    "responsible_agency": "Department of Public Works",
    "final_address": "1819 Pauger St",
    "address_councildis": "C",
    "status": "Pending",
    "rowid": "1277196",
    "final_x": "3683895.30626",
    "final_y": "536376.394503",
    "longitude": "-90.06033645316815",
    "latitude": "29.968776154198494",
    "geocoded_column": {
      "latitude": "29.968776154198494",
      "longitude": "-90.06033645316815"
    }
  },
  {
    "service_request": "2026-1277195",
    "request_type": "Graffiti Removal",
    "request_reason": "Graffiti Removal",
    "date_created": "2026-04-28T13:58:52.000",
    "date_modified": "2026-04-28T14:14:39.000",
    "case_close_date": "2026-04-28T09:14:38.000",
    "request_status": "Closed",
    "responsible_agency": "Department of Code Enforcement",
    "final_address": "6905 Pritchard Pl",
    "address_councildis": "B",
    "status": "Closed",
    "rowid": "1277195",
    "final_x": "3668073.69255",
    "final_y": "531126.131458",
    "longitude": "-90.11047918034642",
    "latitude": "29.954813498867004",
    "geocoded_column": {
      "latitude": "29.954813498867004",
      "longitude": "-90.11047918034642"
    }
  },
  {
    "service_request": "2026-1277194",
    "request_type": "Drainage",
    "request_reason": "Illegal Dumping (Sewer Odor)",
    "date_created": "2026-04-28T13:57:19.000",
    "date_modified": "2026-04-28T13:57:20.000",
    "request_status": "Pending",
    "responsible_agency": "Sewerage & Water Board",
    "final_address": "3005 De Soto St",
    "address_councildis": "A",
    "status": "Pending",
    "rowid": "1277194",
    "final_x": "3676715.96283",
    "final_y": "539763.655498",
    "longitude": "-90.08289253169356",
    "latitude": "29.978307323826307",
    "geocoded_column": {
      "latitude": "29.978307323826307",
      "longitude": "-90.08289253169356"
    }
  },
  {
    "service_request": "2026-1277193",
    "request_type": "Property Maintenance",
    "request_reason": "Property Maintenance",
    "date_created": "2026-04-28T13:57:18.000",
    "date_modified": "2026-04-28T14:51:55.000",
    "case_close_date": "2026-04-28T09:51:54.000",
    "request_status": "Closed",
    "responsible_agency": "Department of Code Enforcement",
    "final_address": "7019 Pritchard Pl",
    "address_councildis": "B",
    "status": "Referred to Code Enforcement",
    "rowid": "1277193",
    "final_x": "3667919.02913",
    "final_y": "531238.887938",
    "longitude": "-90.11096375181917",
    "latitude": "29.955128079889356",
    "geocoded_column": {
      "latitude": "29.955128079889356",
      "longitude": "-90.11096375181917"
    }
  },
  {
    "service_request": "2026-1277192",
    "request_type": "Property Maintenance",
    "request_reason": "Property Maintenance",
    "date_created": "2026-04-28T13:56:55.000",
    "date_modified": "2026-04-28T15:30:43.000",
    "case_close_date": "2026-04-28T10:30:42.000",
    "request_status": "Closed",
    "responsible_agency": "Department of Code Enforcement",
    "final_address": "3015 Piety St",
    "address_councildis": "D",
    "status": "Referred to Code Enforcement",
    "rowid": "1277192",
    "final_x": "3691791.5855",
    "final_y": "543447.020238",
    "longitude": "-90.0351466425241",
    "latitude": "29.987974275068396",
    "geocoded_column": {
      "latitude": "29.987974275068396",
      "longitude": "-90.0351466425241"
    }
  },
  {
    "service_request": "2026-1277191",
    "request_type": "Trash/Recycling",
    "request_reason": "Illegal Dumping",
    "date_created": "2026-04-28T13:54:39.000",
    "date_modified": "2026-04-28T13:54:40.000",
    "request_status": "Pending",
    "responsible_agency": "Department of Sanitation",
    "final_address": "5340 St Claude Ave",
    "address_councildis": "E",
    "status": "Pending",
    "rowid": "1277191",
    "final_x": "3697103.50608",
    "final_y": "533936.914885",
    "longitude": "-90.01871278112095",
    "latitude": "29.961658360738",
    "geocoded_column": {
      "latitude": "29.961658360738",
      "longitude": "-90.01871278112095"
    }
  },
  {
    "service_request": "2026-1277190",
    "request_type": "Trash/Recycling",
    "request_reason": "Order Recycling Cart",
    "date_created": "2026-04-28T13:54:14.000",
    "date_modified": "2026-04-28T13:54:15.000",
    "request_status": "Pending",
    "responsible_agency": "Department of Sanitation",
    "final_address": "2311 Lark St",
    "address_councildis": "D",
    "status": "Pending",
    "rowid": "1277190",
    "final_x": "3684166.17551",
    "final_y": "557896.861211",
    "longitude": "-90.05872502851867",
    "latitude": "30.027941442213397",
    "geocoded_column": {
      "latitude": "30.027941442213397",
      "longitude": "-90.05872502851867"
    }
  },