[
  {
    "service_request": "2023-985486",
    "request_type": "Trash/Recycling",
    "request_reason": "Illegal Dumping",
    "date_created": "2023-03-24T01:31:10.000",
    "date_modified": "2023-03-24T01:31:10.000",
    "request_status": "Pending",
    "responsible_agency": "Department of Sanitation",
    "final_address": "1731 Annette St",
    "address_councildis": "D",
    "status": "Pending",
    "rowid": "985486",
    "final_x": "3683032.40156",
    "final_y": "538623.846537",
    "longitude": "-90.06298286665495",
    "latitude": "29.974982199682994",
    "geocoded_column": {
      "latitude": "29.974982199682994",
      "longitude": "-90.06298286665495"
    }
  },
  {
    "service_request": "2023-985485",
    "request_type": "Trash/Recycling",
    "request_reason": "Missed Trash Pick-Up",
    "date_created": "2023-03-24T00:57:58.000",
    "date_modified": "2023-03-24T00:57:59.000",
    "request_status": "Pending",
    "responsible_agency": "Department of Sanitation",
    "final_address": "129 N Clark St",
    "address_councildis": "B",
    "status": "Assigned to Contractor",
    "contractor": "Richards Disposal",
    "rowid": "985485",
    "final_x": "3673019.99252",
    "final_y": "537284.31668",
    "longitude": "-90.09465041650901",
    "latitude": "29.971600370252222",
    "geocoded_column": {
      "latitude": "29.971600370252222",
      "longitude": "-90.09465041650901"
    }
  },
  {
    "service_request": "2023-985484",
    "request_type": "Trash/Recycling",
    "request_reason": "Replace Trash Cart",
    "date_created": "2023-03-23T23:45:36.000",
    "date_modified": "2023-03-23T23:45:37.000",
    "request_status": "Pending",
    "responsible_agency": "Department of Sanitation",
    "final_address": "1134 Ursulines Ave",
    "address_councildis": "C",
    "status": "Assigned to Contractor",
    "contractor": "Richards Disposal",
    "rowid": "985484",
    "final_x": "3681997.60104",
    "final_y": "534711.171654",
    "longitude": "-90.06638766227286",
    "latitude": "29.96425519833046",
    "geocoded_column": {
      "latitude": "29.96425519833046",
      "longitude": "-90.06638766227286"
    }
  },
  {
    "service_request": "2023-985483",
    "request_type": "Trash/Recycling",
    "request_reason": "Illegal Dumping",
    "date_created": "2023-03-23T22:49:33.000",
    "date_modified": "2023-03-23T22:49:33.000",
    "request_status": "Pending",
    "responsible_agency": "Department of Sanitation",
    "final_address": "1131 Desire St",
    "address_councildis": "C",
    "status": "Pending",
    "rowid": "985483",
    "final_x": "3690344.5359",
    "final_y": "535992.386439",
    "longitude": "-90.03998315580834",
    "latitude": "29.967521680497523",
    "geocoded_column": {
      "latitude": "29.967521680497523",
      "longitude": "-90.03998315580834"
    }
  },
  {
    "service_request": "2023-985482",
    "request_type": "Property Maintenance",
    "request_reason": "Property Maintenance",
    "date_created": "2023-03-23T22:42:23.000",
    "date_modified": "2023-03-23T22:42:23.000",
    "request_status": "Pending",
    "responsible_agency": "Department of Code Enforcement",
    "final_address": "3411 Marais St",
    "address_councildis": "C",
    "status": "Pending",
    "rowid": "985482",
    "final_x": "3690428.80694",
    "final_y": "536063.471943",
    "longitude": "-90.0397144926417",
    "latitude": "29.967714524926173",
    "geocoded_column": {
      "latitude": "29.967714524926173",
      "longitude": "-90.0397144926417"
    }
  },
  {
    "service_request": "2023-985481",
    "request_type": "Trash/Recycling",
    "request_reason": "MIssed Recycling Pick-Up",
    "date_created": "2023-03-23T22:29:55.000",
    "date_modified": "2023-03-23T22:29:56.000",
    "request_status": "Pending",
    "responsible_agency": "Department of Sanitation",
    "final_address": "3609 Nashville Ave",
    "address_councildis": "A",
    "status": "Assigned to Contractor",
    "contractor": "Richards Disposal",
    "rowid": "985481",
    "final_x": "3668340.89306",
    "final_y": "528826.355776",
    "longitude": "-90.10971300793435",
    "latitude": "29.948482023631545",
    "geocoded_column": {
      "latitude": "29.948482023631545",
      "longitude": "-90.10971300793435"
    }
  },
  {
    "service_request": "2023-985480",
    "request_type": "Safety & Permits",
    "request_reason": "Safety & Permits Request (Cyber Incident Back Up)",
    "date_created": "2023-03-23T22:16:31.000",
    "date_modified": "2023-03-23T22:16:31.000",
    "request_status": "Pending",
    "responsible_agency": "Safety and Permits",
    "status": "Pending",
    "rowid": "985480",
    "longitude": "0.0",
    "latitude": "0.0",
    "geocoded_column": {
      "latitude": "0.0",
      "longitude": "0.0"
    }
  },
  {
    "service_request": "2023-985479",
    "request_type": "Traffic Signals/Signs/Striping/Streetlights",
    "request_reason": "Street Light Outage/Malfunction",
    "date_created": "2023-03-23T22:12:21.000",
    "date_modified": "2023-03-23T22:12:22.000",
    "request_status": "Pending",
    "responsible_agency": "Department of Public Works",
    "final_address": "TALL TIMBERS DR & SILVER MAPLE CT",
    "address_councildis": "C",
    "status": "Assigned to Contractor",
    "contractor": "Legacy Professional Services",
    "rowid": "985479",
    "final_x": "3703600.3",
    "final_y": "512465.78",
    "longitude": "-89.99898669774994",
    "latitude": "29.902413689998777",
    "geocoded_column": {
      "latitude": "29.902413689998777",
      "longitude": "-89.99898669774994"
    }
  },
  {
    "service_request": "2023-985478",
    "request_type": "Trash/Recycling",
    "request_reason": "Start Trash Service",
    "date_created": "2023-03-23T22:03:16.000",
    "date_modified": "2023-03-23T22:03:17.000",
    "request_status": "Pending",
    "responsible_agency": "Department of Sanitation",
    "final_address": "4622 Papania Dr",
    "address_councildis": "E",
    "status": "Assigned to Contractor",
    "contractor": "Waste Pro",
    "rowid": "985478",
    "final_x": "3715546.0734",
    "final_y": "556348.451418",
    "longitude": "-89.9596264144714",
    "latitude": "30.022686803467106",
    "geocoded_column": {
      "latitude": "30.022686803467106",
      "longitude": "-89.9596264144714"
    }
  },
  {
    "service_request": "2023-985477",
    "request_type": "Trash/Recycling",
    "request_reason": "Request a Large Item Pick Up",
    "date_created": "2023-03-23T21:31:43.000",
    "date_modified": "2023-03-23T21:31:44.000",
    "request_status": "Pending",
    "responsible_agency": "Department of Sanitation",
    "final_address": "4805 Annette St",
    "address_councildis": "D",
    "status": "Assigned to Contractor",
    "contractor": "IV Waste",
    "rowid": "985477",
    "final_x": "3682060.10287",
    "final_y": "550204.21154",
    "longitude": "-90.06564900409558",
    "latitude": "30.006853711624547",
    "geocoded_column": {
      "latitude": "30.006853711624547",
      "longitude": "-90.06564900409558"
    }
  },
  {
    "service_request": "2023-985476",
    "request_type": "Abandoned Vehicles",
    "request_reason": "Abandoned/Junk Vehicles",
    "date_created": "2023-03-23T21:29:17.000",
    "date_modified": "2023-03-23T21:29:17.000",
    "request_status": "Pending",
    "responsible_agency": "Department of Public Works",
    "final_address": "8117 Apricot St, New Orleans, Louisiana, 70118",
    "address_councildis": "A",
    "status": "Pending",
    "rowid": "985476",
    "final_x": "3665786.98452",
    "final_y": "532745.814084",
    "longitude": "-90.11764549926401",
    "latitude": "29.959334001540693",
    "geocoded_column": {
      "latitude": "29.959334001540693",
      "longitude": "-90.11764549926401"
    }
  },
  {
    "service_request": "2023-985475",
    "request_type": "Property Maintenance",
    "request_reason": "Property Maintenance",
    "date_created": "2023-03-23T20:55:35.000",
    "date_modified": "2023-03-23T20:55:35.000",
    "request_status": "Pending",
    "responsible_agency": "Department of Code Enforcement",
    "final_address": "2418 Treasure St",
    "address_councildis": "D",
    "status": "Pending",
    "rowid": "985475",
    "final_x": "3686069.38799",
    "final_y": "544119.132558",
    "longitude": "-90.05319740827416",
    "latitude": "29.98999936310735",
    "geocoded_column": {
      "latitude": "29.98999936310735",
      "longitude": "-90.05319740827416"
    }
  },
  {
    "service_request": "2023-985474",
    "request_type": "Abandoned Vehicles",
    "request_reason": "Vehicle Blocking Your Driveway",
    "date_created": "2023-03-23T20:53:29.000",
    "date_modified": "2023-03-23T20:53:29.000",
    "request_status": "Pending",
    "responsible_agency": "Department of Public Works",
    "final_address": "1404 Cadiz St, New Orleans, Louisiana, 70115",
    "address_councildis": "B",
    "status": "Pending",
    "rowid": "985474",
    "final_x": "3670091.14542",
    "final_y": "520323.34092",
    "longitude": "-90.10447464195603",
    "latitude": "29.92504996730656",
    "geocoded_column": {
      "latitude": "29.92504996730656",
      "longitude": "-90.10447464195603"
    }
  },
  {
    "service_request": "2023-985473",
    "request_type": "Property Maintenance",
    "request_reason": "Property Maintenance",
    "date_created": "2023-03-23T20:52:46.000",
    "date_modified": "2023-03-23T20:52:46.000",
    "request_status": "Pending",
    "responsible_agency": "Department of Code Enforcement",
    "final_address": "3114 Music St",
    "address_councildis": "D",
    "status": "Pending",
    "rowid": "985473",
    "final_x": "3686134.1469",
    "final_y": "544337.898383",
    "longitude": "-90.05298513126742",
    "latitude": "29.990598901567246",
    "geocoded_column": {
      "latitude": "29.990598901567246",
      "longitude": "-90.05298513126742"
    }
  },
  {
    "service_request": "2023-985472",
    "request_type": "Abandoned Vehicles",
    "request_reason": "Abandoned/Junk Vehicles",
    "date_created": "2023-03-23T20:44:39.000",
    "date_modified": "2023-03-23T20:44:39.000",
    "request_status": "Pending",
    "responsible_agency": "Department of Public Works",
    "final_address": "3307 Piedmont Dr",
    "address_councildis": "D",
    "status": "Pending",
    "rowid": "985472",
    "final_x": "3686646.45346",
    "final_y": "545070.302351",
    "longitude": "-90.05134100235266",
    "latitude": "29.99259700025856",
    "geocoded_column": {
      "latitude": "29.99259700025856",
      "longitude": "-90.05134100235266"
    }
  },
  {
    "service_request": "2023-985471",
    "request_type": "Abandoned Vehicles",
    "request_reason": "Vehicle Blocking Your Driveway",
    "date_created": "2023-03-23T20:44:36.000",
    "date_modified": "2023-03-23T20:44:36.000",
    "request_status": "Pending",
    "responsible_agency": "Department of Public Works",
    "final_address": "1404 Cadiz St",
    "address_councildis": "B",
    "status": "Pending",
    "rowid": "985471",
    "final_x": "3670091.14542",
    "final_y": "520323.34092",
    "longitude": "-90.10447464195603",
    "latitude": "29.92504996730656",
    "geocoded_column": {
      "latitude": "29.92504996730656",
      "longitude": "-90.10447464195603"
    }
  },
  {
    "service_request": "2023-985470",
    "request_type": "Trash/Recycling",
    "request_reason": "MIssed Recycling Pick-Up",
    "date_created": "2023-03-23T20:39:32.000",
    "date_modified": "2023-03-23T20:39:32.000",
    "request_status": "Pending",
    "responsible_agency": "Department of Sanitation",
    "final_address": "815 Leontine St",
    "address_councildis": "B",
    "status": "Assigned to Contractor",
    "contractor": "Richards Disposal",
    "rowid": "985470",
    "final_x": "3667173.42644",
    "final_y": "518443.944438",
    "longitude": "-90.11374811573283",
    "latitude": "29.919967937328273",
    "geocoded_column": {
      "latitude": "29.919967937328273",
      "longitude": "-90.11374811573283"
    }
  },
  {
    "service_request": "2023-985469",
    "request_type": "Trash/Recycling",
    "request_reason": "Missed Trash Pick-Up",
    "date_created": "2023-03-23T20:35:47.000",
    "date_modified": "2023-03-23T20:35:48.000",
    "request_status": "Pending",
    "responsible_agency": "Department of Sanitation",
    "final_address": "8730 Hammond St",
    "address_councildis": "E",
    "status": "Assigned to Contractor",
    "contractor": "Waste Pro",
    "rowid": "985469",
    "final_x": "3707722.45963",
    "final_y": "555881.200473",
    "longitude": "-89.98436437405931",
    "latitude": "30.02165762448965",
    "geocoded_column": {
      "latitude": "30.02165762448965",
      "longitude": "-89.98436437405931"
    }
  },
  {
    "service_request": "2023-985467",
    "request_type": "Traffic Signals/Signs/Striping/Streetlights",
    "request_reason": "Street Light Outage/Malfunction",
    "date_created": "2023-03-23T20:02:05.000",
    "date_modified": "2023-03-23T20:02:06.000",
    "request_status": "Pending",
    "responsible_agency": "Department of Public Works",
    "final_address": "1025 Webster St",
    "address_councildis": "A",
    "status": "Assigned to Contractor",
    "contractor": "Legacy Professional Services",
    "rowid": "985467",
    "final_x": "3664482.50823",
    "final_y": "520242.863736",
    "longitude": "-90.12218205983686",
    "latitude": "29.924992881765164",
    "geocoded_column": {
      "latitude": "29.924992881765164",
      "longitude": "-90.12218205983686"
    }
  },
  {
    "service_request": "2023-985466",
    "request_type": "Trash/Recycling",
    "request_reason": "MIssed Recycling Pick-Up",
    "date_created": "2023-03-23T19:48:52.000",
    "date_modified": "2023-03-23T19:48:52.000",
    "request_status": "Pending",
    "responsible_agency": "Department of Sanitation",
    "final_address": "2420 Pine St",
    "address_councildis": "A",
    "status": "Assigned to Contractor",
    "contractor": "Richards Disposal",
    "rowid": "985466",
    "final_x": "3666432.46957",
    "final_y": "530549.881794",
    "longitude": "-90.11568089195933",
    "latitude": "29.953277059479298",
    "geocoded_column": {
      "latitude": "29.953277059479298",
      "longitude": "-90.11568089195933"
    }
  },
  {
    "service_request": "2023-985465",
    "request_type": "Health Related Request",
    "request_reason": "Noise Ordinance Complaint",
    "date_created": "2023-03-23T19:24:00.000",
    "date_modified": "2023-03-23T19:24:00.000",
    "request_status": "Pending",
    "responsible_agency": "Health Department",
    "final_address": "1009 N Claiborne Ave, New Orleans, Louisiana, 70116",
    "address_councildis": "D",
    "status": "Pending",
    "rowid": "985465",
    "final_x": "3680417.66101",
    "final_y": "535635.218886",
    "longitude": "-90.07134484150656",
    "latitude": "29.966843952035386",
    "geocoded_column": {
      "latitude": "29.966843952035386",
      "longitude": "-90.07134484150656"
    }
  },
  {
    "service_request": "2023-985464",
    "request_type": "Trash/Recycling",
    "request_reason": "Order Recycling Cart",
    "date_created": "2023-03-23T19:20:56.000",
    "date_modified": "2023-03-23T19:20:56.000",
    "request_status": "Pending",
    "responsible_agency": "Department of Sanitation",
    "final_address": "4853 Gilbert St",
    "address_councildis": "E",
    "status": "Pending",
    "rowid": "985464",
    "final_x": "3729549.72774",
    "final_y": "562341.512607",
    "longitude": "-89.91514446726929",
    "latitude": "30.03869619313856",
    "geocoded_column": {
      "latitude": "30.03869619313856",
      "longitude": "-89.91514446726929"
    }
  },
  {
    "service_request": "2023-985463",
    "request_type": "Trash/Recycling",
    "request_reason": "Request a Large Item Pick Up",
    "date_created": "2023-03-23T19:19:51.000",
    "date_modified": "2023-03-23T19:19:52.000",
    "request_status": "Pending",
    "responsible_agency": "Department of Sanitation",
    "final_address": "616 Lang St",
    "address_councildis": "C",
    "status": "Assigned to Contractor",
    "contractor": "Richards Disposal",
    "rowid": "985463",
    "final_x": "3702110.01924",
    "final_y": "520575.940536",
    "longitude": "-90.00339285604116",
    "latitude": "29.924761497370465",
    "geocoded_column": {
      "latitude": "29.924761497370465",
      "longitude": "-90.00339285604116"
    }
  },
  {
    "service_request": "2023-985462",
    "request_type": "Roads/Drainage",
    "request_reason": "Accessibility Ramps, Curbs and Sidewalk Repair",
    "date_created": "2023-03-23T19:19:24.000",
    "date_modified": "2023-03-23T19:19:24.000",
    "request_status": "Pending",
    "responsible_agency": "Department of Public Works",
    "final_address": "1632 Eighth St",
    "address_councildis": "B",
    "status": "Pending",
    "rowid": "985462",
    "final_x": "3674785.29326",
    "final_y": "522162.599482",
    "longitude": "-90.08959369443632",
    "latitude": "29.929968074026146",
    "geocoded_column": {
      "latitude": "29.929968074026146",
      "longitude": "-90.08959369443632"
    }
  },
  {
    "service_request": "2023-985461",
    "request_type": "Roads/Drainage",
    "request_reason": "Damaged Sidewalk",
    "date_created": "2023-03-23T19:19:13.000",
    "date_modified": "2023-03-23T19:19:13.000",
    "request_status": "Pending",
    "responsible_agency": "Department of Public Works",
    "final_address": "516 S Dorgenois St",
    "address_councildis": "B",
    "status": "Pending",
    "rowid": "985461",
    "final_x": "3674768.2411",
    "final_y": "533303.738564",
    "longitude": "-90.08926566797673",
    "latitude": "29.960603042633846",
    "geocoded_column": {
      "latitude": "29.960603042633846",
      "longitude": "-90.08926566797673"
    }
  },
  {
    "service_request": "2023-985460",
    "request_type": "Trash/Recycling",
    "request_reason": "Repair Recycling Cart",
    "date_created": "2023-03-23T19:16:02.000",
    "date_modified": "2023-03-23T19:16:02.000",
    "request_status": "Pending",
    "responsible_agency": "Department of Sanitation",
    "final_address": "2857 Annunciation St",
    "address_councildis": "B",
    "status": "Pending",
    "rowid": "985460",
    "final_x": "3677245.7764",
    "final_y": "519679.140728",
    "longitude": "-90.08191197942094",
    "latitude": "29.923065704093972",
    "geocoded_column": {
      "latitude": "29.923065704093972",
      "longitude": "-90.08191197942094"
    }
  },
  {
    "service_request": "2023-985459",
    "request_type": "Property Maintenance",
    "request_reason": "Property Maintenance",
    "date_created": "2023-03-23T19:12:23.000",
    "date_modified": "2023-03-23T19:12:23.000",
    "request_status": "Pending",
    "responsible_agency": "Department of Code Enforcement",
    "final_address": "519 S Dorgenois St",
    "address_councildis": "B",
    "status": "Pending",
    "rowid": "985459",
    "final_x": "3674652.381",
    "final_y": "533356.058884",
    "longitude": "-90.08962973839664",
    "latitude": "29.960750364317864",
    "geocoded_column": {
      "latitude": "29.960750364317864",
      "longitude": "-90.08962973839664"
    }
  },
  {
    "service_request": "2023-985458",
    "request_type": "Roads/Drainage",
    "request_reason": "Street Flooding / Drainage",
    "date_created": "2023-03-23T19:10:43.000",
    "date_modified": "2023-03-23T19:10:43.000",
    "request_status": "Pending",
    "responsible_agency": "Department of Public Works",
    "final_address": "519 S Dorgenois St",
    "address_councildis": "B",
    "status": "Pending",
    "rowid": "985458",
    "final_x": "3674652.381",
    "final_y": "533356.058884",
    "longitude": "-90.08962973839664",
    "latitude": "29.960750364317864",
    "geocoded_column": {
      "latitude": "29.960750364317864",
      "longitude": "-90.08962973839664"
    }
  },
  {
    "service_request": "2023-985457",
    "request_type": "Roads/Drainage",
    "request_reason": "Catch Basin - Clogged",
    "date_created": "2023-03-23T19:07:12.000",
    "date_modified": "2023-03-23T19:07:12.000",
    "request_status": "Pending",
    "responsible_agency": "Department of Public Works",
    "final_address": "516 S Dorgenois St",
    "address_councildis": "B",
    "status": "Pending",
    "rowid": "985457",
    "final_x": "3674768.2411",
    "final_y": "533303.738564",
    "longitude": "-90.08926566797673",
    "latitude": "29.960603042633846",
    "geocoded_column": {
      "latitude": "29.960603042633846",
      "longitude": "-90.08926566797673"
    }
  },
  {
    "service_request": "2023-985456",
    "request_type": "Trash/Recycling",
    "request_reason": "Request a Large Item Pick Up",
    "date_created": "2023-03-23T18:59:01.000",
    "date_modified": "2023-03-23T18:59:01.000",
    "request_status": "Pending",
    "responsible_agency": "Department of Sanitation",
    "final_address": "8417 Willow St",
    "address_councildis": "A",
    "status": "Assigned to Contractor",
    "contractor": "Richards Disposal",
    "rowid": "985456",
    "final_x": "3661559.84813",
    "final_y": "529744.915777",
    "longitude": "-90.13109328267808",
    "latitude": "29.95120514003214",
    "geocoded_column": {
      "latitude": "29.95120514003214",
      "longitude": "-90.13109328267808"
    }
  },
  {
    "service_request": "2023-985455",
    "request_type": "Abandoned Vehicles",
    "request_reason": "Abandoned/Junk Vehicles",
    "date_created": "2023-03-23T18:57:29.000",
    "date_modified": "2023-03-23T18:57:29.000",
    "request_status": "Pending",
    "responsible_agency": "Department of Public Works",
    "final_address": "4663 Rosemont Pl",
    "address_councildis": "E",
    "status": "Pending",
    "rowid": "985455",
    "final_x": "3702832.05559",
    "final_y": "554527.551192",
    "longitude": "-89.99986641510642",
    "latitude": "30.01809300761386",
    "geocoded_column": {
      "latitude": "30.01809300761386",
      "longitude": "-89.99986641510642"
    }
  },
  {
    "service_request": "2023-985454",
    "request_type": "Property Maintenance",
    "request_reason": "Property Maintenance",
    "date_created": "2023-03-23T18:51:03.000",
    "date_modified": "2023-03-23T18:51:03.000",
    "request_status": "Pending",
    "responsible_agency": "Department of Code Enforcement",
    "final_address": "5517 Mandeville St",
    "address_councildis": "D",
    "status": "Pending",
    "rowid": "985454",
    "final_x": "3684468.20617",
    "final_y": "553256.172759",
    "longitude": "-90.05793385647728",
    "latitude": "30.01517201869307",
    "geocoded_column": {
      "latitude": "30.01517201869307",
      "longitude": "-90.05793385647728"
    }
  },
  {
    "service_request": "2023-985453",
    "request_type": "Trash/Recycling",
    "request_reason": "Replace Trash Cart",
    "date_created": "2023-03-23T18:41:27.000",
    "date_modified": "2023-03-23T18:41:27.000",
    "request_status": "Pending",
    "responsible_agency": "Department of Sanitation",
    "final_address": "4407 Lonely Oak Dr",
    "address_councildis": "E",
    "status": "Assigned to Contractor",
    "contractor": "Waste Pro",
    "rowid": "985453",
    "final_x": "3702515.00119",
    "final_y": "552924.406807",
    "longitude": "-90.00092708035764",
    "latitude": "30.013695114211068",
    "geocoded_column": {
      "latitude": "30.013695114211068",
      "longitude": "-90.00092708035764"
    }
  },
  {
    "service_request": "2023-985452",
    "request_type": "Abandoned Vehicles",
    "request_reason": "Abandoned/Junk Vehicles",
    "date_created": "2023-03-23T18:40:19.000",
    "date_modified": "2023-03-23T18:40:19.000",
    "request_status": "Pending",
    "responsible_agency": "Department of Public Works",
    "final_address": "9330 Forshey St",
    "address_councildis": "A",
    "status": "Pending",
    "rowid": "985452",
    "final_x": "3663759.26016",
    "final_y": "536816.791368",
    "longitude": "-90.1239129131722",
    "latitude": "29.970586851363365",
    "geocoded_column": {
      "latitude": "29.970586851363365",
      "longitude": "-90.1239129131722"
    }
  },
  {
    "service_request": "2023-985451",
    "request_type": "Roads/Drainage",
    "request_reason": "Street Flooding / Drainage",
    "date_created": "2023-03-23T18:37:10.000",
    "date_modified": "2023-03-23T18:37:10.000",
    "request_status": "Pending",
    "responsible_agency": "Department of Public Works",
    "final_address": "9201 Forshey St",
    "address_councildis": "A",
    "status": "Pending",
    "rowid": "985451",
    "final_x": "3664142.81127",
    "final_y": "536581.294023",
    "longitude": "-90.12270946607313",
    "latitude": "29.96992817440111",
    "geocoded_column": {
      "latitude": "29.96992817440111",
      "longitude": "-90.12270946607313"
    }
  },
  {
    "service_request": "2023-985450",
    "request_type": "Trash/Recycling",
    "request_reason": "Illegal Dumping",
    "date_created": "2023-03-23T18:35:10.000",
    "date_modified": "2023-03-23T18:35:10.000",
    "request_status": "Pending",
    "responsible_agency": "Department of Sanitation",
    "final_address": "1302 Jourdan Ave B",
    "address_councildis": "E",
    "status": "Pending",
    "rowid": "985450",
    "final_x": "3695175.64106",
    "final_y": "535292.28263",
    "longitude": "-90.02475175151756",
    "latitude": "29.96544581948931",
    "geocoded_column": {
      "latitude": "29.96544581948931",
      "longitude": "-90.02475175151756"
    }
  },
  {
    "service_request": "2023-985449",
    "request_type": "Traffic Signals/Signs/Striping/Streetlights",
    "request_reason": "Traffic Signal Malfunctioning/Damaged",
    "date_created": "2023-03-23T18:32:35.000",
    "date_modified": "2023-03-23T18:32:35.000",
    "request_status": "Pending",
    "responsible_agency": "Department of Public Works",
    "final_address": "1714 S Dupre St",
    "address_councildis": "B",
    "status": "Pending",
    "rowid": "985449",
    "final_x": "3670714.75271",
    "final_y": "529990.970753",
    "longitude": "-90.10217821205434",
    "latitude": "29.951614415209406",
    "geocoded_column": {
      "latitude": "29.951614415209406",
      "longitude": "-90.10217821205434"
    }
  },
  {
    "service_request": "2023-985448",
    "request_type": "Trash/Recycling",
    "request_reason": "Request a Large Item Pick Up",
    "date_created": "2023-03-23T18:30:22.000",
    "date_modified": "2023-03-23T18:30:22.000",
    "request_status": "Pending",
    "responsible_agency": "Department of Sanitation",
    "final_address": "4641 Dale St",
    "address_councildis": "E",
    "status": "Assigned to Contractor",
    "contractor": "Waste Pro",
    "rowid": "985448",
    "final_x": "3699565.25072",
    "final_y": "554494.995032",
    "longitude": "-90.0101894055368",
    "latitude": "30.01810761952872",
    "geocoded_column": {
      "latitude": "30.01810761952872",
      "longitude": "-90.0101894055368"
    }
  },
  {
    "service_request": "2023-985447",
    "request_type": "Trash/Recycling",
    "request_reason": "Missed Trash Pick-Up",
    "date_created": "2023-03-23T18:30:06.000",
    "date_modified": "2023-03-23T18:30:07.000",
    "request_status": "Pending",
    "responsible_agency": "Department of Sanitation",
    "final_address": "2909 Josephine St",
    "address_councildis": "B",
    "status": "Assigned to Contractor",
    "contractor": "Richards Disposal",
    "rowid": "985447",
    "final_x": "3675101.10875",
    "final_y": "527650.756991",
    "longitude": "-90.08840848301757",
    "latitude": "29.945049282822005",
    "geocoded_column": {
      "latitude": "29.945049282822005",
      "longitude": "-90.08840848301757"
    }
  },
  {
    "service_request": "2023-985446",
    "request_type": "Trash/Recycling",
    "request_reason": "MIssed Recycling Pick-Up",
    "date_created": "2023-03-23T18:29:05.000",
    "date_modified": "2023-03-23T18:29:06.000",
    "request_status": "Pending",
    "responsible_agency": "Department of Sanitation",
    "final_address": "5540 Norgate Dr",
    "address_councildis": "E",
    "status": "Assigned to Contractor",
    "contractor": "Waste Pro",
    "rowid": "985446",
    "final_x": "3707087.62084",
    "final_y": "558121.129115",
    "longitude": "-89.98628707511972",
    "latitude": "30.02783709007401",
    "geocoded_column": {
      "latitude": "30.02783709007401",
      "longitude": "-89.98628707511972"
    }
  },
  {
    "service_request": "2023-985445",
    "request_type": "Property Maintenance",
    "request_reason": "Property Maintenance",
    "date_created": "2023-03-23T18:23:13.000",
    "date_modified": "2023-03-23T18:23:13.000",
    "request_status": "Pending",
    "responsible_agency": "Department of Code Enforcement",
    "final_address": "1241 Alabo St",
    "address_councildis": "E",
    "status": "Pending",
    "rowid": "985445",
    "final_x": "3699104.99492",
    "final_y": "534159.240581",
    "longitude": "-90.01238435523923",
    "latitude": "29.962206384889647",
    "geocoded_column": {
      "latitude": "29.962206384889647",
      "longitude": "-90.01238435523923"
    }
  },
  {
    "service_request": "2023-985444",
    "request_type": "Property Maintenance",
    "request_reason": "Property Maintenance",
    "date_created": "2023-03-23T18:21:22.000",
    "date_modified": "2023-03-23T18:21:22.000",
    "request_status": "Pending",
    "responsible_agency": "Department of Code Enforcement",
    "final_address": "1246 Alabo St",
    "address_councildis": "E",
    "status": "Pending",
    "rowid": "985444",
    "final_x": "3699044.20061",
    "final_y": "534241.691525",
    "longitude": "-90.01257333236619",
    "latitude": "29.96243502252791",
    "geocoded_column": {
      "latitude": "29.96243502252791",
      "longitude": "-90.01257333236619"
    }
  },
  {
    "service_request": "2023-985443",
    "request_type": "Property Maintenance",
    "request_reason": "Property Maintenance",
    "date_created": "2023-03-23T18:19:38.000",
    "date_modified": "2023-03-23T18:19:38.000",
    "request_status": "Pending",
    "responsible_agency": "Department of Code Enforcement",
    "final_address": "1309 Alabo St",
    "address_councildis": "E",
    "status": "Pending",
    "rowid": "985443",
    "final_x": "3699180.6458",
    "final_y": "534352.621253",
    "longitude": "-90.01213842121759",
    "latitude": "29.962735714476974",
    "geocoded_column": {
      "latitude": "29.962735714476974",
      "longitude": "-90.01213842121759"
    }
  },
  {
    "service_request": "2023-985442",
    "request_type": "Property Maintenance",
    "request_reason": "Property Maintenance",
    "date_created": "2023-03-23T18:13:53.000",
    "date_modified": "2023-03-23T18:13:53.000",
    "request_status": "Pending",
    "responsible_agency": "Department of Code Enforcement",
    "final_address": "1325 Farragut St",
    "address_councildis": "C",
    "status": "Pending",
    "rowid": "985442",
    "final_x": "3692298.60963",
    "final_y": "526360.379006",
    "longitude": "-90.0341570612527",
    "latitude": "29.940976217895297",
    "geocoded_column": {
      "latitude": "29.940976217895297",
      "longitude": "-90.0341570612527"
    }
  },
  {
    "service_request": "2023-985441",
    "request_type": "Trash/Recycling",
    "request_reason": "Repair Trash Cart",
    "date_created": "2023-03-23T18:06:42.000",
    "date_modified": "2023-03-23T18:06:42.000",
    "request_status": "Pending",
    "responsible_agency": "Department of Sanitation",
    "final_address": "1325 Farragut St",
    "address_councildis": "C",
    "status": "Assigned to Contractor",
    "contractor": "Richards Disposal",
    "rowid": "985441",
    "final_x": "3692298.60963",
    "final_y": "526360.379006",
    "longitude": "-90.0341570612527",
    "latitude": "29.940976217895297",
    "geocoded_column": {
      "latitude": "29.940976217895297",
      "longitude": "-90.0341570612527"
    }
  },
  {
    "service_request": "2023-985440",
    "request_type": "Health Related Request",
    "request_reason": "Noise Ordinance Complaint",
    "date_created": "2023-03-23T18:04:47.000",
    "date_modified": "2023-03-23T18:04:47.000",
    "request_status": "Pending",
    "responsible_agency": "Health Department",
    "final_address": "1009 N Claiborne Ave, New Orleans, Louisiana, 70116",
    "address_councildis": "D",
    "status": "Pending",
    "rowid": "985440",
    "final_x": "3680417.66101",
    "final_y": "535635.218886",
    "longitude": "-90.07134484150656",
    "latitude": "29.966843952035386",
    "geocoded_column": {
      "latitude": "29.966843952035386",
      "longitude": "-90.07134484150656"
    }
  },
  {
    "service_request": "2023-985439",
    "request_type": "Trash/Recycling",
    "request_reason": "Request a Large Item Pick Up",
    "date_created": "2023-03-23T18:02:31.000",
    "date_modified": "2023-03-23T18:02:31.000",
    "request_status": "Pending",
    "responsible_agency": "Department of Sanitation",
    "final_address": "1839 Allen St",
    "address_councildis": "D",
    "status": "Assigned to Contractor",
    "contractor": "IV Waste",
    "rowid": "985439",
    "final_x": "3682581.5974",
    "final_y": "538995.732234",
    "longitude": "-90.06439361351114",
    "latitude": "29.976018490786277",
    "geocoded_column": {
      "latitude": "29.976018490786277",
      "longitude": "-90.06439361351114"
    }
  },
  {
    "service_request": "2023-985438",
    "request_type": "Abandoned Vehicles",
    "request_reason": "Abandoned/Junk Vehicles",
    "date_created": "2023-03-23T18:01:57.000",
    "date_modified": "2023-03-23T18:01:57.000",
    "request_status": "Pending",
    "responsible_agency": "Department of Public Works",
    "final_address": "1412 Alabo St",
    "address_councildis": "E",
    "status": "Pending",
    "rowid": "985438",
    "final_x": "3699181.03959",
    "final_y": "534783.41479",
    "longitude": "-90.01212149174282",
    "latitude": "29.963920230325247",
    "geocoded_column": {
      "latitude": "29.963920230325247",
      "longitude": "-90.01212149174282"
    }
  },
  {
    "service_request": "2023-985437",
    "request_type": "Trash/Recycling",
    "request_reason": "Missed Trash Pick-Up",
    "date_created": "2023-03-23T17:59:59.000",
    "date_modified": "2023-03-23T18:00:00.000",
    "request_status": "Pending",
    "responsible_agency": "Department of Sanitation",
    "final_address": "5641 Carlisle Ct",
    "address_councildis": "C",
    "status": "Assigned to Contractor",
    "contractor": "Richards Disposal",
    "rowid": "985437",
    "final_x": "3704522.69815",
    "final_y": "516506.485877",
    "longitude": "-89.99592682546277",
    "latitude": "29.913494683096975",
    "geocoded_column": {
      "latitude": "29.913494683096975",
      "longitude": "-89.99592682546277"
    }
  },
  {
    "service_request": "2023-985436",
    "request_type": "Trash/Recycling",
    "request_reason": "Request a Large Item Pick Up",
    "date_created": "2023-03-23T17:59:10.000",
    "date_modified": "2023-03-23T17:59:10.000",
    "request_status": "Pending",
    "responsible_agency": "Department of Sanitation",
    "final_address": "807 Tupelo St, New Orleans, Louisiana, 70117",
    "address_councildis": "E",
    "status": "Assigned to Contractor",
    "contractor": "Waste Pro",
    "rowid": "985436",
    "final_x": "3699152.78512",
    "final_y": "532278.732867",
    "longitude": "-90.01230190463954",
    "latitude": "29.957034142731764",
    "geocoded_column": {
      "latitude": "29.957034142731764",
      "longitude": "-90.01230190463954"
    }
  },
  {
    "service_request": "2023-985435",
    "request_type": "Trash/Recycling",
    "request_reason": "Order Recycling Cart",
    "date_created": "2023-03-23T17:56:07.000",
    "date_modified": "2023-03-23T17:56:07.000",
    "request_status": "Pending",
    "responsible_agency": "Department of Sanitation",
    "final_address": "324 Hay Pl",
    "address_councildis": "A",
    "status": "Pending",
    "rowid": "985435",
    "final_x": "3665292.03264",
    "final_y": "554161.549208",
    "longitude": "-90.1184914631744",
    "latitude": "30.01823444018937",
    "geocoded_column": {
      "latitude": "30.01823444018937",
      "longitude": "-90.1184914631744"
    }
  },
  {
    "service_request": "2023-985434",
    "request_type": "Trash/Recycling",
    "request_reason": "Repair Recycling Cart",
    "date_created": "2023-03-23T17:54:37.000",
    "date_modified": "2023-03-23T17:54:37.000",
    "request_status": "Pending",
    "responsible_agency": "Department of Sanitation",
    "final_address": "424 Arabella St",
    "address_councildis": "A",
    "status": "Pending",
    "rowid": "985434",
    "final_x": "3665541.30189",
    "final_y": "517807.24447",
    "longitude": "-90.11892126447295",
    "latitude": "29.918264877067546",
    "geocoded_column": {
      "latitude": "29.918264877067546",
      "longitude": "-90.11892126447295"
    }
  },
  {
    "service_request": "2023-985433",
    "request_type": "Abandoned Vehicles",
    "request_reason": "Abandoned/Junk Vehicles",
    "date_created": "2023-03-23T17:40:09.000",
    "date_modified": "2023-03-23T17:45:52.000",
    "request_status": "Pending",
    "responsible_agency": "Department of Public Works",
    "final_address": "400 BLK Harmony St",
    "address_councildis": "B",
    "status": "Pending",
    "rowid": "985433",
    "final_x": "3676683.16169",
    "final_y": "518267.732937",
    "longitude": "-90.08373652528904",
    "latitude": "29.919201671264148",
    "geocoded_column": {
      "latitude": "29.919201671264148",
      "longitude": "-90.08373652528904"
    }
  },
  {
    "service_request": "2023-985432",
    "request_type": "Trash/Recycling",
    "request_reason": "Request a Large Item Pick Up",
    "date_created": "2023-03-23T17:38:07.000",
    "date_modified": "2023-03-23T17:38:07.000",
    "request_status": "Pending",
    "responsible_agency": "Department of Sanitation",
    "final_address": "229 N Norman C Francis Prkwy",
    "address_councildis": "B",
    "status": "Assigned to Contractor",
    "contractor": "Richards Disposal",
    "rowid": "985432",
    "final_x": "3673432.53128",
    "final_y": "537422.33268",
    "longitude": "-90.09334283824948",
    "latitude": "29.97196759853805",
    "geocoded_column": {
      "latitude": "29.97196759853805",
      "longitude": "-90.09334283824948"
    }
  },
  {
    "service_request": "2023-985431",
    "request_type": "Trash/Recycling",
    "request_reason": "Missed Trash Pick-Up",
    "date_created": "2023-03-23T17:33:34.000",
    "date_modified": "2023-03-23T17:33:34.000",
    "request_status": "Pending",
    "responsible_agency": "Department of Sanitation",
    "final_address": "1807 Baronne St",
    "address_councildis": "B",
    "status": "Assigned to Contractor",
    "contractor": "Richards Disposal",
    "rowid": "985431",
    "final_x": "3677797.3524",
    "final_y": "525141.087165",
    "longitude": "-90.0799822766055",
    "latitude": "29.938067696756594",
    "geocoded_column": {
      "latitude": "29.938067696756594",
      "longitude": "-90.0799822766055"
    }
  },
  {
    "service_request": "2023-985429",
    "request_type": "Roads/Drainage",
    "request_reason": "Pothole",
    "date_created": "2023-03-23T17:25:55.000",
    "date_modified": "2023-03-23T17:25:55.000",
    "request_status": "Pending",
    "responsible_agency": "Department of Public Works",
    "final_address": "2272 Pleasure St",
    "address_councildis": "D",
    "status": "Pending",
    "rowid": "985429",
    "final_x": "3685005.45263",
    "final_y": "545156.048719",
    "longitude": "-90.0565215918577",
    "latitude": "29.992883153308327",
    "geocoded_column": {
      "latitude": "29.992883153308327",
      "longitude": "-90.0565215918577"
    }
  },
  {
    "service_request": "2023-985428",
    "request_type": "Trash/Recycling",
    "request_reason": "Request a Large Item Pick Up",
    "date_created": "2023-03-23T17:25:24.000",
    "date_modified": "2023-03-23T17:25:25.000",
    "request_status": "Pending",
    "responsible_agency": "Department of Sanitation",
    "final_address": "3115 Hudson Pl",
    "address_councildis": "C",
    "status": "Assigned to Contractor",
    "contractor": "Richards Disposal",
    "rowid": "985428",
    "final_x": "3703032.99185",
    "final_y": "519230.645495",
    "longitude": "-90.00052875531475",
    "latitude": "29.92103291234914",
    "geocoded_column": {
      "latitude": "29.92103291234914",
      "longitude": "-90.00052875531475"
    }
  },
  {
    "service_request": "2023-985427",
    "request_type": "Trash/Recycling",
    "request_reason": "Replace Trash Cart",
    "date_created": "2023-03-23T17:16:44.000",
    "date_modified": "2023-03-23T17:16:45.000",
    "request_status": "Pending",
    "responsible_agency": "Department of Sanitation",
    "final_address": "5942 Airway St",
    "address_councildis": "D",
    "status": "Assigned to Contractor",
    "contractor": "Waste Pro",
    "rowid": "985427",
    "final_x": "3696501.12912",
    "final_y": "552803.19887",
    "longitude": "-90.01993209171201",
    "latitude": "30.01355275016171",
    "geocoded_column": {
      "latitude": "30.01355275016171",
      "longitude": "-90.01993209171201"
    }
  },
  {
    "service_request": "2023-985426",
    "request_type": "Property Maintenance",
    "request_reason": "Property Maintenance",
    "date_created": "2023-03-23T17:11:36.000",
    "date_modified": "2023-03-23T17:11:36.000",
    "request_status": "Pending",
    "responsible_agency": "Department of Code Enforcement",
    "final_address": "6223 Lafaye St",
    "address_councildis": "D",
    "status": "Pending",
    "rowid": "985426",
    "final_x": "3687091.84674",
    "final_y": "556249.851034",
    "longitude": "-90.04953843355496",
    "latitude": "30.023322968113668",
    "geocoded_column": {
      "latitude": "30.023322968113668",
      "longitude": "-90.04953843355496"
    }
  },
  {
    "service_request": "2023-985425",
    "request_type": "Trash/Recycling",
    "request_reason": "Order Recycling Cart",
    "date_created": "2023-03-23T17:10:21.000",
    "date_modified": "2023-03-23T17:10:21.000",
    "request_status": "Pending",
    "responsible_agency": "Department of Sanitation",
    "final_address": "438 Bellaire Dr",
    "address_councildis": "A",
    "status": "Pending",
    "rowid": "985425",
    "final_x": "3663936.2496",
    "final_y": "542688.584141",
    "longitude": "-90.12315810712194",
    "latitude": "29.986727183591757",
    "geocoded_column": {
      "latitude": "29.986727183591757",
      "longitude": "-90.12315810712194"
    }
  },
  {
    "service_request": "2023-985424",
    "request_type": "Roads/Drainage",
    "request_reason": "Street Flooding / Drainage",
    "date_created": "2023-03-23T17:08:40.000",
    "date_modified": "2023-03-23T17:08:40.000",
    "request_status": "Pending",
    "responsible_agency": "Department of Public Works",
    "final_address": "1922 Moss St",
    "address_councildis": "D",
    "status": "Pending",
    "rowid": "985424",
    "final_x": "3675501.31054",
    "final_y": "543914.596238",
    "longitude": "-90.08658620032703",
    "latitude": "29.989757368883478",
    "geocoded_column": {
      "latitude": "29.989757368883478",
      "longitude": "-90.08658620032703"
    }
  },
  {
    "service_request": "2023-985423",
    "request_type": "Roads/Drainage",
    "request_reason": "Street Flooding / Drainage",
    "date_created": "2023-03-23T17:06:17.000",
    "date_modified": "2023-03-23T17:06:17.000",
    "request_status": "Pending",
    "responsible_agency": "Department of Public Works",
    "final_address": "1523 Lowerline St",
    "address_councildis": "A",
    "status": "Pending",
    "rowid": "985423",
    "final_x": "3664464.75783",
    "final_y": "527835.632383",
    "longitude": "-90.1219847103854",
    "latitude": "29.94587109973398",
    "geocoded_column": {
      "latitude": "29.94587109973398",
      "longitude": "-90.1219847103854"
    }
  },
  {
    "service_request": "2023-985422",
    "request_type": "Trash/Recycling",
    "request_reason": "Request a Large Item Pick Up",
    "date_created": "2023-03-23T17:00:20.000",
    "date_modified": "2023-03-23T17:00:21.000",
    "request_status": "Pending",
    "responsible_agency": "Department of Sanitation",
    "final_address": "4648 Francisco Verrett Dr",
    "address_councildis": "E",
    "status": "Assigned to Contractor",
    "contractor": "Waste Pro",
    "rowid": "985422",
    "final_x": "3704211.07882",
    "final_y": "554666.48092",
    "longitude": "-89.99550413214891",
    "latitude": "30.018430811916684",
    "geocoded_column": {
      "latitude": "30.018430811916684",
      "longitude": "-89.99550413214891"
    }
  },
  {
    "service_request": "2023-985421",
    "request_type": "Trash/Recycling",
    "request_reason": "Missed Trash Pick-Up",
    "date_created": "2023-03-23T16:56:29.000",
    "date_modified": "2023-03-23T16:56:29.000",
    "request_status": "Pending",
    "responsible_agency": "Department of Sanitation",
    "final_address": "2000 Toledano St",
    "address_councildis": "B",
    "status": "Assigned to Contractor",
    "contractor": "Richards Disposal",
    "rowid": "985421",
    "final_x": "3673940.18875",
    "final_y": "523078.908795",
    "longitude": "-90.09223022069848",
    "latitude": "29.932512823915303",
    "geocoded_column": {
      "latitude": "29.932512823915303",
      "longitude": "-90.09223022069848"
    }
  },
  {
    "service_request": "2023-985420",
    "request_type": "Parks & Parkways",
    "request_reason": "Request Tree Service (Right of Way/Public Property)",
    "date_created": "2023-03-23T16:52:46.000",
    "date_modified": "2023-03-23T16:52:46.000",
    "request_status": "Pending",
    "responsible_agency": "Department of Parks & Parkway",
    "final_address": "318 Fairway Dr",
    "address_councildis": "A",
    "status": "Pending",
    "rowid": "985420",
    "final_x": "3664134.72404",
    "final_y": "541683.646412",
    "longitude": "-90.12256473825673",
    "latitude": "29.983958177903368",
    "geocoded_column": {
      "latitude": "29.983958177903368",
      "longitude": "-90.12256473825673"
    }
  },
  {
    "service_request": "2023-985419",
    "request_type": "Trash/Recycling",
    "request_reason": "Repair Trash Cart",
    "date_created": "2023-03-23T16:51:54.000",
    "date_modified": "2023-03-23T16:51:55.000",
    "request_status": "Pending",
    "responsible_agency": "Department of Sanitation",
    "final_address": "2640 Hyman Pl",
    "address_councildis": "C",
    "status": "Assigned to Contractor",
    "contractor": "Richards Disposal",
    "rowid": "985419",
    "final_x": "3701105.29233",
    "final_y": "521308.257785",
    "longitude": "-90.00653765602323",
    "latitude": "29.9268071443915",
    "geocoded_column": {
      "latitude": "29.9268071443915",
      "longitude": "-90.00653765602323"
    }
  },
  {
    "service_request": "2023-985418",
    "request_type": "Abandoned Vehicles",
    "request_reason": "Abandoned/Junk Vehicles",
    "date_created": "2023-03-23T16:47:45.000",
    "date_modified": "2023-03-23T16:47:45.000",
    "request_status": "Pending",
    "responsible_agency": "Department of Public Works",
    "final_address": "2724 Hamilton St",
    "address_councildis": "A",
    "status": "Pending",
    "rowid": "985418",
    "final_x": "3663093.89895",
    "final_y": "534910.871622",
    "longitude": "-90.12607762952732",
    "latitude": "29.965365492446338",
    "geocoded_column": {
      "latitude": "29.965365492446338",
      "longitude": "-90.12607762952732"
    }
  },
  {
    "service_request": "2023-985417",
    "request_type": "Property Maintenance",
    "request_reason": "Property Maintenance",
    "date_created": "2023-03-23T16:46:47.000",
    "date_modified": "2023-03-23T16:46:47.000",
    "request_status": "Pending",
    "responsible_agency": "Department of Code Enforcement",
    "final_address": "2724 Hamilton St",
    "address_councildis": "A",
    "status": "Pending",
    "rowid": "985417",
    "final_x": "3663093.89895",
    "final_y": "534910.871622",
    "longitude": "-90.12607762952732",
    "latitude": "29.965365492446338",
    "geocoded_column": {
      "latitude": "29.965365492446338",
      "longitude": "-90.12607762952732"
    }
  },
  {
    "service_request": "2023-985416",
    "request_type": "Traffic Signals/Signs/Striping/Streetlights",
    "request_reason": "Additional signage",
    "date_created": "2023-03-23T16:45:06.000",
    "date_modified": "2023-03-23T16:45:06.000",
    "request_status": "Pending",
    "responsible_agency": "Department of Public Works",
    "final_address": "1426 Napoleon Ave",
    "address_councildis": "B",
    "status": "Pending",
    "rowid": "985416",
    "final_x": "3670766.48654",
    "final_y": "520481.776056",
    "longitude": "-90.10233742991778",
    "latitude": "29.9254656810085",
    "geocoded_column": {
      "latitude": "29.9254656810085",
      "longitude": "-90.10233742991778"
    }
  },
  {
    "service_request": "2023-985414",
    "request_type": "Abandoned Vehicles",
    "request_reason": "Abandoned/Junk Vehicles",
    "date_created": "2023-03-23T16:43:37.000",
    "date_modified": "2023-03-23T16:43:37.000",
    "request_status": "Pending",
    "responsible_agency": "Department of Public Works",
    "final_address": "2714 Hamilton St",
    "address_councildis": "A",
    "status": "Pending",
    "rowid": "985414",
    "final_x": "3663068.32647",
    "final_y": "534879.52167",
    "longitude": "-90.12615942959462",
    "latitude": "29.96528003117584",
    "geocoded_column": {
      "latitude": "29.96528003117584",
      "longitude": "-90.12615942959462"
    }
  },
  {
    "service_request": "2023-985413",
    "request_type": "Trash/Recycling",
    "request_reason": "Return Recycling Cart",
    "date_created": "2023-03-23T16:42:55.000",
    "date_modified": "2023-03-23T16:42:56.000",
    "request_status": "Pending",
    "responsible_agency": "Department of Sanitation",
    "final_address": "2347 Prentiss Ave",
    "address_councildis": "D",
    "status": "Pending",
    "rowid": "985413",
    "final_x": "3684768.44713",
    "final_y": "554003.8406",
    "longitude": "-90.05695892411597",
    "latitude": "30.017218638730156",
    "geocoded_column": {
      "latitude": "30.017218638730156",
      "longitude": "-90.05695892411597"
    }
  },
  {
    "service_request": "2023-985412",
    "request_type": "Mosquito, Termite & Rodent Control",
    "request_reason": "Non-Rodent Complaint (Mice, Possums, Snakes)",
    "date_created": "2023-03-23T16:42:05.000",
    "date_modified": "2023-03-23T16:42:05.000",
    "request_status": "Pending",
    "responsible_agency": "Mosquito, Termite & Rodent Control Board",
    "final_address": "2714 Hamilton St",
    "address_councildis": "A",
    "status": "Pending",
    "rowid": "985412",
    "final_x": "3663068.32647",
    "final_y": "534879.52167",
    "longitude": "-90.12615942959462",
    "latitude": "29.96528003117584",
    "geocoded_column": {
      "latitude": "29.96528003117584",
      "longitude": "-90.12615942959462"
    }
  },
  {
    "service_request": "2023-985411",
    "request_type": "Trash/Recycling",
    "request_reason": "MIssed Recycling Pick-Up",
    "date_created": "2023-03-23T16:41:58.000",
    "date_modified": "2023-03-23T16:41:58.000",
    "request_status": "Pending",
    "responsible_agency": "Department of Sanitation",
    "final_address": "2347 Prentiss Ave",
    "address_councildis": "D",
    "status": "Assigned to Contractor",
    "contractor": "IV Waste",
    "rowid": "985411",
    "final_x": "3684768.44713",
    "final_y": "554003.8406",
    "longitude": "-90.05695892411597",
    "latitude": "30.017218638730156",
    "geocoded_column": {
      "latitude": "30.017218638730156",
      "longitude": "-90.05695892411597"
    }
  },
  {
    "service_request": "2023-985409",
    "request_type": "Trash/Recycling",
    "request_reason": "Request a Large Item Pick Up",
    "date_created": "2023-03-23T16:36:14.000",
    "date_modified": "2023-03-23T16:56:36.000",
    "request_status": "Pending",
    "responsible_agency": "Department of Sanitation",
    "final_address": "2004 Philip St",
    "address_councildis": "B",
    "status": "Assigned to Contractor",
    "contractor": "Richards Disposal",
    "rowid": "985409",
    "final_x": "3676287.13781",
    "final_y": "524582.833724",
    "longitude": "-90.08476936659471",
    "latitude": "29.9365780186295",
    "geocoded_column": {
      "latitude": "29.9365780186295",
      "longitude": "-90.08476936659471"
    }
  },
  {
    "service_request": "2023-985408",
    "request_type": "Trash/Recycling",
    "request_reason": "Request a Large Item Pick Up",
    "date_created": "2023-03-23T16:30:08.000",
    "date_modified": "2023-03-23T16:30:09.000",
    "request_status": "Pending",
    "responsible_agency": "Department of Sanitation",
    "final_address": "6744 Coventry St",
    "address_councildis": "E",
    "status": "Assigned to Contractor",
    "contractor": "Waste Pro",
    "rowid": "985408",
    "final_x": "3698290.38775",
    "final_y": "559485.849181",
    "longitude": "-90.01403590386757",
    "latitude": "30.03187097786705",
    "geocoded_column": {
      "latitude": "30.03187097786705",
      "longitude": "-90.01403590386757"
    }
  },
  {
    "service_request": "2023-985407",
    "request_type": "Trash/Recycling",
    "request_reason": "Request a Large Item Pick Up",
    "date_created": "2023-03-23T16:28:37.000",
    "date_modified": "2023-03-23T16:28:37.000",
    "request_status": "Pending",
    "responsible_agency": "Department of Sanitation",
    "final_address": "1306 Pacific Ave",
    "address_councildis": "C",
    "status": "Assigned to Contractor",
    "contractor": "Richards Disposal",
    "rowid": "985407",
    "final_x": "3688412.09839",
    "final_y": "526698.078462",
    "longitude": "-90.0464154699488",
    "latitude": "29.942025371308386",
    "geocoded_column": {
      "latitude": "29.942025371308386",
      "longitude": "-90.0464154699488"
    }
  },
  {
    "service_request": "2023-985406",
    "request_type": "Trash/Recycling",
    "request_reason": "Illegal Dumping",
    "date_created": "2023-03-23T16:12:36.000",
    "date_modified": "2023-03-23T16:12:36.000",
    "request_status": "Pending",
    "responsible_agency": "Department of Sanitation",
    "final_address": "2900 BLK Lafitte Ave",
    "address_councildis": "A",
    "status": "Pending",
    "rowid": "985406",
    "final_x": "3675435.14876",
    "final_y": "537019.972992",
    "longitude": "-90.08703206354076",
    "latitude": "29.970801504669062",
    "geocoded_column": {
      "latitude": "29.970801504669062",
      "longitude": "-90.08703206354076"
    }
  },
  {
    "service_request": "2023-985405",
    "request_type": "Trash/Recycling",
    "request_reason": "Replace Recycling Cart",
    "date_created": "2023-03-23T16:10:20.000",
    "date_modified": "2023-03-23T16:10:20.000",
    "request_status": "Pending",
    "responsible_agency": "Department of Sanitation",
    "final_address": "5901 Brighton Pl",
    "address_councildis": "C",
    "status": "Pending",
    "rowid": "985405",
    "final_x": "3705646.91364",
    "final_y": "520043.987064",
    "longitude": "-89.9922478010014",
    "latitude": "29.923185458500157",
    "geocoded_column": {
      "latitude": "29.923185458500157",
      "longitude": "-89.9922478010014"
    }
  },
  {
    "service_request": "2023-985403",
    "request_type": "Property Maintenance",
    "request_reason": "Property Maintenance",
    "date_created": "2023-03-23T16:00:43.000",
    "date_modified": "2023-03-23T16:02:00.000",
    "request_status": "Pending",
    "responsible_agency": "Department of Code Enforcement",
    "final_address": "2419 Clouet St",
    "address_councildis": "D",
    "status": "Pending",
    "rowid": "985403",
    "final_x": "3690305.71657",
    "final_y": "541037.190603",
    "longitude": "-90.03992591439469",
    "latitude": "29.98139431104687",
    "geocoded_column": {
      "latitude": "29.98139431104687",
      "longitude": "-90.03992591439469"
    }
  },
  {
    "service_request": "2023-985402",
    "request_type": "Abandoned Vehicles",
    "request_reason": "Abandoned/Junk Vehicles",
    "date_created": "2023-03-23T16:00:31.000",
    "date_modified": "2023-03-23T16:13:59.000",
    "request_status": "Pending",
    "responsible_agency": "Department of Public Works",
    "final_address": "916 Stanton Rd",
    "address_councildis": "C",
    "status": "Pending",
    "rowid": "985402",
    "final_x": "3722126.16031",
    "final_y": "518334.854902",
    "longitude": "-89.94029541477121",
    "latitude": "29.917945344187352",
    "geocoded_column": {
      "latitude": "29.917945344187352",
      "longitude": "-89.94029541477121"
    }
  },
  {
    "service_request": "2023-985401",
    "request_type": "Trash/Recycling",
    "request_reason": "Replace Trash Cart",
    "date_created": "2023-03-23T15:57:41.000",
    "date_modified": "2023-03-23T15:57:42.000",
    "request_status": "Pending",
    "responsible_agency": "Department of Sanitation",
    "final_address": "500 BLK Philip St",
    "address_councildis": "B",
    "status": "Assigned to Contractor",
    "contractor": "Richards Disposal",
    "rowid": "985401",
    "final_x": "3679783.42878",
    "final_y": "520228.444895",
    "longitude": "-90.07388253288751",
    "latitude": "29.92449966097809",
    "geocoded_column": {
      "latitude": "29.92449966097809",
      "longitude": "-90.07388253288751"
    }
  },
  {
    "service_request": "2023-985400",
    "request_type": "Roads/Drainage",
    "request_reason": "Leaking Hydrant",
    "date_created": "2023-03-23T15:56:44.000",
    "date_modified": "2023-03-23T15:56:44.000",
    "request_status": "Pending",
    "responsible_agency": "Department of Public Works",
    "final_address": "5524 Marcia Ave",
    "address_councildis": "A",
    "status": "Pending",
    "rowid": "985400",
    "final_x": "3664744.5842",
    "final_y": "544521.308047",
    "longitude": "-90.12054359615908",
    "latitude": "29.99174305439354",
    "geocoded_column": {
      "latitude": "29.99174305439354",
      "longitude": "-90.12054359615908"
    }
  },
  {
    "service_request": "2023-985399",
    "request_type": "Trash/Recycling",
    "request_reason": "Missed Trash Pick-Up",
    "date_created": "2023-03-23T15:53:45.000",
    "date_modified": "2023-03-23T15:53:46.000",
    "request_status": "Pending",
    "responsible_agency": "Department of Sanitation",
    "final_address": "4850 N Derbigny St",
    "address_councildis": "E",
    "status": "Assigned to Contractor",
    "contractor": "Waste Pro",
    "rowid": "985399",
    "final_x": "3696136.82749",
    "final_y": "536567.106567",
    "longitude": "-90.02167029979574",
    "latitude": "29.968920913363576",
    "geocoded_column": {
      "latitude": "29.968920913363576",
      "longitude": "-90.02167029979574"
    }
  },
  {
    "service_request": "2023-985398",
    "request_type": "Abandoned Vehicles",
    "request_reason": "Abandoned/Junk Vehicles",
    "date_created": "2023-03-23T15:52:14.000",
    "date_modified": "2023-03-23T15:52:14.000",
    "request_status": "Pending",
    "responsible_agency": "Department of Public Works",
    "final_address": "4548 Virgilian St",
    "address_councildis": "D",
    "status": "Pending",
    "rowid": "985398",
    "final_x": "3697485.13059",
    "final_y": "552838.157398",
    "longitude": "-90.01682190933802",
    "latitude": "30.013617823238178",
    "geocoded_column": {
      "latitude": "30.013617823238178",
      "longitude": "-90.01682190933802"
    }
  },
  {
    "service_request": "2023-985397",
    "request_type": "Trash/Recycling",
    "request_reason": "Order Recycling Cart",
    "date_created": "2023-03-23T15:50:03.000",
    "date_modified": "2023-03-23T15:50:04.000",
    "request_status": "Pending",
    "responsible_agency": "Department of Sanitation",
    "final_address": "4902 Burgundy St",
    "address_councildis": "E",
    "status": "Pending",
    "rowid": "985397",
    "final_x": "3695202.97923",
    "final_y": "533598.347205",
    "longitude": "-90.02472651162238",
    "latitude": "29.960787237704047",
    "geocoded_column": {
      "latitude": "29.960787237704047",
      "longitude": "-90.02472651162238"
    }
  },
  {
    "service_request": "2023-985396",
    "request_type": "Trash/Recycling",
    "request_reason": "Order Trash Cart",
    "date_created": "2023-03-23T15:49:02.000",
    "date_modified": "2023-03-23T15:49:02.000",
    "request_status": "Pending",
    "responsible_agency": "Department of Sanitation",
    "final_address": "4902 Burgundy St",
    "address_councildis": "E",
    "status": "Assigned to Contractor",
    "contractor": "Waste Pro",
    "rowid": "985396",
    "final_x": "3695202.97923",
    "final_y": "533598.347205",
    "longitude": "-90.02472651162238",
    "latitude": "29.960787237704047",
    "geocoded_column": {
      "latitude": "29.960787237704047",
      "longitude": "-90.02472651162238"
    }
  },
  {
    "service_request": "2023-985394",
    "request_type": "Trash/Recycling",
    "request_reason": "Request a Large Item Pick Up",
    "date_created": "2023-03-23T15:43:22.000",
    "date_modified": "2023-03-23T15:43:23.000",
    "request_status": "Pending",
    "responsible_agency": "Department of Sanitation",
    "final_address": "3323 St Philip St",
    "address_councildis": "A",
    "status": "Assigned to Contractor",
    "contractor": "Richards Disposal",
    "rowid": "985394",
    "final_x": "3675219.40328",
    "final_y": "539577.218122",
    "longitude": "-90.08762561554398",
    "latitude": "29.977839506769723",
    "geocoded_column": {
      "latitude": "29.977839506769723",
      "longitude": "-90.08762561554398"
    }
  },
  {
    "service_request": "2023-985393",
    "request_type": "Property Maintenance",
    "request_reason": "Property Maintenance",
    "date_created": "2023-03-23T15:40:06.000",
    "date_modified": "2023-03-23T15:40:06.000",
    "request_status": "Pending",
    "responsible_agency": "Department of Code Enforcement",
    "final_address": "6022 N Villere St",
    "address_councildis": "E",
    "status": "Pending",
    "rowid": "985393",
    "final_x": "3699721.5009",
    "final_y": "534365.271813",
    "longitude": "-90.01043002132187",
    "latitude": "29.96275334037375",
    "geocoded_column": {
      "latitude": "29.96275334037375",
      "longitude": "-90.01043002132187"
    }
  },
  {
    "service_request": "2023-985392",
    "request_type": "Property Maintenance",
    "request_reason": "Property Maintenance",
    "date_created": "2023-03-23T15:37:17.000",
    "date_modified": "2023-03-23T15:37:17.000",
    "request_status": "Pending",
    "responsible_agency": "Department of Code Enforcement",
    "final_address": "3308 Fern St",
    "address_councildis": "B",
    "status": "Pending",
    "rowid": "985392",
    "final_x": "3667624.98157",
    "final_y": "533489.901316",
    "longitude": "-90.1118164748367",
    "latitude": "29.961326248773847",
    "geocoded_column": {
      "latitude": "29.961326248773847",
      "longitude": "-90.1118164748367"
    }
  },
  {
    "service_request": "2023-985391",
    "request_type": "Trash/Recycling",
    "request_reason": "Missed Trash Pick-Up",
    "date_created": "2023-03-23T15:37:01.000",
    "date_modified": "2023-03-23T15:37:01.000",
    "request_status": "Pending",
    "responsible_agency": "Department of Sanitation",
    "final_address": "4741 Bonita Dr",
    "address_councildis": "E",
    "status": "Assigned to Contractor",
    "contractor": "Waste Pro",
    "rowid": "985391",
    "final_x": "3704529.45329",
    "final_y": "555290.210457",
    "longitude": "-89.99447516653514",
    "latitude": "30.020135603213788",
    "geocoded_column": {
      "latitude": "30.020135603213788",
      "longitude": "-89.99447516653514"
    }
  },
  {
    "service_request": "2023-985390",
    "request_type": "Traffic Signals/Signs/Striping/Streetlights",
    "request_reason": "Traffic Sign Missing/Damaged",
    "date_created": "2023-03-23T15:36:44.000",
    "date_modified": "2023-03-23T15:36:44.000",
    "request_status": "Pending",
    "responsible_agency": "Department of Public Works",
    "final_address": "5600 S Robertson St",
    "address_councildis": "A",
    "status": "Pending",
    "rowid": "985390",
    "final_x": "3667039.51226",
    "final_y": "524493.357756",
    "longitude": "-90.11396761583144",
    "latitude": "29.936605824195322",
    "geocoded_column": {
      "latitude": "29.936605824195322",
      "longitude": "-90.11396761583144"
    }
  },
  {
    "service_request": "2023-985389",
    "request_type": "Trash/Recycling",
    "request_reason": "Replace Trash Cart",
    "date_created": "2023-03-23T15:34:11.000",
    "date_modified": "2023-03-23T15:34:12.000",
    "request_status": "Pending",
    "responsible_agency": "Department of Sanitation",
    "final_address": "1217 Magazine St",
    "address_councildis": "B",
    "status": "Assigned to Contractor",
    "contractor": "Richards Disposal",
    "rowid": "985389",
    "final_x": "3680554.02888",
    "final_y": "525478.476605",
    "longitude": "-90.07126747628374",
    "latitude": "29.938912206366634",
    "geocoded_column": {
      "latitude": "29.938912206366634",
      "longitude": "-90.07126747628374"
    }
  },
  {
    "service_request": "2023-985388",
    "request_type": "Traffic Signals/Signs/Striping/Streetlights",
    "request_reason": "Traffic Sign Missing/Damaged",
    "date_created": "2023-03-23T15:33:55.000",
    "date_modified": "2023-03-23T15:33:55.000",
    "request_status": "Pending",
    "responsible_agency": "Department of Public Works",
    "final_address": "2300 Joseph St",
    "address_councildis": "A",
    "status": "Pending",
    "rowid": "985388",
    "final_x": "3667285.61133",
    "final_y": "524503.825532",
    "longitude": "-90.11319031599152",
    "latitude": "29.936627403798468",
    "geocoded_column": {
      "latitude": "29.936627403798468",
      "longitude": "-90.11319031599152"
    }
  },
  {
    "service_request": "2023-985387",
    "request_type": "Trash/Recycling",
    "request_reason": "Missed Trash Pick-Up",
    "date_created": "2023-03-23T15:31:15.000",
    "date_modified": "2023-03-23T15:31:16.000",
    "request_status": "Pending",
    "responsible_agency": "Department of Sanitation",
    "final_address": "639 St James St",
    "address_councildis": "B",
    "status": "Assigned to Contractor",
    "contractor": "Richards Disposal",
    "rowid": "985387",
    "final_x": "3681399.82197",
    "final_y": "522053.061882",
    "longitude": "-90.0687165661078",
    "latitude": "29.929467807196026",
    "geocoded_column": {
      "latitude": "29.929467807196026",
      "longitude": "-90.0687165661078"
    }
  },
  {
    "service_request": "2023-985386",
    "request_type": "Abandoned Vehicles",
    "request_reason": "Abandoned/Junk Vehicles",
    "date_created": "2023-03-23T15:24:09.000",
    "date_modified": "2023-03-23T15:24:09.000",
    "request_status": "Pending",
    "responsible_agency": "Department of Public Works",
    "final_address": "4029 Royal St Apt B",
    "address_councildis": "C",
    "status": "Pending",
    "rowid": "985386",
    "final_x": "3691695.97872",
    "final_y": "533769.764485",
    "longitude": "-90.03579477141928",
    "latitude": "29.961368237653993",
    "geocoded_column": {
      "latitude": "29.961368237653993",
      "longitude": "-90.03579477141928"
    }
  },
  {
    "service_request": "2023-985385",
    "request_type": "Trash/Recycling",
    "request_reason": "Missed Trash Pick-Up",
    "date_created": "2023-03-23T15:19:49.000",
    "date_modified": "2023-03-23T15:19:50.000",
    "request_status": "Pending",
    "responsible_agency": "Department of Sanitation",
    "final_address": "1669 Chippewa St",
    "address_councildis": "B",
    "status": "Assigned to Contractor",
    "contractor": "Richards Disposal",
    "rowid": "985385",
    "final_x": "3680944.06626",
    "final_y": "522304.192058",
    "longitude": "-90.0701465629236",
    "latitude": "29.93017215549153",
    "geocoded_column": {
      "latitude": "29.93017215549153",
      "longitude": "-90.0701465629236"
    }
  },
  {
    "service_request": "2023-985384",
    "request_type": "Abandoned Vehicles",
    "request_reason": "Vehicle Blocking Your Driveway",
    "date_created": "2023-03-23T15:19:34.000",
    "date_modified": "2023-03-23T15:19:35.000",
    "request_status": "Pending",
    "responsible_agency": "Department of Public Works",
    "final_address": "2427 Joliet St",
    "address_councildis": "A",
    "status": "Pending",
    "rowid": "985384",
    "final_x": "3664001.31552",
    "final_y": "532685.182596",
    "longitude": "-90.12328626315869",
    "latitude": "29.959219256835933",
    "geocoded_column": {
      "latitude": "29.959219256835933",
      "longitude": "-90.12328626315869"
    }
  },
  {
    "service_request": "2023-985383",
    "request_type": "Trash/Recycling",
    "request_reason": "Missed Trash Pick-Up",
    "date_created": "2023-03-23T15:18:15.000",
    "date_modified": "2023-03-23T15:18:16.000",
    "request_status": "Pending",
    "responsible_agency": "Department of Sanitation",
    "final_address": "5324 Warrington Dr",
    "address_councildis": "D",
    "status": "Assigned to Contractor",
    "contractor": "IV Waste",
    "rowid": "985383",
    "final_x": "3680845.29595",
    "final_y": "552599.298774",
    "longitude": "-90.0694034347132",
    "latitude": "30.013476236298033",
    "geocoded_column": {
      "latitude": "30.013476236298033",
      "longitude": "-90.0694034347132"
    }
  },
  {
    "service_request": "2023-985381",
    "request_type": "Trash/Recycling",
    "request_reason": "Order Recycling Cart",
    "date_created": "2023-03-23T15:11:00.000",
    "date_modified": "2023-03-23T15:11:00.000",
    "request_status": "Pending",
    "responsible_agency": "Department of Sanitation",
    "final_address": "6828 General Diaz St",
    "address_councildis": "A",
    "status": "Pending",
    "rowid": "985381",
    "final_x": "3669970.6683",
    "final_y": "552880.439383",
    "longitude": "-90.1037521185659",
    "latitude": "30.014574619820095",
    "geocoded_column": {
      "latitude": "30.014574619820095",
      "longitude": "-90.1037521185659"
    }
  },
  {
    "service_request": "2023-985380",
    "request_type": "Trash/Recycling",
    "request_reason": "Order Trash Cart",
    "date_created": "2023-03-23T15:10:18.000",
    "date_modified": "2023-03-23T15:10:19.000",
    "request_status": "Pending",
    "responsible_agency": "Department of Sanitation",
    "final_address": "6828 General Diaz St",
    "address_councildis": "A",
    "status": "Assigned to Contractor",
    "contractor": "IV Waste",
    "rowid": "985380",
    "final_x": "3669970.6683",
    "final_y": "552880.439383",
    "longitude": "-90.1037521185659",
    "latitude": "30.014574619820095",
    "geocoded_column": {
      "latitude": "30.014574619820095",
      "longitude": "-90.1037521185659"
    }
  },
  {
    "service_request": "2023-985379",
    "request_type": "Trash/Recycling",
    "request_reason": "Repair Trash Cart",
    "date_created": "2023-03-23T14:58:06.000",
    "date_modified": "2023-03-23T14:58:06.000",
    "request_status": "Pending",
    "responsible_agency": "Department of Sanitation",
    "final_address": "7924 Buffalo St",
    "address_councildis": "E",
    "status": "Assigned to Contractor",
    "contractor": "Waste Pro",
    "rowid": "985379",
    "final_x": "3719321.81081",
    "final_y": "574072.828586",
    "longitude": "-89.94701853368458",
    "latitude": "30.071296552407183",
    "geocoded_column": {
      "latitude": "30.071296552407183",
      "longitude": "-89.94701853368458"
    }
  },
  {
    "service_request": "2023-985378",
    "request_type": "Trash/Recycling",
    "request_reason": "Request a Large Item Pick Up",
    "date_created": "2023-03-23T14:55:44.000",
    "date_modified": "2023-03-23T14:55:44.000",
    "request_status": "Pending",
    "responsible_agency": "Department of Sanitation",
    "final_address": "705 Joseph St",
    "address_councildis": "A",
    "status": "Assigned to Contractor",
    "contractor": "Richards Disposal",
    "rowid": "985378",
    "final_x": "3666094.91002",
    "final_y": "518604.138743",
    "longitude": "-90.11714711652041",
    "latitude": "29.92043994174516",
    "geocoded_column": {
      "latitude": "29.92043994174516",
      "longitude": "-90.11714711652041"
    }
  },
  {
    "service_request": "2023-985377",
    "request_type": "Trash/Recycling",
    "request_reason": "Repair Trash Cart",
    "date_created": "2023-03-23T14:54:24.000",
    "date_modified": "2023-03-23T14:54:25.000",
    "request_status": "Pending",
    "responsible_agency": "Department of Sanitation",
    "final_address": "1938 River Oaks Dr",
    "address_councildis": "C",
    "status": "Assigned to Contractor",
    "contractor": "Richards Disposal",
    "rowid": "985377",
    "final_x": "3701723.19217",
    "final_y": "523496.200827",
    "longitude": "-90.00450702813053",
    "latitude": "29.932803541064725",
    "geocoded_column": {
      "latitude": "29.932803541064725",
      "longitude": "-90.00450702813053"
    }
  },
  {
    "service_request": "2023-985376",
    "request_type": "Trash/Recycling",
    "request_reason": "Return Trash Cart",
    "date_created": "2023-03-23T14:47:34.000",
    "date_modified": "2023-03-23T14:47:35.000",
    "request_status": "Pending",
    "responsible_agency": "Department of Sanitation",
    "final_address": "7831 Mullet St",
    "address_councildis": "E",
    "status": "Assigned to Contractor",
    "contractor": "Waste Pro",
    "rowid": "985376",
    "final_x": "3698980.8986",
    "final_y": "560814.236446",
    "longitude": "-90.01180544867451",
    "latitude": "30.035501650603006",
    "geocoded_column": {
      "latitude": "30.035501650603006",
      "longitude": "-90.01180544867451"
    }
  },
  {
    "service_request": "2023-985375",
    "request_type": "Trash/Recycling",
    "request_reason": "Repair Trash Cart",
    "date_created": "2023-03-23T14:39:51.000",
    "date_modified": "2023-03-23T14:39:52.000",
    "request_status": "Pending",
    "responsible_agency": "Department of Sanitation",
    "final_address": "2633 Halsey Ave",
    "address_councildis": "C",
    "status": "Assigned to Contractor",
    "contractor": "Richards Disposal",
    "rowid": "985375",
    "final_x": "3697608.66506",
    "final_y": "521474.234681",
    "longitude": "-90.0175694934478",
    "latitude": "29.927374390247614",
    "geocoded_column": {
      "latitude": "29.927374390247614",
      "longitude": "-90.0175694934478"
    }
  },
  {
    "service_request": "2023-985374",
    "request_type": "Trash/Recycling",
    "request_reason": "Repair Trash Cart",
    "date_created": "2023-03-23T14:39:37.000",
    "date_modified": "2023-03-23T14:39:37.000",
    "request_status": "Pending",
    "responsible_agency": "Department of Sanitation",
    "final_address": "429 Filmore Ave",
    "address_councildis": "A",
    "status": "Assigned to Contractor",
    "contractor": "IV Waste",
    "rowid": "985374",
    "final_x": "3668127.07002",
    "final_y": "552173.706198",
    "longitude": "-90.10960085292425",
    "latitude": "30.01268562039053",
    "geocoded_column": {
      "latitude": "30.01268562039053",
      "longitude": "-90.10960085292425"
    }
  },
  {
    "service_request": "2023-985373",
    "request_type": "Roads/Drainage",
    "request_reason": "Pothole",
    "date_created": "2023-03-23T14:39:19.000",
    "date_modified": "2023-03-23T14:39:19.000",
    "request_status": "Pending",
    "responsible_agency": "Department of Public Works",
    "final_address": "3137 Orleans Ave",
    "address_councildis": "A",
    "status": "Pending",
    "rowid": "985373",
    "final_x": "3675086.00885",
    "final_y": "538360.268233",
    "longitude": "-90.08808869185481",
    "latitude": "29.974497297491975",
    "geocoded_column": {
      "latitude": "29.974497297491975",
      "longitude": "-90.08808869185481"
    }
  },
  {
    "service_request": "2023-985372",
    "request_type": "Trash/Recycling",
    "request_reason": "Request a Large Item Pick Up",
    "date_created": "2023-03-23T14:30:55.000",
    "date_modified": "2023-03-23T14:30:55.000",
    "request_status": "Pending",
    "responsible_agency": "Department of Sanitation",
    "final_address": "10701 Vienna St",
    "address_councildis": "E",
    "status": "Assigned to Contractor",
    "contractor": "Waste Pro",
    "rowid": "985372",
    "final_x": "3714967.63211",
    "final_y": "558068.978651",
    "longitude": "-89.96138904170346",
    "latitude": "30.02743662551683",
    "geocoded_column": {
      "latitude": "30.02743662551683",
      "longitude": "-89.96138904170346"
    }
  },
  {
    "service_request": "2023-985371",
    "request_type": "Tax and Revenue",
    "request_reason": "Occupational License Tax",
    "date_created": "2023-03-23T14:30:39.000",
    "date_modified": "2023-03-23T14:30:39.000",
    "request_status": "Pending",
    "responsible_agency": "Bureau of Revenue",
    "status": "Pending",
    "rowid": "985371",
    "longitude": "0.0",
    "latitude": "0.0",
    "geocoded_column": {
      "latitude": "0.0",
      "longitude": "0.0"
    }
  },
  {
    "service_request": "2023-985370",
    "request_type": "Trash/Recycling",
    "request_reason": "Dead Animal Pick Up",
    "date_created": "2023-03-23T14:26:02.000",
    "date_modified": "2023-03-23T14:26:02.000",
    "request_status": "Pending",
    "responsible_agency": "Department of Sanitation",
    "final_address": "7304 Plum St",
    "address_councildis": "A",
    "status": "Assigned to Contractor",
    "contractor": "Richards Disposal",
    "rowid": "985370",
    "final_x": "3664029.21364",
    "final_y": "526968.166462",
    "longitude": "-90.12338879679001",
    "latitude": "29.943498500159254",
    "geocoded_column": {
      "latitude": "29.943498500159254",
      "longitude": "-90.12338879679001"
    }
  },
  {
    "service_request": "2023-985368",
    "request_type": "Trash/Recycling",
    "request_reason": "Repair Trash Cart",
    "date_created": "2023-03-23T14:25:08.000",
    "date_modified": "2023-03-23T14:25:09.000",
    "request_status": "Pending",
    "responsible_agency": "Department of Sanitation",
    "final_address": "2017 Ptolemy St",
    "address_councildis": "C",
    "status": "Assigned to Contractor",
    "contractor": "Richards Disposal",
    "rowid": "985368",
    "final_x": "3691523.18921",
    "final_y": "525824.640637",
    "longitude": "-90.03662433550397",
    "latitude": "29.939527272424364",
    "geocoded_column": {
      "latitude": "29.939527272424364",
      "longitude": "-90.03662433550397"
    }
  },
  {
    "service_request": "2023-985367",
    "request_type": "Trash/Recycling",
    "request_reason": "Request a Large Item Pick Up",
    "date_created": "2023-03-23T14:24:52.000",
    "date_modified": "2023-03-23T14:24:52.000",
    "request_status": "Pending",
    "responsible_agency": "Department of Sanitation",
    "final_address": "1208 Henry Clay Ave",
    "address_councildis": "A",
    "status": "Assigned to Contractor",
    "contractor": "Richards Disposal",
    "rowid": "985367",
    "final_x": "3664264.90919",
    "final_y": "520961.131129",
    "longitude": "-90.12284499971729",
    "latitude": "29.92697421404992",
    "geocoded_column": {
      "latitude": "29.92697421404992",
      "longitude": "-90.12284499971729"
    }
  },
  {
    "service_request": "2023-985366",
    "request_type": "Roads/Drainage",
    "request_reason": "Catch Basin - Broken/Damage",
    "date_created": "2023-03-23T14:23:02.000",
    "date_modified": "2023-03-23T16:00:00.000",
    "request_status": "Pending",
    "responsible_agency": "Department of Public Works",
    "final_address": "1013 N Dorgenois St",
    "address_councildis": "D",
    "status": "Inspected",
    "rowid": "985366",
    "final_x": "3677874.7179",
    "final_y": "537629.385352",
    "longitude": "-90.07930653480042",
    "latitude": "29.972403993547108",
    "geocoded_column": {
      "latitude": "29.972403993547108",
      "longitude": "-90.07930653480042"
    }
  },
  {
    "service_request": "2023-985364",
    "request_type": "Parks & Parkways",
    "request_reason": "Request Tree Service (Right of Way/Public Property)",
    "date_created": "2023-03-23T14:21:01.000",
    "date_modified": "2023-03-23T14:21:02.000",
    "request_status": "Pending",
    "responsible_agency": "Department of Parks & Parkway",
    "final_address": "1013 N Dorgenois St",
    "address_councildis": "D",
    "status": "Pending",
    "rowid": "985364",
    "final_x": "3677874.7179",
    "final_y": "537629.385352",
    "longitude": "-90.07930653480042",
    "latitude": "29.972403993547108",
    "geocoded_column": {
      "latitude": "29.972403993547108",
      "longitude": "-90.07930653480042"
    }
  },
  {
    "service_request": "2023-985363",
    "request_type": "Roads/Drainage",
    "request_reason": "Street Flooding / Drainage",
    "date_created": "2023-03-23T14:15:50.000",
    "date_modified": "2023-03-23T14:15:50.000",
    "request_status": "Pending",
    "responsible_agency": "Department of Public Works",
    "final_address": "2116 Joliet St",
    "address_councildis": "A",
    "status": "Pending",
    "rowid": "985363",
    "final_x": "3663083.21082",
    "final_y": "531790.873795",
    "longitude": "-90.12621517961942",
    "latitude": "29.95678682573045",
    "geocoded_column": {
      "latitude": "29.95678682573045",
      "longitude": "-90.12621517961942"
    }
  },
  {
    "service_request": "2023-985362",
    "request_type": "Trash/Recycling",
    "request_reason": "Order Trash Cart",
    "date_created": "2023-03-23T14:07:36.000",
    "date_modified": "2023-03-23T14:11:56.000",
    "request_status": "Pending",
    "responsible_agency": "Department of Sanitation",
    "final_address": "4206 Duplessis St",
    "address_councildis": "D",
    "status": "Assigned to Contractor",
    "contractor": "IV Waste",
    "rowid": "985362",
    "final_x": "3678316.8237",
    "final_y": "547701.899602",
    "longitude": "-90.07756166029088",
    "latitude": "30.000086584558765",
    "geocoded_column": {
      "latitude": "30.000086584558765",
      "longitude": "-90.07756166029088"
    }
  },
  {
    "service_request": "2023-985361",
    "request_type": "Abandoned Vehicles",
    "request_reason": "Abandoned/Junk Vehicles",
    "date_created": "2023-03-23T14:07:03.000",
    "date_modified": "2023-03-23T14:17:29.000",
    "request_status": "Pending",
    "responsible_agency": "Department of Public Works",
    "final_address": "2700 BLK Palmyra St",
    "address_councildis": "B",
    "status": "Inspected",
    "rowid": "985361",
    "final_x": "3674509.86682",
    "final_y": "534742.372232",
    "longitude": "-90.09003227057333",
    "latitude": "29.964566512724634",
    "geocoded_column": {
      "latitude": "29.964566512724634",
      "longitude": "-90.09003227057333"
    }
  },
  {
    "service_request": "2023-985360",
    "request_type": "Trash/Recycling",
    "request_reason": "Missed Trash Pick-Up",
    "date_created": "2023-03-23T14:04:59.000",
    "date_modified": "2023-03-23T14:04:59.000",
    "request_status": "Pending",
    "responsible_agency": "Department of Sanitation",
    "final_address": "3109 Ptolemy St",
    "address_councildis": "C",
    "status": "Assigned to Contractor",
    "contractor": "Richards Disposal",
    "rowid": "985360",
    "final_x": "3695833.31222",
    "final_y": "525834.768573",
    "longitude": "-90.02301640066946",
    "latitude": "29.939420298819133",
    "geocoded_column": {
      "latitude": "29.939420298819133",
      "longitude": "-90.02301640066946"
    }
  },
  {
    "service_request": "2023-985359",
    "request_type": "Trash/Recycling",
    "request_reason": "Missed Trash Pick-Up",
    "date_created": "2023-03-23T14:03:06.000",
    "date_modified": "2023-03-23T14:10:00.000",
    "request_status": "Pending",
    "responsible_agency": "Department of Sanitation",
    "final_address": "1325 New York St",
    "address_councildis": "D",
    "status": "Assigned to Contractor",
    "contractor": "IV Waste",
    "rowid": "985359",
    "final_x": "3677376.19195",
    "final_y": "555637.103577",
    "longitude": "-90.08025902900778",
    "latitude": "30.0219338646644",
    "geocoded_column": {
      "latitude": "30.0219338646644",
      "longitude": "-90.08025902900778"
    }
  },
  {
    "service_request": "2023-985358",
    "request_type": "Abandoned Vehicles",
    "request_reason": "Abandoned/Junk Vehicles",
    "date_created": "2023-03-23T13:58:50.000",
    "date_modified": "2023-03-23T13:58:50.000",
    "request_status": "Pending",
    "responsible_agency": "Department of Public Works",
    "final_address": "2936 Touro St",
    "address_councildis": "D",
    "status": "Pending",
    "rowid": "985358",
    "final_x": "3683624.63503",
    "final_y": "543365.73499",
    "longitude": "-90.06094614338676",
    "latitude": "29.988002660817973",
    "geocoded_column": {
      "latitude": "29.988002660817973",
      "longitude": "-90.06094614338676"
    }
  },
  {
    "service_request": "2023-985357",
    "request_type": "Abandoned Vehicles",
    "request_reason": "Abandoned/Junk Vehicles",
    "date_created": "2023-03-23T13:57:08.000",
    "date_modified": "2023-03-23T13:57:09.000",
    "request_status": "Pending",
    "responsible_agency": "Department of Public Works",
    "final_address": "2916 Upperline St",
    "address_councildis": "B",
    "status": "Pending",
    "rowid": "985357",
    "final_x": "3669130.6946",
    "final_y": "525452.078205",
    "longitude": "-90.10733326019385",
    "latitude": "29.939180640489475",
    "geocoded_column": {
      "latitude": "29.939180640489475",
      "longitude": "-90.10733326019385"
    }
  },
  {
    "service_request": "2023-985356",
    "request_type": "Roads/Drainage",
    "request_reason": "Street Subsidence (Sinking)",
    "date_created": "2023-03-23T13:50:18.000",
    "date_modified": "2023-03-23T13:50:18.000",
    "request_status": "Pending",
    "responsible_agency": "Department of Public Works",
    "final_address": "828 Clouet St",
    "address_councildis": "C",
    "status": "Pending",
    "rowid": "985356",
    "final_x": "3688746.56419",
    "final_y": "535091.22727",
    "longitude": "-90.04506156470923",
    "latitude": "29.96509330605687",
    "geocoded_column": {
      "latitude": "29.96509330605687",
      "longitude": "-90.04506156470923"
    }
  },
  {
    "service_request": "2023-985355",
    "request_type": "Trash/Recycling",
    "request_reason": "Request a Large Item Pick Up",
    "date_created": "2023-03-23T13:48:59.000",
    "date_modified": "2023-03-23T13:49:00.000",
    "request_status": "Pending",
    "responsible_agency": "Department of Sanitation",
    "final_address": "4535 Annette St",
    "address_councildis": "D",
    "status": "Assigned to Contractor",
    "contractor": "IV Waste",
    "rowid": "985355",
    "final_x": "3682124.29909",
    "final_y": "549380.922131",
    "longitude": "-90.06547497098171",
    "latitude": "30.00458800904111",
    "geocoded_column": {
      "latitude": "30.00458800904111",
      "longitude": "-90.06547497098171"
    }
  },
  {
    "service_request": "2023-985354",
    "request_type": "Trash/Recycling",
    "request_reason": "Missed Trash Pick-Up",
    "date_created": "2023-03-23T13:48:48.000",
    "date_modified": "2023-03-23T13:48:49.000",
    "request_status": "Pending",
    "responsible_agency": "Department of Sanitation",
    "final_address": "4101 St Charles Ave",
    "address_councildis": "B",
    "status": "Assigned to Contractor",
    "contractor": "Richards Disposal",
    "rowid": "985354",
    "final_x": "3671883.30555",
    "final_y": "521031.656057",
    "longitude": "-90.09879326907681",
    "latitude": "29.926944636563185",
    "geocoded_column": {
      "latitude": "29.926944636563185",
      "longitude": "-90.09879326907681"
    }
  },
  {
    "service_request": "2023-985353",
    "request_type": "Trash/Recycling",
    "request_reason": "Request a Large Item Pick Up",
    "date_created": "2023-03-23T13:46:44.000",
    "date_modified": "2023-03-23T14:46:46.000",
    "case_close_date": "2023-03-23T09:46:46.000",
    "request_status": "Closed",
    "responsible_agency": "Department of Sanitation",
    "final_address": "120 Portage Pl",
    "address_councildis": "D",
    "status": "Assigned to Contractor",
    "contractor": "IV Waste",
    "contractor_action": "Completed",
    "rowid": "985353",
    "final_x": "3677874.92296",
    "final_y": "544613.229647",
    "longitude": "-90.07906445381924",
    "latitude": "29.99160713908717",
    "geocoded_column": {
      "latitude": "29.99160713908717",
      "longitude": "-90.07906445381924"
    }
  },
  {
    "service_request": "2023-985352",
    "request_type": "Health Related Request",
    "request_reason": "Noise Ordinance Complaint",
    "date_created": "2023-03-23T13:44:49.000",
    "date_modified": "2023-03-23T13:47:43.000",
    "request_status": "Pending",
    "responsible_agency": "Health Department",
    "final_address": "1210 Broadway St",
    "address_councildis": "A",
    "status": "Pending",
    "rowid": "985352",
    "final_x": "3664180.71232",
    "final_y": "526605.53555",
    "longitude": "-90.12292256828633",
    "latitude": "29.94249698162228",
    "geocoded_column": {
      "latitude": "29.94249698162228",
      "longitude": "-90.12292256828633"
    }
  },
  {
    "service_request": "2023-985351",
    "request_type": "Parks & Parkways",
    "request_reason": "Request Tree Service (Right of Way/Public Property)",
    "date_created": "2023-03-23T13:40:52.000",
    "date_modified": "2023-03-23T13:40:52.000",
    "request_status": "Pending",
    "responsible_agency": "Department of Parks & Parkway",
    "final_address": "3631 Rue Nadine",
    "address_councildis": "C",
    "status": "Pending",
    "rowid": "985351",
    "final_x": "3704695.50046",
    "final_y": "516948.665525",
    "longitude": "-89.99536511520417",
    "latitude": "29.914704978068258",
    "geocoded_column": {
      "latitude": "29.914704978068258",
      "longitude": "-89.99536511520417"
    }
  },
  {
    "service_request": "2023-985350",
    "request_type": "Trash/Recycling",
    "request_reason": "Missed Trash Pick-Up",
    "date_created": "2023-03-23T13:40:44.000",
    "date_modified": "2023-03-23T13:40:45.000",
    "request_status": "Pending",
    "responsible_agency": "Department of Sanitation",
    "final_address": "2314 Delery St",
    "address_councildis": "E",
    "status": "Assigned to Contractor",
    "contractor": "Waste Pro",
    "rowid": "985350",
    "final_x": "3702208.70065",
    "final_y": "537434.866696",
    "longitude": "-90.00246323893724",
    "latitude": "29.971114425544155",
    "geocoded_column": {
      "latitude": "29.971114425544155",
      "longitude": "-90.00246323893724"
    }
  },
  {
    "service_request": "2023-985349",
    "request_type": "Roads/Drainage",
    "request_reason": "Catch Basin - Clogged",
    "date_created": "2023-03-23T13:40:19.000",
    "date_modified": "2023-03-23T13:40:19.000",
    "request_status": "Pending",
    "responsible_agency": "Department of Public Works",
    "final_address": "1738 Broadway St",
    "address_councildis": "A",
    "status": "Pending",
    "rowid": "985349",
    "final_x": "3665280.82784",
    "final_y": "528251.767872",
    "longitude": "-90.11939417332782",
    "latitude": "29.946991590865974",
    "geocoded_column": {
      "latitude": "29.946991590865974",
      "longitude": "-90.11939417332782"
    }
  },
  {
    "service_request": "2023-985348",
    "request_type": "Abandoned Vehicles",
    "request_reason": "Abandoned/Junk Vehicles",
    "date_created": "2023-03-23T13:36:45.000",
    "date_modified": "2023-03-23T13:36:45.000",
    "request_status": "Pending",
    "responsible_agency": "Department of Public Works",
    "final_address": "2420 Gravier St",
    "address_councildis": "B",
    "status": "Pending",
    "rowid": "985348",
    "final_x": "3675029.24789",
    "final_y": "532769.903172",
    "longitude": "-90.08845977373535",
    "latitude": "29.959127379731946",
    "geocoded_column": {
      "latitude": "29.959127379731946",
      "longitude": "-90.08845977373535"
    }
  },
  {
    "service_request": "2023-985347",
    "request_type": "Mosquito, Termite & Rodent Control",
    "request_reason": "Rodent Complaint (Rats)",
    "date_created": "2023-03-23T13:35:20.000",
    "date_modified": "2023-03-23T13:35:23.000",
    "request_status": "Pending",
    "responsible_agency": "Mosquito, Termite & Rodent Control Board",
    "final_address": "2235 Almonaster Ave",
    "address_councildis": "D",
    "status": "Pending",
    "rowid": "985347",
    "final_x": "3688294.48995",
    "final_y": "540894.803147",
    "longitude": "-90.04628332617295",
    "latitude": "29.981065066506307",
    "geocoded_column": {
      "latitude": "29.981065066506307",
      "longitude": "-90.04628332617295"
    }
  },
  {
    "service_request": "2023-985346",
    "request_type": "Trash/Recycling",
    "request_reason": "Missed Trash Pick-Up",
    "date_created": "2023-03-23T13:27:04.000",
    "date_modified": "2023-03-23T13:27:05.000",
    "request_status": "Pending",
    "responsible_agency": "Department of Sanitation",
    "final_address": "2225 Mandeville St",
    "address_councildis": "D",
    "status": "Assigned to Contractor",
    "contractor": "IV Waste",
    "rowid": "985346",
    "final_x": "3685474.567",
    "final_y": "540624.547659",
    "longitude": "-90.05519941379757",
    "latitude": "29.98040875135475",
    "geocoded_column": {
      "latitude": "29.98040875135475",
      "longitude": "-90.05519941379757"
    }
  },
  {
    "service_request": "2023-985345",
    "request_type": "Trash/Recycling",
    "request_reason": "Request a Large Item Pick Up",
    "date_created": "2023-03-23T13:25:17.000",
    "date_modified": "2023-03-23T13:25:18.000",
    "request_status": "Pending",
    "responsible_agency": "Department of Sanitation",
    "final_address": "4145 Cleveland Ave",
    "address_councildis": "A",
    "status": "Assigned to Contractor",
    "contractor": "Richards Disposal",
    "rowid": "985345",
    "final_x": "3670532.5483",
    "final_y": "538288.640841",
    "longitude": "-90.10247208618843",
    "latitude": "29.97443562696582",
    "geocoded_column": {
      "latitude": "29.97443562696582",
      "longitude": "-90.10247208618843"
    }
  },
  {
    "service_request": "2023-985344",
    "request_type": "Trash/Recycling",
    "request_reason": "Missed Trash Pick-Up",
    "date_created": "2023-03-23T13:24:58.000",
    "date_modified": "2023-03-23T13:46:14.000",
    "request_status": "Pending",
    "responsible_agency": "Department of Sanitation",
    "final_address": "2234 Allen St",
    "address_councildis": "D",
    "status": "Assigned to Contractor",
    "contractor": "IV Waste",
    "rowid": "985344",
    "final_x": "3682395.56194",
    "final_y": "540443.614475",
    "longitude": "-90.06493054723563",
    "latitude": "29.980005325674206",
    "geocoded_column": {
      "latitude": "29.980005325674206",
      "longitude": "-90.06493054723563"
    }
  },
  {
    "service_request": "2023-985343",
    "request_type": "Abandoned Vehicles",
    "request_reason": "Abandoned/Junk Vehicles",
    "date_created": "2023-03-23T13:22:19.000",
    "date_modified": "2023-03-23T13:22:19.000",
    "request_status": "Pending",
    "responsible_agency": "Department of Public Works",
    "final_address": "1934 Marengo St",
    "address_councildis": "B",
    "status": "Pending",
    "rowid": "985343",
    "final_x": "3671760.05198",
    "final_y": "522348.849338",
    "longitude": "-90.09913756242088",
    "latitude": "29.93057014599546",
    "geocoded_column": {
      "latitude": "29.93057014599546",
      "longitude": "-90.09913756242088"
    }
  },
  {
    "service_request": "2023-985342",
    "request_type": "Trash/Recycling",
    "request_reason": "Repair Trash Cart",
    "date_created": "2023-03-23T13:22:04.000",
    "date_modified": "2023-03-23T13:22:04.000",
    "request_status": "Pending",
    "responsible_agency": "Department of Sanitation",
    "final_address": "2015 Robert St",
    "address_councildis": "B",
    "status": "Assigned to Contractor",
    "contractor": "Richards Disposal",
    "rowid": "985342",
    "final_x": "3668866.70894",
    "final_y": "522980.602683",
    "longitude": "-90.10825012193872",
    "latitude": "29.932392640773273",
    "geocoded_column": {
      "latitude": "29.932392640773273",
      "longitude": "-90.10825012193872"
    }
  },
  {
    "service_request": "2023-985341",
    "request_type": "Abandoned Vehicles",
    "request_reason": "Abandoned/Junk Vehicles",
    "date_created": "2023-03-23T13:21:14.000",
    "date_modified": "2023-03-23T13:21:14.000",
    "request_status": "Pending",
    "responsible_agency": "Department of Public Works",
    "final_address": "1934 Marengo St",
    "address_councildis": "B",
    "status": "Pending",
    "rowid": "985341",
    "final_x": "3671760.05198",
    "final_y": "522348.849338",
    "longitude": "-90.09913756242088",
    "latitude": "29.93057014599546",
    "geocoded_column": {
      "latitude": "29.93057014599546",
      "longitude": "-90.09913756242088"
    }
  },
  {
    "service_request": "2023-985340",
    "request_type": "Traffic Signals/Signs/Striping/Streetlights",
    "request_reason": "Street Light Outage/Malfunction",
    "date_created": "2023-03-23T13:15:08.000",
    "date_modified": "2023-03-23T13:15:09.000",
    "request_status": "Pending",
    "responsible_agency": "Department of Public Works",
    "final_address": "4243 Earhart Blvd",
    "address_councildis": "B",
    "status": "Assigned to Contractor",
    "contractor": "Legacy Professional Services",
    "rowid": "985340",
    "final_x": "3671844.63495",
    "final_y": "532021.772803",
    "longitude": "-90.09854148089028",
    "latitude": "29.957165019763515",
    "geocoded_column": {
      "latitude": "29.957165019763515",
      "longitude": "-90.09854148089028"
    }
  },
  {
    "service_request": "2023-985339",
    "request_type": "Trash/Recycling",
    "request_reason": "MIssed Recycling Pick-Up",
    "date_created": "2023-03-23T13:12:59.000",
    "date_modified": "2023-03-23T13:12:59.000",
    "request_status": "Pending",
    "responsible_agency": "Department of Sanitation",
    "final_address": "4935 Eunice Dr",
    "address_councildis": "E",
    "status": "Assigned to Contractor",
    "contractor": "Waste Pro",
    "rowid": "985339",
    "final_x": "3710491.94718",
    "final_y": "556991.430746",
    "longitude": "-89.9755720460466",
    "latitude": "30.024620381506185",
    "geocoded_column": {
      "latitude": "30.024620381506185",
      "longitude": "-89.9755720460466"
    }
  },
  {
    "service_request": "2023-985337",
    "request_type": "Trash/Recycling",
    "request_reason": "Request a Large Item Pick Up",
    "date_created": "2023-03-23T13:07:03.000",
    "date_modified": "2023-03-23T13:07:04.000",
    "request_status": "Pending",
    "responsible_agency": "Department of Sanitation",
    "final_address": "1921 Music St",
    "address_councildis": "D",
    "status": "Assigned to Contractor",
    "contractor": "IV Waste",
    "rowid": "985337",
    "final_x": "3686633.13737",
    "final_y": "539601.274698",
    "longitude": "-90.05157631350737",
    "latitude": "29.977559526020016",
    "geocoded_column": {
      "latitude": "29.977559526020016",
      "longitude": "-90.05157631350737"
    }
  },