[
  {
    "service_request": "2024-1139914",
    "request_type": "Streetlights",
    "request_reason": "Streetlight Outage/Malfunction",
    "date_created": "2024-10-09T23:57:05.000",
    "date_modified": "2024-10-09T23:57:06.000",
    "request_status": "Pending",
    "responsible_agency": "Department of Public Works",
    "final_address": "8021 Michigan St",
    "address_councildis": "E",
    "status": "Pending",
    "contractor": "Legacy Professional Services",
    "rowid": "1139914",
    "final_x": "3711015.65265",
    "final_y": "567738.690276",
    "longitude": "-89.97351423225743",
    "latitude": "30.05415397411666",
    "geocoded_column": {
      "latitude": "30.05415397411666",
      "longitude": "-89.97351423225743"
    }
  },
  {
    "service_request": "2024-1139913",
    "request_type": "Health Related Request",
    "request_reason": "Noise Ordinance Complaint",
    "date_created": "2024-10-09T22:25:51.000",
    "date_modified": "2024-10-09T22:25:51.000",
    "request_status": "Pending",
    "responsible_agency": "Health Department",
    "final_address": "1010 Girod St",
    "address_councildis": "B",
    "status": "Pending",
    "rowid": "1139913",
    "final_x": "3679281.10434",
    "final_y": "528792.09024",
    "longitude": "-90.07517137616092",
    "latitude": "29.948062031515523",
    "geocoded_column": {
      "latitude": "29.948062031515523",
      "longitude": "-90.07517137616092"
    }
  },
  {
    "service_request": "2024-1139912",
    "request_type": "Streetlights",
    "request_reason": "Streetlight Outage/Malfunction",
    "date_created": "2024-10-09T22:14:25.000",
    "date_modified": "2024-10-09T22:14:26.000",
    "request_status": "Pending",
    "responsible_agency": "Department of Public Works",
    "final_address": "4025 S Inwood Ave",
    "address_councildis": "C",
    "status": "Pending",
    "contractor": "Legacy Professional Services",
    "rowid": "1139912",
    "final_x": "3705218.04164",
    "final_y": "513258.71717",
    "longitude": "-89.99385195556103",
    "latitude": "29.904542097348198",
    "geocoded_column": {
      "latitude": "29.904542097348198",
      "longitude": "-89.99385195556103"
    }
  },
  {
    "service_request": "2024-1139911",
    "request_type": "Streetlights",
    "request_reason": "Streetlight Outage/Malfunction",
    "date_created": "2024-10-09T21:49:53.000",
    "date_modified": "2024-10-09T21:49:54.000",
    "request_status": "Pending",
    "responsible_agency": "Department of Public Works",
    "final_address": "2500 Freret St",
    "address_councildis": "B",
    "status": "Pending",
    "contractor": "Legacy Professional Services",
    "rowid": "1139911",
    "final_x": "3674873.86062",
    "final_y": "525744.677693",
    "longitude": "-90.08919132036966",
    "latitude": "29.939814978134144",
    "geocoded_column": {
      "latitude": "29.939814978134144",
      "longitude": "-90.08919132036966"
    }
  },
  {
    "service_request": "2024-1139910",
    "request_type": "Parks & Parkways",
    "request_reason": "Request Tree Service (Right of Way/Public Property)",
    "date_created": "2024-10-09T20:13:49.000",
    "date_modified": "2024-10-09T20:13:49.000",
    "request_status": "Pending",
    "responsible_agency": "Department of Parks & Parkway",
    "final_address": "1425 St Roch Ave",
    "address_councildis": "C",
    "status": "Pending",
    "rowid": "1139910",
    "final_x": "3686455.21455",
    "final_y": "537762.62324",
    "longitude": "-90.0522031799247",
    "latitude": "29.9725093510695",
    "geocoded_column": {
      "latitude": "29.9725093510695",
      "longitude": "-90.0522031799247"
    }
  },
  {
    "service_request": "2024-1139909",
    "request_type": "Parks & Parkways",
    "request_reason": "Request Tree Service (Right of Way/Public Property)",
    "date_created": "2024-10-09T20:00:53.000",
    "date_modified": "2024-10-09T20:00:53.000",
    "request_status": "Pending",
    "responsible_agency": "Department of Parks & Parkway",
    "final_address": "1425 St Roch Ave",
    "address_councildis": "C",
    "status": "Pending",
    "rowid": "1139909",
    "final_x": "3686455.21455",
    "final_y": "537762.62324",
    "longitude": "-90.0522031799247",
    "latitude": "29.9725093510695",
    "geocoded_column": {
      "latitude": "29.9725093510695",
      "longitude": "-90.0522031799247"
    }
  },
  {
    "service_request": "2024-1139908",
    "request_type": "Traffic Signals",
    "request_reason": "Traffic Signal Malfunctioning or Damaged",
    "date_created": "2024-10-09T19:38:35.000",
    "date_modified": "2024-10-09T19:38:35.000",
    "request_status": "Pending",
    "responsible_agency": "Department of Public Works",
    "final_address": "1100 BLK Canal St",
    "address_councildis": "C",
    "status": "Pending",
    "rowid": "1139908",
    "final_x": "3679946.43666",
    "final_y": "531669.377394",
    "longitude": "-90.07297072580839",
    "latitude": "29.95595349862278",
    "geocoded_column": {
      "latitude": "29.95595349862278",
      "longitude": "-90.07297072580839"
    }
  },
  {
    "service_request": "2024-1139907",
    "request_type": "General Services",
    "request_reason": "General Service Request",
    "date_created": "2024-10-09T19:26:57.000",
    "date_modified": "2024-10-09T19:26:57.000",
    "request_status": "Pending",
    "responsible_agency": "Orleans Parish Communication District",
    "final_address": "4900 BLK S Galvez St",
    "address_councildis": "B",
    "status": "Pending",
    "rowid": "1139907",
    "final_x": "3669105.05349",
    "final_y": "527362.730495",
    "longitude": "-90.10734967181348",
    "latitude": "29.94443507013997",
    "geocoded_column": {
      "latitude": "29.94443507013997",
      "longitude": "-90.10734967181348"
    }
  },
  {
    "service_request": "2024-1139906",
    "request_type": "Traffic Signals",
    "request_reason": "Traffic Signal Malfunctioning or Damaged",
    "date_created": "2024-10-09T19:22:18.000",
    "date_modified": "2024-10-09T19:22:18.000",
    "request_status": "Pending",
    "responsible_agency": "Department of Public Works",
    "final_address": "4600 BLK Chef Menteur Hwy",
    "address_councildis": "D",
    "status": "Pending",
    "rowid": "1139906",
    "final_x": "3691676.27606",
    "final_y": "549939.674515",
    "longitude": "-90.03527854108401",
    "latitude": "30.005830300613603",
    "geocoded_column": {
      "latitude": "30.005830300613603",
      "longitude": "-90.03527854108401"
    }
  },
  {
    "service_request": "2024-1139905",
    "request_type": "Trash/Recycling",
    "request_reason": "Replace Trash Cart",
    "date_created": "2024-10-09T19:11:43.000",
    "date_modified": "2024-10-09T19:11:44.000",
    "request_status": "Pending",
    "responsible_agency": "Department of Sanitation",
    "final_address": "1839 Audubon St",
    "address_councildis": "A",
    "status": "Assigned to Contractor",
    "contractor": "IV Waste",
    "rowid": "1139905",
    "final_x": "3665811.61607",
    "final_y": "528339.35616",
    "longitude": "-90.11771533747023",
    "latitude": "29.947216957374124",
    "geocoded_column": {
      "latitude": "29.947216957374124",
      "longitude": "-90.11771533747023"
    }
  },
  {
    "service_request": "2024-1139904",
    "request_type": "Trash/Recycling",
    "request_reason": "Request a Large Item Pick Up",
    "date_created": "2024-10-09T19:00:14.000",
    "date_modified": "2024-10-09T19:00:16.000",
    "request_status": "Pending",
    "responsible_agency": "Department of Sanitation",
    "final_address": "6267 Milne Blvd",
    "address_councildis": "A",
    "status": "Assigned to Contractor",
    "contractor": "IV Waste",
    "rowid": "1139904",
    "final_x": "3667283.88397",
    "final_y": "549191.158035",
    "longitude": "-90.11236527764505",
    "latitude": "30.004509387338608",
    "geocoded_column": {
      "latitude": "30.004509387338608",
      "longitude": "-90.11236527764505"
    }
  },
  {
    "service_request": "2024-1139903",
    "request_type": "Streetlights",
    "request_reason": "Streetlight Outage/Malfunction",
    "date_created": "2024-10-09T18:59:24.000",
    "date_modified": "2024-10-09T18:59:26.000",
    "request_status": "Pending",
    "responsible_agency": "Department of Public Works",
    "final_address": "9434 Palmetto St",
    "address_councildis": "A",
    "status": "Pending",
    "contractor": "Legacy Professional Services",
    "rowid": "1139903",
    "final_x": "3664492.82029",
    "final_y": "538380.331721",
    "longitude": "-90.12154401349778",
    "latitude": "29.974864758422605",
    "geocoded_column": {
      "latitude": "29.974864758422605",
      "longitude": "-90.12154401349778"
    }
  },
  {
    "service_request": "2024-1139902",
    "request_type": "Trash/Recycling",
    "request_reason": "Request a Large Item Pick Up",
    "date_created": "2024-10-09T18:54:28.000",
    "date_modified": "2024-10-09T18:54:30.000",
    "request_status": "Pending",
    "responsible_agency": "Department of Sanitation",
    "final_address": "1021 Leontine St",
    "address_councildis": "B",
    "status": "Assigned to Contractor",
    "contractor": "IV Waste",
    "rowid": "1139902",
    "final_x": "3667296.8802",
    "final_y": "519283.734839",
    "longitude": "-90.11333020671535",
    "latitude": "29.922273482986924",
    "geocoded_column": {
      "latitude": "29.922273482986924",
      "longitude": "-90.11333020671535"
    }
  },
  {
    "service_request": "2024-1139901",
    "request_type": "Trash/Recycling",
    "request_reason": "Replace Trash Cart",
    "date_created": "2024-10-09T18:45:55.000",
    "date_modified": "2024-10-09T18:45:57.000",
    "request_status": "Pending",
    "responsible_agency": "Department of Sanitation",
    "final_address": "5832 Clara St",
    "address_councildis": "A",
    "status": "Assigned to Contractor",
    "contractor": "IV Waste",
    "rowid": "1139901",
    "final_x": "3666850.98708",
    "final_y": "525247.635645",
    "longitude": "-90.11453747092827",
    "latitude": "29.938685361871208",
    "geocoded_column": {
      "latitude": "29.938685361871208",
      "longitude": "-90.11453747092827"
    }
  },
  {
    "service_request": "2024-1139900",
    "request_type": "Abandoned Vehicles",
    "request_reason": "Abandoned/Junk Vehicles",
    "date_created": "2024-10-09T18:38:58.000",
    "date_modified": "2024-10-09T18:38:58.000",
    "request_status": "Pending",
    "responsible_agency": "Department of Public Works",
    "final_address": "2713 Jasmine St",
    "address_councildis": "D",
    "status": "Pending",
    "rowid": "1139900",
    "final_x": "3687843.13788",
    "final_y": "548237.530514",
    "longitude": "-90.04744863411604",
    "latitude": "30.00126886556038",
    "geocoded_column": {
      "latitude": "30.00126886556038",
      "longitude": "-90.04744863411604"
    }
  },
  {
    "service_request": "2024-1139899",
    "request_type": "Trash/Recycling",
    "request_reason": "MIssed Recycling Pick-Up",
    "date_created": "2024-10-09T18:27:52.000",
    "date_modified": "2024-10-09T18:27:53.000",
    "request_status": "Pending",
    "responsible_agency": "Department of Sanitation",
    "final_address": "834 Audubon St",
    "address_councildis": "A",
    "status": "Assigned to Contractor",
    "contractor": "IV Waste",
    "rowid": "1139899",
    "final_x": "3663745.7833",
    "final_y": "525401.800637",
    "longitude": "-90.12433584444115",
    "latitude": "29.939199720522865",
    "geocoded_column": {
      "latitude": "29.939199720522865",
      "longitude": "-90.12433584444115"
    }
  },
  {
    "service_request": "2024-1139898",
    "request_type": "Trash/Recycling",
    "request_reason": "Replace Trash Cart",
    "date_created": "2024-10-09T18:25:03.000",
    "date_modified": "2024-10-09T18:25:04.000",
    "request_status": "Pending",
    "responsible_agency": "Department of Sanitation",
    "final_address": "910 Turquoise St",
    "address_councildis": "D",
    "status": "Assigned to Contractor",
    "contractor": "IV Waste",
    "rowid": "1139898",
    "final_x": "3670787.82836",
    "final_y": "555050.723097",
    "longitude": "-90.1010965458066",
    "latitude": "30.020517991860352",
    "geocoded_column": {
      "latitude": "30.020517991860352",
      "longitude": "-90.1010965458066"
    }
  },
  {
    "service_request": "2024-1139897",
    "request_type": "Trash/Recycling",
    "request_reason": "Replace Trash Cart",
    "date_created": "2024-10-09T18:15:47.000",
    "date_modified": "2024-10-09T18:15:48.000",
    "request_status": "Pending",
    "responsible_agency": "Department of Sanitation",
    "final_address": "4910 Gallier Dr",
    "address_councildis": "D",
    "status": "Assigned to Contractor",
    "contractor": "IV Waste",
    "rowid": "1139897",
    "final_x": "3691816.12412",
    "final_y": "552085.974678",
    "longitude": "-90.03475988543516",
    "latitude": "30.011727476239464",
    "geocoded_column": {
      "latitude": "30.011727476239464",
      "longitude": "-90.03475988543516"
    }
  },
  {
    "service_request": "2024-1139896",
    "request_type": "Roads and Streets",
    "request_reason": "Street Subsidence (Sinking)",
    "date_created": "2024-10-09T18:15:06.000",
    "date_modified": "2024-10-09T18:15:06.000",
    "request_status": "Pending",
    "responsible_agency": "Department of Public Works",
    "final_address": "2372 Mendez St",
    "address_councildis": "D",
    "status": "Pending",
    "rowid": "1139896",
    "final_x": "3685040.16969",
    "final_y": "553468.767319",
    "longitude": "-90.0561192371127",
    "latitude": "30.015739058257505",
    "geocoded_column": {
      "latitude": "30.015739058257505",
      "longitude": "-90.0561192371127"
    }
  },
  {
    "service_request": "2024-1139895",
    "request_type": "Trash/Recycling",
    "request_reason": "Replace Trash Cart",
    "date_created": "2024-10-09T18:13:20.000",
    "date_modified": "2024-10-09T18:14:19.000",
    "request_status": "Pending",
    "responsible_agency": "Department of Sanitation",
    "final_address": "4839 Laurel St",
    "address_councildis": "B",
    "status": "Assigned to Contractor",
    "contractor": "IV Waste",
    "rowid": "1139895",
    "final_x": "3669351.57812",
    "final_y": "517906.519222",
    "longitude": "-90.10689088172033",
    "latitude": "29.918426261213213",
    "geocoded_column": {
      "latitude": "29.918426261213213",
      "longitude": "-90.10689088172033"
    }
  },
  {
    "service_request": "2024-1139894",
    "request_type": "Roads and Streets",
    "request_reason": "Street Subsidence (Sinking)",
    "date_created": "2024-10-09T18:11:39.000",
    "date_modified": "2024-10-09T18:11:39.000",
    "request_status": "Pending",
    "responsible_agency": "Department of Public Works",
    "final_address": "2366 Mendez St",
    "address_councildis": "D",
    "status": "Pending",
    "rowid": "1139894",
    "final_x": "3684989.91893",
    "final_y": "553462.133079",
    "longitude": "-90.05627824009723",
    "latitude": "30.015722356564524",
    "geocoded_column": {
      "latitude": "30.015722356564524",
      "longitude": "-90.05627824009723"
    }
  },
  {
    "service_request": "2024-1139893",
    "request_type": "Trash/Recycling",
    "request_reason": "Request a Large Item Pick Up",
    "date_created": "2024-10-09T18:10:33.000",
    "date_modified": "2024-10-09T18:10:34.000",
    "request_status": "Pending",
    "responsible_agency": "Department of Sanitation",
    "final_address": "4839 Laurel St",
    "address_councildis": "B",
    "status": "Assigned to Contractor",
    "contractor": "IV Waste",
    "rowid": "1139893",
    "final_x": "3669351.57812",
    "final_y": "517906.519222",
    "longitude": "-90.10689088172033",
    "latitude": "29.918426261213213",
    "geocoded_column": {
      "latitude": "29.918426261213213",
      "longitude": "-90.10689088172033"
    }
  },
  {
    "service_request": "2024-1139892",
    "request_type": "Roads and Streets",
    "request_reason": "Abandoned Service Cut",
    "date_created": "2024-10-09T18:08:22.000",
    "date_modified": "2024-10-09T18:08:22.000",
    "request_status": "Pending",
    "responsible_agency": "Department of Public Works",
    "final_address": "2341 Mendez St",
    "address_councildis": "D",
    "status": "Pending",
    "rowid": "1139892",
    "final_x": "3684800.87548",
    "final_y": "553546.050775",
    "longitude": "-90.05687257701973",
    "latitude": "30.015958891368566",
    "geocoded_column": {
      "latitude": "30.015958891368566",
      "longitude": "-90.05687257701973"
    }
  },
  {
    "service_request": "2024-1139891",
    "request_type": "Trash/Recycling",
    "request_reason": "Missed Trash Pick-Up",
    "date_created": "2024-10-09T18:07:57.000",
    "date_modified": "2024-10-09T18:07:58.000",
    "request_status": "Pending",
    "responsible_agency": "Department of Sanitation",
    "final_address": "5220 Arts St",
    "address_councildis": "D",
    "status": "Assigned to Contractor",
    "contractor": "IV Waste",
    "rowid": "1139891",
    "final_x": "3685724.19798",
    "final_y": "552331.90991",
    "longitude": "-90.05399812600402",
    "latitude": "30.012592134668054",
    "geocoded_column": {
      "latitude": "30.012592134668054",
      "longitude": "-90.05399812600402"
    }
  },
  {
    "service_request": "2024-1139890",
    "request_type": "Abandoned Vehicles",
    "request_reason": "Abandoned/Junk Vehicles",
    "date_created": "2024-10-09T18:06:13.000",
    "date_modified": "2024-10-09T18:06:13.000",
    "request_status": "Pending",
    "responsible_agency": "Department of Public Works",
    "final_address": "1704 Joliet St",
    "address_councildis": "A",
    "status": "Pending",
    "rowid": "1139890",
    "final_x": "3662102.01031",
    "final_y": "530706.500162",
    "longitude": "-90.12934949189919",
    "latitude": "29.953833534786146",
    "geocoded_column": {
      "latitude": "29.953833534786146",
      "longitude": "-90.12934949189919"
    }
  },
  {
    "service_request": "2024-1139889",
    "request_type": "Roads and Streets",
    "request_reason": "Pothole",
    "date_created": "2024-10-09T18:03:12.000",
    "date_modified": "2024-10-09T18:03:12.000",
    "request_status": "Pending",
    "responsible_agency": "Department of Public Works",
    "final_address": "2315 Mendez St",
    "address_councildis": "D",
    "status": "Pending",
    "rowid": "1139889",
    "final_x": "3684550.05506",
    "final_y": "553517.192599",
    "longitude": "-90.05766607153511",
    "latitude": "30.015887222406914",
    "geocoded_column": {
      "latitude": "30.015887222406914",
      "longitude": "-90.05766607153511"
    }
  },
  {
    "service_request": "2024-1139888",
    "request_type": "Roads and Streets",
    "request_reason": "Sidewalk Damaged or Missing",
    "date_created": "2024-10-09T17:42:53.000",
    "date_modified": "2024-10-09T17:42:53.000",
    "request_status": "Pending",
    "responsible_agency": "Department of Public Works",
    "final_address": "5526 Mandeville St",
    "address_councildis": "D",
    "status": "Pending",
    "rowid": "1139888",
    "final_x": "3684365.07983",
    "final_y": "553310.922583",
    "longitude": "-90.05825776171615",
    "latitude": "30.01532571649185",
    "geocoded_column": {
      "latitude": "30.01532571649185",
      "longitude": "-90.05825776171615"
    }
  },
  {
    "service_request": "2024-1139887",
    "request_type": "Street and Traffic Signs",
    "request_reason": "Additional Signage Request",
    "date_created": "2024-10-09T17:38:48.000",
    "date_modified": "2024-10-09T17:38:48.000",
    "request_status": "Pending",
    "responsible_agency": "Department of Public Works",
    "final_address": "100 BLK W Robert E Lee Blvd",
    "address_councildis": "A",
    "status": "Pending",
    "rowid": "1139887",
    "final_x": "3666384.63734",
    "final_y": "554864.157776",
    "longitude": "-90.11501562343219",
    "latitude": "30.020134468790527",
    "geocoded_column": {
      "latitude": "30.020134468790527",
      "longitude": "-90.11501562343219"
    }
  },
  {
    "service_request": "2024-1139886",
    "request_type": "Roads and Streets",
    "request_reason": "Pothole",
    "date_created": "2024-10-09T17:38:19.000",
    "date_modified": "2024-10-09T17:38:19.000",
    "request_status": "Pending",
    "responsible_agency": "Department of Public Works",
    "final_address": "5525 Mandeville St",
    "address_councildis": "D",
    "status": "Pending",
    "rowid": "1139886",
    "final_x": "3684464.20623",
    "final_y": "553306.759447",
    "longitude": "-90.057944715381",
    "latitude": "30.01531123599068",
    "geocoded_column": {
      "latitude": "30.01531123599068",
      "longitude": "-90.057944715381"
    }
  },
  {
    "service_request": "2024-1139885",
    "request_type": "Roads and Streets",
    "request_reason": "Abandoned Service Cut",
    "date_created": "2024-10-09T17:32:02.000",
    "date_modified": "2024-10-09T17:32:02.000",
    "request_status": "Pending",
    "responsible_agency": "Department of Public Works",
    "final_address": "2241 Mendez St",
    "address_councildis": "D",
    "status": "Pending",
    "rowid": "1139885",
    "final_x": "3683959.89077",
    "final_y": "553520.423767",
    "longitude": "-90.05953061005887",
    "latitude": "30.015914159713187",
    "geocoded_column": {
      "latitude": "30.015914159713187",
      "longitude": "-90.05953061005887"
    }
  },
  {
    "service_request": "2024-1139884",
    "request_type": "General Services",
    "request_reason": "General Service Request",
    "date_created": "2024-10-09T17:28:32.000",
    "date_modified": "2024-10-09T17:28:32.000",
    "request_status": "Pending",
    "responsible_agency": "Orleans Parish Communication District",
    "final_address": "900 Dumaine",
    "address_councildis": "D",
    "status": "Pending",
    "rowid": "1139884",
    "final_x": "3679583.01826",
    "final_y": "535614.74279",
    "longitude": "-90.0739813528803",
    "latitude": "29.966812899505744",
    "geocoded_column": {
      "latitude": "29.966812899505744",
      "longitude": "-90.0739813528803"
    }
  },
  {
    "service_request": "2024-1139883",
    "request_type": "Trash/Recycling",
    "request_reason": "MIssed Recycling Pick-Up",
    "date_created": "2024-10-09T17:17:19.000",
    "date_modified": "2024-10-09T17:17:20.000",
    "request_status": "Pending",
    "responsible_agency": "Department of Sanitation",
    "final_address": "0 BLK Fontainebleau Dr",
    "address_councildis": "A",
    "status": "Assigned to Contractor",
    "contractor": "IV Waste",
    "rowid": "1139883",
    "final_x": "3666860.82536",
    "final_y": "530786.642283",
    "longitude": "-90.11432037043113",
    "latitude": "29.953915550080968",
    "geocoded_column": {
      "latitude": "29.953915550080968",
      "longitude": "-90.11432037043113"
    }
  },
  {
    "service_request": "2024-1139882",
    "request_type": "Roads and Streets",
    "request_reason": "Sidewalk Damaged or Missing",
    "date_created": "2024-10-09T17:16:53.000",
    "date_modified": "2024-10-09T17:16:53.000",
    "request_status": "Pending",
    "responsible_agency": "Department of Public Works",
    "final_address": "PASTEUR BLVD & PRENTISS AVE",
    "address_councildis": "D",
    "status": "Pending",
    "rowid": "1139882",
    "final_x": "3682866.6",
    "final_y": "553714.38",
    "longitude": "-90.06297812202158",
    "latitude": "30.0164808419012",
    "geocoded_column": {
      "latitude": "30.0164808419012",
      "longitude": "-90.06297812202158"
    }
  },
  {
    "service_request": "2024-1139881",
    "request_type": "Drainage",
    "request_reason": "Catch Basin Clogged",
    "date_created": "2024-10-09T17:11:10.000",
    "date_modified": "2024-10-09T17:11:10.000",
    "request_status": "Pending",
    "responsible_agency": "Department of Public Works",
    "final_address": "PRENTISS AVE & WILTON DR",
    "address_councildis": "D",
    "status": "Pending",
    "rowid": "1139881",
    "final_x": "3681815.8",
    "final_y": "553698.28",
    "longitude": "-90.06629875880328",
    "latitude": "30.016468563822684",
    "geocoded_column": {
      "latitude": "30.016468563822684",
      "longitude": "-90.06629875880328"
    }
  },
  {
    "service_request": "2024-1139880",
    "request_type": "Streetlights",
    "request_reason": "Streetlight Outage/Malfunction",
    "date_created": "2024-10-09T17:10:30.000",
    "date_modified": "2024-10-09T17:10:32.000",
    "request_status": "Pending",
    "responsible_agency": "Department of Public Works",
    "final_address": "4657 Corinne St",
    "address_councildis": "E",
    "status": "Pending",
    "contractor": "Legacy Professional Services",
    "rowid": "1139880",
    "final_x": "3715147.7909",
    "final_y": "556489.26025",
    "longitude": "-89.96087955104767",
    "latitude": "30.023087095041852",
    "geocoded_column": {
      "latitude": "30.023087095041852",
      "longitude": "-89.96087955104767"
    }
  },
  {
    "service_request": "2024-1139879",
    "request_type": "Roads and Streets",
    "request_reason": "Curb Damage",
    "date_created": "2024-10-09T17:08:20.000",
    "date_modified": "2024-10-09T17:08:20.000",
    "request_status": "Pending",
    "responsible_agency": "Department of Public Works",
    "final_address": "PRENTISS AVE & WILTON DR",
    "address_councildis": "D",
    "status": "Pending",
    "rowid": "1139879",
    "final_x": "3681815.8",
    "final_y": "553698.28",
    "longitude": "-90.06629875880328",
    "latitude": "30.016468563822684",
    "geocoded_column": {
      "latitude": "30.016468563822684",
      "longitude": "-90.06629875880328"
    }
  },
  {
    "service_request": "2024-1139878",
    "request_type": "Trash/Recycling",
    "request_reason": "Return Trash Cart",
    "date_created": "2024-10-09T17:07:03.000",
    "date_modified": "2024-10-09T17:07:04.000",
    "request_status": "Pending",
    "responsible_agency": "Department of Sanitation",
    "final_address": "5023 Annunciation St",
    "address_councildis": "B",
    "status": "Assigned to Contractor",
    "contractor": "IV Waste",
    "rowid": "1139878",
    "final_x": "3668414.30663",
    "final_y": "517589.14623",
    "longitude": "-90.10986005467784",
    "latitude": "29.917581136881925",
    "geocoded_column": {
      "latitude": "29.917581136881925",
      "longitude": "-90.10986005467784"
    }
  },
  {
    "service_request": "2024-1139877",
    "request_type": "Taxi Issues",
    "request_reason": "Taxi Lost & Found Item",
    "date_created": "2024-10-09T17:01:05.000",
    "date_modified": "2024-10-09T17:01:07.000",
    "request_status": "Pending",
    "responsible_agency": "Ground Transportation Bureau",
    "final_address": "GENERAL DE GAULLE DR & WALL BLVD",
    "address_councildis": "C",
    "status": "Pending",
    "rowid": "1139877",
    "final_x": "3693212.3",
    "final_y": "522273.58",
    "longitude": "-90.03141899032218",
    "latitude": "29.929710399092777",
    "geocoded_column": {
      "latitude": "29.929710399092777",
      "longitude": "-90.03141899032218"
    }
  },
  {
    "service_request": "2024-1139876",
    "request_type": "General Services",
    "request_reason": "General Service Request",
    "date_created": "2024-10-09T17:00:56.000",
    "date_modified": "2024-10-09T17:00:56.000",
    "request_status": "Pending",
    "responsible_agency": "Orleans Parish Communication District",
    "final_address": "5427 Charlotte Dr",
    "address_councildis": "D",
    "status": "Pending",
    "rowid": "1139876",
    "final_x": "3680150.05538",
    "final_y": "552543.928598",
    "longitude": "-90.07160195600596",
    "latitude": "30.013345056758563",
    "geocoded_column": {
      "latitude": "30.013345056758563",
      "longitude": "-90.07160195600596"
    }
  },
  {
    "service_request": "2024-1139875",
    "request_type": "Roads and Streets",
    "request_reason": "Sidewalk Damaged or Missing",
    "date_created": "2024-10-09T16:56:31.000",
    "date_modified": "2024-10-09T16:56:31.000",
    "request_status": "Pending",
    "responsible_agency": "Department of Public Works",
    "final_address": "5745 St Anthony Ave",
    "address_councildis": "D",
    "status": "Pending",
    "rowid": "1139875",
    "final_x": "3682182.7108",
    "final_y": "554323.225368",
    "longitude": "-90.06511762497173",
    "latitude": "30.018175774617603",
    "geocoded_column": {
      "latitude": "30.018175774617603",
      "longitude": "-90.06511762497173"
    }
  },
  {
    "service_request": "2024-1139874",
    "request_type": "Traffic Signals",
    "request_reason": "Traffic Signal Malfunctioning or Damaged",
    "date_created": "2024-10-09T16:54:29.000",
    "date_modified": "2024-10-09T16:54:29.000",
    "request_status": "Pending",
    "responsible_agency": "Department of Public Works",
    "final_address": "CANAL ST & DECATUR ST & MAGAZINE ST",
    "address_councildis": "C",
    "status": "Pending",
    "rowid": "1139874",
    "final_x": "3681822.3",
    "final_y": "530252.08",
    "longitude": "-90.06709685805245",
    "latitude": "29.95199954248446",
    "geocoded_column": {
      "latitude": "29.95199954248446",
      "longitude": "-90.06709685805245"
    }
  },
  {
    "service_request": "2024-1139873",
    "request_type": "Traffic Signals",
    "request_reason": "Traffic Signal Malfunctioning or Damaged",
    "date_created": "2024-10-09T16:53:41.000",
    "date_modified": "2024-10-09T16:53:41.000",
    "request_status": "Pending",
    "responsible_agency": "Department of Public Works",
    "final_address": "CANAL ST & CAMP ST & CHARTRES ST",
    "address_councildis": "B",
    "status": "Pending",
    "rowid": "1139873",
    "final_x": "3681440.9",
    "final_y": "530424.38",
    "longitude": "-90.06829513253405",
    "latitude": "29.9524848929036",
    "geocoded_column": {
      "latitude": "29.9524848929036",
      "longitude": "-90.06829513253405"
    }
  },
  {
    "service_request": "2024-1139872",
    "request_type": "Trash/Recycling",
    "request_reason": "Repair Trash Cart",
    "date_created": "2024-10-09T16:53:19.000",
    "date_modified": "2024-10-09T16:53:21.000",
    "request_status": "Pending",
    "responsible_agency": "Department of Sanitation",
    "final_address": "114 Oriole St",
    "address_councildis": "D",
    "status": "Assigned to Contractor",
    "contractor": "IV Waste",
    "rowid": "1139872",
    "final_x": "3675966.02133",
    "final_y": "556837.457562",
    "longitude": "-90.08467347926796",
    "latitude": "30.02527673084896",
    "geocoded_column": {
      "latitude": "30.02527673084896",
      "longitude": "-90.08467347926796"
    }
  },
  {
    "service_request": "2024-1139871",
    "request_type": "Roads and Streets",
    "request_reason": "Pothole",
    "date_created": "2024-10-09T16:52:05.000",
    "date_modified": "2024-10-09T16:52:05.000",
    "request_status": "Pending",
    "responsible_agency": "Department of Public Works",
    "final_address": "5737 St Anthony Ave",
    "address_councildis": "D",
    "status": "Pending",
    "rowid": "1139871",
    "final_x": "3682190.69717",
    "final_y": "554227.100248",
    "longitude": "-90.06509575268561",
    "latitude": "30.017911222598652",
    "geocoded_column": {
      "latitude": "30.017911222598652",
      "longitude": "-90.06509575268561"
    }
  },
  {
    "service_request": "2024-1139870",
    "request_type": "Traffic Signals",
    "request_reason": "Traffic Signal Malfunctioning or Damaged",
    "date_created": "2024-10-09T16:51:52.000",
    "date_modified": "2024-10-09T16:51:52.000",
    "request_status": "Pending",
    "responsible_agency": "Department of Public Works",
    "final_address": "CANAL ST & CARONDELET ST & BOURBON ST",
    "address_councildis": "B",
    "status": "Pending",
    "rowid": "1139870",
    "final_x": "3680877.4",
    "final_y": "530854.98",
    "longitude": "-90.07005941819982",
    "latitude": "29.95368599166088",
    "geocoded_column": {
      "latitude": "29.95368599166088",
      "longitude": "-90.07005941819982"
    }
  },
  {
    "service_request": "2024-1139869",
    "request_type": "Traffic Signals",
    "request_reason": "Traffic Signal Malfunctioning or Damaged",
    "date_created": "2024-10-09T16:51:22.000",
    "date_modified": "2024-10-09T16:51:22.000",
    "request_status": "Pending",
    "responsible_agency": "Department of Public Works",
    "final_address": "CANAL ST & DAUPHINE ST & BARONNE ST",
    "address_councildis": "B",
    "status": "Pending",
    "rowid": "1139869",
    "final_x": "3680578.5",
    "final_y": "531065.88",
    "longitude": "-90.07099588286549",
    "latitude": "29.954274953103273",
    "geocoded_column": {
      "latitude": "29.954274953103273",
      "longitude": "-90.07099588286549"
    }
  },
  {
    "service_request": "2024-1139868",
    "request_type": "Roads and Streets",
    "request_reason": "Street Subsidence (Sinking)",
    "date_created": "2024-10-09T16:50:16.000",
    "date_modified": "2024-10-09T16:50:16.000",
    "request_status": "Pending",
    "responsible_agency": "Department of Public Works",
    "final_address": "610 Pacific Ave",
    "address_councildis": "C",
    "status": "Pending",
    "rowid": "1139868",
    "final_x": "3688522.27862",
    "final_y": "529348.027649",
    "longitude": "-90.04597361078427",
    "latitude": "29.949308424136298",
    "geocoded_column": {
      "latitude": "29.949308424136298",
      "longitude": "-90.04597361078427"
    }
  },
  {
    "service_request": "2024-1139867",
    "request_type": "Traffic Signals",
    "request_reason": "Traffic Signal Malfunctioning or Damaged",
    "date_created": "2024-10-09T16:49:44.000",
    "date_modified": "2024-10-09T16:49:46.000",
    "request_status": "Pending",
    "responsible_agency": "Department of Public Works",
    "final_address": "CANAL ST & S RAMPART ST",
    "address_councildis": "B",
    "status": "Pending",
    "rowid": "1139867",
    "final_x": "3679972.7",
    "final_y": "531544.98",
    "longitude": "-90.07289211617753",
    "latitude": "29.955610653469453",
    "geocoded_column": {
      "latitude": "29.955610653469453",
      "longitude": "-90.07289211617753"
    }
  },
  {
    "service_request": "2024-1139866",
    "request_type": "Roads and Streets",
    "request_reason": "Road Shoulder Damage",
    "date_created": "2024-10-09T16:48:09.000",
    "date_modified": "2024-10-09T16:48:09.000",
    "request_status": "Pending",
    "responsible_agency": "Department of Public Works",
    "final_address": "5733 St Anthony Ave",
    "address_councildis": "D",
    "status": "Pending",
    "rowid": "1139866",
    "final_x": "3682194.69404",
    "final_y": "554182.029784",
    "longitude": "-90.06508470030492",
    "latitude": "30.01778717364291",
    "geocoded_column": {
      "latitude": "30.01778717364291",
      "longitude": "-90.06508470030492"
    }
  },
  {
    "service_request": "2024-1139865",
    "request_type": "Safety & Permits",
    "request_reason": "Licenses & Permits",
    "date_created": "2024-10-09T16:44:43.000",
    "date_modified": "2024-10-09T16:48:38.000",
    "request_status": "Pending",
    "responsible_agency": "Safety and Permits",
    "final_address": "219 Loyola Ave",
    "address_councildis": "B",
    "rowid": "1139865",
    "final_x": "3679187.08405",
    "final_y": "531134.900674",
    "longitude": "-90.07538702704547",
    "latitude": "29.95450681241384",
    "geocoded_column": {
      "latitude": "29.95450681241384",
      "longitude": "-90.07538702704547"
    }
  },
  {
    "service_request": "2024-1139864",
    "request_type": "Trash/Recycling",
    "request_reason": "MIssed Recycling Pick-Up",
    "date_created": "2024-10-09T16:44:11.000",
    "date_modified": "2024-10-09T16:44:12.000",
    "request_status": "Pending",
    "responsible_agency": "Department of Sanitation",
    "final_address": "6016 St Charles Ave",
    "address_councildis": "A",
    "status": "Assigned to Contractor",
    "contractor": "IV Waste",
    "rowid": "1139864",
    "final_x": "3665536.5257",
    "final_y": "522450.08089",
    "longitude": "-90.11878100278054",
    "latitude": "29.931031355859783",
    "geocoded_column": {
      "latitude": "29.931031355859783",
      "longitude": "-90.11878100278054"
    }
  },
  {
    "service_request": "2024-1139863",
    "request_type": "Roads and Streets",
    "request_reason": "Street Subsidence (Sinking)",
    "date_created": "2024-10-09T16:40:47.000",
    "date_modified": "2024-10-09T16:40:47.000",
    "request_status": "Pending",
    "responsible_agency": "Department of Public Works",
    "final_address": "WILTON DR & PRENTISS AVE",
    "address_councildis": "D",
    "status": "Pending",
    "rowid": "1139863",
    "final_x": "3681821.5",
    "final_y": "553643.98",
    "longitude": "-90.06628264639888",
    "latitude": "30.01631908529384",
    "geocoded_column": {
      "latitude": "30.01631908529384",
      "longitude": "-90.06628264639888"
    }
  },
  {
    "service_request": "2024-1139862",
    "request_type": "Trash/Recycling",
    "request_reason": "Missed Trash Pick-Up",
    "date_created": "2024-10-09T16:39:46.000",
    "date_modified": "2024-10-09T16:39:48.000",
    "request_status": "Pending",
    "responsible_agency": "Department of Sanitation",
    "final_address": "4544 Charlene Dr",
    "address_councildis": "E",
    "status": "Assigned to Contractor",
    "contractor": "Waste Pro",
    "rowid": "1139862",
    "final_x": "3707958.614",
    "final_y": "554392.943512",
    "longitude": "-89.9836735851185",
    "latitude": "30.017557849119274",
    "geocoded_column": {
      "latitude": "30.017557849119274",
      "longitude": "-89.9836735851185"
    }
  },
  {
    "service_request": "2024-1139861",
    "request_type": "Trash/Recycling",
    "request_reason": "Request a Large Item Pick Up",
    "date_created": "2024-10-09T16:39:28.000",
    "date_modified": "2024-10-09T16:39:29.000",
    "request_status": "Pending",
    "responsible_agency": "Department of Sanitation",
    "final_address": "4635 Hauck Dr",
    "address_councildis": "E",
    "status": "Assigned to Contractor",
    "contractor": "Waste Pro",
    "rowid": "1139861",
    "final_x": "3714687.17048",
    "final_y": "556175.217242",
    "longitude": "-89.96234686671603",
    "latitude": "30.02223876314898",
    "geocoded_column": {
      "latitude": "30.02223876314898",
      "longitude": "-89.96234686671603"
    }
  },
  {
    "service_request": "2024-1139860",
    "request_type": "Trash/Recycling",
    "request_reason": "Request a Large Item Pick Up",
    "date_created": "2024-10-09T16:38:11.000",
    "date_modified": "2024-10-09T16:38:12.000",
    "request_status": "Pending",
    "responsible_agency": "Department of Sanitation",
    "final_address": "1135 Touro St",
    "address_councildis": "C",
    "status": "Assigned to Contractor",
    "contractor": "IV Waste",
    "rowid": "1139860",
    "final_x": "3684238.38012",
    "final_y": "536531.825991",
    "longitude": "-90.05924754893599",
    "latitude": "29.969193052262412",
    "geocoded_column": {
      "latitude": "29.969193052262412",
      "longitude": "-90.05924754893599"
    }
  },
  {
    "service_request": "2024-1139859",
    "request_type": "Streetlights",
    "request_reason": "Streetlight Outage/Malfunction",
    "date_created": "2024-10-09T16:37:15.000",
    "date_modified": "2024-10-09T16:37:16.000",
    "request_status": "Pending",
    "responsible_agency": "Department of Public Works",
    "final_address": "700 BLK N Galvez St",
    "address_councildis": "D",
    "status": "Pending",
    "contractor": "Legacy Professional Services",
    "rowid": "1139859",
    "final_x": "3678506.73842",
    "final_y": "535877.930656",
    "longitude": "-90.07737113296444",
    "latitude": "29.9675690581848",
    "geocoded_column": {
      "latitude": "29.9675690581848",
      "longitude": "-90.07737113296444"
    }
  },
  {
    "service_request": "2024-1139858",
    "request_type": "Property Maintenance",
    "request_reason": "Property Maintenance",
    "date_created": "2024-10-09T16:37:05.000",
    "date_modified": "2024-10-09T16:37:05.000",
    "request_status": "Pending",
    "responsible_agency": "Department of Code Enforcement",
    "final_address": "3423 Pine St",
    "address_councildis": "B",
    "status": "Pending",
    "rowid": "1139858",
    "final_x": "3668515.00506",
    "final_y": "533276.04506",
    "longitude": "-90.10901314371935",
    "latitude": "29.960712095804144",
    "geocoded_column": {
      "latitude": "29.960712095804144",
      "longitude": "-90.10901314371935"
    }
  },
  {
    "service_request": "2024-1139857",
    "request_type": "Trash/Recycling",
    "request_reason": "MIssed Recycling Pick-Up",
    "date_created": "2024-10-09T16:35:23.000",
    "date_modified": "2024-10-09T16:35:24.000",
    "request_status": "Pending",
    "responsible_agency": "Department of Sanitation",
    "final_address": "4627 Hauck Dr",
    "address_councildis": "E",
    "status": "Assigned to Contractor",
    "contractor": "Waste Pro",
    "rowid": "1139857",
    "final_x": "3714693.3237",
    "final_y": "556115.843994",
    "longitude": "-89.96232966897041",
    "latitude": "30.02207530776079",
    "geocoded_column": {
      "latitude": "30.02207530776079",
      "longitude": "-89.96232966897041"
    }
  },
  {
    "service_request": "2024-1139856",
    "request_type": "Abandoned Vehicles",
    "request_reason": "Abandoned/Junk Vehicles",
    "date_created": "2024-10-09T16:33:10.000",
    "date_modified": "2024-10-09T16:34:56.000",
    "request_status": "Pending",
    "responsible_agency": "Department of Public Works",
    "final_address": "1532 S Carrollton Ave",
    "address_councildis": "A",
    "status": "Pending",
    "rowid": "1139856",
    "final_x": "3662805.6761",
    "final_y": "529325.776577",
    "longitude": "-90.12717348761372",
    "latitude": "29.95001664109332",
    "geocoded_column": {
      "latitude": "29.95001664109332",
      "longitude": "-90.12717348761372"
    }
  },
  {
    "service_request": "2024-1139855",
    "request_type": "Streetlights",
    "request_reason": "Streetlight Outage/Malfunction",
    "date_created": "2024-10-09T16:32:57.000",
    "date_modified": "2024-10-09T16:32:59.000",
    "request_status": "Pending",
    "responsible_agency": "Department of Public Works",
    "final_address": "2 Caddo Pl",
    "address_councildis": "E",
    "status": "Pending",
    "contractor": "Legacy Professional Services",
    "rowid": "1139855",
    "final_x": "3725823.42528",
    "final_y": "564237.865569",
    "longitude": "-89.92684686839588",
    "latitude": "30.0440366633928",
    "geocoded_column": {
      "latitude": "30.0440366633928",
      "longitude": "-89.92684686839588"
    }
  },
  {
    "service_request": "2024-1139854",
    "request_type": "Trash/Recycling",
    "request_reason": "Request a Large Item Pick Up",
    "date_created": "2024-10-09T16:28:59.000",
    "date_modified": "2024-10-09T16:29:00.000",
    "request_status": "Pending",
    "responsible_agency": "Department of Sanitation",
    "final_address": "2200 BLK Foucher St",
    "address_councildis": "B",
    "status": "Assigned to Contractor",
    "contractor": "IV Waste",
    "rowid": "1139854",
    "final_x": "3672737.3871",
    "final_y": "523466.682841",
    "longitude": "-90.09601414904836",
    "latitude": "29.933614845052347",
    "geocoded_column": {
      "latitude": "29.933614845052347",
      "longitude": "-90.09601414904836"
    }
  },
  {
    "service_request": "2024-1139853",
    "request_type": "Trash/Recycling",
    "request_reason": "Missed Trash Pick-Up",
    "date_created": "2024-10-09T16:28:36.000",
    "date_modified": "2024-10-09T16:28:37.000",
    "request_status": "Pending",
    "responsible_agency": "Department of Sanitation",
    "final_address": "7500 BLK Freret St",
    "address_councildis": "A",
    "status": "Assigned to Contractor",
    "contractor": "IV Waste",
    "rowid": "1139853",
    "final_x": "3662940.96345",
    "final_y": "526533.937862",
    "longitude": "-90.12683913798136",
    "latitude": "29.942336062603275",
    "geocoded_column": {
      "latitude": "29.942336062603275",
      "longitude": "-90.12683913798136"
    }
  },
  {
    "service_request": "2024-1139852",
    "request_type": "Abandoned Vehicles",
    "request_reason": "Abandoned/Junk Vehicles",
    "date_created": "2024-10-09T16:28:34.000",
    "date_modified": "2024-10-09T16:28:34.000",
    "request_status": "Pending",
    "responsible_agency": "Department of Public Works",
    "final_address": "1315 Constantinople St",
    "address_councildis": "B",
    "status": "Pending",
    "rowid": "1139852",
    "final_x": "3672426.60827",
    "final_y": "520316.733368",
    "longitude": "-90.0971025504627",
    "latitude": "29.92496272171367",
    "geocoded_column": {
      "latitude": "29.92496272171367",
      "longitude": "-90.0971025504627"
    }
  },
  {
    "service_request": "2024-1139851",
    "request_type": "Trash/Recycling",
    "request_reason": "Missed Trash Pick-Up",
    "date_created": "2024-10-09T16:27:24.000",
    "date_modified": "2024-10-09T16:27:26.000",
    "request_status": "Pending",
    "responsible_agency": "Department of Sanitation",
    "final_address": "2414 Eagle St",
    "address_councildis": "A",
    "status": "Assigned to Contractor",
    "contractor": "IV Waste",
    "rowid": "1139851",
    "final_x": "3663130.06317",
    "final_y": "533391.027268",
    "longitude": "-90.12601399531557",
    "latitude": "29.961185369822353",
    "geocoded_column": {
      "latitude": "29.961185369822353",
      "longitude": "-90.12601399531557"
    }
  },
  {
    "service_request": "2024-1139850",
    "request_type": "Trash/Recycling",
    "request_reason": "Missed Trash Pick-Up",
    "date_created": "2024-10-09T16:27:14.000",
    "date_modified": "2024-10-09T16:27:16.000",
    "request_status": "Pending",
    "responsible_agency": "Department of Sanitation",
    "final_address": "7526 Freret St",
    "address_councildis": "A",
    "status": "Assigned to Contractor",
    "contractor": "IV Waste",
    "rowid": "1139850",
    "final_x": "3662876.75085",
    "final_y": "526551.892286",
    "longitude": "-90.12704127572809",
    "latitude": "29.94238729048523",
    "geocoded_column": {
      "latitude": "29.94238729048523",
      "longitude": "-90.12704127572809"
    }
  },
  {
    "service_request": "2024-1139849",
    "request_type": "Trash/Recycling",
    "request_reason": "Request a Large Item Pick Up",
    "date_created": "2024-10-09T16:26:47.000",
    "date_modified": "2024-10-09T16:26:48.000",
    "request_status": "Pending",
    "responsible_agency": "Department of Sanitation",
    "final_address": "4845 Good Dr",
    "address_councildis": "E",
    "status": "Assigned to Contractor",
    "contractor": "Waste Pro",
    "rowid": "1139849",
    "final_x": "3714811.44312",
    "final_y": "557277.833179",
    "longitude": "-89.96191250158887",
    "latitude": "30.02526643100952",
    "geocoded_column": {
      "latitude": "30.02526643100952",
      "longitude": "-89.96191250158887"
    }
  },
  {
    "service_request": "2024-1139848",
    "request_type": "Parks & Parkways",
    "request_reason": "Request Tree Service (Right of Way/Public Property)",
    "date_created": "2024-10-09T16:26:13.000",
    "date_modified": "2024-10-09T16:26:15.000",
    "request_status": "Pending",
    "responsible_agency": "Department of Parks & Parkway",
    "final_address": "S NORMAN C FRANCIS PKWY & DHEMECOURT ST",
    "address_councildis": "B",
    "status": "Pending",
    "rowid": "1139848",
    "final_x": "3671940.5",
    "final_y": "535213.18",
    "longitude": "-90.09813013364315",
    "latitude": "29.965937484228466",
    "geocoded_column": {
      "latitude": "29.965937484228466",
      "longitude": "-90.09813013364315"
    }
  },
  {
    "service_request": "2024-1139847",
    "request_type": "Roads and Streets",
    "request_reason": "Sidewalk Damaged or Missing",
    "date_created": "2024-10-09T16:23:39.000",
    "date_modified": "2024-10-09T16:23:39.000",
    "request_status": "Pending",
    "responsible_agency": "Department of Public Works",
    "final_address": "9781 W Rockton Cir",
    "address_councildis": "E",
    "status": "Pending",
    "rowid": "1139847",
    "final_x": "3708225.08574",
    "final_y": "562794.716768",
    "longitude": "-89.98251869808557",
    "latitude": "30.040650792953492",
    "geocoded_column": {
      "latitude": "30.040650792953492",
      "longitude": "-89.98251869808557"
    }
  },
  {
    "service_request": "2024-1139846",
    "request_type": "Trash/Recycling",
    "request_reason": "Return Recycling Cart",
    "date_created": "2024-10-09T16:18:25.000",
    "date_modified": "2024-10-09T16:18:26.000",
    "request_status": "Pending",
    "responsible_agency": "Department of Sanitation",
    "final_address": "837 Sumner St",
    "address_councildis": "C",
    "status": "Pending",
    "rowid": "1139846",
    "final_x": "3691098.01859",
    "final_y": "528277.698368",
    "longitude": "-90.03787909302869",
    "latitude": "29.946285564329482",
    "geocoded_column": {
      "latitude": "29.946285564329482",
      "longitude": "-90.03787909302869"
    }
  },
  {
    "service_request": "2024-1139845",
    "request_type": "Streetlights",
    "request_reason": "Streetlight Outage/Malfunction",
    "date_created": "2024-10-09T16:16:28.000",
    "date_modified": "2024-10-09T16:16:29.000",
    "request_status": "Pending",
    "responsible_agency": "Department of Public Works",
    "final_address": "342 Millaudon St",
    "address_councildis": "A",
    "status": "Pending",
    "contractor": "Legacy Professional Services",
    "rowid": "1139845",
    "final_x": "3661661.53056",
    "final_y": "524436.618876",
    "longitude": "-90.13094809948917",
    "latitude": "29.93660608039793",
    "geocoded_column": {
      "latitude": "29.93660608039793",
      "longitude": "-90.13094809948917"
    }
  },
  {
    "service_request": "2024-1139844",
    "request_type": "Trash/Recycling",
    "request_reason": "Return Trash Cart",
    "date_created": "2024-10-09T16:16:22.000",
    "date_modified": "2024-10-09T16:16:23.000",
    "request_status": "Pending",
    "responsible_agency": "Department of Sanitation",
    "final_address": "837 Sumner St",
    "address_councildis": "C",
    "status": "Assigned to Contractor",
    "contractor": "Richards Disposal",
    "rowid": "1139844",
    "final_x": "3691098.01859",
    "final_y": "528277.698368",
    "longitude": "-90.03787909302869",
    "latitude": "29.946285564329482",
    "geocoded_column": {
      "latitude": "29.946285564329482",
      "longitude": "-90.03787909302869"
    }
  },
  {
    "service_request": "2024-1139843",
    "request_type": "Streetlights",
    "request_reason": "Streetlight Outage/Malfunction",
    "date_created": "2024-10-09T16:15:17.000",
    "date_modified": "2024-10-09T16:15:18.000",
    "request_status": "Pending",
    "responsible_agency": "Department of Public Works",
    "final_address": "407 Hillary St",
    "address_councildis": "A",
    "status": "Pending",
    "contractor": "Legacy Professional Services",
    "rowid": "1139843",
    "final_x": "3661476.80819",
    "final_y": "525112.565309",
    "longitude": "-90.13150889629783",
    "latitude": "29.938470048108243",
    "geocoded_column": {
      "latitude": "29.938470048108243",
      "longitude": "-90.13150889629783"
    }
  },
  {
    "service_request": "2024-1139842",
    "request_type": "Roads and Streets",
    "request_reason": "Pothole",
    "date_created": "2024-10-09T16:14:46.000",
    "date_modified": "2024-10-09T16:14:47.000",
    "request_status": "Pending",
    "responsible_agency": "Department of Public Works",
    "final_address": "1613 Dumaine St",
    "address_councildis": "C",
    "status": "Pending",
    "rowid": "1139842",
    "final_x": "3680434.39573",
    "final_y": "535057.851782",
    "longitude": "-90.07131207527497",
    "latitude": "29.96525588332092",
    "geocoded_column": {
      "latitude": "29.96525588332092",
      "longitude": "-90.07131207527497"
    }
  },
  {
    "service_request": "2024-1139841",
    "request_type": "Abandoned Vehicles",
    "request_reason": "Abandoned/Junk Vehicles",
    "date_created": "2024-10-09T16:12:01.000",
    "date_modified": "2024-10-09T16:12:02.000",
    "request_status": "Pending",
    "responsible_agency": "Department of Public Works",
    "final_address": "2246 Baronne St",
    "address_councildis": "B",
    "status": "Pending",
    "rowid": "1139841",
    "final_x": "3676731.86504",
    "final_y": "524203.110076",
    "longitude": "-90.08337842055542",
    "latitude": "29.935520570776468",
    "geocoded_column": {
      "latitude": "29.935520570776468",
      "longitude": "-90.08337842055542"
    }
  },
  {
    "service_request": "2024-1139840",
    "request_type": "Trash/Recycling",
    "request_reason": "Request a Large Item Pick Up",
    "date_created": "2024-10-09T16:10:55.000",
    "date_modified": "2024-10-09T16:10:56.000",
    "request_status": "Pending",
    "responsible_agency": "Department of Sanitation",
    "final_address": "5420 Grand Bayou Dr",
    "address_councildis": "E",
    "status": "Assigned to Contractor",
    "contractor": "Waste Pro",
    "rowid": "1139840",
    "final_x": "3725934.59264",
    "final_y": "563898.391201",
    "longitude": "-89.92650870797054",
    "latitude": "30.043099497456936",
    "geocoded_column": {
      "latitude": "30.043099497456936",
      "longitude": "-89.92650870797054"
    }
  },
  {
    "service_request": "2024-1139839",
    "request_type": "Trash/Recycling",
    "request_reason": "Illegal Dumping",
    "date_created": "2024-10-09T16:06:00.000",
    "date_modified": "2024-10-09T16:06:02.000",
    "request_status": "Pending",
    "responsible_agency": "Department of Sanitation",
    "final_address": "CHARTRES ST & ESPLANADE AVE",
    "address_councildis": "C",
    "status": "Pending",
    "rowid": "1139839",
    "final_x": "3684349.8",
    "final_y": "534220.38",
    "longitude": "-90.05897686171656",
    "latitude": "29.962833967487725",
    "geocoded_column": {
      "latitude": "29.962833967487725",
      "longitude": "-90.05897686171656"
    }
  },
  {
    "service_request": "2024-1139838",
    "request_type": "Streetlights",
    "request_reason": "Streetlight Outage/Malfunction",
    "date_created": "2024-10-09T16:04:10.000",
    "date_modified": "2024-10-09T16:04:11.000",
    "request_status": "Pending",
    "responsible_agency": "Department of Public Works",
    "final_address": "7617 Dominican St",
    "address_councildis": "A",
    "status": "Pending",
    "contractor": "Legacy Professional Services",
    "rowid": "1139838",
    "final_x": "3661293.55437",
    "final_y": "525238.644861",
    "longitude": "-90.13208327728184",
    "latitude": "29.93882201080379",
    "geocoded_column": {
      "latitude": "29.93882201080379",
      "longitude": "-90.13208327728184"
    }
  },
  {
    "service_request": "2024-1139837",
    "request_type": "Drainage",
    "request_reason": "Catch Basin Clogged",
    "date_created": "2024-10-09T15:56:59.000",
    "date_modified": "2024-10-09T15:56:59.000",
    "request_status": "Pending",
    "responsible_agency": "Department of Public Works",
    "final_address": "7003 St Charles Ave",
    "address_councildis": "A",
    "status": "Pending",
    "rowid": "1139837",
    "final_x": "3663449.21357",
    "final_y": "524441.038972",
    "longitude": "-90.12530413507456",
    "latitude": "29.93656653202403",
    "geocoded_column": {
      "latitude": "29.93656653202403",
      "longitude": "-90.12530413507456"
    }
  },
  {
    "service_request": "2024-1139836",
    "request_type": "Drainage",
    "request_reason": "Catch Basin Clogged",
    "date_created": "2024-10-09T15:55:48.000",
    "date_modified": "2024-10-09T15:55:48.000",
    "request_status": "Pending",
    "responsible_agency": "Department of Public Works",
    "final_address": "2 Audubon Pl",
    "address_councildis": "A",
    "status": "Pending",
    "rowid": "1139836",
    "final_x": "3663601.86541",
    "final_y": "524343.02982",
    "longitude": "-90.12482546813439",
    "latitude": "29.936292611833498",
    "geocoded_column": {
      "latitude": "29.936292611833498",
      "longitude": "-90.12482546813439"
    }
  },
  {
    "service_request": "2024-1139835",
    "request_type": "Roads and Streets",
    "request_reason": "Pothole",
    "date_created": "2024-10-09T15:55:39.000",
    "date_modified": "2024-10-09T15:55:42.000",
    "request_status": "Pending",
    "responsible_agency": "Department of Public Works",
    "final_address": "2813 St Thomas St",
    "address_councildis": "B",
    "status": "Pending",
    "rowid": "1139835",
    "final_x": "3677898.03432",
    "final_y": "519308.893367",
    "longitude": "-90.07986583709817",
    "latitude": "29.92202804011219",
    "geocoded_column": {
      "latitude": "29.92202804011219",
      "longitude": "-90.07986583709817"
    }
  },
  {
    "service_request": "2024-1139834",
    "request_type": "Drainage",
    "request_reason": "Catch Basin Clogged",
    "date_created": "2024-10-09T15:53:18.000",
    "date_modified": "2024-10-09T15:53:18.000",
    "request_status": "Pending",
    "responsible_agency": "Department of Public Works",
    "final_address": "2 Audubon Pl",
    "address_councildis": "A",
    "status": "Pending",
    "rowid": "1139834",
    "final_x": "3663601.86541",
    "final_y": "524343.02982",
    "longitude": "-90.12482546813439",
    "latitude": "29.936292611833498",
    "geocoded_column": {
      "latitude": "29.936292611833498",
      "longitude": "-90.12482546813439"
    }
  },
  {
    "service_request": "2024-1139833",
    "request_type": "Trash/Recycling",
    "request_reason": "Request a Large Item Pick Up",
    "date_created": "2024-10-09T15:50:23.000",
    "date_modified": "2024-10-09T15:50:25.000",
    "request_status": "Pending",
    "responsible_agency": "Department of Sanitation",
    "final_address": "7800 Henley St",
    "address_councildis": "E",
    "status": "Assigned to Contractor",
    "contractor": "Waste Pro",
    "rowid": "1139833",
    "final_x": "3696638.17981",
    "final_y": "559688.304413",
    "longitude": "-90.0192496121383",
    "latitude": "30.032479855185617",
    "geocoded_column": {
      "latitude": "30.032479855185617",
      "longitude": "-90.0192496121383"
    }
  },
  {
    "service_request": "2024-1139832",
    "request_type": "Trash/Recycling",
    "request_reason": "Request a Large Item Pick Up",
    "date_created": "2024-10-09T15:49:29.000",
    "date_modified": "2024-10-09T15:49:30.000",
    "request_status": "Pending",
    "responsible_agency": "Department of Sanitation",
    "final_address": "7810 Henley St",
    "address_councildis": "E",
    "status": "Assigned to Contractor",
    "contractor": "Waste Pro",
    "rowid": "1139832",
    "final_x": "3696631.02474",
    "final_y": "559748.629149",
    "longitude": "-90.01927003641998",
    "latitude": "30.03264595066534",
    "geocoded_column": {
      "latitude": "30.03264595066534",
      "longitude": "-90.01927003641998"
    }
  },
  {
    "service_request": "2024-1139831",
    "request_type": "Trash/Recycling",
    "request_reason": "Request a Large Item Pick Up",
    "date_created": "2024-10-09T15:49:10.000",
    "date_modified": "2024-10-09T15:49:11.000",
    "request_status": "Pending",
    "responsible_agency": "Department of Sanitation",
    "final_address": "9102 Morrison Rd",
    "address_councildis": "E",
    "status": "Assigned to Contractor",
    "contractor": "Waste Pro",
    "rowid": "1139831",
    "final_x": "3706231.57387",
    "final_y": "562027.740127",
    "longitude": "-89.9888472544199",
    "latitude": "30.03860637939348",
    "geocoded_column": {
      "latitude": "30.03860637939348",
      "longitude": "-89.9888472544199"
    }
  },
  {
    "service_request": "2024-1139830",
    "request_type": "Trash/Recycling",
    "request_reason": "Illegal Dumping",
    "date_created": "2024-10-09T15:47:22.000",
    "date_modified": "2024-10-09T15:47:23.000",
    "request_status": "Pending",
    "responsible_agency": "Department of Sanitation",
    "final_address": "HAMMOND ST & DODT AVE",
    "address_councildis": "E",
    "status": "Pending",
    "rowid": "1139830",
    "final_x": "3705396.3",
    "final_y": "555681.68",
    "longitude": "-89.99172174262924",
    "latitude": "30.021184114580223",
    "geocoded_column": {
      "latitude": "30.021184114580223",
      "longitude": "-89.99172174262924"
    }
  },
  {
    "service_request": "2024-1139829",
    "request_type": "Trash/Recycling",
    "request_reason": "Request a Large Item Pick Up",
    "date_created": "2024-10-09T15:45:03.000",
    "date_modified": "2024-10-09T15:45:04.000",
    "request_status": "Pending",
    "responsible_agency": "Department of Sanitation",
    "final_address": "4848 Dodt Ave",
    "address_councildis": "E",
    "status": "Assigned to Contractor",
    "contractor": "Waste Pro",
    "rowid": "1139829",
    "final_x": "3705282.76471",
    "final_y": "556063.886682",
    "longitude": "-89.99206634306535",
    "latitude": "30.02223868979049",
    "geocoded_column": {
      "latitude": "30.02223868979049",
      "longitude": "-89.99206634306535"
    }
  },
  {
    "service_request": "2024-1139828",
    "request_type": "Trash/Recycling",
    "request_reason": "Request a Large Item Pick Up",
    "date_created": "2024-10-09T15:43:10.000",
    "date_modified": "2024-10-09T15:43:59.000",
    "request_status": "Pending",
    "responsible_agency": "Department of Sanitation",
    "final_address": "7220 Spruce St",
    "address_councildis": "A",
    "status": "Assigned to Contractor",
    "contractor": "IV Waste",
    "rowid": "1139828",
    "final_x": "3665592.58202",
    "final_y": "528916.824448",
    "longitude": "-90.11838758105323",
    "latitude": "29.948811196188355",
    "geocoded_column": {
      "latitude": "29.948811196188355",
      "longitude": "-90.11838758105323"
    }
  },
  {
    "service_request": "2024-1139827",
    "request_type": "Streetlights",
    "request_reason": "Streetlight Outage/Malfunction",
    "date_created": "2024-10-09T15:42:56.000",
    "date_modified": "2024-10-09T15:42:58.000",
    "request_status": "Pending",
    "responsible_agency": "Department of Public Works",
    "final_address": "3415 Camphor St",
    "address_councildis": "A",
    "status": "Pending",
    "contractor": "Legacy Professional Services",
    "rowid": "1139827",
    "final_x": "3663630.31187",
    "final_y": "537783.682888",
    "longitude": "-90.12428792892919",
    "latitude": "29.973249224882725",
    "geocoded_column": {
      "latitude": "29.973249224882725",
      "longitude": "-90.12428792892919"
    }
  },
  {
    "service_request": "2024-1139826",
    "request_type": "Trash/Recycling",
    "request_reason": "Request a Large Item Pick Up",
    "date_created": "2024-10-09T15:41:02.000",
    "date_modified": "2024-10-09T15:41:03.000",
    "request_status": "Pending",
    "responsible_agency": "Department of Sanitation",
    "final_address": "8008 Brevard Ave",
    "address_councildis": "E",
    "status": "Assigned to Contractor",
    "contractor": "Waste Pro",
    "rowid": "1139826",
    "final_x": "3705721.62129",
    "final_y": "564523.608993",
    "longitude": "-89.99036638420274",
    "latitude": "30.045485472343625",
    "geocoded_column": {
      "latitude": "30.045485472343625",
      "longitude": "-89.99036638420274"
    }
  },
  {
    "service_request": "2024-1139825",
    "request_type": "Trash/Recycling",
    "request_reason": "Request a Large Item Pick Up",
    "date_created": "2024-10-09T15:33:16.000",
    "date_modified": "2024-10-09T15:33:17.000",
    "request_status": "Pending",
    "responsible_agency": "Department of Sanitation",
    "final_address": "8419 Beechwood Ct",
    "address_councildis": "E",
    "status": "Assigned to Contractor",
    "contractor": "Waste Pro",
    "rowid": "1139825",
    "final_x": "3704155.51671",
    "final_y": "560668.513054",
    "longitude": "-89.99545826237454",
    "latitude": "30.03493585494704",
    "geocoded_column": {
      "latitude": "30.03493585494704",
      "longitude": "-89.99545826237454"
    }
  },
  {
    "service_request": "2024-1139824",
    "request_type": "Property Maintenance",
    "request_reason": "Property Maintenance",
    "date_created": "2024-10-09T15:32:20.000",
    "date_modified": "2024-10-09T15:32:21.000",
    "request_status": "Pending",
    "responsible_agency": "Department of Code Enforcement",
    "final_address": "1815 St Anthony St",
    "address_councildis": "D",
    "status": "Pending",
    "rowid": "1139824",
    "final_x": "3683332.52348",
    "final_y": "538908.234634",
    "longitude": "-90.06202504062699",
    "latitude": "29.97575501542317",
    "geocoded_column": {
      "latitude": "29.97575501542317",
      "longitude": "-90.06202504062699"
    }
  },
  {
    "service_request": "2024-1139823",
    "request_type": "Trash/Recycling",
    "request_reason": "Missed Trash Pick-Up",
    "date_created": "2024-10-09T15:31:03.000",
    "date_modified": "2024-10-09T17:11:16.000",
    "case_close_date": "2024-10-09T12:11:16.000",
    "request_status": "Closed",
    "responsible_agency": "Department of Sanitation",
    "final_address": "4758 Knight Dr",
    "address_councildis": "E",
    "status": "Assigned to Contractor",
    "contractor": "Waste Pro",
    "contractor_action": "Completed",
    "rowid": "1139823",
    "final_x": "3708048.16721",
    "final_y": "555674.870041",
    "longitude": "-89.98334291484727",
    "latitude": "30.021079748697414",
    "geocoded_column": {
      "latitude": "30.021079748697414",
      "longitude": "-89.98334291484727"
    }
  },
  {
    "service_request": "2024-1139822",
    "request_type": "Drainage",
    "request_reason": "Drainage Manhole Cover Missing or Damaged",
    "date_created": "2024-10-09T15:26:19.000",
    "date_modified": "2024-10-09T15:26:19.000",
    "request_status": "Pending",
    "responsible_agency": "Department of Public Works",
    "final_address": "4127 Clara St",
    "address_councildis": "B",
    "status": "Pending",
    "rowid": "1139822",
    "final_x": "3671361.41972",
    "final_y": "525216.677821",
    "longitude": "-90.10029856578707",
    "latitude": "29.93846754869464",
    "geocoded_column": {
      "latitude": "29.93846754869464",
      "longitude": "-90.10029856578707"
    }
  },
  {
    "service_request": "2024-1139821",
    "request_type": "Property Maintenance",
    "request_reason": "Property Maintenance",
    "date_created": "2024-10-09T15:25:17.000",
    "date_modified": "2024-10-09T15:25:17.000",
    "request_status": "Pending",
    "responsible_agency": "Department of Code Enforcement",
    "final_address": "1212 S Genois St",
    "address_councildis": "B",
    "status": "Pending",
    "rowid": "1139821",
    "final_x": "3669428.87354",
    "final_y": "532677.096452",
    "longitude": "-90.10614757322053",
    "latitude": "29.959038304257668",
    "geocoded_column": {
      "latitude": "29.959038304257668",
      "longitude": "-90.10614757322053"
    }
  },
  {
    "service_request": "2024-1139820",
    "request_type": "Streetlights",
    "request_reason": "Streetlight Outage/Malfunction",
    "date_created": "2024-10-09T15:25:16.000",
    "date_modified": "2024-10-09T15:25:17.000",
    "request_status": "Pending",
    "responsible_agency": "Department of Public Works",
    "final_address": "4741 Deanne St",
    "address_councildis": "D",
    "status": "Pending",
    "contractor": "Legacy Professional Services",
    "rowid": "1139820",
    "final_x": "3696433.90851",
    "final_y": "554186.367896",
    "longitude": "-90.02009438741277",
    "latitude": "30.017358062907736",
    "geocoded_column": {
      "latitude": "30.017358062907736",
      "longitude": "-90.02009438741277"
    }
  },
  {
    "service_request": "2024-1139819",
    "request_type": "Trash/Recycling",
    "request_reason": "Request a Large Item Pick Up",
    "date_created": "2024-10-09T15:23:45.000",
    "date_modified": "2024-10-09T15:23:46.000",
    "request_status": "Pending",
    "responsible_agency": "Department of Sanitation",
    "final_address": "2458 Benefit St",
    "address_councildis": "D",
    "status": "Assigned to Contractor",
    "contractor": "IV Waste",
    "rowid": "1139819",
    "final_x": "3686407.86998",
    "final_y": "544526.387855",
    "longitude": "-90.0521138527654",
    "latitude": "29.991108767501682",
    "geocoded_column": {
      "latitude": "29.991108767501682",
      "longitude": "-90.0521138527654"
    }
  },
  {
    "service_request": "2024-1139818",
    "request_type": "Parks & Parkways",
    "request_reason": "Request Tree Service (Right of Way/Public Property)",
    "date_created": "2024-10-09T15:22:52.000",
    "date_modified": "2024-10-09T15:22:53.000",
    "request_status": "Pending",
    "responsible_agency": "Department of Parks & Parkway",
    "final_address": "7331 Crestmont Rd",
    "address_councildis": "E",
    "status": "Pending",
    "rowid": "1139818",
    "final_x": "3700042.73008",
    "final_y": "559521.932189",
    "longitude": "-90.0084971173461",
    "latitude": "30.03191459900152",
    "geocoded_column": {
      "latitude": "30.03191459900152",
      "longitude": "-90.0084971173461"
    }
  },
  {
    "service_request": "2024-1139817",
    "request_type": "Trash/Recycling",
    "request_reason": "Request a Large Item Pick Up",
    "date_created": "2024-10-09T15:22:36.000",
    "date_modified": "2024-10-09T15:22:37.000",
    "request_status": "Pending",
    "responsible_agency": "Department of Sanitation",
    "final_address": "5720 Eastover Dr",
    "address_councildis": "E",
    "status": "Assigned to Contractor",
    "contractor": "Waste Pro",
    "rowid": "1139817",
    "final_x": "3719393.2261",
    "final_y": "562953.037088",
    "longitude": "-89.9472180135412",
    "latitude": "30.040719366353496",
    "geocoded_column": {
      "latitude": "30.040719366353496",
      "longitude": "-89.9472180135412"
    }
  },
  {
    "service_request": "2024-1139816",
    "request_type": "Trash/Recycling",
    "request_reason": "Request a Large Item Pick Up",
    "date_created": "2024-10-09T15:22:25.000",
    "date_modified": "2024-10-09T15:22:27.000",
    "request_status": "Pending",
    "responsible_agency": "Department of Sanitation",
    "final_address": "6008 Craigie Rd",
    "address_councildis": "E",
    "status": "Assigned to Contractor",
    "contractor": "Waste Pro",
    "rowid": "1139816",
    "final_x": "3695299.29181",
    "final_y": "558535.760412",
    "longitude": "-90.02352221429607",
    "latitude": "30.029352951523247",
    "geocoded_column": {
      "latitude": "30.029352951523247",
      "longitude": "-90.02352221429607"
    }
  },
  {
    "service_request": "2024-1139815",
    "request_type": "Safety & Permits",
    "request_reason": "Zoning Enforcement",
    "date_created": "2024-10-09T15:20:58.000",
    "date_modified": "2024-10-09T15:20:58.000",
    "request_status": "Pending",
    "responsible_agency": "Safety and Permits",
    "final_address": "2400 BLK Saint Anthony St",
    "address_councildis": "D",
    "rowid": "1139815",
    "final_x": "3683115.06123",
    "final_y": "541155.843001",
    "longitude": "-90.06263312578456",
    "latitude": "29.981941785036994",
    "geocoded_column": {
      "latitude": "29.981941785036994",
      "longitude": "-90.06263312578456"
    }
  },
  {
    "service_request": "2024-1139814",
    "request_type": "Roads and Streets",
    "request_reason": "Pothole",
    "date_created": "2024-10-09T15:20:05.000",
    "date_modified": "2024-10-09T15:20:05.000",
    "request_status": "Pending",
    "responsible_agency": "Department of Public Works",
    "final_address": "4360 W Alba Rd",
    "address_councildis": "E",
    "status": "Pending",
    "rowid": "1139814",
    "final_x": "3761525.2399",
    "final_y": "573005.540457",
    "longitude": "-89.81364887676479",
    "latitude": "30.066890487967243",
    "geocoded_column": {
      "latitude": "30.066890487967243",
      "longitude": "-89.81364887676479"
    }
  },
  {
    "service_request": "2024-1139813",
    "request_type": "Trash/Recycling",
    "request_reason": "Return Recycling Cart",
    "date_created": "2024-10-09T15:17:33.000",
    "date_modified": "2024-10-09T15:17:34.000",
    "request_status": "Pending",
    "responsible_agency": "Department of Sanitation",
    "final_address": "222 Bermuda St",
    "address_councildis": "C",
    "status": "Pending",
    "rowid": "1139813",
    "final_x": "3686189.28252",
    "final_y": "530959.197314",
    "longitude": "-90.05328306967309",
    "latitude": "29.953810456675818",
    "geocoded_column": {
      "latitude": "29.953810456675818",
      "longitude": "-90.05328306967309"
    }
  },
  {
    "service_request": "2024-1139812",
    "request_type": "Trash/Recycling",
    "request_reason": "Illegal Dumping",
    "date_created": "2024-10-09T15:14:57.000",
    "date_modified": "2024-10-09T15:14:58.000",
    "request_status": "Pending",
    "responsible_agency": "Department of Sanitation",
    "final_address": "4716 Clio St",
    "address_councildis": "B",
    "status": "Pending",
    "rowid": "1139812",
    "final_x": "3669573.16852",
    "final_y": "532701.238724",
    "longitude": "-90.10569110736881",
    "latitude": "29.959100437438412",
    "geocoded_column": {
      "latitude": "29.959100437438412",
      "longitude": "-90.10569110736881"
    }
  },
  {
    "service_request": "2024-1139811",
    "request_type": "Trash/Recycling",
    "request_reason": "Request a Large Item Pick Up",
    "date_created": "2024-10-09T15:09:35.000",
    "date_modified": "2024-10-09T15:09:37.000",
    "request_status": "Pending",
    "responsible_agency": "Department of Sanitation",
    "final_address": "705 Felicity St",
    "address_councildis": "B",
    "status": "Assigned to Contractor",
    "contractor": "IV Waste",
    "rowid": "1139811",
    "final_x": "3681240.79669",
    "final_y": "521833.073018",
    "longitude": "-90.06922624086353",
    "latitude": "29.92886773519218",
    "geocoded_column": {
      "latitude": "29.92886773519218",
      "longitude": "-90.06922624086353"
    }
  },
  {
    "service_request": "2024-1139810",
    "request_type": "General Services",
    "request_reason": "General Service Request",
    "date_created": "2024-10-09T15:09:26.000",
    "date_modified": "2024-10-09T15:13:08.000",
    "case_close_date": "2024-10-09T10:13:08.000",
    "request_status": "Closed",
    "responsible_agency": "Orleans Parish Communication District",
    "final_address": "1532 S Carrollton Ave",
    "address_councildis": "A",
    "status": "Question Answered.",
    "rowid": "1139810",
    "final_x": "3662805.6761",
    "final_y": "529325.776577",
    "longitude": "-90.12717348761372",
    "latitude": "29.95001664109332",
    "geocoded_column": {
      "latitude": "29.95001664109332",
      "longitude": "-90.12717348761372"
    }
  },
  {
    "service_request": "2024-1139809",
    "request_type": "Streetlights",
    "request_reason": "Streetlight Outage/Malfunction",
    "date_created": "2024-10-09T15:09:05.000",
    "date_modified": "2024-10-09T15:09:06.000",
    "request_status": "Pending",
    "responsible_agency": "Department of Public Works",
    "final_address": "GENERAL OGDEN ST & FORSHEY ST",
    "address_councildis": "A",
    "status": "Pending",
    "contractor": "Legacy Professional Services",
    "rowid": "1139809",
    "final_x": "3664918.2",
    "final_y": "535818.18",
    "longitude": "-90.12028621657238",
    "latitude": "29.967807314423464",
    "geocoded_column": {
      "latitude": "29.967807314423464",
      "longitude": "-90.12028621657238"
    }
  },
  {
    "service_request": "2024-1139808",
    "request_type": "Trash/Recycling",
    "request_reason": "Order Second Trash Cart",
    "date_created": "2024-10-09T15:05:58.000",
    "date_modified": "2024-10-09T15:06:00.000",
    "request_status": "Pending",
    "responsible_agency": "Department of Sanitation",
    "final_address": "4649 Dodt Ave",
    "address_councildis": "E",
    "status": "Assigned to Contractor",
    "contractor": "Waste Pro",
    "rowid": "1139808",
    "final_x": "3705529.45457",
    "final_y": "554812.23196",
    "longitude": "-89.99133319003649",
    "latitude": "30.018789180856224",
    "geocoded_column": {
      "latitude": "30.018789180856224",
      "longitude": "-89.99133319003649"
    }
  },
  {
    "service_request": "2024-1139807",
    "request_type": "Trash/Recycling",
    "request_reason": "Repair Trash Cart",
    "date_created": "2024-10-09T15:05:43.000",
    "date_modified": "2024-10-09T15:05:44.000",
    "request_status": "Pending",
    "responsible_agency": "Department of Sanitation",
    "final_address": "4101 Hamilton St",
    "address_councildis": "A",
    "status": "Assigned to Contractor",
    "contractor": "IV Waste",
    "rowid": "1139807",
    "final_x": "3666340.03565",
    "final_y": "538360.345545",
    "longitude": "-90.11571068866927",
    "latitude": "29.974755958349256",
    "geocoded_column": {
      "latitude": "29.974755958349256",
      "longitude": "-90.11571068866927"
    }
  },
  {
    "service_request": "2024-1139806",
    "request_type": "Trash/Recycling",
    "request_reason": "Request a Large Item Pick Up",
    "date_created": "2024-10-09T15:05:05.000",
    "date_modified": "2024-10-09T15:05:06.000",
    "request_status": "Pending",
    "responsible_agency": "Department of Sanitation",
    "final_address": "4649 Dodt Ave",
    "address_councildis": "E",
    "status": "Assigned to Contractor",
    "contractor": "Waste Pro",
    "rowid": "1139806",
    "final_x": "3705529.45457",
    "final_y": "554812.23196",
    "longitude": "-89.99133319003649",
    "latitude": "30.018789180856224",
    "geocoded_column": {
      "latitude": "30.018789180856224",
      "longitude": "-89.99133319003649"
    }
  },
  {
    "service_request": "2024-1139805",
    "request_type": "Parks & Parkways",
    "request_reason": "Request Tree Service (Right of Way/Public Property)",
    "date_created": "2024-10-09T15:03:09.000",
    "date_modified": "2024-10-09T15:03:49.000",
    "request_status": "Pending",
    "responsible_agency": "Department of Parks & Parkway",
    "final_address": "4410 St Roch Ave",
    "address_councildis": "D",
    "status": "Pending",
    "rowid": "1139805",
    "final_x": "3685315.49084",
    "final_y": "549018.730963",
    "longitude": "-90.05540615723037",
    "latitude": "30.00349463813105",
    "geocoded_column": {
      "latitude": "30.00349463813105",
      "longitude": "-90.05540615723037"
    }
  },
  {
    "service_request": "2024-1139804",
    "request_type": "Trash/Recycling",
    "request_reason": "Repair Recycling Cart",
    "date_created": "2024-10-09T15:01:41.000",
    "date_modified": "2024-10-09T15:01:42.000",
    "request_status": "Pending",
    "responsible_agency": "Department of Sanitation",
    "final_address": "9 Bear Creek Dr",
    "address_councildis": "C",
    "status": "Pending",
    "rowid": "1139804",
    "final_x": "3718533.61612",
    "final_y": "515016.003187",
    "longitude": "-89.95176127661263",
    "latitude": "29.90893928891833",
    "geocoded_column": {
      "latitude": "29.90893928891833",
      "longitude": "-89.95176127661263"
    }
  },
  {
    "service_request": "2024-1139803",
    "request_type": "Trash/Recycling",
    "request_reason": "Replace Trash Cart",
    "date_created": "2024-10-09T15:00:07.000",
    "date_modified": "2024-10-09T15:00:09.000",
    "request_status": "Pending",
    "responsible_agency": "Department of Sanitation",
    "final_address": "5432 N Rampart St",
    "address_councildis": "E",
    "status": "Assigned to Contractor",
    "contractor": "Waste Pro",
    "rowid": "1139803",
    "final_x": "3697310.89047",
    "final_y": "533425.427204",
    "longitude": "-90.01807643914437",
    "latitude": "29.960245407096338",
    "geocoded_column": {
      "latitude": "29.960245407096338",
      "longitude": "-90.01807643914437"
    }
  },
  {
    "service_request": "2024-1139802",
    "request_type": "Health Related Request",
    "request_reason": "Homeless Encampment Complaint",
    "date_created": "2024-10-09T15:00:07.000",
    "date_modified": "2024-10-09T15:00:07.000",
    "request_status": "Pending",
    "responsible_agency": "Health Department",
    "final_address": "2200 BLK Dauphine St",
    "address_councildis": "C",
    "status": "Pending",
    "rowid": "1139802",
    "final_x": "3685319.86817",
    "final_y": "535245.11729",
    "longitude": "-90.05587743937357",
    "latitude": "29.965621939928646",
    "geocoded_column": {
      "latitude": "29.965621939928646",
      "longitude": "-90.05587743937357"
    }
  },
  {
    "service_request": "2024-1139801",
    "request_type": "Trash/Recycling",
    "request_reason": "Request a Large Item Pick Up",
    "date_created": "2024-10-09T14:59:17.000",
    "date_modified": "2024-10-09T14:59:19.000",
    "request_status": "Pending",
    "responsible_agency": "Department of Sanitation",
    "final_address": "5432 N Rampart St",
    "address_councildis": "E",
    "status": "Assigned to Contractor",
    "contractor": "Waste Pro",
    "rowid": "1139801",
    "final_x": "3697310.89047",
    "final_y": "533425.427204",
    "longitude": "-90.01807643914437",
    "latitude": "29.960245407096338",
    "geocoded_column": {
      "latitude": "29.960245407096338",
      "longitude": "-90.01807643914437"
    }
  },
  {
    "service_request": "2024-1139800",
    "request_type": "Trash/Recycling",
    "request_reason": "Missed Trash Pick-Up",
    "date_created": "2024-10-09T14:58:07.000",
    "date_modified": "2024-10-09T14:58:09.000",
    "request_status": "Pending",
    "responsible_agency": "Department of Sanitation",
    "final_address": "11340 Prentiss Ave",
    "address_councildis": "E",
    "status": "Assigned to Contractor",
    "contractor": "Waste Pro",
    "rowid": "1139800",
    "final_x": "3717340.5301",
    "final_y": "556702.824026",
    "longitude": "-89.95394293785624",
    "latitude": "30.023601911981327",
    "geocoded_column": {
      "latitude": "30.023601911981327",
      "longitude": "-89.95394293785624"
    }
  },
  {
    "service_request": "2024-1139799",
    "request_type": "Safety & Permits",
    "request_reason": "Licenses & Permits",
    "date_created": "2024-10-09T14:56:26.000",
    "date_modified": "2024-10-09T14:56:26.000",
    "request_status": "Pending",
    "responsible_agency": "Safety and Permits",
    "final_address": "1800 BLK Mazant St",
    "address_councildis": "D",
    "status": "Pending",
    "rowid": "1139799",
    "final_x": "3692806.58515",
    "final_y": "538043.486365",
    "longitude": "-90.03213443005974",
    "latitude": "29.973084835702306",
    "geocoded_column": {
      "latitude": "29.973084835702306",
      "longitude": "-90.03213443005974"
    }
  },
  {
    "service_request": "2024-1139798",
    "request_type": "Trash/Recycling",
    "request_reason": "Repair Trash Cart",
    "date_created": "2024-10-09T14:55:28.000",
    "date_modified": "2024-10-09T14:55:29.000",
    "request_status": "Pending",
    "responsible_agency": "Department of Sanitation",
    "final_address": "2319 Audubon St",
    "address_councildis": "A",
    "status": "Assigned to Contractor",
    "contractor": "IV Waste",
    "rowid": "1139798",
    "final_x": "3666739.07329",
    "final_y": "529725.014401",
    "longitude": "-90.11474046525576",
    "latitude": "29.950999980283417",
    "geocoded_column": {
      "latitude": "29.950999980283417",
      "longitude": "-90.11474046525576"
    }
  },
  {
    "service_request": "2024-1139797",
    "request_type": "Trash/Recycling",
    "request_reason": "Illegal Dumping",
    "date_created": "2024-10-09T14:54:53.000",
    "date_modified": "2024-10-09T14:54:53.000",
    "request_status": "Pending",
    "responsible_agency": "Department of Sanitation",
    "final_address": "2425 Law St",
    "address_councildis": "D",
    "status": "Pending",
    "rowid": "1139797",
    "final_x": "3685634.551",
    "final_y": "541966.329996",
    "longitude": "-90.05464682423352",
    "latitude": "29.984093271117256",
    "geocoded_column": {
      "latitude": "29.984093271117256",
      "longitude": "-90.05464682423352"
    }
  },
  {
    "service_request": "2024-1139796",
    "request_type": "Roads and Streets",
    "request_reason": "Street Subsidence (Sinking)",
    "date_created": "2024-10-09T14:53:44.000",
    "date_modified": "2024-10-09T14:53:44.000",
    "request_status": "Pending",
    "responsible_agency": "Department of Public Works",
    "final_address": "1829 Mazant St",
    "address_councildis": "D",
    "status": "Pending",
    "rowid": "1139796",
    "final_x": "3692857.48886",
    "final_y": "538032.407753",
    "longitude": "-90.03197406418634",
    "latitude": "29.973052783911058",
    "geocoded_column": {
      "latitude": "29.973052783911058",
      "longitude": "-90.03197406418634"
    }
  },
  {
    "service_request": "2024-1139795",
    "request_type": "Parks & Parkways",
    "request_reason": "Request Tree Service (Right of Way/Public Property)",
    "date_created": "2024-10-09T14:53:35.000",
    "date_modified": "2024-10-09T14:53:36.000",
    "request_status": "Pending",
    "responsible_agency": "Department of Code Enforcement",
    "final_address": "2622 Hyman Pl",
    "address_councildis": "C",
    "status": "Pending",
    "rowid": "1139795",
    "final_x": "3701112.89604",
    "final_y": "521426.111033",
    "longitude": "-90.0065093453901",
    "latitude": "29.927130958032315",
    "geocoded_column": {
      "latitude": "29.927130958032315",
      "longitude": "-90.0065093453901"
    }
  },
  {
    "service_request": "2024-1139794",
    "request_type": "Trash/Recycling",
    "request_reason": "Request a Large Item Pick Up",
    "date_created": "2024-10-09T14:53:35.000",
    "date_modified": "2024-10-09T14:53:36.000",
    "request_status": "Pending",
    "responsible_agency": "Department of Sanitation",
    "final_address": "6526 Lamb Rd",
    "address_councildis": "D",
    "status": "Assigned to Contractor",
    "contractor": "Waste Pro",
    "rowid": "1139794",
    "final_x": "3698122.73226",
    "final_y": "555553.224153",
    "longitude": "-90.01470871434871",
    "latitude": "30.021063070433634",
    "geocoded_column": {
      "latitude": "30.021063070433634",
      "longitude": "-90.01470871434871"
    }
  },
  {
    "service_request": "2024-1139793",
    "request_type": "Trash/Recycling",
    "request_reason": "Request a Large Item Pick Up",
    "date_created": "2024-10-09T14:53:19.000",
    "date_modified": "2024-10-09T14:53:20.000",
    "request_status": "Pending",
    "responsible_agency": "Department of Sanitation",
    "final_address": "2183 N Dorgenois St",
    "address_councildis": "D",
    "status": "Assigned to Contractor",
    "contractor": "IV Waste",
    "rowid": "1139793",
    "final_x": "3684359.1501",
    "final_y": "541477.51886",
    "longitude": "-90.05869240387678",
    "latitude": "29.9827882860526",
    "geocoded_column": {
      "latitude": "29.9827882860526",
      "longitude": "-90.05869240387678"
    }
  },
  {
    "service_request": "2024-1139792",
    "request_type": "Trash/Recycling",
    "request_reason": "Request a Large Item Pick Up",
    "date_created": "2024-10-09T14:53:01.000",
    "date_modified": "2024-10-09T14:53:03.000",
    "request_status": "Pending",
    "responsible_agency": "Department of Sanitation",
    "final_address": "2466 Behrman Hwy",
    "address_councildis": "C",
    "status": "Assigned to Contractor",
    "contractor": "Richards Disposal",
    "rowid": "1139792",
    "final_x": "3692317.47485",
    "final_y": "521249.710457",
    "longitude": "-90.0342804281834",
    "latitude": "29.92692302985558",
    "geocoded_column": {
      "latitude": "29.92692302985558",
      "longitude": "-90.0342804281834"
    }
  },
  {
    "service_request": "2024-1139791",
    "request_type": "Parks & Parkways",
    "request_reason": "Request Tree Service (Right of Way/Public Property)",
    "date_created": "2024-10-09T14:52:45.000",
    "date_modified": "2024-10-09T14:52:45.000",
    "request_status": "Pending",
    "responsible_agency": "Department of Parks & Parkway",
    "final_address": "Baudin Street & South Cortez Street",
    "address_councildis": "B",
    "status": "Pending",
    "rowid": "1139791",
    "final_x": "3671100.53441",
    "final_y": "536317.104071",
    "longitude": "-90.10074522560593",
    "latitude": "29.96899777616778",
    "geocoded_column": {
      "latitude": "29.96899777616778",
      "longitude": "-90.10074522560593"
    }
  },
  {
    "service_request": "2024-1139790",
    "request_type": "Roads and Streets",
    "request_reason": "Pothole",
    "date_created": "2024-10-09T14:49:15.000",
    "date_modified": "2024-10-09T14:49:15.000",
    "request_status": "Pending",
    "responsible_agency": "Department of Public Works",
    "final_address": "1800 BLK Mazant St",
    "address_councildis": "D",
    "status": "Pending",
    "rowid": "1139790",
    "final_x": "3692806.58515",
    "final_y": "538043.486365",
    "longitude": "-90.03213443005974",
    "latitude": "29.973084835702306",
    "geocoded_column": {
      "latitude": "29.973084835702306",
      "longitude": "-90.03213443005974"
    }
  },
  {
    "service_request": "2024-1139789",
    "request_type": "Trash/Recycling",
    "request_reason": "Request a Large Item Pick Up",
    "date_created": "2024-10-09T14:48:51.000",
    "date_modified": "2024-10-09T14:48:53.000",
    "request_status": "Pending",
    "responsible_agency": "Department of Sanitation",
    "final_address": "4744 St Roch Ave",
    "address_councildis": "D",
    "status": "Assigned to Contractor",
    "contractor": "IV Waste",
    "rowid": "1139789",
    "final_x": "3685251.60809",
    "final_y": "550527.93602",
    "longitude": "-90.0555548045671",
    "latitude": "30.007646363851013",
    "geocoded_column": {
      "latitude": "30.007646363851013",
      "longitude": "-90.0555548045671"
    }
  },
  {
    "service_request": "2024-1139788",
    "request_type": "Streetlights",
    "request_reason": "Streetlight Outage/Malfunction",
    "date_created": "2024-10-09T14:48:01.000",
    "date_modified": "2024-10-09T14:48:03.000",
    "request_status": "Pending",
    "responsible_agency": "Department of Public Works",
    "final_address": "5210 Constance St",
    "address_councildis": "B",
    "status": "Pending",
    "contractor": "Legacy Professional Services",
    "rowid": "1139788",
    "final_x": "3667927.11559",
    "final_y": "518194.958966",
    "longitude": "-90.11137745709435",
    "latitude": "29.919261226321453",
    "geocoded_column": {
      "latitude": "29.919261226321453",
      "longitude": "-90.11137745709435"
    }
  },
  {
    "service_request": "2024-1139787",
    "request_type": "Trash/Recycling",
    "request_reason": "Request a Large Item Pick Up",
    "date_created": "2024-10-09T14:45:17.000",
    "date_modified": "2024-10-09T14:45:28.000",
    "request_status": "Pending",
    "responsible_agency": "Department of Sanitation",
    "final_address": "3442 Magazine St",
    "address_councildis": "B",
    "status": "Assigned to Contractor",
    "rowid": "1139787",
    "final_x": "3674666.52052",
    "final_y": "519368.872695",
    "longitude": "-90.09006433279566",
    "latitude": "29.922289770771666",
    "geocoded_column": {
      "latitude": "29.922289770771666",
      "longitude": "-90.09006433279566"
    }
  },
  {
    "service_request": "2024-1139786",
    "request_type": "Safety & Permits",
    "request_reason": "Zoning Enforcement",
    "date_created": "2024-10-09T14:41:02.000",
    "date_modified": "2024-10-09T14:41:02.000",
    "request_status": "Pending",
    "responsible_agency": "Safety and Permits",
    "final_address": "451 Crystal St",
    "address_councildis": "D",
    "status": "Pending",
    "rowid": "1139786",
    "final_x": "3668099.48109",
    "final_y": "556301.409178",
    "longitude": "-90.10954873504271",
    "latitude": "30.024036153331114",
    "geocoded_column": {
      "latitude": "30.024036153331114",
      "longitude": "-90.10954873504271"
    }
  },
  {
    "service_request": "2024-1139785",
    "request_type": "Safety & Permits",
    "request_reason": "Zoning Enforcement",
    "date_created": "2024-10-09T14:39:51.000",
    "date_modified": "2024-10-09T14:39:51.000",
    "request_status": "Pending",
    "responsible_agency": "Safety and Permits",
    "final_address": "446 Crystal St",
    "address_councildis": "D",
    "rowid": "1139785",
    "final_x": "3668146.12513",
    "final_y": "556144.14569",
    "longitude": "-90.1094066561213",
    "latitude": "30.023602364892938",
    "geocoded_column": {
      "latitude": "30.023602364892938",
      "longitude": "-90.1094066561213"
    }
  },
  {
    "service_request": "2024-1139784",
    "request_type": "Trash/Recycling",
    "request_reason": "Request a Large Item Pick Up",
    "date_created": "2024-10-09T14:35:24.000",
    "date_modified": "2024-10-09T14:35:43.000",
    "request_status": "Pending",
    "responsible_agency": "Department of Sanitation",
    "final_address": "163 Roselyn Park Pl",
    "address_councildis": "C",
    "status": "Assigned to Contractor",
    "contractor": "Richards Disposal",
    "rowid": "1139784",
    "final_x": "3702596.23133",
    "final_y": "523688.773435",
    "longitude": "-90.00174386675904",
    "latitude": "29.933305180447853",
    "geocoded_column": {
      "latitude": "29.933305180447853",
      "longitude": "-90.00174386675904"
    }
  },
  {
    "service_request": "2024-1139783",
    "request_type": "Trash/Recycling",
    "request_reason": "Request a Large Item Pick Up",
    "date_created": "2024-10-09T14:24:45.000",
    "date_modified": "2024-10-09T14:24:46.000",
    "request_status": "Pending",
    "responsible_agency": "Department of Sanitation",
    "final_address": "400 BLK Delery St",
    "address_councildis": "E",
    "status": "Assigned to Contractor",
    "contractor": "Waste Pro",
    "rowid": "1139783",
    "final_x": "3699542.47063",
    "final_y": "530723.398315",
    "longitude": "-90.01112807870248",
    "latitude": "29.952745164728544",
    "geocoded_column": {
      "latitude": "29.952745164728544",
      "longitude": "-90.01112807870248"
    }
  },
  {
    "service_request": "2024-1139782",
    "request_type": "Trash/Recycling",
    "request_reason": "Request a Large Item Pick Up",
    "date_created": "2024-10-09T14:24:24.000",
    "date_modified": "2024-10-09T14:24:26.000",
    "request_status": "Pending",
    "responsible_agency": "Department of Sanitation",
    "final_address": "2666 Ramsey Dr",
    "address_councildis": "C",
    "status": "Assigned to Contractor",
    "contractor": "Richards Disposal",
    "rowid": "1139782",
    "final_x": "3703170.13028",
    "final_y": "520983.703801",
    "longitude": "-90.00003148517621",
    "latitude": "29.92584882956618",
    "geocoded_column": {
      "latitude": "29.92584882956618",
      "longitude": "-90.00003148517621"
    }
  },
  {
    "service_request": "2024-1139781",
    "request_type": "Trash/Recycling",
    "request_reason": "Request a Large Item Pick Up",
    "date_created": "2024-10-09T14:22:31.000",
    "date_modified": "2024-10-09T14:22:32.000",
    "request_status": "Pending",
    "responsible_agency": "Department of Sanitation",
    "final_address": "1724 Duels St",
    "address_councildis": "D",
    "status": "Assigned to Contractor",
    "contractor": "IV Waste",
    "rowid": "1139781",
    "final_x": "3680954.47234",
    "final_y": "542245.305933",
    "longitude": "-90.06941933599553",
    "latitude": "29.985003132520205",
    "geocoded_column": {
      "latitude": "29.985003132520205",
      "longitude": "-90.06941933599553"
    }
  },
  {
    "service_request": "2024-1139780",
    "request_type": "Trash/Recycling",
    "request_reason": "Request a Large Item Pick Up",
    "date_created": "2024-10-09T14:21:23.000",
    "date_modified": "2024-10-09T14:21:24.000",
    "request_status": "Pending",
    "responsible_agency": "Department of Sanitation",
    "final_address": "2910 Hudson St",
    "address_councildis": "C",
    "status": "Assigned to Contractor",
    "contractor": "Richards Disposal",
    "rowid": "1139780",
    "final_x": "3693910.87965",
    "final_y": "520437.200248",
    "longitude": "-90.02927968275317",
    "latitude": "29.92463913399825",
    "geocoded_column": {
      "latitude": "29.92463913399825",
      "longitude": "-90.02927968275317"
    }
  },
  {
    "service_request": "2024-1139779",
    "request_type": "Property Maintenance",
    "request_reason": "Property Maintenance",
    "date_created": "2024-10-09T14:21:21.000",
    "date_modified": "2024-10-09T14:22:39.000",
    "request_status": "Pending",
    "responsible_agency": "Department of Code Enforcement",
    "final_address": "2208 Ap Tureaud Ave",
    "address_councildis": "D",
    "status": "Pending",
    "rowid": "1139779",
    "final_x": "3681599.02216",
    "final_y": "540207.714507",
    "longitude": "-90.06745458031607",
    "latitude": "29.97938090375708",
    "geocoded_column": {
      "latitude": "29.97938090375708",
      "longitude": "-90.06745458031607"
    }
  },
  {
    "service_request": "2024-1139778",
    "request_type": "Trash/Recycling",
    "request_reason": "Request a Large Item Pick Up",
    "date_created": "2024-10-09T14:18:15.000",
    "date_modified": "2024-10-09T14:18:16.000",
    "request_status": "Pending",
    "responsible_agency": "Department of Sanitation",
    "final_address": "2120 S Lopez St",
    "address_councildis": "A",
    "status": "Assigned to Contractor",
    "contractor": "IV Waste",
    "rowid": "1139778",
    "final_x": "3669192.12026",
    "final_y": "529303.050881",
    "longitude": "-90.1070092113469",
    "latitude": "29.949767757349534",
    "geocoded_column": {
      "latitude": "29.949767757349534",
      "longitude": "-90.1070092113469"
    }
  },
  {
    "service_request": "2024-1139777",
    "request_type": "Roads and Streets",
    "request_reason": "Pothole",
    "date_created": "2024-10-09T14:17:08.000",
    "date_modified": "2024-10-09T14:17:08.000",
    "request_status": "Pending",
    "responsible_agency": "Department of Public Works",
    "final_address": "2627 Elder St",
    "address_councildis": "D",
    "status": "Pending",
    "rowid": "1139777",
    "final_x": "3687426.55996",
    "final_y": "545824.228496",
    "longitude": "-90.04885010036024",
    "latitude": "29.994646004273882",
    "geocoded_column": {
      "latitude": "29.994646004273882",
      "longitude": "-90.04885010036024"
    }
  },
  {
    "service_request": "2024-1139776",
    "request_type": "Trash/Recycling",
    "request_reason": "Request a Large Item Pick Up",
    "date_created": "2024-10-09T14:14:15.000",
    "date_modified": "2024-10-09T14:14:16.000",
    "request_status": "Pending",
    "responsible_agency": "Department of Sanitation",
    "final_address": "11241 N Parkwood Ct",
    "address_councildis": "E",
    "status": "Assigned to Contractor",
    "contractor": "Waste Pro",
    "rowid": "1139776",
    "final_x": "3716628.29893",
    "final_y": "559380.002077",
    "longitude": "-89.95609174005175",
    "latitude": "30.030986638158623",
    "geocoded_column": {
      "latitude": "30.030986638158623",
      "longitude": "-89.95609174005175"
    }
  },