[
  {
    "service_request": "2024-1070310",
    "request_type": "Traffic Signals/Signs/Striping/Streetlights",
    "request_reason": "Traffic Sign Missing/Damaged",
    "date_created": "2024-02-25T22:12:18.000",
    "date_modified": "2024-02-25T22:12:18.000",
    "request_status": "Pending",
    "responsible_agency": "Department of Public Works",
    "final_address": "DELARONDE ST & BOUNY ST",
    "address_councildis": "C",
    "status": "Pending",
    "rowid": "1070310",
    "final_x": "3685689.8",
    "final_y": "530342.48",
    "longitude": "-90.05488195292972",
    "latitude": "29.952130028029384",
    "geocoded_column": {
      "latitude": "29.952130028029384",
      "longitude": "-90.05488195292972"
    }
  },
  {
    "service_request": "2024-1070309",
    "request_type": "Health Related Request",
    "request_reason": "Noise Ordinance Complaint",
    "date_created": "2024-02-25T21:00:41.000",
    "date_modified": "2024-02-25T21:00:41.000",
    "request_status": "Pending",
    "responsible_agency": "Health Department",
    "final_address": "Canal, Louisiana",
    "status": "Pending",
    "rowid": "1070309",
    "longitude": "0.0",
    "latitude": "0.0",
    "geocoded_column": {
      "latitude": "0.0",
      "longitude": "0.0"
    }
  },
  {
    "service_request": "2024-1070306",
    "request_type": "Mosquito, Termite & Rodent Control",
    "request_reason": "Mosquito Complaint",
    "date_created": "2024-02-25T20:50:49.000",
    "date_modified": "2024-02-25T20:50:49.000",
    "request_status": "Pending",
    "responsible_agency": "Mosquito, Termite & Rodent Control Board",
    "final_address": "12900 BLK Michoud Blvd",
    "address_councildis": "E",
    "status": "Pending",
    "rowid": "1070306",
    "final_x": "3725153.28916",
    "final_y": "570749.833353",
    "longitude": "-89.92871247876184",
    "latitude": "30.061964446429403",
    "geocoded_column": {
      "latitude": "30.061964446429403",
      "longitude": "-89.92871247876184"
    }
  },
  {
    "service_request": "2024-1070305",
    "request_type": "Trash/Recycling",
    "request_reason": "Request a Large Item Pick Up",
    "date_created": "2024-02-25T20:49:07.000",
    "date_modified": "2024-02-25T20:49:08.000",
    "request_status": "Pending",
    "responsible_agency": "Department of Sanitation",
    "final_address": "N Peters St, New Orleans, Louisiana, 70130",
    "address_councildis": "C",
    "status": "Assigned to Contractor",
    "contractor": "Empire Services",
    "rowid": "1070305",
    "final_x": "3682365.96751",
    "final_y": "530365.441858",
    "longitude": "-90.06537625271132",
    "latitude": "29.95229471826645",
    "geocoded_column": {
      "latitude": "29.95229471826645",
      "longitude": "-90.06537625271132"
    }
  },
  {
    "service_request": "2024-1070304",
    "request_type": "Trash/Recycling",
    "request_reason": "Request a Large Item Pick Up",
    "date_created": "2024-02-25T20:44:17.000",
    "date_modified": "2024-02-25T20:44:17.000",
    "request_status": "Pending",
    "responsible_agency": "Department of Sanitation",
    "final_address": "3827 Iberville St",
    "address_councildis": "A",
    "status": "Assigned to Contractor",
    "contractor": "Richards Disposal",
    "rowid": "1070304",
    "final_x": "3672173.50881",
    "final_y": "538106.857289",
    "longitude": "-90.09729572237372",
    "latitude": "29.97388721298482",
    "geocoded_column": {
      "latitude": "29.97388721298482",
      "longitude": "-90.09729572237372"
    }
  },
  {
    "service_request": "2024-1070303",
    "request_type": "Roads/Drainage",
    "request_reason": "Pothole",
    "date_created": "2024-02-25T20:39:36.000",
    "date_modified": "2024-02-25T20:39:36.000",
    "request_status": "Pending",
    "responsible_agency": "Department of Public Works",
    "final_address": "6030 Chestnut St",
    "address_councildis": "A",
    "status": "Pending",
    "rowid": "1070303",
    "final_x": "3664661.37773",
    "final_y": "519852.51884",
    "longitude": "-90.1216304547064",
    "latitude": "29.923914355909606",
    "geocoded_column": {
      "latitude": "29.923914355909606",
      "longitude": "-90.1216304547064"
    }
  },
  {
    "service_request": "2024-1070302",
    "request_type": "Trash/Recycling",
    "request_reason": "Order Recycling Cart",
    "date_created": "2024-02-25T20:29:29.000",
    "date_modified": "2024-02-25T20:29:29.000",
    "request_status": "Pending",
    "responsible_agency": "Department of Sanitation",
    "final_address": "3503 S Saratoga St",
    "address_councildis": "B",
    "status": "Pending",
    "rowid": "1070302",
    "final_x": "3673066.19348",
    "final_y": "523053.328379",
    "longitude": "-90.0949902254402",
    "latitude": "29.932468487092542",
    "geocoded_column": {
      "latitude": "29.932468487092542",
      "longitude": "-90.0949902254402"
    }
  },
  {
    "service_request": "2024-1070301",
    "request_type": "Roads/Drainage",
    "request_reason": "Pothole",
    "date_created": "2024-02-25T20:29:14.000",
    "date_modified": "2024-02-25T20:29:14.000",
    "request_status": "Pending",
    "responsible_agency": "Department of Public Works",
    "final_address": "2421 Cambronne St",
    "address_councildis": "A",
    "status": "Pending",
    "rowid": "1070301",
    "final_x": "3664249.49581",
    "final_y": "532428.240899",
    "longitude": "-90.12251114018925",
    "latitude": "29.95850554214829",
    "geocoded_column": {
      "latitude": "29.95850554214829",
      "longitude": "-90.12251114018925"
    }
  },
  {
    "service_request": "2024-1070300",
    "request_type": "Health Related Request",
    "request_reason": "Noise Ordinance Complaint",
    "date_created": "2024-02-25T20:28:33.000",
    "date_modified": "2024-02-25T20:28:33.000",
    "request_status": "Pending",
    "responsible_agency": "Health Department",
    "final_address": "1500 N Claiborne Ave",
    "address_councildis": "C",
    "status": "Pending",
    "rowid": "1070300",
    "final_x": "3681846.67516",
    "final_y": "537148.826504",
    "longitude": "-90.0667791844965",
    "latitude": "29.970962498120493",
    "geocoded_column": {
      "latitude": "29.970962498120493",
      "longitude": "-90.0667791844965"
    }
  },
  {
    "service_request": "2024-1070299",
    "request_type": "Traffic Signals/Signs/Striping/Streetlights",
    "request_reason": "Street Light Knocked Down/Leaning",
    "date_created": "2024-02-25T20:03:07.000",
    "date_modified": "2024-02-25T20:03:08.000",
    "request_status": "Pending",
    "responsible_agency": "Department of Public Works",
    "final_address": "306 Huntlee Dr",
    "address_councildis": "C",
    "status": "Pending",
    "contractor": "Legacy Professional Services",
    "rowid": "1070299",
    "final_x": "3702021.55978",
    "final_y": "522605.007546",
    "longitude": "-90.0035977609722",
    "latitude": "29.930343551817423",
    "geocoded_column": {
      "latitude": "29.930343551817423",
      "longitude": "-90.0035977609722"
    }
  },
  {
    "service_request": "2024-1070298",
    "request_type": "Health Related Request",
    "request_reason": "Noise Ordinance Complaint",
    "date_created": "2024-02-25T19:21:03.000",
    "date_modified": "2024-02-25T19:21:03.000",
    "request_status": "Pending",
    "responsible_agency": "Health Department",
    "final_address": "609 Royal St",
    "address_councildis": "C",
    "status": "Pending",
    "rowid": "1070298",
    "final_x": "3682359.78773",
    "final_y": "532248.014723",
    "longitude": "-90.06532998517771",
    "latitude": "29.957471342415",
    "geocoded_column": {
      "latitude": "29.957471342415",
      "longitude": "-90.06532998517771"
    }
  },
  {
    "service_request": "2024-1070297",
    "request_type": "Mosquito, Termite & Rodent Control",
    "request_reason": "Mosquito Complaint",
    "date_created": "2024-02-25T18:55:35.000",
    "date_modified": "2024-02-25T18:55:35.000",
    "request_status": "Pending",
    "responsible_agency": "Mosquito, Termite & Rodent Control Board",
    "final_address": "3RD ST & ANNUNCIATION ST",
    "address_councildis": "B",
    "status": "Pending",
    "rowid": "1070297",
    "final_x": "3678180.5",
    "final_y": "520255.18",
    "longitude": "-90.07894151086325",
    "latitude": "29.92462152191363",
    "geocoded_column": {
      "latitude": "29.92462152191363",
      "longitude": "-90.07894151086325"
    }
  },
  {
    "service_request": "2024-1070296",
    "request_type": "Abandoned Vehicles",
    "request_reason": "Abandoned/Junk Vehicles",
    "date_created": "2024-02-25T18:49:05.000",
    "date_modified": "2024-02-25T18:49:05.000",
    "request_status": "Pending",
    "responsible_agency": "Department of Public Works",
    "final_address": "1 Poydras St",
    "address_councildis": "C",
    "status": "Pending",
    "rowid": "1070296",
    "final_x": "3683209.95157",
    "final_y": "529006.487168",
    "longitude": "-90.06275892422336",
    "latitude": "29.948532346042548",
    "geocoded_column": {
      "latitude": "29.948532346042548",
      "longitude": "-90.06275892422336"
    }
  },
  {
    "service_request": "2024-1070295",
    "request_type": "Trash/Recycling",
    "request_reason": "Request a Large Item Pick Up",
    "date_created": "2024-02-25T18:47:56.000",
    "date_modified": "2024-02-25T18:47:56.000",
    "request_status": "Pending",
    "responsible_agency": "Department of Sanitation",
    "final_address": "4835 Arthur Dr",
    "address_councildis": "E",
    "status": "Assigned to Contractor",
    "contractor": "Waste Pro",
    "rowid": "1070295",
    "final_x": "3707682.51339",
    "final_y": "556249.467802",
    "longitude": "-89.98447689454935",
    "latitude": "30.02267150935646",
    "geocoded_column": {
      "latitude": "30.02267150935646",
      "longitude": "-89.98447689454935"
    }
  },
  {
    "service_request": "2024-1070294",
    "request_type": "Trash/Recycling",
    "request_reason": "Replace Trash Cart",
    "date_created": "2024-02-25T18:25:16.000",
    "date_modified": "2024-02-25T18:25:16.000",
    "request_status": "Pending",
    "responsible_agency": "Department of Sanitation",
    "final_address": "517 S Telemachus St, New Orleans, Louisiana, 70119",
    "address_councildis": "B",
    "status": "Assigned to Contractor",
    "contractor": "Richards Disposal",
    "rowid": "1070294",
    "final_x": "3671234.85787",
    "final_y": "536041.019911",
    "longitude": "-90.10033040424878",
    "latitude": "29.968234663669737",
    "geocoded_column": {
      "latitude": "29.968234663669737",
      "longitude": "-90.10033040424878"
    }
  },
  {
    "service_request": "2024-1070293",
    "request_type": "Trash/Recycling",
    "request_reason": "Request a Large Item Pick Up",
    "date_created": "2024-02-25T18:19:06.000",
    "date_modified": "2024-02-25T18:19:06.000",
    "request_status": "Pending",
    "responsible_agency": "Department of Sanitation",
    "final_address": "5448 Grand Bayou Dr",
    "address_councildis": "E",
    "status": "Assigned to Contractor",
    "contractor": "Waste Pro",
    "rowid": "1070293",
    "final_x": "3725821.15168",
    "final_y": "563529.911328",
    "longitude": "-89.92688151711849",
    "latitude": "30.042090159819626",
    "geocoded_column": {
      "latitude": "30.042090159819626",
      "longitude": "-89.92688151711849"
    }
  },
  {
    "service_request": "2024-1070292",
    "request_type": "Trash/Recycling",
    "request_reason": "Request a Large Item Pick Up",
    "date_created": "2024-02-25T18:11:00.000",
    "date_modified": "2024-02-25T18:11:01.000",
    "request_status": "Pending",
    "responsible_agency": "Department of Sanitation",
    "final_address": "10136 Rosewood Pl",
    "address_councildis": "E",
    "status": "Assigned to Contractor",
    "contractor": "Waste Pro",
    "rowid": "1070292",
    "final_x": "3713002.49291",
    "final_y": "557595.788123",
    "longitude": "-89.96761647546153",
    "latitude": "30.02620008874544",
    "geocoded_column": {
      "latitude": "30.02620008874544",
      "longitude": "-89.96761647546153"
    }
  },
  {
    "service_request": "2024-1070291",
    "request_type": "Roads/Drainage",
    "request_reason": "Pothole",
    "date_created": "2024-02-25T17:42:37.000",
    "date_modified": "2024-02-25T17:42:37.000",
    "request_status": "Pending",
    "responsible_agency": "Department of Public Works",
    "final_address": "1239 Eleonore St",
    "address_councildis": "A",
    "status": "Pending",
    "rowid": "1070291",
    "final_x": "3665602.50362",
    "final_y": "520568.733816",
    "longitude": "-90.11863567920368",
    "latitude": "29.925856322761145",
    "geocoded_column": {
      "latitude": "29.925856322761145",
      "longitude": "-90.11863567920368"
    }
  },
  {
    "service_request": "2024-1070290",
    "request_type": "Roads/Drainage",
    "request_reason": "Pothole",
    "date_created": "2024-02-25T17:36:14.000",
    "date_modified": "2024-02-25T17:36:14.000",
    "request_status": "Pending",
    "responsible_agency": "Department of Public Works",
    "final_address": "5820 Hurst St",
    "address_councildis": "A",
    "status": "Pending",
    "rowid": "1070290",
    "final_x": "3665881.5394",
    "final_y": "521666.973177",
    "longitude": "-90.11771806353475",
    "latitude": "29.928867997550743",
    "geocoded_column": {
      "latitude": "29.928867997550743",
      "longitude": "-90.11771806353475"
    }
  },
  {
    "service_request": "2024-1070289",
    "request_type": "Trash/Recycling",
    "request_reason": "Replace Recycling Cart",
    "date_created": "2024-02-25T16:44:38.000",
    "date_modified": "2024-02-25T16:44:38.000",
    "request_status": "Pending",
    "responsible_agency": "Department of Sanitation",
    "final_address": "7427 Pearl St",
    "address_councildis": "A",
    "status": "Pending",
    "rowid": "1070289",
    "final_x": "3662095.27808",
    "final_y": "524978.286909",
    "longitude": "-90.12956076797101",
    "latitude": "29.93808297376625",
    "geocoded_column": {
      "latitude": "29.93808297376625",
      "longitude": "-90.12956076797101"
    }
  },
  {
    "service_request": "2024-1070288",
    "request_type": "Trash/Recycling",
    "request_reason": "Replace Trash Cart",
    "date_created": "2024-02-25T16:44:32.000",
    "date_modified": "2024-02-25T16:44:33.000",
    "request_status": "Pending",
    "responsible_agency": "Department of Sanitation",
    "final_address": "2608 Robert St",
    "address_councildis": "B",
    "status": "Assigned to Contractor",
    "contractor": "Richards Disposal",
    "rowid": "1070288",
    "final_x": "3668810.34209",
    "final_y": "525068.815421",
    "longitude": "-90.108357591617",
    "latitude": "29.938136212341544",
    "geocoded_column": {
      "latitude": "29.938136212341544",
      "longitude": "-90.108357591617"
    }
  },
  {
    "service_request": "2024-1070287",
    "request_type": "Trash/Recycling",
    "request_reason": "Request a Large Item Pick Up",
    "date_created": "2024-02-25T16:28:31.000",
    "date_modified": "2024-02-25T16:28:32.000",
    "request_status": "Pending",
    "responsible_agency": "Department of Sanitation",
    "final_address": "5528 Woodlawn Pl",
    "address_councildis": "A",
    "status": "Assigned to Contractor",
    "contractor": "IV Waste",
    "rowid": "1070287",
    "final_x": "3667369.76372",
    "final_y": "544144.866318",
    "longitude": "-90.11226385502529",
    "latitude": "29.990631306222856",
    "geocoded_column": {
      "latitude": "29.990631306222856",
      "longitude": "-90.11226385502529"
    }
  },
  {
    "service_request": "2024-1070286",
    "request_type": "Trash/Recycling",
    "request_reason": "Request a Large Item Pick Up",
    "date_created": "2024-02-25T16:24:08.000",
    "date_modified": "2024-02-25T16:24:08.000",
    "request_status": "Pending",
    "responsible_agency": "Department of Sanitation",
    "final_address": "5557 Bellaire Dr",
    "address_councildis": "A",
    "status": "Assigned to Contractor",
    "contractor": "IV Waste",
    "rowid": "1070286",
    "final_x": "3664145.38701",
    "final_y": "544776.037007",
    "longitude": "-90.12242783779666",
    "latitude": "29.992460897447774",
    "geocoded_column": {
      "latitude": "29.992460897447774",
      "longitude": "-90.12242783779666"
    }
  },
  {
    "service_request": "2024-1070285",
    "request_type": "Trash/Recycling",
    "request_reason": "Missed Trash Pick-Up",
    "date_created": "2024-02-25T15:59:46.000",
    "date_modified": "2024-02-25T15:59:47.000",
    "request_status": "Pending",
    "responsible_agency": "Department of Sanitation",
    "final_address": "214 N Alexander St",
    "address_councildis": "A",
    "status": "Assigned to Contractor",
    "contractor": "Richards Disposal",
    "rowid": "1070285",
    "final_x": "3670354.9954",
    "final_y": "539588.490634",
    "longitude": "-90.10298876225767",
    "latitude": "29.97801501768856",
    "geocoded_column": {
      "latitude": "29.97801501768856",
      "longitude": "-90.10298876225767"
    }
  },
  {
    "service_request": "2024-1070284",
    "request_type": "Trash/Recycling",
    "request_reason": "Request a Large Item Pick Up",
    "date_created": "2024-02-25T15:50:32.000",
    "date_modified": "2024-02-25T15:50:33.000",
    "request_status": "Pending",
    "responsible_agency": "Department of Sanitation",
    "final_address": "2513 N Rampart St",
    "address_councildis": "C",
    "status": "Assigned to Contractor",
    "contractor": "IV Waste",
    "rowid": "1070284",
    "final_x": "3686633.67292",
    "final_y": "536106.746887",
    "longitude": "-90.0516980709287",
    "latitude": "29.967950781673327",
    "geocoded_column": {
      "latitude": "29.967950781673327",
      "longitude": "-90.0516980709287"
    }
  },
  {
    "service_request": "2024-1070283",
    "request_type": "Roads/Drainage",
    "request_reason": "Pothole",
    "date_created": "2024-02-25T15:43:02.000",
    "date_modified": "2024-02-25T15:43:02.000",
    "request_status": "Pending",
    "responsible_agency": "Department of Public Works",
    "final_address": "4216 Chestnut St",
    "address_councildis": "B",
    "status": "Pending",
    "rowid": "1070283",
    "final_x": "3671574.31393",
    "final_y": "519539.203703",
    "longitude": "-90.09981939416457",
    "latitude": "29.922850019854593",
    "geocoded_column": {
      "latitude": "29.922850019854593",
      "longitude": "-90.09981939416457"
    }
  },
  {
    "service_request": "2024-1070282",
    "request_type": "Roads/Drainage",
    "request_reason": "Pothole",
    "date_created": "2024-02-25T15:11:16.000",
    "date_modified": "2024-02-25T15:11:16.000",
    "request_status": "Pending",
    "responsible_agency": "Department of Public Works",
    "final_address": "1312 Milan St",
    "address_councildis": "B",
    "status": "Pending",
    "rowid": "1070282",
    "final_x": "3671625.82823",
    "final_y": "520286.919608",
    "longitude": "-90.09963137110304",
    "latitude": "29.92490447494246",
    "geocoded_column": {
      "latitude": "29.92490447494246",
      "longitude": "-90.09963137110304"
    }
  },
  {
    "service_request": "2024-1070281",
    "request_type": "Property Maintenance",
    "request_reason": "Property Maintenance",
    "date_created": "2024-02-25T14:54:20.000",
    "date_modified": "2024-02-25T14:54:20.000",
    "request_status": "Pending",
    "responsible_agency": "Department of Code Enforcement",
    "final_address": "3900 Royal St",
    "address_councildis": "C",
    "status": "Pending",
    "rowid": "1070281",
    "final_x": "3691164.58742",
    "final_y": "533837.384325",
    "longitude": "-90.03747039148654",
    "latitude": "29.96157070372754",
    "geocoded_column": {
      "latitude": "29.96157070372754",
      "longitude": "-90.03747039148654"
    }
  },
  {
    "service_request": "2024-1070279",
    "request_type": "Abandoned Vehicles",
    "request_reason": "Abandoned/Junk Vehicles",
    "date_created": "2024-02-25T14:18:55.000",
    "date_modified": "2024-02-25T14:18:55.000",
    "request_status": "Pending",
    "responsible_agency": "Department of Public Works",
    "final_address": "6500 Avenue A",
    "address_councildis": "A",
    "status": "Pending",
    "rowid": "1070279",
    "final_x": "3665945.08122",
    "final_y": "551371.261205",
    "longitude": "-90.11652168897672",
    "latitude": "30.01054307172348",
    "geocoded_column": {
      "latitude": "30.01054307172348",
      "longitude": "-90.11652168897672"
    }
  },
  {
    "service_request": "2024-1070278",
    "request_type": "Trash/Recycling",
    "request_reason": "Replace Trash Cart",
    "date_created": "2024-02-25T13:55:05.000",
    "date_modified": "2024-02-25T13:55:05.000",
    "request_status": "Pending",
    "responsible_agency": "Department of Sanitation",
    "final_address": "8615 Stroelitz St",
    "address_councildis": "A",
    "status": "Assigned to Contractor",
    "contractor": "Richards Disposal",
    "rowid": "1070278",
    "final_x": "3666567.56404",
    "final_y": "536286.064903",
    "longitude": "-90.11506174668799",
    "latitude": "29.969045727621026",
    "geocoded_column": {
      "latitude": "29.969045727621026",
      "longitude": "-90.11506174668799"
    }
  },
  {
    "service_request": "2024-1070277",
    "request_type": "Traffic Signals/Signs/Striping/Streetlights",
    "request_reason": "Request for Stop Sign",
    "date_created": "2024-02-25T13:34:13.000",
    "date_modified": "2024-02-25T13:34:13.000",
    "request_status": "Pending",
    "responsible_agency": "Department of Public Works",
    "final_address": "552 Saint Ferdinand Street New Orleans LA 70117 and Chartres",
    "status": "Pending",
    "rowid": "1070277",
    "longitude": "0.0",
    "latitude": "0.0",
    "geocoded_column": {
      "latitude": "0.0",
      "longitude": "0.0"
    }
  },
  {
    "service_request": "2024-1070276",
    "request_type": "Property Maintenance",
    "request_reason": "Property Maintenance",
    "date_created": "2024-02-25T13:33:24.000",
    "date_modified": "2024-02-25T13:33:24.000",
    "request_status": "Pending",
    "responsible_agency": "Department of Code Enforcement",
    "final_address": "410 Wallace Dr",
    "address_councildis": "D",
    "status": "Pending",
    "rowid": "1070276",
    "final_x": "3681734.61212",
    "final_y": "548323.83861",
    "longitude": "-90.06674298132569",
    "latitude": "30.001693258575145",
    "geocoded_column": {
      "latitude": "30.001693258575145",
      "longitude": "-90.06674298132569"
    }
  },
  {
    "service_request": "2024-1070275",
    "request_type": "Roads/Drainage",
    "request_reason": "Street Subsidence (Sinking)",
    "date_created": "2024-02-25T13:33:04.000",
    "date_modified": "2024-02-25T13:33:04.000",
    "request_status": "Pending",
    "responsible_agency": "Department of Public Works",
    "final_address": "552 Saint Ferdinand St, New Orleans, Louisiana, 70117",
    "status": "Pending",
    "rowid": "1070275",
    "longitude": "0.0",
    "latitude": "0.0",
    "geocoded_column": {
      "latitude": "0.0",
      "longitude": "0.0"
    }
  },
  {
    "service_request": "2024-1070274",
    "request_type": "Property Maintenance",
    "request_reason": "Property Maintenance",
    "date_created": "2024-02-25T13:31:09.000",
    "date_modified": "2024-02-25T13:31:09.000",
    "request_status": "Pending",
    "responsible_agency": "Department of Code Enforcement",
    "final_address": "414 Wallace Dr",
    "address_councildis": "D",
    "status": "Pending",
    "rowid": "1070274",
    "final_x": "3681679.81647",
    "final_y": "548382.086482",
    "longitude": "-90.06691405251344",
    "latitude": "30.001855084725396",
    "geocoded_column": {
      "latitude": "30.001855084725396",
      "longitude": "-90.06691405251344"
    }
  },
  {
    "service_request": "2024-1070272",
    "request_type": "Trash/Recycling",
    "request_reason": "Request a Large Item Pick Up",
    "date_created": "2024-02-25T12:50:52.000",
    "date_modified": "2024-02-25T12:50:53.000",
    "request_status": "Pending",
    "responsible_agency": "Department of Sanitation",
    "final_address": "1033 Jourdan Ave, New Orleans, Louisiana, 70117",
    "address_councildis": "E",
    "status": "Assigned to Contractor",
    "contractor": "Waste Pro",
    "rowid": "1070272",
    "final_x": "3695029.5224",
    "final_y": "534303.476229",
    "longitude": "-90.02524883280513",
    "latitude": "29.96273153942836",
    "geocoded_column": {
      "latitude": "29.96273153942836",
      "longitude": "-90.02524883280513"
    }
  },
  {
    "service_request": "2024-1070271",
    "request_type": "Trash/Recycling",
    "request_reason": "Replace Trash Cart",
    "date_created": "2024-02-25T12:25:01.000",
    "date_modified": "2024-02-25T12:25:02.000",
    "request_status": "Pending",
    "responsible_agency": "Department of Sanitation",
    "final_address": "7640 Arbor Dr",
    "address_councildis": "E",
    "status": "Assigned to Contractor",
    "contractor": "Waste Pro",
    "rowid": "1070271",
    "final_x": "3702212.74948",
    "final_y": "558234.821084",
    "longitude": "-90.00168704439434",
    "latitude": "30.028306375828727",
    "geocoded_column": {
      "latitude": "30.028306375828727",
      "longitude": "-90.00168704439434"
    }
  },
  {
    "service_request": "2024-1070270",
    "request_type": "Abandoned Vehicles",
    "request_reason": "Vehicle Blocking Your Driveway",
    "date_created": "2024-02-25T12:23:13.000",
    "date_modified": "2024-02-25T12:23:13.000",
    "request_status": "Pending",
    "responsible_agency": "Department of Public Works",
    "final_address": "3931 Prytania St",
    "address_councildis": "B",
    "status": "Pending",
    "rowid": "1070270",
    "final_x": "3672488.49799",
    "final_y": "520532.484024",
    "longitude": "-90.09689983538443",
    "latitude": "29.9255541307288",
    "geocoded_column": {
      "latitude": "29.9255541307288",
      "longitude": "-90.09689983538443"
    }
  },
  {
    "service_request": "2024-1070269",
    "request_type": "Trash/Recycling",
    "request_reason": "Replace Trash Cart",
    "date_created": "2024-02-25T12:19:15.000",
    "date_modified": "2024-02-25T12:19:15.000",
    "request_status": "Pending",
    "responsible_agency": "Department of Sanitation",
    "final_address": "832 N Dupre St",
    "address_councildis": "A",
    "status": "Assigned to Contractor",
    "contractor": "Richards Disposal",
    "rowid": "1070269",
    "final_x": "3676393.30721",
    "final_y": "537953.568585",
    "longitude": "-90.08397392972023",
    "latitude": "29.97333988317546",
    "geocoded_column": {
      "latitude": "29.97333988317546",
      "longitude": "-90.08397392972023"
    }
  },
  {
    "service_request": "2024-1070268",
    "request_type": "Trash/Recycling",
    "request_reason": "Request a Large Item Pick Up",
    "date_created": "2024-02-25T12:13:20.000",
    "date_modified": "2024-02-25T12:13:21.000",
    "request_status": "Pending",
    "responsible_agency": "Department of Sanitation",
    "final_address": "644 N Pierce St, New Orleans, Louisiana, 70119",
    "address_councildis": "A",
    "status": "Assigned to Contractor",
    "contractor": "Richards Disposal",
    "rowid": "1070268",
    "final_x": "3672861.62728",
    "final_y": "539713.813898",
    "longitude": "-90.09506764243277",
    "latitude": "29.978285369062704",
    "geocoded_column": {
      "latitude": "29.978285369062704",
      "longitude": "-90.09506764243277"
    }
  },
  {
    "service_request": "2024-1070267",
    "request_type": "Trash/Recycling",
    "request_reason": "Missed Trash Pick-Up",
    "date_created": "2024-02-25T12:12:11.000",
    "date_modified": "2024-02-25T12:12:12.000",
    "request_status": "Pending",
    "responsible_agency": "Department of Sanitation",
    "final_address": "8521 Edinburgh St",
    "address_councildis": "A",
    "status": "Assigned to Contractor",
    "contractor": "Richards Disposal",
    "rowid": "1070267",
    "final_x": "3666304.53761",
    "final_y": "535559.29351",
    "longitude": "-90.11591679110336",
    "latitude": "29.967055034088894",
    "geocoded_column": {
      "latitude": "29.967055034088894",
      "longitude": "-90.11591679110336"
    }
  },
  {
    "service_request": "2024-1070266",
    "request_type": "Property Maintenance",
    "request_reason": "Property Maintenance",
    "date_created": "2024-02-25T11:52:45.000",
    "date_modified": "2024-02-25T11:52:45.000",
    "request_status": "Pending",
    "responsible_agency": "Department of Code Enforcement",
    "final_address": "4935 Cernay St",
    "address_councildis": "E",
    "status": "Pending",
    "rowid": "1070266",
    "final_x": "3727599.21568",
    "final_y": "562232.727711",
    "longitude": "-89.92131276173731",
    "latitude": "30.038463314459538",
    "geocoded_column": {
      "latitude": "30.038463314459538",
      "longitude": "-89.92131276173731"
    }
  },
  {
    "service_request": "2024-1070265",
    "request_type": "Trash/Recycling",
    "request_reason": "Request a Large Item Pick Up",
    "date_created": "2024-02-25T11:45:26.000",
    "date_modified": "2024-02-25T11:45:26.000",
    "request_status": "Pending",
    "responsible_agency": "Department of Sanitation",
    "final_address": "4314 S Dorgenois St",
    "address_councildis": "B",
    "status": "Assigned to Contractor",
    "contractor": "Richards Disposal",
    "rowid": "1070265",
    "final_x": "3670324.04398",
    "final_y": "528791.039744",
    "longitude": "-90.10345255174761",
    "latitude": "29.94832653552152",
    "geocoded_column": {
      "latitude": "29.94832653552152",
      "longitude": "-90.10345255174761"
    }
  },
  {
    "service_request": "2024-1070264",
    "request_type": "Trash/Recycling",
    "request_reason": "Repair Recycling Cart",
    "date_created": "2024-02-25T11:42:28.000",
    "date_modified": "2024-02-25T11:42:28.000",
    "request_status": "Pending",
    "responsible_agency": "Department of Sanitation",
    "final_address": "39 Newcomb Blvd",
    "address_councildis": "A",
    "status": "Pending",
    "rowid": "1070264",
    "final_x": "3664101.0914",
    "final_y": "525490.788349",
    "longitude": "-90.12321112048693",
    "latitude": "29.939434095275104",
    "geocoded_column": {
      "latitude": "29.939434095275104",
      "longitude": "-90.12321112048693"
    }
  },
  {
    "service_request": "2024-1070263",
    "request_type": "Trash/Recycling",
    "request_reason": "Repair Trash Cart",
    "date_created": "2024-02-25T11:41:27.000",
    "date_modified": "2024-02-25T11:41:27.000",
    "request_status": "Pending",
    "responsible_agency": "Department of Sanitation",
    "final_address": "39 Newcomb Blvd",
    "address_councildis": "A",
    "status": "Assigned to Contractor",
    "contractor": "Richards Disposal",
    "rowid": "1070263",
    "final_x": "3664101.0914",
    "final_y": "525490.788349",
    "longitude": "-90.12321112048693",
    "latitude": "29.939434095275104",
    "geocoded_column": {
      "latitude": "29.939434095275104",
      "longitude": "-90.12321112048693"
    }
  },
  {
    "service_request": "2024-1070262",
    "request_type": "Trash/Recycling",
    "request_reason": "Request a Large Item Pick Up",
    "date_created": "2024-02-25T11:39:33.000",
    "date_modified": "2024-02-25T11:39:34.000",
    "request_status": "Pending",
    "responsible_agency": "Department of Sanitation",
    "final_address": "6460 Louisville St",
    "address_councildis": "A",
    "status": "Assigned to Contractor",
    "contractor": "IV Waste",
    "rowid": "1070262",
    "final_x": "3667949.86074",
    "final_y": "550624.815764",
    "longitude": "-90.11021297570554",
    "latitude": "30.00843191694031",
    "geocoded_column": {
      "latitude": "30.00843191694031",
      "longitude": "-90.11021297570554"
    }
  },
  {
    "service_request": "2024-1070261",
    "request_type": "Trash/Recycling",
    "request_reason": "MIssed Recycling Pick-Up",
    "date_created": "2024-02-25T11:28:39.000",
    "date_modified": "2024-02-25T11:28:40.000",
    "request_status": "Pending",
    "responsible_agency": "Department of Sanitation",
    "final_address": "4666 Wright Rd",
    "address_councildis": "E",
    "status": "Assigned to Contractor",
    "contractor": "Waste Pro",
    "rowid": "1070261",
    "final_x": "3716611.17253",
    "final_y": "556591.805594",
    "longitude": "-89.95625174776956",
    "latitude": "30.023320777487026",
    "geocoded_column": {
      "latitude": "30.023320777487026",
      "longitude": "-89.95625174776956"
    }
  },
  {
    "service_request": "2024-1070260",
    "request_type": "Trash/Recycling",
    "request_reason": "MIssed Recycling Pick-Up",
    "date_created": "2024-02-25T11:27:23.000",
    "date_modified": "2024-02-25T11:27:24.000",
    "request_status": "Pending",
    "responsible_agency": "Department of Sanitation",
    "final_address": "4666 Wright Rd",
    "address_councildis": "E",
    "status": "Assigned to Contractor",
    "contractor": "Waste Pro",
    "rowid": "1070260",
    "final_x": "3716611.17253",
    "final_y": "556591.805594",
    "longitude": "-89.95625174776956",
    "latitude": "30.023320777487026",
    "geocoded_column": {
      "latitude": "30.023320777487026",
      "longitude": "-89.95625174776956"
    }
  },
  {
    "service_request": "2024-1070259",
    "request_type": "Trash/Recycling",
    "request_reason": "Request a Large Item Pick Up",
    "date_created": "2024-02-25T11:11:04.000",
    "date_modified": "2024-02-25T11:11:05.000",
    "request_status": "Pending",
    "responsible_agency": "Department of Sanitation",
    "final_address": "1816 S Norman C Francis Prkwy",
    "address_councildis": "B",
    "status": "Assigned to Contractor",
    "contractor": "Richards Disposal",
    "rowid": "1070259",
    "final_x": "3669168.53121",
    "final_y": "530603.70381",
    "longitude": "-90.10703974191215",
    "latitude": "29.95334482120344",
    "geocoded_column": {
      "latitude": "29.95334482120344",
      "longitude": "-90.10703974191215"
    }
  },
  {
    "service_request": "2024-1070258",
    "request_type": "Roads/Drainage",
    "request_reason": "Man hole cover issue",
    "date_created": "2024-02-25T10:42:02.000",
    "date_modified": "2024-02-25T10:42:02.000",
    "request_status": "Pending",
    "responsible_agency": "Department of Public Works",
    "final_address": "934 N Rendon St",
    "address_councildis": "A",
    "status": "Pending",
    "rowid": "1070258",
    "final_x": "3675636.5428",
    "final_y": "539093.27777",
    "longitude": "-90.08632477677135",
    "latitude": "29.97649636048621",
    "geocoded_column": {
      "latitude": "29.97649636048621",
      "longitude": "-90.08632477677135"
    }
  },
  {
    "service_request": "2024-1070257",
    "request_type": "Trash/Recycling",
    "request_reason": "Request a Large Item Pick Up",
    "date_created": "2024-02-25T10:25:11.000",
    "date_modified": "2024-02-25T10:25:11.000",
    "request_status": "Pending",
    "responsible_agency": "Department of Sanitation",
    "final_address": "5421 Durham Dr",
    "address_councildis": "C",
    "status": "Assigned to Contractor",
    "contractor": "Richards Disposal",
    "rowid": "1070257",
    "final_x": "3704107.54391",
    "final_y": "518833.606391",
    "longitude": "-89.99715151908953",
    "latitude": "29.919906780628654",
    "geocoded_column": {
      "latitude": "29.919906780628654",
      "longitude": "-89.99715151908953"
    }
  },
  {
    "service_request": "2024-1070256",
    "request_type": "Trash/Recycling",
    "request_reason": "Order Recycling Cart",
    "date_created": "2024-02-25T10:08:31.000",
    "date_modified": "2024-02-25T10:08:31.000",
    "request_status": "Pending",
    "responsible_agency": "Department of Sanitation",
    "final_address": "431 Tricou St",
    "address_councildis": "E",
    "status": "Pending",
    "rowid": "1070256",
    "final_x": "3699314.52202",
    "final_y": "530905.70989",
    "longitude": "-90.01184119497452",
    "latitude": "29.953253687700595",
    "geocoded_column": {
      "latitude": "29.953253687700595",
      "longitude": "-90.01184119497452"
    }
  },
  {
    "service_request": "2024-1070255",
    "request_type": "Trash/Recycling",
    "request_reason": "Missed Trash Pick-Up",
    "date_created": "2024-02-25T10:07:05.000",
    "date_modified": "2024-02-25T10:07:05.000",
    "request_status": "Pending",
    "responsible_agency": "Department of Sanitation",
    "final_address": "134 N Alexander St",
    "address_councildis": "A",
    "status": "Assigned to Contractor",
    "contractor": "Richards Disposal",
    "rowid": "1070255",
    "final_x": "3670253.93831",
    "final_y": "539432.27457",
    "longitude": "-90.10331323336244",
    "latitude": "29.97758845966334",
    "geocoded_column": {
      "latitude": "29.97758845966334",
      "longitude": "-90.10331323336244"
    }
  },
  {
    "service_request": "2024-1070254",
    "request_type": "Trash/Recycling",
    "request_reason": "Start Trash Service",
    "date_created": "2024-02-25T10:05:45.000",
    "date_modified": "2024-02-25T10:05:46.000",
    "request_status": "Pending",
    "responsible_agency": "Department of Sanitation",
    "final_address": "6310 Douglass St",
    "address_councildis": "E",
    "status": "Assigned to Contractor",
    "contractor": "Waste Pro",
    "rowid": "1070254",
    "final_x": "3699405.49431",
    "final_y": "530908.467842",
    "longitude": "-90.01155384503977",
    "latitude": "29.953258385896852",
    "geocoded_column": {
      "latitude": "29.953258385896852",
      "longitude": "-90.01155384503977"
    }
  },
  {
    "service_request": "2024-1070253",
    "request_type": "Trash/Recycling",
    "request_reason": "Request a Large Item Pick Up",
    "date_created": "2024-02-25T10:03:44.000",
    "date_modified": "2024-02-25T10:03:44.000",
    "request_status": "Pending",
    "responsible_agency": "Department of Sanitation",
    "final_address": "3831 Lennox Blvd",
    "address_councildis": "C",
    "status": "Assigned to Contractor",
    "contractor": "Richards Disposal",
    "rowid": "1070253",
    "final_x": "3700465.48061",
    "final_y": "517125.426165",
    "longitude": "-90.00870999961347",
    "latitude": "29.915326146081327",
    "geocoded_column": {
      "latitude": "29.915326146081327",
      "longitude": "-90.00870999961347"
    }
  },
  {
    "service_request": "2024-1070252",
    "request_type": "Trash/Recycling",
    "request_reason": "Request a Large Item Pick Up",
    "date_created": "2024-02-25T09:57:18.000",
    "date_modified": "2024-02-25T09:57:19.000",
    "request_status": "Pending",
    "responsible_agency": "Department of Sanitation",
    "final_address": "4353 Randolph Ave",
    "address_councildis": "D",
    "status": "Assigned to Contractor",
    "contractor": "IV Waste",
    "rowid": "1070252",
    "final_x": "3677791.11118",
    "final_y": "548598.941779",
    "longitude": "-90.0791913974347",
    "latitude": "30.002568964176138",
    "geocoded_column": {
      "latitude": "30.002568964176138",
      "longitude": "-90.0791913974347"
    }
  },
  {
    "service_request": "2024-1070251",
    "request_type": "Trash/Recycling",
    "request_reason": "Request a Large Item Pick Up",
    "date_created": "2024-02-25T09:47:34.000",
    "date_modified": "2024-02-25T09:47:35.000",
    "request_status": "Pending",
    "responsible_agency": "Department of Sanitation",
    "final_address": "911 Fourth St",
    "address_councildis": "B",
    "status": "Assigned to Contractor",
    "contractor": "Richards Disposal",
    "rowid": "1070251",
    "final_x": "3677701.42056",
    "final_y": "520493.963128",
    "longitude": "-90.08044556228042",
    "latitude": "29.925292510394176",
    "geocoded_column": {
      "latitude": "29.925292510394176",
      "longitude": "-90.08044556228042"
    }
  },
  {
    "service_request": "2024-1070250",
    "request_type": "Abandoned Vehicles",
    "request_reason": "Abandoned/Junk Vehicles",
    "date_created": "2024-02-25T09:40:55.000",
    "date_modified": "2024-02-25T09:40:55.000",
    "request_status": "Pending",
    "responsible_agency": "Department of Public Works",
    "final_address": "2130 Holiday Dr",
    "address_councildis": "C",
    "status": "Pending",
    "rowid": "1070250",
    "final_x": "3698990.14359",
    "final_y": "523349.941691",
    "longitude": "-90.01314031643632",
    "latitude": "29.932488246813563",
    "geocoded_column": {
      "latitude": "29.932488246813563",
      "longitude": "-90.01314031643632"
    }
  },
  {
    "service_request": "2024-1070249",
    "request_type": "Trash/Recycling",
    "request_reason": "Request a Large Item Pick Up",
    "date_created": "2024-02-25T09:30:00.000",
    "date_modified": "2024-02-25T09:30:00.000",
    "request_status": "Pending",
    "responsible_agency": "Department of Sanitation",
    "final_address": "4421 Baronne St",
    "address_councildis": "B",
    "status": "Assigned to Contractor",
    "contractor": "Richards Disposal",
    "rowid": "1070249",
    "final_x": "3670532.25499",
    "final_y": "521610.726777",
    "longitude": "-90.10303856405554",
    "latitude": "29.928576852009456",
    "geocoded_column": {
      "latitude": "29.928576852009456",
      "longitude": "-90.10303856405554"
    }
  },
  {
    "service_request": "2024-1070248",
    "request_type": "Traffic Signals/Signs/Striping/Streetlights",
    "request_reason": "Traffic Signal Malfunctioning/Damaged",
    "date_created": "2024-02-25T09:28:51.000",
    "date_modified": "2024-02-25T09:28:51.000",
    "request_status": "Pending",
    "responsible_agency": "Department of Public Works",
    "final_address": "BROADWAY ST & FRERET ST",
    "address_councildis": "A",
    "status": "Pending",
    "rowid": "1070248",
    "final_x": "3663791.9",
    "final_y": "525884.78",
    "longitude": "-90.12417415672215",
    "latitude": "29.940526421809565",
    "geocoded_column": {
      "latitude": "29.940526421809565",
      "longitude": "-90.12417415672215"
    }
  },
  {
    "service_request": "2024-1070247",
    "request_type": "Traffic Signals/Signs/Striping/Streetlights",
    "request_reason": "Street Light Outage/Malfunction",
    "date_created": "2024-02-25T09:07:53.000",
    "date_modified": "2024-02-25T09:07:54.000",
    "request_status": "Pending",
    "responsible_agency": "Department of Public Works",
    "final_address": "100 BLK Tchoupitoulas St",
    "address_councildis": "B",
    "status": "Assigned to Contractor",
    "contractor": "Legacy Professional Services",
    "rowid": "1070247",
    "final_x": "3682098.29062",
    "final_y": "529831.487041",
    "longitude": "-90.06624009601903",
    "latitude": "29.95083466494574",
    "geocoded_column": {
      "latitude": "29.95083466494574",
      "longitude": "-90.06624009601903"
    }
  },
  {
    "service_request": "2024-1070246",
    "request_type": "Roads/Drainage",
    "request_reason": "Street Subsidence (Sinking)",
    "date_created": "2024-02-25T08:58:17.000",
    "date_modified": "2024-02-25T08:58:17.000",
    "request_status": "Pending",
    "responsible_agency": "Department of Public Works",
    "final_address": "0 BLK English Turn Pkwy",
    "address_councildis": "C",
    "status": "Pending",
    "rowid": "1070246",
    "final_x": "3714478.8315",
    "final_y": "516189.451005",
    "longitude": "-89.96451447055301",
    "latitude": "29.912299665809115",
    "geocoded_column": {
      "latitude": "29.912299665809115",
      "longitude": "-89.96451447055301"
    }
  },
  {
    "service_request": "2024-1070245",
    "request_type": "Roads/Drainage",
    "request_reason": "Pothole",
    "date_created": "2024-02-25T08:40:19.000",
    "date_modified": "2024-02-25T08:40:19.000",
    "request_status": "Pending",
    "responsible_agency": "Department of Public Works",
    "final_address": "MONROE ST & GREEN ST",
    "address_councildis": "A",
    "status": "Pending",
    "rowid": "1070245",
    "final_x": "3661567.5",
    "final_y": "531107.48",
    "longitude": "-90.13102397839607",
    "latitude": "29.954951532284035",
    "geocoded_column": {
      "latitude": "29.954951532284035",
      "longitude": "-90.13102397839607"
    }
  },
  {
    "service_request": "2024-1070244",
    "request_type": "Trash/Recycling",
    "request_reason": "Illegal Dumping",
    "date_created": "2024-02-25T08:21:00.000",
    "date_modified": "2024-02-25T08:21:00.000",
    "request_status": "Pending",
    "responsible_agency": "Department of Sanitation",
    "final_address": "2037 Ursulines Ave",
    "address_councildis": "D",
    "status": "Pending",
    "rowid": "1070244",
    "final_x": "3679617.71426",
    "final_y": "536686.033543",
    "longitude": "-90.07383459585492",
    "latitude": "29.969757533604646",
    "geocoded_column": {
      "latitude": "29.969757533604646",
      "longitude": "-90.07383459585492"
    }
  },
  {
    "service_request": "2024-1070243",
    "request_type": "Mosquito, Termite & Rodent Control",
    "request_reason": "Mosquito Complaint",
    "date_created": "2024-02-25T07:39:07.000",
    "date_modified": "2024-02-25T07:39:07.000",
    "request_status": "Pending",
    "responsible_agency": "Mosquito, Termite & Rodent Control Board",
    "final_address": "871 Topaz St",
    "address_councildis": "D",
    "status": "Pending",
    "rowid": "1070243",
    "final_x": "3670730.00161",
    "final_y": "556772.790298",
    "longitude": "-90.10122075241216",
    "latitude": "30.025254770092427",
    "geocoded_column": {
      "latitude": "30.025254770092427",
      "longitude": "-90.10122075241216"
    }
  },
  {
    "service_request": "2024-1070242",
    "request_type": "Trash/Recycling",
    "request_reason": "Request a Large Item Pick Up",
    "date_created": "2024-02-25T06:33:22.000",
    "date_modified": "2024-02-25T06:33:22.000",
    "request_status": "Pending",
    "responsible_agency": "Department of Sanitation",
    "final_address": "7901 Nelson St",
    "address_councildis": "A",
    "status": "Assigned to Contractor",
    "contractor": "Richards Disposal",
    "rowid": "1070242",
    "final_x": "3665717.81389",
    "final_y": "531414.921027",
    "longitude": "-90.117908503142",
    "latitude": "29.955676498430584",
    "geocoded_column": {
      "latitude": "29.955676498430584",
      "longitude": "-90.117908503142"
    }
  },
  {
    "service_request": "2024-1070241",
    "request_type": "Trash/Recycling",
    "request_reason": "Replace Trash Cart",
    "date_created": "2024-02-25T05:38:36.000",
    "date_modified": "2024-02-25T05:38:37.000",
    "request_status": "Pending",
    "responsible_agency": "Department of Sanitation",
    "final_address": "3425 Calhoun St",
    "address_councildis": "A",
    "status": "Assigned to Contractor",
    "contractor": "Richards Disposal",
    "rowid": "1070241",
    "final_x": "3667716.07348",
    "final_y": "529250.070529",
    "longitude": "-90.11167156755101",
    "latitude": "29.949665433255532",
    "geocoded_column": {
      "latitude": "29.949665433255532",
      "longitude": "-90.11167156755101"
    }
  },
  {
    "service_request": "2024-1070240",
    "request_type": "Health Related Request",
    "request_reason": "Noise Ordinance Complaint",
    "date_created": "2024-02-25T03:03:43.000",
    "date_modified": "2024-02-25T03:03:43.000",
    "request_status": "Pending",
    "responsible_agency": "Health Department",
    "final_address": "1355 Saint Bernard Ave, New Orleans, Louisiana, 70116",
    "status": "Pending",
    "rowid": "1070240",
    "longitude": "0.0",
    "latitude": "0.0",
    "geocoded_column": {
      "latitude": "0.0",
      "longitude": "0.0"
    }
  },
  {
    "service_request": "2024-1070239",
    "request_type": "Trash/Recycling",
    "request_reason": "Request a Large Item Pick Up",
    "date_created": "2024-02-25T02:32:04.000",
    "date_modified": "2024-02-25T02:33:04.000",
    "request_status": "Pending",
    "responsible_agency": "Department of Sanitation",
    "final_address": "5420 Annunciation St",
    "address_councildis": "A",
    "status": "Assigned to Contractor",
    "contractor": "Richards Disposal",
    "rowid": "1070239",
    "final_x": "3666258.28525",
    "final_y": "517520.684534",
    "longitude": "-90.11666772905161",
    "latitude": "29.917456012838908",
    "geocoded_column": {
      "latitude": "29.917456012838908",
      "longitude": "-90.11666772905161"
    }
  },
  {
    "service_request": "2024-1070238",
    "request_type": "Roads/Drainage",
    "request_reason": "Street Flooding / Drainage",
    "date_created": "2024-02-25T02:28:55.000",
    "date_modified": "2024-02-25T02:28:55.000",
    "request_status": "Pending",
    "responsible_agency": "Department of Public Works",
    "final_address": "1630 Elizardi Blvd",
    "address_councildis": "C",
    "status": "Pending",
    "rowid": "1070238",
    "final_x": "3694744.10013",
    "final_y": "525076.684861",
    "longitude": "-90.02648246657989",
    "latitude": "29.937370033107925",
    "geocoded_column": {
      "latitude": "29.937370033107925",
      "longitude": "-90.02648246657989"
    }
  },
  {
    "service_request": "2024-1070237",
    "request_type": "Safety & Permits",
    "request_reason": "Safety & Permits Request (Cyber Incident Back Up)",
    "date_created": "2024-02-25T02:25:03.000",
    "date_modified": "2024-02-25T02:25:03.000",
    "request_status": "Pending",
    "responsible_agency": "Safety and Permits",
    "final_address": "1630 Elizardi Blvd",
    "address_councildis": "C",
    "status": "Pending",
    "rowid": "1070237",
    "final_x": "3694744.10013",
    "final_y": "525076.684861",
    "longitude": "-90.02648246657989",
    "latitude": "29.937370033107925",
    "geocoded_column": {
      "latitude": "29.937370033107925",
      "longitude": "-90.02648246657989"
    }
  },
  {
    "service_request": "2024-1070236",
    "request_type": "Health Related Request",
    "request_reason": "Noise Ordinance Complaint",
    "date_created": "2024-02-25T01:52:53.000",
    "date_modified": "2024-02-25T01:52:53.000",
    "request_status": "Pending",
    "responsible_agency": "Health Department",
    "final_address": "2417 Dryades St",
    "address_councildis": "B",
    "status": "Pending",
    "rowid": "1070236",
    "final_x": "3676189.60232",
    "final_y": "524053.15878",
    "longitude": "-90.08509550687829",
    "latitude": "29.935124507872462",
    "geocoded_column": {
      "latitude": "29.935124507872462",
      "longitude": "-90.08509550687829"
    }
  },
  {
    "service_request": "2024-1070235",
    "request_type": "Trash/Recycling",
    "request_reason": "Start Trash Service",
    "date_created": "2024-02-24T23:57:54.000",
    "date_modified": "2024-02-24T23:57:55.000",
    "request_status": "Pending",
    "responsible_agency": "Department of Sanitation",
    "final_address": "1825 Euterpe St",
    "address_councildis": "B",
    "status": "Assigned to Contractor",
    "contractor": "Richards Disposal",
    "rowid": "1070235",
    "final_x": "3677937.87637",
    "final_y": "525645.952509",
    "longitude": "-90.07952118884661",
    "latitude": "29.939451682704053",
    "geocoded_column": {
      "latitude": "29.939451682704053",
      "longitude": "-90.07952118884661"
    }
  },
  {
    "service_request": "2024-1070234",
    "request_type": "Trash/Recycling",
    "request_reason": "Start Trash Service",
    "date_created": "2024-02-24T23:53:20.000",
    "date_modified": "2024-02-24T23:53:20.000",
    "request_status": "Pending",
    "responsible_agency": "Department of Sanitation",
    "final_address": "1827 Euterpe St",
    "address_councildis": "B",
    "status": "Assigned to Contractor",
    "contractor": "Richards Disposal",
    "rowid": "1070234",
    "final_x": "3677935.22978",
    "final_y": "525650.211773",
    "longitude": "-90.07952939734396",
    "latitude": "29.939463473903686",
    "geocoded_column": {
      "latitude": "29.939463473903686",
      "longitude": "-90.07952939734396"
    }
  },
  {
    "service_request": "2024-1070233",
    "request_type": "Trash/Recycling",
    "request_reason": "Order Recycling Cart",
    "date_created": "2024-02-24T23:25:25.000",
    "date_modified": "2024-02-24T23:25:25.000",
    "request_status": "Pending",
    "responsible_agency": "Department of Sanitation",
    "final_address": "1029 Alvar St",
    "address_councildis": "C",
    "status": "Pending",
    "rowid": "1070233",
    "final_x": "3691478.71395",
    "final_y": "535186.486662",
    "longitude": "-90.03643021754097",
    "latitude": "29.965270490142743",
    "geocoded_column": {
      "latitude": "29.965270490142743",
      "longitude": "-90.03643021754097"
    }
  },
  {
    "service_request": "2024-1070232",
    "request_type": "Mosquito, Termite & Rodent Control",
    "request_reason": "Rodent Complaint (Rats)",
    "date_created": "2024-02-24T23:23:53.000",
    "date_modified": "2024-02-24T23:23:53.000",
    "request_status": "Pending",
    "responsible_agency": "Mosquito, Termite & Rodent Control Board",
    "final_address": "1331 Annette St",
    "address_councildis": "C",
    "status": "Pending",
    "rowid": "1070232",
    "final_x": "3683132.84412",
    "final_y": "536783.934408",
    "longitude": "-90.06273007988592",
    "latitude": "29.96992001759467",
    "geocoded_column": {
      "latitude": "29.96992001759467",
      "longitude": "-90.06273007988592"
    }
  },
  {
    "service_request": "2024-1070231",
    "request_type": "Trash/Recycling",
    "request_reason": "Replace Trash Cart",
    "date_created": "2024-02-24T22:43:53.000",
    "date_modified": "2024-02-24T22:43:54.000",
    "request_status": "Pending",
    "responsible_agency": "Department of Sanitation",
    "final_address": "2650 Bruxelles St",
    "address_councildis": "D",
    "status": "Assigned to Contractor",
    "contractor": "IV Waste",
    "rowid": "1070231",
    "final_x": "3680333.28975",
    "final_y": "542064.538956",
    "longitude": "-90.07138767460039",
    "latitude": "29.984524912324737",
    "geocoded_column": {
      "latitude": "29.984524912324737",
      "longitude": "-90.07138767460039"
    }
  },
  {
    "service_request": "2024-1070230",
    "request_type": "Trash/Recycling",
    "request_reason": "Order Recycling Cart",
    "date_created": "2024-02-24T19:53:41.000",
    "date_modified": "2024-02-24T19:53:41.000",
    "request_status": "Pending",
    "responsible_agency": "Department of Sanitation",
    "final_address": "1528 Owens Blvd",
    "address_councildis": "D",
    "status": "Pending",
    "rowid": "1070230",
    "final_x": "3679094.34267",
    "final_y": "548967.469203",
    "longitude": "-90.07506153491005",
    "latitude": "30.00354299775479",
    "geocoded_column": {
      "latitude": "30.00354299775479",
      "longitude": "-90.07506153491005"
    }
  },
  {
    "service_request": "2024-1070229",
    "request_type": "Trash/Recycling",
    "request_reason": "Replace Recycling Cart",
    "date_created": "2024-02-24T19:52:38.000",
    "date_modified": "2024-02-24T19:52:38.000",
    "request_status": "Pending",
    "responsible_agency": "Department of Sanitation",
    "final_address": "1331 Exposition Blvd",
    "address_councildis": "A",
    "status": "Pending",
    "rowid": "1070229",
    "final_x": "3663986.43239",
    "final_y": "521550.175353",
    "longitude": "-90.12370445213799",
    "latitude": "29.928601986728246",
    "geocoded_column": {
      "latitude": "29.928601986728246",
      "longitude": "-90.12370445213799"
    }
  },
  {
    "service_request": "2024-1070228",
    "request_type": "Mosquito, Termite & Rodent Control",
    "request_reason": "Mosquito Complaint",
    "date_created": "2024-02-24T18:58:00.000",
    "date_modified": "2024-02-24T18:58:00.000",
    "request_status": "Pending",
    "responsible_agency": "Mosquito, Termite & Rodent Control Board",
    "final_address": "500 Lakeshore Prkwy",
    "address_councildis": "D",
    "status": "Pending",
    "rowid": "1070228",
    "final_x": "3668365.8569",
    "final_y": "557030.579674",
    "longitude": "-90.10868241020252",
    "latitude": "30.026033286635535",
    "geocoded_column": {
      "latitude": "30.026033286635535",
      "longitude": "-90.10868241020252"
    }
  },
  {
    "service_request": "2024-1070227",
    "request_type": "Healthy Homes",
    "request_reason": "Healthy Homes",
    "date_created": "2024-02-24T18:41:37.000",
    "date_modified": "2024-02-24T18:41:37.000",
    "request_status": "Pending",
    "responsible_agency": "Department of Code Enforcement",
    "final_address": "928 N Salcedo St",
    "address_councildis": "A",
    "status": "Pending",
    "rowid": "1070227",
    "final_x": "3676088.51233",
    "final_y": "538652.277833",
    "longitude": "-90.08491249304397",
    "latitude": "29.975270229132203",
    "geocoded_column": {
      "latitude": "29.975270229132203",
      "longitude": "-90.08491249304397"
    }
  },
  {
    "service_request": "2024-1070226",
    "request_type": "Abandoned Vehicles",
    "request_reason": "Abandoned/Junk Vehicles",
    "date_created": "2024-02-24T18:38:37.000",
    "date_modified": "2024-02-24T18:38:37.000",
    "request_status": "Pending",
    "responsible_agency": "Department of Public Works",
    "final_address": "928 N Salcedo St",
    "address_councildis": "A",
    "status": "Pending",
    "rowid": "1070226",
    "final_x": "3676088.51233",
    "final_y": "538652.277833",
    "longitude": "-90.08491249304397",
    "latitude": "29.975270229132203",
    "geocoded_column": {
      "latitude": "29.975270229132203",
      "longitude": "-90.08491249304397"
    }
  },
  {
    "service_request": "2024-1070225",
    "request_type": "Property Maintenance",
    "request_reason": "Property Maintenance",
    "date_created": "2024-02-24T18:37:21.000",
    "date_modified": "2024-02-24T18:37:21.000",
    "request_status": "Pending",
    "responsible_agency": "Department of Code Enforcement",
    "final_address": "717 Bellecastle St",
    "address_councildis": "B",
    "status": "Pending",
    "rowid": "1070225",
    "final_x": "3667713.17293",
    "final_y": "518058.784118",
    "longitude": "-90.11205734942605",
    "latitude": "29.918893060075725",
    "geocoded_column": {
      "latitude": "29.918893060075725",
      "longitude": "-90.11205734942605"
    }
  },
  {
    "service_request": "2024-1070224",
    "request_type": "Property Maintenance",
    "request_reason": "Property Maintenance",
    "date_created": "2024-02-24T18:35:01.000",
    "date_modified": "2024-02-24T18:35:01.000",
    "request_status": "Pending",
    "responsible_agency": "Department of Code Enforcement",
    "final_address": "5237 Laurel St",
    "address_councildis": "B",
    "status": "Pending",
    "rowid": "1070224",
    "final_x": "3667706.34509",
    "final_y": "517911.862902",
    "longitude": "-90.11208384420443",
    "latitude": "29.9184892729979",
    "geocoded_column": {
      "latitude": "29.9184892729979",
      "longitude": "-90.11208384420443"
    }
  },
  {
    "service_request": "2024-1070223",
    "request_type": "Property Maintenance",
    "request_reason": "Property Maintenance",
    "date_created": "2024-02-24T18:32:46.000",
    "date_modified": "2024-02-24T18:32:46.000",
    "request_status": "Pending",
    "responsible_agency": "Department of Code Enforcement",
    "final_address": "715 Bellecastle St",
    "address_councildis": "B",
    "status": "Pending",
    "rowid": "1070223",
    "final_x": "3667708.31213",
    "final_y": "518027.187062",
    "longitude": "-90.11207375550967",
    "latitude": "29.918806320556385",
    "geocoded_column": {
      "latitude": "29.918806320556385",
      "longitude": "-90.11207375550967"
    }
  },
  {
    "service_request": "2024-1070222",
    "request_type": "Property Maintenance",
    "request_reason": "Property Maintenance",
    "date_created": "2024-02-24T18:32:30.000",
    "date_modified": "2024-02-24T18:32:30.000",
    "request_status": "Pending",
    "responsible_agency": "Department of Code Enforcement",
    "final_address": "715 Bellecastle St",
    "address_councildis": "B",
    "status": "Pending",
    "rowid": "1070222",
    "final_x": "3667708.31213",
    "final_y": "518027.187062",
    "longitude": "-90.11207375550967",
    "latitude": "29.918806320556385",
    "geocoded_column": {
      "latitude": "29.918806320556385",
      "longitude": "-90.11207375550967"
    }
  },
  {
    "service_request": "2024-1070221",
    "request_type": "Trash/Recycling",
    "request_reason": "Replace Trash Cart",
    "date_created": "2024-02-24T18:06:40.000",
    "date_modified": "2024-02-24T18:06:41.000",
    "request_status": "Pending",
    "responsible_agency": "Department of Sanitation",
    "final_address": "23 Forest Oaks Dr",
    "address_councildis": "C",
    "status": "Assigned to Contractor",
    "contractor": "Richards Disposal",
    "rowid": "1070221",
    "final_x": "3722115.86342",
    "final_y": "510139.328367",
    "longitude": "-89.94064233201706",
    "latitude": "29.89541091677866",
    "geocoded_column": {
      "latitude": "29.89541091677866",
      "longitude": "-89.94064233201706"
    }
  },
  {
    "service_request": "2024-1070220",
    "request_type": "Abandoned Vehicles",
    "request_reason": "Abandoned/Junk Vehicles",
    "date_created": "2024-02-24T18:06:02.000",
    "date_modified": "2024-02-24T18:06:02.000",
    "request_status": "Pending",
    "responsible_agency": "Department of Public Works",
    "final_address": "6740 Avenue A",
    "address_councildis": "A",
    "status": "Pending",
    "rowid": "1070220",
    "final_x": "3666030.83565",
    "final_y": "553005.350743",
    "longitude": "-90.11619591727839",
    "latitude": "30.015033742227047",
    "geocoded_column": {
      "latitude": "30.015033742227047",
      "longitude": "-90.11619591727839"
    }
  },
  {
    "service_request": "2024-1070219",
    "request_type": "Traffic Signals/Signs/Striping/Streetlights",
    "request_reason": "Street Light Knocked Down/Leaning",
    "date_created": "2024-02-24T18:04:46.000",
    "date_modified": "2024-02-24T18:04:47.000",
    "request_status": "Pending",
    "responsible_agency": "Department of Public Works",
    "final_address": "929 Harding Dr",
    "address_councildis": "A",
    "status": "Pending",
    "contractor": "Legacy Professional Services",
    "rowid": "1070219",
    "final_x": "3674308.46798",
    "final_y": "539879.64801",
    "longitude": "-90.09049230919976",
    "latitude": "29.97869828470128",
    "geocoded_column": {
      "latitude": "29.97869828470128",
      "longitude": "-90.09049230919976"
    }
  },
  {
    "service_request": "2024-1070218",
    "request_type": "Trash/Recycling",
    "request_reason": "Replace Trash Cart",
    "date_created": "2024-02-24T17:52:57.000",
    "date_modified": "2024-02-24T17:52:58.000",
    "request_status": "Pending",
    "responsible_agency": "Department of Sanitation",
    "final_address": "818 Sixth St",
    "address_councildis": "B",
    "status": "Assigned to Contractor",
    "contractor": "Richards Disposal",
    "rowid": "1070218",
    "final_x": "3677093.64949",
    "final_y": "519734.75948",
    "longitude": "-90.08239026896912",
    "latitude": "29.923223205223845",
    "geocoded_column": {
      "latitude": "29.923223205223845",
      "longitude": "-90.08239026896912"
    }
  },
  {
    "service_request": "2024-1070217",
    "request_type": "Trash/Recycling",
    "request_reason": "Request a Large Item Pick Up",
    "date_created": "2024-02-24T17:43:27.000",
    "date_modified": "2024-02-24T17:43:28.000",
    "request_status": "Pending",
    "responsible_agency": "Department of Sanitation",
    "final_address": "7929 Freret St",
    "address_councildis": "A",
    "status": "Assigned to Contractor",
    "contractor": "Richards Disposal",
    "rowid": "1070217",
    "final_x": "3661926.85114",
    "final_y": "527522.518655",
    "longitude": "-90.13000815603785",
    "latitude": "29.9450836666227",
    "geocoded_column": {
      "latitude": "29.9450836666227",
      "longitude": "-90.13000815603785"
    }
  },
  {
    "service_request": "2024-1070216",
    "request_type": "Property Maintenance",
    "request_reason": "Property Maintenance",
    "date_created": "2024-02-24T17:18:08.000",
    "date_modified": "2024-02-24T17:18:08.000",
    "request_status": "Pending",
    "responsible_agency": "Department of Code Enforcement",
    "final_address": "2123 Soniat St",
    "address_councildis": "B",
    "status": "Pending",
    "rowid": "1070216",
    "final_x": "3668555.93722",
    "final_y": "523414.748795",
    "longitude": "-90.10921656122541",
    "latitude": "29.93359553615721",
    "geocoded_column": {
      "latitude": "29.93359553615721",
      "longitude": "-90.10921656122541"
    }
  },
  {
    "service_request": "2024-1070215",
    "request_type": "Trash/Recycling",
    "request_reason": "Replace Trash Cart",
    "date_created": "2024-02-24T17:17:50.000",
    "date_modified": "2024-02-24T17:17:51.000",
    "request_status": "Pending",
    "responsible_agency": "Department of Sanitation",
    "final_address": "5116 Timber Crest Dr",
    "address_councildis": "C",
    "status": "Assigned to Contractor",
    "contractor": "Richards Disposal",
    "rowid": "1070215",
    "final_x": "3703039.6897",
    "final_y": "511263.83192",
    "longitude": "-90.00080006236477",
    "latitude": "29.899126677897588",
    "geocoded_column": {
      "latitude": "29.899126677897588",
      "longitude": "-90.00080006236477"
    }
  },
  {
    "service_request": "2024-1070214",
    "request_type": "Roads/Drainage",
    "request_reason": "Street Subsidence (Sinking)",
    "date_created": "2024-02-24T17:15:31.000",
    "date_modified": "2024-02-24T17:15:31.000",
    "request_status": "Pending",
    "responsible_agency": "Department of Public Works",
    "final_address": "4700 BLK Conti St",
    "address_councildis": "A",
    "status": "Pending",
    "rowid": "1070214",
    "final_x": "3669675.47295",
    "final_y": "540888.272998",
    "longitude": "-90.10509093591918",
    "latitude": "29.981609023685827",
    "geocoded_column": {
      "latitude": "29.981609023685827",
      "longitude": "-90.10509093591918"
    }
  },
  {
    "service_request": "2024-1070213",
    "request_type": "Abandoned Vehicles",
    "request_reason": "Abandoned/Junk Vehicles",
    "date_created": "2024-02-24T17:12:05.000",
    "date_modified": "2024-02-24T17:12:05.000",
    "request_status": "Pending",
    "responsible_agency": "Department of Public Works",
    "final_address": "4200 Iberville St, New Orleans, Louisiana, 70119",
    "address_councildis": "A",
    "status": "Pending",
    "rowid": "1070213",
    "final_x": "3670754.76532",
    "final_y": "539099.020682",
    "longitude": "-90.10174276079856",
    "latitude": "29.976657332118958",
    "geocoded_column": {
      "latitude": "29.976657332118958",
      "longitude": "-90.10174276079856"
    }
  },
  {
    "service_request": "2024-1070212",
    "request_type": "Trash/Recycling",
    "request_reason": "Replace Trash Cart",
    "date_created": "2024-02-24T17:08:25.000",
    "date_modified": "2024-02-24T17:08:25.000",
    "request_status": "Pending",
    "responsible_agency": "Department of Sanitation",
    "final_address": "716 Peniston St",
    "address_councildis": "B",
    "status": "Assigned to Contractor",
    "contractor": "Richards Disposal",
    "rowid": "1070212",
    "final_x": "3673485.12014",
    "final_y": "518469.724342",
    "longitude": "-90.09382423794936",
    "latitude": "29.91985259424551",
    "geocoded_column": {
      "latitude": "29.91985259424551",
      "longitude": "-90.09382423794936"
    }
  },
  {
    "service_request": "2024-1070211",
    "request_type": "Utility Poles",
    "request_reason": "Utility Pole Leaning",
    "date_created": "2024-02-24T17:07:29.000",
    "date_modified": "2024-02-24T17:07:35.000",
    "request_status": "Pending",
    "responsible_agency": "Utility Company Collective",
    "final_address": "0 BLK English Turn Ct",
    "address_councildis": "C",
    "status": "Pending",
    "rowid": "1070211",
    "final_x": "3718192.33064",
    "final_y": "515237.824627",
    "longitude": "-89.95282998262913",
    "latitude": "29.909560529683482",
    "geocoded_column": {
      "latitude": "29.909560529683482",
      "longitude": "-89.95282998262913"
    }
  },
  {
    "service_request": "2024-1070210",
    "request_type": "Roads/Drainage",
    "request_reason": "Street Subsidence (Sinking)",
    "date_created": "2024-02-24T17:07:27.000",
    "date_modified": "2024-02-24T17:07:27.000",
    "request_status": "Pending",
    "responsible_agency": "Department of Public Works",
    "final_address": "95 Fontainebleau Dr",
    "address_councildis": "B",
    "status": "Pending",
    "rowid": "1070210",
    "final_x": "3667282.71642",
    "final_y": "530705.469122",
    "longitude": "-90.11299093651621",
    "latitude": "29.953680002264115",
    "geocoded_column": {
      "latitude": "29.953680002264115",
      "longitude": "-90.11299093651621"
    }
  },
  {
    "service_request": "2024-1070209",
    "request_type": "Trash/Recycling",
    "request_reason": "Illegal Dumping",
    "date_created": "2024-02-24T16:36:10.000",
    "date_modified": "2024-02-24T16:36:10.000",
    "request_status": "Pending",
    "responsible_agency": "Department of Sanitation",
    "final_address": "1532 Aviators St",
    "address_councildis": "D",
    "status": "Pending",
    "rowid": "1070209",
    "final_x": "3678572.28232",
    "final_y": "554863.675224",
    "longitude": "-90.07650649497246",
    "latitude": "30.01977119760009",
    "geocoded_column": {
      "latitude": "30.01977119760009",
      "longitude": "-90.07650649497246"
    }
  },
  {
    "service_request": "2024-1070208",
    "request_type": "Trash/Recycling",
    "request_reason": "Order Recycling Cart",
    "date_created": "2024-02-24T16:35:56.000",
    "date_modified": "2024-02-24T16:35:56.000",
    "request_status": "Pending",
    "responsible_agency": "Department of Sanitation",
    "final_address": "601 Sixth St",
    "address_councildis": "B",
    "status": "Pending",
    "rowid": "1070208",
    "final_x": "3677608.21704",
    "final_y": "519113.642359",
    "longitude": "-90.08078740655355",
    "latitude": "29.921499877356183",
    "geocoded_column": {
      "latitude": "29.921499877356183",
      "longitude": "-90.08078740655355"
    }
  },
  {
    "service_request": "2024-1070207",
    "request_type": "Trash/Recycling",
    "request_reason": "Request a Large Item Pick Up",
    "date_created": "2024-02-24T16:29:22.000",
    "date_modified": "2024-02-24T16:29:23.000",
    "request_status": "Pending",
    "responsible_agency": "Department of Sanitation",
    "final_address": "1010 Harmony St",
    "address_councildis": "B",
    "status": "Assigned to Contractor",
    "contractor": "Richards Disposal",
    "rowid": "1070207",
    "final_x": "3675886.1076",
    "final_y": "519734.86892",
    "longitude": "-90.086202018809",
    "latitude": "29.923259700004266",
    "geocoded_column": {
      "latitude": "29.923259700004266",
      "longitude": "-90.086202018809"
    }
  },
  {
    "service_request": "2024-1070206",
    "request_type": "Trash/Recycling",
    "request_reason": "Return Recycling Cart",
    "date_created": "2024-02-24T16:28:08.000",
    "date_modified": "2024-02-24T16:28:08.000",
    "request_status": "Pending",
    "responsible_agency": "Department of Sanitation",
    "final_address": "1010 Harmony St",
    "address_councildis": "B",
    "status": "Pending",
    "rowid": "1070206",
    "final_x": "3675886.1076",
    "final_y": "519734.86892",
    "longitude": "-90.086202018809",
    "latitude": "29.923259700004266",
    "geocoded_column": {
      "latitude": "29.923259700004266",
      "longitude": "-90.086202018809"
    }
  },
  {
    "service_request": "2024-1070205",
    "request_type": "Abandoned Vehicles",
    "request_reason": "Abandoned/Junk Vehicles",
    "date_created": "2024-02-24T16:22:22.000",
    "date_modified": "2024-02-24T16:22:22.000",
    "request_status": "Pending",
    "responsible_agency": "Department of Public Works",
    "final_address": "2000 BLK Filmore Ave",
    "address_councildis": "D",
    "status": "Pending",
    "rowid": "1070205",
    "final_x": "3682424.35952",
    "final_y": "552186.272055",
    "longitude": "-90.06442887785227",
    "latitude": "30.01229257509666",
    "geocoded_column": {
      "latitude": "30.01229257509666",
      "longitude": "-90.06442887785227"
    }
  },
  {
    "service_request": "2024-1070204",
    "request_type": "Abandoned Vehicles",
    "request_reason": "Abandoned/Junk Vehicles",
    "date_created": "2024-02-24T16:12:23.000",
    "date_modified": "2024-02-24T16:12:23.000",
    "request_status": "Pending",
    "responsible_agency": "Department of Public Works",
    "final_address": "2000 BLK Filmore Ave",
    "address_councildis": "D",
    "status": "Pending",
    "rowid": "1070204",
    "final_x": "3682424.35952",
    "final_y": "552186.272055",
    "longitude": "-90.06442887785227",
    "latitude": "30.01229257509666",
    "geocoded_column": {
      "latitude": "30.01229257509666",
      "longitude": "-90.06442887785227"
    }
  },
  {
    "service_request": "2024-1070203",
    "request_type": "Abandoned Vehicles",
    "request_reason": "Abandoned/Junk Vehicles",
    "date_created": "2024-02-24T15:51:37.000",
    "date_modified": "2024-02-24T15:51:37.000",
    "request_status": "Pending",
    "responsible_agency": "Department of Public Works",
    "final_address": "6631 Avenue B",
    "address_councildis": "A",
    "status": "Pending",
    "rowid": "1070203",
    "final_x": "3665793.00487",
    "final_y": "552242.401942",
    "longitude": "-90.1169729417012",
    "latitude": "30.012942844340674",
    "geocoded_column": {
      "latitude": "30.012942844340674",
      "longitude": "-90.1169729417012"
    }
  },
  {
    "service_request": "2024-1070202",
    "request_type": "Trash/Recycling",
    "request_reason": "Request a Large Item Pick Up",
    "date_created": "2024-02-24T15:26:55.000",
    "date_modified": "2024-02-24T15:26:55.000",
    "request_status": "Pending",
    "responsible_agency": "Department of Sanitation",
    "final_address": "2447 Odin St",
    "address_councildis": "D",
    "status": "Assigned to Contractor",
    "contractor": "IV Waste",
    "rowid": "1070202",
    "final_x": "3685649.96758",
    "final_y": "553243.563799",
    "longitude": "-90.05420049879214",
    "latitude": "30.01510112750866",
    "geocoded_column": {
      "latitude": "30.01510112750866",
      "longitude": "-90.05420049879214"
    }
  },
  {
    "service_request": "2024-1070201",
    "request_type": "Roads/Drainage",
    "request_reason": "Pothole",
    "date_created": "2024-02-24T15:05:07.000",
    "date_modified": "2024-02-24T15:05:07.000",
    "request_status": "Pending",
    "responsible_agency": "Department of Public Works",
    "final_address": "5911 Pitt St",
    "address_councildis": "A",
    "status": "Pending",
    "rowid": "1070201",
    "final_x": "3665593.70816",
    "final_y": "521157.144249",
    "longitude": "-90.11864375351159",
    "latitude": "29.927474522277453",
    "geocoded_column": {
      "latitude": "29.927474522277453",
      "longitude": "-90.11864375351159"
    }
  },
  {
    "service_request": "2024-1070200",
    "request_type": "Trash/Recycling",
    "request_reason": "Illegal Dumping",
    "date_created": "2024-02-24T14:38:29.000",
    "date_modified": "2024-02-24T14:38:29.000",
    "request_status": "Pending",
    "responsible_agency": "Department of Sanitation",
    "final_address": "3240 Laurel St",
    "address_councildis": "B",
    "status": "Pending",
    "rowid": "1070200",
    "final_x": "3675817.8027",
    "final_y": "519138.161207",
    "longitude": "-90.08643812864207",
    "latitude": "29.92162099003982",
    "geocoded_column": {
      "latitude": "29.92162099003982",
      "longitude": "-90.08643812864207"
    }
  },
  {
    "service_request": "2024-1070199",
    "request_type": "Trash/Recycling",
    "request_reason": "Missed Trash Pick-Up",
    "date_created": "2024-02-24T14:26:39.000",
    "date_modified": "2024-02-24T14:26:40.000",
    "request_status": "Pending",
    "responsible_agency": "Department of Sanitation",
    "final_address": "8517 Spruce St",
    "address_councildis": "A",
    "status": "Assigned to Contractor",
    "contractor": "Richards Disposal",
    "rowid": "1070199",
    "final_x": "3662706.3337",
    "final_y": "531553.450563",
    "longitude": "-90.12741313324074",
    "latitude": "29.956144900463567",
    "geocoded_column": {
      "latitude": "29.956144900463567",
      "longitude": "-90.12741313324074"
    }
  },
  {
    "service_request": "2024-1070198",
    "request_type": "Abandoned Vehicles",
    "request_reason": "Vehicle Blocking Your Driveway",
    "date_created": "2024-02-24T14:24:08.000",
    "date_modified": "2024-02-24T14:24:08.000",
    "request_status": "Pending",
    "responsible_agency": "Department of Public Works",
    "final_address": "4401 S Johnson St, New Orleans, Louisiana, 70125",
    "address_councildis": "B",
    "status": "Pending",
    "rowid": "1070198",
    "final_x": "3670051.14906",
    "final_y": "527242.400191",
    "longitude": "-90.10436664037672",
    "latitude": "29.94407633302081",
    "geocoded_column": {
      "latitude": "29.94407633302081",
      "longitude": "-90.10436664037672"
    }
  },
  {
    "service_request": "2024-1070197",
    "request_type": "Trash/Recycling",
    "request_reason": "Missed Trash Pick-Up",
    "date_created": "2024-02-24T14:23:56.000",
    "date_modified": "2024-02-24T14:23:57.000",
    "request_status": "Pending",
    "responsible_agency": "Department of Sanitation",
    "final_address": "8517 Spruce St",
    "address_councildis": "A",
    "status": "Assigned to Contractor",
    "contractor": "Richards Disposal",
    "rowid": "1070197",
    "final_x": "3662706.3337",
    "final_y": "531553.450563",
    "longitude": "-90.12741313324074",
    "latitude": "29.956144900463567",
    "geocoded_column": {
      "latitude": "29.956144900463567",
      "longitude": "-90.12741313324074"
    }
  },
  {
    "service_request": "2024-1070195",
    "request_type": "Abandoned Vehicles",
    "request_reason": "Vehicle Blocking Your Driveway",
    "date_created": "2024-02-24T14:19:29.000",
    "date_modified": "2024-02-24T14:19:29.000",
    "request_status": "Pending",
    "responsible_agency": "Department of Public Works",
    "final_address": "3400 Napoleon Ave, New Orleans, Louisiana, 70125",
    "address_councildis": "B",
    "status": "Pending",
    "rowid": "1070195",
    "final_x": "3670073.0873",
    "final_y": "527279.868223",
    "longitude": "-90.10429610618746",
    "latitude": "29.94417871090911",
    "geocoded_column": {
      "latitude": "29.94417871090911",
      "longitude": "-90.10429610618746"
    }
  },
  {
    "service_request": "2024-1070194",
    "request_type": "Trash/Recycling",
    "request_reason": "Replace Recycling Cart",
    "date_created": "2024-02-24T14:13:53.000",
    "date_modified": "2024-02-24T14:13:53.000",
    "request_status": "Pending",
    "responsible_agency": "Department of Sanitation",
    "final_address": "219 S Alexander St",
    "address_councildis": "A",
    "status": "Pending",
    "rowid": "1070194",
    "final_x": "3669593.17358",
    "final_y": "538724.885513",
    "longitude": "-90.10542410040286",
    "latitude": "29.97566286552893",
    "geocoded_column": {
      "latitude": "29.97566286552893",
      "longitude": "-90.10542410040286"
    }
  },
  {
    "service_request": "2024-1070193",
    "request_type": "Trash/Recycling",
    "request_reason": "Repair Recycling Cart",
    "date_created": "2024-02-24T14:10:20.000",
    "date_modified": "2024-02-24T14:10:20.000",
    "request_status": "Pending",
    "responsible_agency": "Department of Sanitation",
    "final_address": "219 S Alexander St",
    "address_councildis": "A",
    "status": "Pending",
    "rowid": "1070193",
    "final_x": "3669593.17358",
    "final_y": "538724.885513",
    "longitude": "-90.10542410040286",
    "latitude": "29.97566286552893",
    "geocoded_column": {
      "latitude": "29.97566286552893",
      "longitude": "-90.10542410040286"
    }
  },
  {
    "service_request": "2024-1070192",
    "request_type": "Trash/Recycling",
    "request_reason": "Replace Recycling Cart",
    "date_created": "2024-02-24T14:08:01.000",
    "date_modified": "2024-02-24T14:08:01.000",
    "request_status": "Pending",
    "responsible_agency": "Department of Sanitation",
    "final_address": "219 S Alexander St",
    "address_councildis": "A",
    "status": "Pending",
    "rowid": "1070192",
    "final_x": "3669593.17358",
    "final_y": "538724.885513",
    "longitude": "-90.10542410040286",
    "latitude": "29.97566286552893",
    "geocoded_column": {
      "latitude": "29.97566286552893",
      "longitude": "-90.10542410040286"
    }
  },
  {
    "service_request": "2024-1070191",
    "request_type": "Roads/Drainage",
    "request_reason": "Pothole",
    "date_created": "2024-02-24T14:07:44.000",
    "date_modified": "2024-02-24T14:07:44.000",
    "request_status": "Pending",
    "responsible_agency": "Department of Public Works",
    "final_address": "1239 Eleonore St",
    "address_councildis": "A",
    "status": "Pending",
    "rowid": "1070191",
    "final_x": "3665602.50362",
    "final_y": "520568.733816",
    "longitude": "-90.11863567920368",
    "latitude": "29.925856322761145",
    "geocoded_column": {
      "latitude": "29.925856322761145",
      "longitude": "-90.11863567920368"
    }
  },
  {
    "service_request": "2024-1070190",
    "request_type": "Roads/Drainage",
    "request_reason": "Pothole",
    "date_created": "2024-02-24T14:03:49.000",
    "date_modified": "2024-02-24T14:03:49.000",
    "request_status": "Pending",
    "responsible_agency": "Department of Public Works",
    "final_address": "6003 Chestnut St",
    "address_councildis": "A",
    "status": "Pending",
    "rowid": "1070190",
    "final_x": "3664843.83136",
    "final_y": "519920.84268",
    "longitude": "-90.12105222985214",
    "latitude": "29.924096918512866",
    "geocoded_column": {
      "latitude": "29.924096918512866",
      "longitude": "-90.12105222985214"
    }
  },
  {
    "service_request": "2024-1070189",
    "request_type": "Property Maintenance",
    "request_reason": "Property Maintenance",
    "date_created": "2024-02-24T13:57:11.000",
    "date_modified": "2024-02-24T13:57:11.000",
    "request_status": "Pending",
    "responsible_agency": "Department of Code Enforcement",
    "final_address": "1348 St Bernard Ave",
    "address_councildis": "C",
    "status": "Pending",
    "rowid": "1070189",
    "final_x": "3682632.8374",
    "final_y": "536868.446216",
    "longitude": "-90.06430619175003",
    "latitude": "29.970167631820704",
    "geocoded_column": {
      "latitude": "29.970167631820704",
      "longitude": "-90.06430619175003"
    }
  },
  {
    "service_request": "2024-1070188",
    "request_type": "Trash/Recycling",
    "request_reason": "Replace Trash Cart",
    "date_created": "2024-02-24T13:51:27.000",
    "date_modified": "2024-02-24T13:51:28.000",
    "request_status": "Pending",
    "responsible_agency": "Department of Sanitation",
    "final_address": "904 Bellecastle St",
    "address_councildis": "B",
    "status": "Assigned to Contractor",
    "contractor": "Richards Disposal",
    "rowid": "1070188",
    "final_x": "3667666.11501",
    "final_y": "518718.807159",
    "longitude": "-90.11218368462713",
    "latitude": "29.920709294858614",
    "geocoded_column": {
      "latitude": "29.920709294858614",
      "longitude": "-90.11218368462713"
    }
  },
  {
    "service_request": "2024-1070187",
    "request_type": "Trash/Recycling",
    "request_reason": "Replace Trash Cart",
    "date_created": "2024-02-24T13:51:07.000",
    "date_modified": "2024-02-24T13:51:07.000",
    "request_status": "Pending",
    "responsible_agency": "Department of Sanitation",
    "final_address": "416 S Olympia St",
    "address_councildis": "A",
    "status": "Assigned to Contractor",
    "contractor": "Richards Disposal",
    "rowid": "1070187",
    "final_x": "3668591.19188",
    "final_y": "538483.697481",
    "longitude": "-90.10859678922827",
    "latitude": "29.97502916585339",
    "geocoded_column": {
      "latitude": "29.97502916585339",
      "longitude": "-90.10859678922827"
    }
  },
  {
    "service_request": "2024-1070186",
    "request_type": "Trash/Recycling",
    "request_reason": "Replace Trash Cart",
    "date_created": "2024-02-24T13:50:12.000",
    "date_modified": "2024-02-24T13:50:13.000",
    "request_status": "Pending",
    "responsible_agency": "Department of Sanitation",
    "final_address": "1354 St Bernard Ave",
    "address_councildis": "C",
    "status": "Assigned to Contractor",
    "contractor": "IV Waste",
    "rowid": "1070186",
    "final_x": "3682621.32469",
    "final_y": "536899.730824",
    "longitude": "-90.06434145586275",
    "latitude": "29.970254004263538",
    "geocoded_column": {
      "latitude": "29.970254004263538",
      "longitude": "-90.06434145586275"
    }
  },
  {
    "service_request": "2024-1070185",
    "request_type": "Roads/Drainage",
    "request_reason": "Alley Way",
    "date_created": "2024-02-24T13:46:34.000",
    "date_modified": "2024-02-24T13:46:34.000",
    "request_status": "Pending",
    "responsible_agency": "Department of Public Works",
    "final_address": "6654 Louisville St",
    "address_councildis": "A",
    "status": "Pending",
    "rowid": "1070185",
    "final_x": "3668059.41351",
    "final_y": "551917.204118",
    "longitude": "-90.1098232644216",
    "latitude": "30.011982316341307",
    "geocoded_column": {
      "latitude": "30.011982316341307",
      "longitude": "-90.1098232644216"
    }
  },
  {
    "service_request": "2024-1070184",
    "request_type": "Trash/Recycling",
    "request_reason": "Replace Trash Cart",
    "date_created": "2024-02-24T13:46:20.000",
    "date_modified": "2024-02-24T13:46:21.000",
    "request_status": "Pending",
    "responsible_agency": "Department of Sanitation",
    "final_address": "919 Webster St, New Orleans, Louisiana, 70118",
    "address_councildis": "A",
    "status": "Assigned to Contractor",
    "contractor": "Richards Disposal",
    "rowid": "1070184",
    "final_x": "3664356.2745",
    "final_y": "519870.89132",
    "longitude": "-90.12259294749789",
    "latitude": "29.923973742520648",
    "geocoded_column": {
      "latitude": "29.923973742520648",
      "longitude": "-90.12259294749789"
    }
  },
  {
    "service_request": "2024-1070183",
    "request_type": "Property Maintenance",
    "request_reason": "Property Maintenance",
    "date_created": "2024-02-24T13:37:16.000",
    "date_modified": "2024-02-24T13:37:16.000",
    "request_status": "Pending",
    "responsible_agency": "Department of Code Enforcement",
    "final_address": "4774 Galahad Dr",
    "address_councildis": "E",
    "status": "Pending",
    "rowid": "1070183",
    "final_x": "3707114.60894",
    "final_y": "555700.369113",
    "longitude": "-89.9862917212631",
    "latitude": "30.021180070997943",
    "geocoded_column": {
      "latitude": "30.021180070997943",
      "longitude": "-89.9862917212631"
    }
  },
  {
    "service_request": "2024-1070182",
    "request_type": "Trash/Recycling",
    "request_reason": "MIssed Recycling Pick-Up",
    "date_created": "2024-02-24T13:07:46.000",
    "date_modified": "2024-02-24T15:58:15.000",
    "case_close_date": "2024-02-24T09:58:15.000",
    "request_status": "Closed",
    "responsible_agency": "Department of Sanitation",
    "final_address": "2127 Piety St",
    "address_councildis": "D",
    "status": "Invalid Request",
    "contractor": "IV Waste",
    "contractor_action": "Invalid",
    "rowid": "1070182",
    "final_x": "3690858.77244",
    "final_y": "539749.009802",
    "longitude": "-90.0382251028675",
    "latitude": "29.9778350959377",
    "geocoded_column": {
      "latitude": "29.9778350959377",
      "longitude": "-90.0382251028675"
    }
  },
  {
    "service_request": "2024-1070181",
    "request_type": "Trash/Recycling",
    "request_reason": "Replace Trash Cart",
    "date_created": "2024-02-24T12:56:13.000",
    "date_modified": "2024-02-24T12:56:14.000",
    "request_status": "Pending",
    "responsible_agency": "Department of Sanitation",
    "final_address": "224 N Olympia St",
    "address_councildis": "A",
    "status": "Assigned to Contractor",
    "contractor": "Richards Disposal",
    "rowid": "1070181",
    "final_x": "3669841.8546",
    "final_y": "540105.150539",
    "longitude": "-90.10459194782254",
    "latitude": "29.97945079768139",
    "geocoded_column": {
      "latitude": "29.97945079768139",
      "longitude": "-90.10459194782254"
    }
  },
  {
    "service_request": "2024-1070180",
    "request_type": "Trash/Recycling",
    "request_reason": "Order Trash Cart",
    "date_created": "2024-02-24T12:55:06.000",
    "date_modified": "2024-02-24T12:55:06.000",
    "request_status": "Pending",
    "responsible_agency": "Department of Sanitation",
    "final_address": "2135 Columbus St",
    "address_councildis": "D",
    "status": "Assigned to Contractor",
    "contractor": "IV Waste",
    "rowid": "1070180",
    "final_x": "3680131.74133",
    "final_y": "538472.444937",
    "longitude": "-90.07214915639105",
    "latitude": "29.974654003623222",
    "geocoded_column": {
      "latitude": "29.974654003623222",
      "longitude": "-90.07214915639105"
    }
  },
  {
    "service_request": "2024-1070179",
    "request_type": "Trash/Recycling",
    "request_reason": "Missed Trash Pick-Up",
    "date_created": "2024-02-24T12:38:54.000",
    "date_modified": "2024-02-24T12:38:55.000",
    "request_status": "Pending",
    "responsible_agency": "Department of Sanitation",
    "final_address": "7720 Spruce St",
    "address_councildis": "A",
    "status": "Assigned to Contractor",
    "contractor": "Richards Disposal",
    "rowid": "1070179",
    "final_x": "3664775.48429",
    "final_y": "529563.764545",
    "longitude": "-90.12094590667361",
    "latitude": "29.950613869573143",
    "geocoded_column": {
      "latitude": "29.950613869573143",
      "longitude": "-90.12094590667361"
    }
  },
  {
    "service_request": "2024-1070178",
    "request_type": "Trash/Recycling",
    "request_reason": "Replace Recycling Cart",
    "date_created": "2024-02-24T12:33:04.000",
    "date_modified": "2024-02-24T12:33:04.000",
    "request_status": "Pending",
    "responsible_agency": "Department of Sanitation",
    "final_address": "1904 Milan St, New Orleans, Louisiana, 70115",
    "address_councildis": "B",
    "status": "Pending",
    "rowid": "1070178",
    "final_x": "3671439.90388",
    "final_y": "522084.324538",
    "longitude": "-90.100157211905",
    "latitude": "29.929852265746902",
    "geocoded_column": {
      "latitude": "29.929852265746902",
      "longitude": "-90.100157211905"
    }
  },
  {
    "service_request": "2024-1070177",
    "request_type": "Traffic Signals/Signs/Striping/Streetlights",
    "request_reason": "Traffic Sign Missing/Damaged",
    "date_created": "2024-02-24T12:08:21.000",
    "date_modified": "2024-02-24T12:08:21.000",
    "request_status": "Pending",
    "responsible_agency": "Department of Public Works",
    "final_address": "300 Alabo St",
    "address_councildis": "E",
    "status": "Pending",
    "rowid": "1070177",
    "final_x": "3698108.81002",
    "final_y": "530868.246018",
    "longitude": "-90.0156496518274",
    "latitude": "29.953188855321436",
    "geocoded_column": {
      "latitude": "29.953188855321436",
      "longitude": "-90.0156496518274"
    }
  },
  {
    "service_request": "2024-1070176",
    "request_type": "Health Related Request",
    "request_reason": "Noise Ordinance Complaint",
    "date_created": "2024-02-24T11:54:51.000",
    "date_modified": "2024-02-24T11:54:51.000",
    "request_status": "Pending",
    "responsible_agency": "Health Department",
    "final_address": "609 Royal St",
    "address_councildis": "C",
    "status": "Pending",
    "rowid": "1070176",
    "final_x": "3682359.78773",
    "final_y": "532248.014723",
    "longitude": "-90.06532998517771",
    "latitude": "29.957471342415",
    "geocoded_column": {
      "latitude": "29.957471342415",
      "longitude": "-90.06532998517771"
    }
  },
  {
    "service_request": "2024-1070175",
    "request_type": "Trash/Recycling",
    "request_reason": "Missed Trash Pick-Up",
    "date_created": "2024-02-24T11:49:14.000",
    "date_modified": "2024-02-24T11:49:15.000",
    "request_status": "Pending",
    "responsible_agency": "Department of Sanitation",
    "final_address": "1321 Coliseum St",
    "address_councildis": "B",
    "status": "Assigned to Contractor",
    "contractor": "Richards Disposal",
    "rowid": "1070175",
    "final_x": "3680001.24495",
    "final_y": "525179.628797",
    "longitude": "-90.07302305597607",
    "latitude": "29.938107203843167",
    "geocoded_column": {
      "latitude": "29.938107203843167",
      "longitude": "-90.07302305597607"
    }
  },
  {
    "service_request": "2024-1070174",
    "request_type": "Trash/Recycling",
    "request_reason": "Repair Trash Cart",
    "date_created": "2024-02-24T11:48:50.000",
    "date_modified": "2024-02-24T11:48:51.000",
    "request_status": "Pending",
    "responsible_agency": "Department of Sanitation",
    "final_address": "319 S Olympia St",
    "address_councildis": "A",
    "status": "Assigned to Contractor",
    "contractor": "Richards Disposal",
    "rowid": "1070174",
    "final_x": "3668789.28289",
    "final_y": "538858.399049",
    "longitude": "-90.10795850927556",
    "latitude": "29.97605364574328",
    "geocoded_column": {
      "latitude": "29.97605364574328",
      "longitude": "-90.10795850927556"
    }
  },
  {
    "service_request": "2024-1070173",
    "request_type": "Trash/Recycling",
    "request_reason": "Missed Trash Pick-Up",
    "date_created": "2024-02-24T11:48:12.000",
    "date_modified": "2024-02-24T11:48:13.000",
    "request_status": "Pending",
    "responsible_agency": "Department of Sanitation",
    "final_address": "1321 Coliseum St",
    "address_councildis": "B",
    "status": "Assigned to Contractor",
    "contractor": "Richards Disposal",
    "rowid": "1070173",
    "final_x": "3680001.24495",
    "final_y": "525179.628797",
    "longitude": "-90.07302305597607",
    "latitude": "29.938107203843167",
    "geocoded_column": {
      "latitude": "29.938107203843167",
      "longitude": "-90.07302305597607"
    }
  },
  {
    "service_request": "2024-1070172",
    "request_type": "Trash/Recycling",
    "request_reason": "Request a Large Item Pick Up",
    "date_created": "2024-02-24T11:47:47.000",
    "date_modified": "2024-02-24T11:47:47.000",
    "request_status": "Pending",
    "responsible_agency": "Department of Sanitation",
    "final_address": "5630 Annunciation St",
    "address_councildis": "A",
    "status": "Assigned to Contractor",
    "contractor": "Richards Disposal",
    "rowid": "1070172",
    "final_x": "3665553.08628",
    "final_y": "517527.534774",
    "longitude": "-90.118893424855",
    "latitude": "29.917495419297005",
    "geocoded_column": {
      "latitude": "29.917495419297005",
      "longitude": "-90.118893424855"
    }
  },
  {
    "service_request": "2024-1070171",
    "request_type": "Trash/Recycling",
    "request_reason": "Request a Large Item Pick Up",
    "date_created": "2024-02-24T11:35:39.000",
    "date_modified": "2024-02-24T11:35:39.000",
    "request_status": "Pending",
    "responsible_agency": "Department of Sanitation",
    "final_address": "822 N Rampart St Apt 203",
    "address_councildis": "C",
    "status": "Assigned to Contractor",
    "contractor": "Empire Services",
    "rowid": "1070171",
    "final_x": "3681805.9414",
    "final_y": "533735.560581",
    "longitude": "-90.06702695507745",
    "latitude": "29.96157842732481",
    "geocoded_column": {
      "latitude": "29.96157842732481",
      "longitude": "-90.06702695507745"
    }
  },
  {
    "service_request": "2024-1070170",
    "request_type": "Trash/Recycling",
    "request_reason": "Request a Large Item Pick Up",
    "date_created": "2024-02-24T11:06:56.000",
    "date_modified": "2024-02-24T11:06:56.000",
    "request_status": "Pending",
    "responsible_agency": "Department of Sanitation",
    "final_address": "4701 Lancelot Dr",
    "address_councildis": "E",
    "status": "Assigned to Contractor",
    "contractor": "Waste Pro",
    "rowid": "1070170",
    "final_x": "3707551.34078",
    "final_y": "555202.894745",
    "longitude": "-89.98493028089767",
    "latitude": "30.01979808532018",
    "geocoded_column": {
      "latitude": "30.01979808532018",
      "longitude": "-89.98493028089767"
    }
  },
  {
    "service_request": "2024-1070169",
    "request_type": "Trash/Recycling",
    "request_reason": "Repair Trash Cart",
    "date_created": "2024-02-24T11:03:55.000",
    "date_modified": "2024-02-24T11:03:55.000",
    "request_status": "Pending",
    "responsible_agency": "Department of Sanitation",
    "final_address": "319 S Olympia St",
    "address_councildis": "A",
    "status": "Assigned to Contractor",
    "contractor": "Richards Disposal",
    "rowid": "1070169",
    "final_x": "3668789.28289",
    "final_y": "538858.399049",
    "longitude": "-90.10795850927556",
    "latitude": "29.97605364574328",
    "geocoded_column": {
      "latitude": "29.97605364574328",
      "longitude": "-90.10795850927556"
    }
  },
  {
    "service_request": "2024-1070168",
    "request_type": "Roads/Drainage",
    "request_reason": "Pothole",
    "date_created": "2024-02-24T10:58:24.000",
    "date_modified": "2024-02-24T10:58:24.000",
    "request_status": "Pending",
    "responsible_agency": "Department of Public Works",
    "final_address": "8600 BLK Cohn St",
    "address_councildis": "A",
    "status": "Pending",
    "rowid": "1070168",
    "final_x": "3662171.97221",
    "final_y": "531508.182506",
    "longitude": "-90.12910197614633",
    "latitude": "29.956035880701155",
    "geocoded_column": {
      "latitude": "29.956035880701155",
      "longitude": "-90.12910197614633"
    }
  },
  {
    "service_request": "2024-1070167",
    "request_type": "Trash/Recycling",
    "request_reason": "Request a Large Item Pick Up",
    "date_created": "2024-02-24T10:57:59.000",
    "date_modified": "2024-02-24T10:57:59.000",
    "request_status": "Pending",
    "responsible_agency": "Department of Sanitation",
    "final_address": "7721 Spruce St",
    "address_councildis": "A",
    "status": "Assigned to Contractor",
    "contractor": "Richards Disposal",
    "rowid": "1070167",
    "final_x": "3664802.64589",
    "final_y": "529635.172225",
    "longitude": "-90.12085775814072",
    "latitude": "29.950809427330256",
    "geocoded_column": {
      "latitude": "29.950809427330256",
      "longitude": "-90.12085775814072"
    }
  },