[
  {
    "service_request": "2023-1000296",
    "request_type": "Trash/Recycling",
    "request_reason": "Request a Large Item Pick Up",
    "date_created": "2023-05-16T23:49:49.000",
    "date_modified": "2023-05-16T23:49:50.000",
    "request_status": "Pending",
    "responsible_agency": "Department of Sanitation",
    "final_address": "4719 Toulouse St",
    "address_councildis": "A",
    "status": "Assigned to Contractor",
    "contractor": "Richards Disposal",
    "rowid": "1000296",
    "final_x": "3670081.77498",
    "final_y": "541390.35918",
    "longitude": "-90.10379062445499",
    "latitude": "29.982977608286028",
    "geocoded_column": {
      "latitude": "29.982977608286028",
      "longitude": "-90.10379062445499"
    }
  },
  {
    "service_request": "2023-1000295",
    "request_type": "Trash/Recycling",
    "request_reason": "Order Recycling Cart",
    "date_created": "2023-05-16T22:54:51.000",
    "date_modified": "2023-05-16T22:54:51.000",
    "request_status": "Pending",
    "responsible_agency": "Department of Sanitation",
    "final_address": "4943 Redwood St",
    "address_councildis": "E",
    "status": "Pending",
    "rowid": "1000295",
    "final_x": "3712437.66181",
    "final_y": "557409.697243",
    "longitude": "-89.96940825387591",
    "latitude": "30.025706911193417",
    "geocoded_column": {
      "latitude": "30.025706911193417",
      "longitude": "-89.96940825387591"
    }
  },
  {
    "service_request": "2023-1000294",
    "request_type": "Traffic Signals/Signs/Striping/Streetlights",
    "request_reason": "Street Light Outage/Malfunction",
    "date_created": "2023-05-16T22:47:51.000",
    "date_modified": "2023-05-16T22:47:52.000",
    "request_status": "Pending",
    "responsible_agency": "Department of Public Works",
    "final_address": "8700 BLK Dinkins St",
    "address_councildis": "E",
    "status": "Assigned to Contractor",
    "contractor": "Legacy Professional Services",
    "rowid": "1000294",
    "final_x": "3704591.70856",
    "final_y": "563355.493155",
    "longitude": "-89.99398058649966",
    "latitude": "30.0423099813134",
    "geocoded_column": {
      "latitude": "30.0423099813134",
      "longitude": "-89.99398058649966"
    }
  },
  {
    "service_request": "2023-1000293",
    "request_type": "Traffic Signals/Signs/Striping/Streetlights",
    "request_reason": "Street Light Outage/Malfunction",
    "date_created": "2023-05-16T22:45:34.000",
    "date_modified": "2023-05-16T22:45:34.000",
    "request_status": "Pending",
    "responsible_agency": "Department of Public Works",
    "final_address": "330 Newton St",
    "address_councildis": "C",
    "status": "Assigned to Contractor",
    "contractor": "Legacy Professional Services",
    "rowid": "1000293",
    "final_x": "3686453.95266",
    "final_y": "527970.608319",
    "longitude": "-90.05255283301311",
    "latitude": "29.94558472359371",
    "geocoded_column": {
      "latitude": "29.94558472359371",
      "longitude": "-90.05255283301311"
    }
  },
  {
    "service_request": "2023-1000292",
    "request_type": "Traffic Signals/Signs/Striping/Streetlights",
    "request_reason": "Street Light Outage/Malfunction",
    "date_created": "2023-05-16T22:43:47.000",
    "date_modified": "2023-05-16T22:43:47.000",
    "request_status": "Pending",
    "responsible_agency": "Department of Public Works",
    "final_address": "330 Newton St",
    "address_councildis": "C",
    "status": "Assigned to Contractor",
    "contractor": "Legacy Professional Services",
    "rowid": "1000292",
    "final_x": "3686453.95266",
    "final_y": "527970.608319",
    "longitude": "-90.05255283301311",
    "latitude": "29.94558472359371",
    "geocoded_column": {
      "latitude": "29.94558472359371",
      "longitude": "-90.05255283301311"
    }
  },
  {
    "service_request": "2023-1000291",
    "request_type": "Roads/Drainage",
    "request_reason": "Pothole",
    "date_created": "2023-05-16T22:38:23.000",
    "date_modified": "2023-05-16T22:38:23.000",
    "request_status": "Pending",
    "responsible_agency": "Department of Public Works",
    "final_address": "MARSHALL FOCH ST & HARRISON AVE",
    "address_councildis": "A",
    "status": "Pending",
    "rowid": "1000291",
    "final_x": "3669997.6",
    "final_y": "549108.58",
    "longitude": "-90.10379490470092",
    "latitude": "30.004202537518502",
    "geocoded_column": {
      "latitude": "30.004202537518502",
      "longitude": "-90.10379490470092"
    }
  },
  {
    "service_request": "2023-1000290",
    "request_type": "Property Maintenance",
    "request_reason": "Property Maintenance",
    "date_created": "2023-05-16T22:20:29.000",
    "date_modified": "2023-05-16T22:20:29.000",
    "request_status": "Pending",
    "responsible_agency": "Department of Code Enforcement",
    "final_address": "4421 Burgundy St",
    "address_councildis": "C",
    "status": "Pending",
    "rowid": "1000290",
    "final_x": "3693060.53853",
    "final_y": "534190.816133",
    "longitude": "-90.03147064122932",
    "latitude": "29.962483423102945",
    "geocoded_column": {
      "latitude": "29.962483423102945",
      "longitude": "-90.03147064122932"
    }
  },
  {
    "service_request": "2023-1000289",
    "request_type": "Trash/Recycling",
    "request_reason": "Missed Trash Pick-Up",
    "date_created": "2023-05-16T22:13:01.000",
    "date_modified": "2023-05-16T22:13:01.000",
    "request_status": "Pending",
    "responsible_agency": "Department of Sanitation",
    "final_address": "3219 Jefferson Ave",
    "address_councildis": "B",
    "status": "Assigned to Contractor",
    "contractor": "Richards Disposal",
    "rowid": "1000289",
    "final_x": "3668653.2329",
    "final_y": "527043.453822",
    "longitude": "-90.10878697783913",
    "latitude": "29.94357044756528",
    "geocoded_column": {
      "latitude": "29.94357044756528",
      "longitude": "-90.10878697783913"
    }
  },
  {
    "service_request": "2023-1000288",
    "request_type": "Trash/Recycling",
    "request_reason": "Request a Large Item Pick Up",
    "date_created": "2023-05-16T22:04:40.000",
    "date_modified": "2023-05-16T22:04:41.000",
    "request_status": "Pending",
    "responsible_agency": "Department of Sanitation",
    "final_address": "3019 Annunciation St",
    "address_councildis": "B",
    "status": "Assigned to Contractor",
    "contractor": "Richards Disposal",
    "rowid": "1000288",
    "final_x": "3676809.52891",
    "final_y": "519393.798455",
    "longitude": "-90.08329887160036",
    "latitude": "29.92229419849596",
    "geocoded_column": {
      "latitude": "29.92229419849596",
      "longitude": "-90.08329887160036"
    }
  },
  {
    "service_request": "2023-1000287",
    "request_type": "Trash/Recycling",
    "request_reason": "Request a Large Item Pick Up",
    "date_created": "2023-05-16T22:01:21.000",
    "date_modified": "2023-05-16T22:01:21.000",
    "request_status": "Pending",
    "responsible_agency": "Department of Sanitation",
    "final_address": "3019 Annunciation St",
    "address_councildis": "B",
    "status": "Assigned to Contractor",
    "contractor": "Richards Disposal",
    "rowid": "1000287",
    "final_x": "3676809.52891",
    "final_y": "519393.798455",
    "longitude": "-90.08329887160036",
    "latitude": "29.92229419849596",
    "geocoded_column": {
      "latitude": "29.92229419849596",
      "longitude": "-90.08329887160036"
    }
  },
  {
    "service_request": "2023-1000286",
    "request_type": "Abandoned Vehicles",
    "request_reason": "Abandoned/Junk Vehicles",
    "date_created": "2023-05-16T21:50:02.000",
    "date_modified": "2023-05-16T21:50:02.000",
    "request_status": "Pending",
    "responsible_agency": "Department of Public Works",
    "final_address": "5700 BLK Foxcroft Dr",
    "address_councildis": "E",
    "status": "Pending",
    "rowid": "1000286",
    "final_x": "3715446.35647",
    "final_y": "561465.285978",
    "longitude": "-89.95974767857358",
    "latitude": "30.03675934101098",
    "geocoded_column": {
      "latitude": "30.03675934101098",
      "longitude": "-89.95974767857358"
    }
  },
  {
    "service_request": "2023-1000285",
    "request_type": "Trash/Recycling",
    "request_reason": "Missed Trash Pick-Up",
    "date_created": "2023-05-16T21:47:30.000",
    "date_modified": "2023-05-16T21:47:30.000",
    "request_status": "Pending",
    "responsible_agency": "Department of Sanitation",
    "final_address": "2331 N Rampart St",
    "address_councildis": "C",
    "status": "Assigned to Contractor",
    "contractor": "IV Waste",
    "rowid": "1000285",
    "final_x": "3685701.96918",
    "final_y": "536028.225927",
    "longitude": "-90.05464318444446",
    "latitude": "29.967763498163094",
    "geocoded_column": {
      "latitude": "29.967763498163094",
      "longitude": "-90.05464318444446"
    }
  },
  {
    "service_request": "2023-1000284",
    "request_type": "Roads/Drainage",
    "request_reason": "Drainage Issue (Catch Basins, Culverts, Ditches, and Manhole Covers)",
    "date_created": "2023-05-16T21:46:06.000",
    "date_modified": "2023-05-16T21:46:06.000",
    "request_status": "Pending",
    "responsible_agency": "Department of Public Works",
    "final_address": "5314 Warrington Dr",
    "address_councildis": "D",
    "status": "Pending",
    "rowid": "1000284",
    "final_x": "3680826.90888",
    "final_y": "552379.519446",
    "longitude": "-90.06946918728767",
    "latitude": "30.012872480380874",
    "geocoded_column": {
      "latitude": "30.012872480380874",
      "longitude": "-90.06946918728767"
    }
  },
  {
    "service_request": "2023-1000283",
    "request_type": "Trash/Recycling",
    "request_reason": "Order Recycling Cart",
    "date_created": "2023-05-16T21:38:53.000",
    "date_modified": "2023-05-16T21:38:53.000",
    "request_status": "Pending",
    "responsible_agency": "Department of Sanitation",
    "final_address": "5263 Constance St",
    "address_councildis": "B",
    "status": "Pending",
    "rowid": "1000283",
    "final_x": "3667490.11757",
    "final_y": "518298.300278",
    "longitude": "-90.1127533687248",
    "latitude": "29.919558189457963",
    "geocoded_column": {
      "latitude": "29.919558189457963",
      "longitude": "-90.1127533687248"
    }
  },
  {
    "service_request": "2023-1000282",
    "request_type": "Property Maintenance",
    "request_reason": "Property Maintenance",
    "date_created": "2023-05-16T21:29:17.000",
    "date_modified": "2023-05-16T21:29:17.000",
    "request_status": "Pending",
    "responsible_agency": "Department of Code Enforcement",
    "final_address": "4209 Duplessis St",
    "address_councildis": "D",
    "status": "Pending",
    "rowid": "1000282",
    "final_x": "3678399.14651",
    "final_y": "547760.849234",
    "longitude": "-90.07729955689743",
    "latitude": "30.00024619414286",
    "geocoded_column": {
      "latitude": "30.00024619414286",
      "longitude": "-90.07729955689743"
    }
  },
  {
    "service_request": "2023-1000281",
    "request_type": "Trash/Recycling",
    "request_reason": "Illegal Dumping",
    "date_created": "2023-05-16T21:12:51.000",
    "date_modified": "2023-05-16T21:12:51.000",
    "request_status": "Pending",
    "responsible_agency": "Department of Sanitation",
    "final_address": "4600 BLK Dart St",
    "address_councildis": "B",
    "status": "Pending",
    "rowid": "1000281",
    "final_x": "3668797.5997",
    "final_y": "531814.125792",
    "longitude": "-90.10817012261485",
    "latitude": "29.956683994401715",
    "geocoded_column": {
      "latitude": "29.956683994401715",
      "longitude": "-90.10817012261485"
    }
  },
  {
    "service_request": "2023-1000280",
    "request_type": "Trash/Recycling",
    "request_reason": "Order Recycling Cart",
    "date_created": "2023-05-16T21:06:02.000",
    "date_modified": "2023-05-16T21:06:02.000",
    "request_status": "Pending",
    "responsible_agency": "Department of Sanitation",
    "final_address": "2118 Conti St",
    "address_councildis": "B",
    "status": "Pending",
    "rowid": "1000280",
    "final_x": "3677806.51963",
    "final_y": "534648.770054",
    "longitude": "-90.0796249115916",
    "latitude": "29.96421036991903",
    "geocoded_column": {
      "latitude": "29.96421036991903",
      "longitude": "-90.0796249115916"
    }
  },
  {
    "service_request": "2023-1000279",
    "request_type": "Trash/Recycling",
    "request_reason": "Repair Trash Cart",
    "date_created": "2023-05-16T21:02:50.000",
    "date_modified": "2023-05-16T21:02:51.000",
    "request_status": "Pending",
    "responsible_agency": "Department of Sanitation",
    "final_address": "2118 Conti St",
    "address_councildis": "B",
    "status": "Assigned to Contractor",
    "contractor": "Richards Disposal",
    "rowid": "1000279",
    "final_x": "3677806.51963",
    "final_y": "534648.770054",
    "longitude": "-90.0796249115916",
    "latitude": "29.96421036991903",
    "geocoded_column": {
      "latitude": "29.96421036991903",
      "longitude": "-90.0796249115916"
    }
  },
  {
    "service_request": "2023-1000278",
    "request_type": "Traffic Signals/Signs/Striping/Streetlights",
    "request_reason": "Traffic Signal Malfunctioning/Damaged",
    "date_created": "2023-05-16T21:02:48.000",
    "date_modified": "2023-05-16T21:02:49.000",
    "request_status": "Pending",
    "responsible_agency": "Department of Public Works",
    "final_address": "DESAIX BLVD & WISNER BLVD",
    "address_councildis": "A",
    "status": "Pending",
    "rowid": "1000278",
    "final_x": "3675121.18",
    "final_y": "543735.29",
    "longitude": "-90.08779308599924",
    "latitude": "29.989275706250247",
    "geocoded_column": {
      "latitude": "29.989275706250247",
      "longitude": "-90.08779308599924"
    }
  },
  {
    "service_request": "2023-1000277",
    "request_type": "Property Maintenance",
    "request_reason": "Property Maintenance",
    "date_created": "2023-05-16T20:35:33.000",
    "date_modified": "2023-05-16T20:35:33.000",
    "request_status": "Pending",
    "responsible_agency": "Department of Code Enforcement",
    "final_address": "2559 Wisteria St",
    "address_councildis": "D",
    "status": "Pending",
    "rowid": "1000277",
    "final_x": "3686733.64758",
    "final_y": "548407.502034",
    "longitude": "-90.05094759510725",
    "latitude": "30.001770414617837",
    "geocoded_column": {
      "latitude": "30.001770414617837",
      "longitude": "-90.05094759510725"
    }
  },
  {
    "service_request": "2023-1000276",
    "request_type": "Abandoned Vehicles",
    "request_reason": "Abandoned/Junk Vehicles",
    "date_created": "2023-05-16T20:26:45.000",
    "date_modified": "2023-05-16T20:26:45.000",
    "request_status": "Pending",
    "responsible_agency": "Department of Public Works",
    "final_address": "11000 BLK Lake Forest Blvd",
    "address_councildis": "E",
    "status": "Pending",
    "rowid": "1000276",
    "final_x": "3714526.02367",
    "final_y": "560520.651056",
    "longitude": "-89.96269180308059",
    "latitude": "30.034192277243534",
    "geocoded_column": {
      "latitude": "30.034192277243534",
      "longitude": "-89.96269180308059"
    }
  },
  {
    "service_request": "2023-1000275",
    "request_type": "Trash/Recycling",
    "request_reason": "Request a Large Item Pick Up",
    "date_created": "2023-05-16T20:16:41.000",
    "date_modified": "2023-05-16T20:16:42.000",
    "request_status": "Pending",
    "responsible_agency": "Department of Sanitation",
    "final_address": "5878 General Diaz St",
    "address_councildis": "A",
    "status": "Assigned to Contractor",
    "contractor": "IV Waste",
    "rowid": "1000275",
    "final_x": "3669344.32116",
    "final_y": "546484.251153",
    "longitude": "-90.10594754505031",
    "latitude": "29.997005803143573",
    "geocoded_column": {
      "latitude": "29.997005803143573",
      "longitude": "-90.10594754505031"
    }
  },
  {
    "service_request": "2023-1000274",
    "request_type": "Roads/Drainage",
    "request_reason": "Catch Basin - Broken/Damage",
    "date_created": "2023-05-16T20:16:21.000",
    "date_modified": "2023-05-16T20:16:21.000",
    "request_status": "Pending",
    "responsible_agency": "Department of Public Works",
    "final_address": "620 Mandeville St",
    "address_councildis": "C",
    "status": "Pending",
    "rowid": "1000274",
    "final_x": "3685872.63823",
    "final_y": "534747.260486",
    "longitude": "-90.05414936871543",
    "latitude": "29.96423604947629",
    "geocoded_column": {
      "latitude": "29.96423604947629",
      "longitude": "-90.05414936871543"
    }
  },
  {
    "service_request": "2023-1000273",
    "request_type": "Traffic Signals/Signs/Striping/Streetlights",
    "request_reason": "Street Light Outage/Malfunction",
    "date_created": "2023-05-16T20:13:51.000",
    "date_modified": "2023-05-16T20:13:52.000",
    "request_status": "Pending",
    "responsible_agency": "Department of Public Works",
    "final_address": "5951 Tullis Dr",
    "address_councildis": "C",
    "status": "Assigned to Contractor",
    "contractor": "Legacy Professional Services",
    "rowid": "1000273",
    "final_x": "3706320.63255",
    "final_y": "513551.694194",
    "longitude": "-89.99036133954515",
    "latitude": "29.90531219671159",
    "geocoded_column": {
      "latitude": "29.90531219671159",
      "longitude": "-89.99036133954515"
    }
  },
  {
    "service_request": "2023-1000272",
    "request_type": "Roads/Drainage",
    "request_reason": "Catch Basin - Broken/Damage",
    "date_created": "2023-05-16T20:11:26.000",
    "date_modified": "2023-05-16T20:11:26.000",
    "request_status": "Pending",
    "responsible_agency": "Department of Public Works",
    "final_address": "7401 Lake Barrington Dr",
    "address_councildis": "E",
    "status": "Pending",
    "rowid": "1000272",
    "final_x": "3712512.0604",
    "final_y": "564986.06333",
    "longitude": "-89.9688880916525",
    "latitude": "30.046536454199256",
    "geocoded_column": {
      "latitude": "30.046536454199256",
      "longitude": "-89.9688880916525"
    }
  },
  {
    "service_request": "2023-1000270",
    "request_type": "Property Maintenance",
    "request_reason": "Property Maintenance",
    "date_created": "2023-05-16T19:41:09.000",
    "date_modified": "2023-05-16T19:41:09.000",
    "request_status": "Pending",
    "responsible_agency": "Department of Code Enforcement",
    "final_address": "5973 N Galvez St",
    "address_councildis": "E",
    "status": "Pending",
    "rowid": "1000270",
    "final_x": "3700557.10564",
    "final_y": "537063.681096",
    "longitude": "-90.00769272493343",
    "latitude": "29.97014644226698",
    "geocoded_column": {
      "latitude": "29.97014644226698",
      "longitude": "-90.00769272493343"
    }
  },
  {
    "service_request": "2023-1000269",
    "request_type": "Trash/Recycling",
    "request_reason": "Request a Large Item Pick Up",
    "date_created": "2023-05-16T18:51:44.000",
    "date_modified": "2023-05-16T18:51:44.000",
    "request_status": "Pending",
    "responsible_agency": "Department of Sanitation",
    "final_address": "4138 Constance St",
    "address_councildis": "B",
    "status": "Assigned to Contractor",
    "contractor": "Richards Disposal",
    "rowid": "1000269",
    "final_x": "3671874.09735",
    "final_y": "518463.750518",
    "longitude": "-90.09890966586735",
    "latitude": "29.91988398897417",
    "geocoded_column": {
      "latitude": "29.91988398897417",
      "longitude": "-90.09890966586735"
    }
  },
  {
    "service_request": "2023-1000268",
    "request_type": "Trash/Recycling",
    "request_reason": "Order Trash Cart",
    "date_created": "2023-05-16T18:44:54.000",
    "date_modified": "2023-05-16T18:44:55.000",
    "request_status": "Pending",
    "responsible_agency": "Department of Sanitation",
    "final_address": "6869 Milne Blvd",
    "address_councildis": "A",
    "status": "Assigned to Contractor",
    "contractor": "IV Waste",
    "rowid": "1000268",
    "final_x": "3667712.72257",
    "final_y": "553349.380119",
    "longitude": "-90.11087033890576",
    "latitude": "30.01593047120175",
    "geocoded_column": {
      "latitude": "30.01593047120175",
      "longitude": "-90.11087033890576"
    }
  },
  {
    "service_request": "2023-1000267",
    "request_type": "Roads/Drainage",
    "request_reason": "Pothole",
    "date_created": "2023-05-16T18:38:14.000",
    "date_modified": "2023-05-16T18:38:14.000",
    "request_status": "Pending",
    "responsible_agency": "Department of Public Works",
    "final_address": "7311 Newcastle St",
    "address_councildis": "E",
    "status": "Pending",
    "rowid": "1000267",
    "final_x": "3697606.69776",
    "final_y": "558438.708444",
    "longitude": "-90.0162344277127",
    "latitude": "30.0290133698504",
    "geocoded_column": {
      "latitude": "30.0290133698504",
      "longitude": "-90.0162344277127"
    }
  },
  {
    "service_request": "2023-1000266",
    "request_type": "Roads/Drainage",
    "request_reason": "Service Cut",
    "date_created": "2023-05-16T18:36:05.000",
    "date_modified": "2023-05-16T18:36:05.000",
    "request_status": "Pending",
    "responsible_agency": "Department of Public Works",
    "final_address": "7400 Newcastle St",
    "address_councildis": "E",
    "status": "Pending",
    "rowid": "1000266",
    "final_x": "3697312.36848",
    "final_y": "558768.433436",
    "longitude": "-90.0171525254449",
    "latitude": "30.029929286466874",
    "geocoded_column": {
      "latitude": "30.029929286466874",
      "longitude": "-90.0171525254449"
    }
  },
  {
    "service_request": "2023-1000265",
    "request_type": "Roads/Drainage",
    "request_reason": "Catch Basin - Clogged",
    "date_created": "2023-05-16T18:32:11.000",
    "date_modified": "2023-05-16T18:32:11.000",
    "request_status": "Pending",
    "responsible_agency": "Department of Public Works",
    "final_address": "821 Soniat St",
    "address_councildis": "B",
    "status": "Pending",
    "rowid": "1000265",
    "final_x": "3668398.26164",
    "final_y": "518387.329398",
    "longitude": "-90.10988379926397",
    "latitude": "29.91977636042019",
    "geocoded_column": {
      "latitude": "29.91977636042019",
      "longitude": "-90.10988379926397"
    }
  },
  {
    "service_request": "2023-1000264",
    "request_type": "Trash/Recycling",
    "request_reason": "MIssed Recycling Pick-Up",
    "date_created": "2023-05-16T18:30:22.000",
    "date_modified": "2023-05-16T18:30:22.000",
    "request_status": "Pending",
    "responsible_agency": "Department of Sanitation",
    "final_address": "6019 Charlotte Dr",
    "address_councildis": "D",
    "status": "Assigned to Contractor",
    "contractor": "IV Waste",
    "rowid": "1000264",
    "final_x": "3679970.27023",
    "final_y": "554642.173208",
    "longitude": "-90.07209701216085",
    "latitude": "30.01911991074156",
    "geocoded_column": {
      "latitude": "30.01911991074156",
      "longitude": "-90.07209701216085"
    }
  },
  {
    "service_request": "2023-1000263",
    "request_type": "Trash/Recycling",
    "request_reason": "Missed Trash Pick-Up",
    "date_created": "2023-05-16T18:29:43.000",
    "date_modified": "2023-05-16T18:29:44.000",
    "request_status": "Pending",
    "responsible_agency": "Department of Sanitation",
    "final_address": "6019 Charlotte Dr",
    "address_councildis": "D",
    "status": "Assigned to Contractor",
    "contractor": "IV Waste",
    "rowid": "1000263",
    "final_x": "3679970.27023",
    "final_y": "554642.173208",
    "longitude": "-90.07209701216085",
    "latitude": "30.01911991074156",
    "geocoded_column": {
      "latitude": "30.01911991074156",
      "longitude": "-90.07209701216085"
    }
  },
  {
    "service_request": "2023-1000262",
    "request_type": "Trash/Recycling",
    "request_reason": "Request a Large Item Pick Up",
    "date_created": "2023-05-16T18:24:39.000",
    "date_modified": "2023-05-16T18:24:40.000",
    "request_status": "Pending",
    "responsible_agency": "Department of Sanitation",
    "final_address": "612 Marengo St",
    "address_councildis": "B",
    "status": "Assigned to Contractor",
    "contractor": "Richards Disposal",
    "rowid": "1000262",
    "final_x": "3672214.917",
    "final_y": "517929.607222",
    "longitude": "-90.09785204110571",
    "latitude": "29.918405164450185",
    "geocoded_column": {
      "latitude": "29.918405164450185",
      "longitude": "-90.09785204110571"
    }
  },
  {
    "service_request": "2023-1000261",
    "request_type": "Trash/Recycling",
    "request_reason": "Request a Large Item Pick Up",
    "date_created": "2023-05-16T18:13:41.000",
    "date_modified": "2023-05-16T18:13:42.000",
    "request_status": "Pending",
    "responsible_agency": "Department of Sanitation",
    "final_address": "612 Marengo St",
    "address_councildis": "B",
    "status": "Assigned to Contractor",
    "contractor": "Richards Disposal",
    "rowid": "1000261",
    "final_x": "3672214.917",
    "final_y": "517929.607222",
    "longitude": "-90.09785204110571",
    "latitude": "29.918405164450185",
    "geocoded_column": {
      "latitude": "29.918405164450185",
      "longitude": "-90.09785204110571"
    }
  },
  {
    "service_request": "2023-1000260",
    "request_type": "Trash/Recycling",
    "request_reason": "Replace Trash Cart",
    "date_created": "2023-05-16T18:11:42.000",
    "date_modified": "2023-05-16T18:11:43.000",
    "request_status": "Pending",
    "responsible_agency": "Department of Sanitation",
    "final_address": "3953 Annunciation St",
    "address_councildis": "B",
    "status": "Assigned to Contractor",
    "contractor": "Richards Disposal",
    "rowid": "1000260",
    "final_x": "3672870.47361",
    "final_y": "517962.690934",
    "longitude": "-90.09578166666944",
    "latitude": "29.91847668197629",
    "geocoded_column": {
      "latitude": "29.91847668197629",
      "longitude": "-90.09578166666944"
    }
  },
  {
    "service_request": "2023-1000259",
    "request_type": "Trash/Recycling",
    "request_reason": "Request a Large Item Pick Up",
    "date_created": "2023-05-16T17:59:04.000",
    "date_modified": "2023-05-16T17:59:28.000",
    "request_status": "Pending",
    "responsible_agency": "Department of Sanitation",
    "final_address": "4204 Paris Ave",
    "address_councildis": "D",
    "status": "Assigned to Contractor",
    "contractor": "IV Waste",
    "rowid": "1000259",
    "final_x": "3679410.67835",
    "final_y": "547770.07573",
    "longitude": "-90.07410375055134",
    "latitude": "30.00024103663578",
    "geocoded_column": {
      "latitude": "30.00024103663578",
      "longitude": "-90.07410375055134"
    }
  },
  {
    "service_request": "2023-1000258",
    "request_type": "Utility Poles",
    "request_reason": "Utility Pole Leaning",
    "date_created": "2023-05-16T17:52:03.000",
    "date_modified": "2023-05-16T17:52:08.000",
    "request_status": "Pending",
    "responsible_agency": "Utility Company Collective",
    "final_address": "STEMWAY DR & DREUX AVE",
    "address_councildis": "D",
    "status": "Pending",
    "rowid": "1000258",
    "final_x": "3696940.2",
    "final_y": "553893.48",
    "longitude": "-90.0185053372016",
    "latitude": "30.01653676708293",
    "geocoded_column": {
      "latitude": "30.01653676708293",
      "longitude": "-90.0185053372016"
    }
  },
  {
    "service_request": "2023-1000257",
    "request_type": "Trash/Recycling",
    "request_reason": "Request a Large Item Pick Up",
    "date_created": "2023-05-16T17:51:48.000",
    "date_modified": "2023-05-16T17:51:49.000",
    "request_status": "Pending",
    "responsible_agency": "Department of Sanitation",
    "final_address": "833 St Ann St",
    "address_councildis": "C",
    "status": "Assigned to Contractor",
    "contractor": "Empire Services",
    "rowid": "1000257",
    "final_x": "3682293.30895",
    "final_y": "533172.523332",
    "longitude": "-90.06550760407573",
    "latitude": "29.960015448494726",
    "geocoded_column": {
      "latitude": "29.960015448494726",
      "longitude": "-90.06550760407573"
    }
  },
  {
    "service_request": "2023-1000256",
    "request_type": "Abandoned Vehicles",
    "request_reason": "Abandoned/Junk Vehicles",
    "date_created": "2023-05-16T17:43:49.000",
    "date_modified": "2023-05-16T17:43:49.000",
    "request_status": "Pending",
    "responsible_agency": "Department of Public Works",
    "final_address": "LAKE FOREST BLVD & FOXCROFT DR",
    "address_councildis": "E",
    "status": "Pending",
    "rowid": "1000256",
    "final_x": "3715588.0",
    "final_y": "561274.08",
    "longitude": "-89.95930730578051",
    "latitude": "30.036228932051763",
    "geocoded_column": {
      "latitude": "30.036228932051763",
      "longitude": "-89.95930730578051"
    }
  },
  {
    "service_request": "2023-1000255",
    "request_type": "Trash/Recycling",
    "request_reason": "Request a Large Item Pick Up",
    "date_created": "2023-05-16T17:41:51.000",
    "date_modified": "2023-05-16T17:41:51.000",
    "request_status": "Pending",
    "responsible_agency": "Department of Sanitation",
    "final_address": "1833 St Ann St",
    "address_councildis": "D",
    "status": "Assigned to Contractor",
    "contractor": "Richards Disposal",
    "rowid": "1000255",
    "final_x": "3679508.64546",
    "final_y": "535294.378502",
    "longitude": "-90.07422733918064",
    "latitude": "29.965934254536275",
    "geocoded_column": {
      "latitude": "29.965934254536275",
      "longitude": "-90.07422733918064"
    }
  },
  {
    "service_request": "2023-1000254",
    "request_type": "Trash/Recycling",
    "request_reason": "Return Trash Cart",
    "date_created": "2023-05-16T17:36:54.000",
    "date_modified": "2023-05-16T17:36:55.000",
    "request_status": "Pending",
    "responsible_agency": "Department of Sanitation",
    "final_address": "4310 Fields St",
    "address_councildis": "C",
    "status": "Assigned to Contractor",
    "contractor": "Richards Disposal",
    "rowid": "1000254",
    "final_x": "3707972.10974",
    "final_y": "514891.098739",
    "longitude": "-89.98509949839304",
    "latitude": "29.90894177202597",
    "geocoded_column": {
      "latitude": "29.90894177202597",
      "longitude": "-89.98509949839304"
    }
  },
  {
    "service_request": "2023-1000253",
    "request_type": "Abandoned Vehicles",
    "request_reason": "Abandoned/Junk Vehicles",
    "date_created": "2023-05-16T17:34:46.000",
    "date_modified": "2023-05-16T17:34:46.000",
    "request_status": "Pending",
    "responsible_agency": "Department of Public Works",
    "final_address": "JEFFERSON AVE & LA SALLE ST",
    "address_councildis": "A",
    "status": "Pending",
    "rowid": "1000253",
    "final_x": "3667816.9",
    "final_y": "523653.98",
    "longitude": "-90.1115416175428",
    "latitude": "29.934275034103145",
    "geocoded_column": {
      "latitude": "29.934275034103145",
      "longitude": "-90.1115416175428"
    }
  },
  {
    "service_request": "2023-1000251",
    "request_type": "Trash/Recycling",
    "request_reason": "Missed Trash Pick-Up",
    "date_created": "2023-05-16T17:22:13.000",
    "date_modified": "2023-05-16T17:22:14.000",
    "request_status": "Pending",
    "responsible_agency": "Department of Sanitation",
    "final_address": "5353 Perrier St",
    "address_councildis": "B",
    "status": "Assigned to Contractor",
    "contractor": "Richards Disposal",
    "rowid": "1000251",
    "final_x": "3667230.41421",
    "final_y": "520102.297272",
    "longitude": "-90.11351250634239",
    "latitude": "29.924526217147832",
    "geocoded_column": {
      "latitude": "29.924526217147832",
      "longitude": "-90.11351250634239"
    }
  },
  {
    "service_request": "2023-1000250",
    "request_type": "Trash/Recycling",
    "request_reason": "Missed Trash Pick-Up",
    "date_created": "2023-05-16T17:18:46.000",
    "date_modified": "2023-05-16T17:18:46.000",
    "request_status": "Pending",
    "responsible_agency": "Department of Sanitation",
    "final_address": "820 Milan St",
    "address_councildis": "B",
    "status": "Assigned to Contractor",
    "contractor": "Richards Disposal",
    "rowid": "1000250",
    "final_x": "3671786.14574",
    "final_y": "518671.795639",
    "longitude": "-90.09918021381998",
    "latitude": "29.920458651944006",
    "geocoded_column": {
      "latitude": "29.920458651944006",
      "longitude": "-90.09918021381998"
    }
  },
  {
    "service_request": "2023-1000249",
    "request_type": "Trash/Recycling",
    "request_reason": "Request a Large Item Pick Up",
    "date_created": "2023-05-16T17:16:27.000",
    "date_modified": "2023-05-16T17:16:28.000",
    "request_status": "Pending",
    "responsible_agency": "Department of Sanitation",
    "final_address": "5828 Franklin Ave",
    "address_councildis": "D",
    "status": "Assigned to Contractor",
    "contractor": "IV Waste",
    "rowid": "1000249",
    "final_x": "3686371.6294",
    "final_y": "554678.929304",
    "longitude": "-90.05186967527665",
    "latitude": "30.0190256827861",
    "geocoded_column": {
      "latitude": "30.0190256827861",
      "longitude": "-90.05186967527665"
    }
  },
  {
    "service_request": "2023-1000248",
    "request_type": "Trash/Recycling",
    "request_reason": "Order Recycling Cart",
    "date_created": "2023-05-16T17:14:48.000",
    "date_modified": "2023-05-16T17:14:48.000",
    "request_status": "Pending",
    "responsible_agency": "Department of Sanitation",
    "final_address": "1511 Mazant St",
    "address_councildis": "D",
    "status": "Pending",
    "rowid": "1000248",
    "final_x": "3692532.54429",
    "final_y": "536812.568136",
    "longitude": "-90.03304401613795",
    "latitude": "29.969708801090935",
    "geocoded_column": {
      "latitude": "29.969708801090935",
      "longitude": "-90.03304401613795"
    }
  },
  {
    "service_request": "2023-1000247",
    "request_type": "Trash/Recycling",
    "request_reason": "Missed Trash Pick-Up",
    "date_created": "2023-05-16T17:14:01.000",
    "date_modified": "2023-05-16T17:14:01.000",
    "request_status": "Pending",
    "responsible_agency": "Department of Sanitation",
    "final_address": "1834 Terpsichore St",
    "address_councildis": "B",
    "status": "Assigned to Contractor",
    "contractor": "Richards Disposal",
    "rowid": "1000247",
    "final_x": "3677994.93826",
    "final_y": "525894.422717",
    "longitude": "-90.07933245183229",
    "latitude": "29.94013317673597",
    "geocoded_column": {
      "latitude": "29.94013317673597",
      "longitude": "-90.07933245183229"
    }
  },
  {
    "service_request": "2023-1000246",
    "request_type": "Trash/Recycling",
    "request_reason": "Missed Trash Pick-Up",
    "date_created": "2023-05-16T17:09:38.000",
    "date_modified": "2023-05-16T17:09:39.000",
    "request_status": "Pending",
    "responsible_agency": "Department of Sanitation",
    "final_address": "2511 Milan St",
    "address_councildis": "B",
    "status": "Assigned to Contractor",
    "contractor": "Richards Disposal",
    "rowid": "1000246",
    "final_x": "3671319.81671",
    "final_y": "524222.505532",
    "longitude": "-90.10046368197781",
    "latitude": "29.93573512771114",
    "geocoded_column": {
      "latitude": "29.93573512771114",
      "longitude": "-90.10046368197781"
    }
  },
  {
    "service_request": "2023-1000245",
    "request_type": "Trash/Recycling",
    "request_reason": "Report a Missed Trash/Recycling Pick Up",
    "date_created": "2023-05-16T17:04:41.000",
    "date_modified": "2023-05-16T17:04:41.000",
    "request_status": "Pending",
    "responsible_agency": "Department of Sanitation",
    "final_address": "333 N Olympia St",
    "address_councildis": "A",
    "contractor": "Richards Disposal",
    "rowid": "1000245",
    "final_x": "3670049.80462",
    "final_y": "540518.635723",
    "longitude": "-90.10392114507161",
    "latitude": "29.980581608412987",
    "geocoded_column": {
      "latitude": "29.980581608412987",
      "longitude": "-90.10392114507161"
    }
  },
  {
    "service_request": "2023-1000244",
    "request_type": "Trash/Recycling",
    "request_reason": "Request a Large Item Pick Up",
    "date_created": "2023-05-16T16:58:42.000",
    "date_modified": "2023-05-16T16:58:42.000",
    "request_status": "Pending",
    "responsible_agency": "Department of Sanitation",
    "final_address": "3018 Hudson Pl",
    "address_councildis": "C",
    "status": "Assigned to Contractor",
    "contractor": "Richards Disposal",
    "rowid": "1000244",
    "final_x": "3703172.7123",
    "final_y": "519700.619896",
    "longitude": "-90.00007046258928",
    "latitude": "29.922320710255708",
    "geocoded_column": {
      "latitude": "29.922320710255708",
      "longitude": "-90.00007046258928"
    }
  },
  {
    "service_request": "2023-1000243",
    "request_type": "Trash/Recycling",
    "request_reason": "Request a Large Item Pick Up",
    "date_created": "2023-05-16T16:57:19.000",
    "date_modified": "2023-05-16T16:57:20.000",
    "request_status": "Pending",
    "responsible_agency": "Department of Sanitation",
    "final_address": "5531 Willow St",
    "address_councildis": "A",
    "status": "Assigned to Contractor",
    "contractor": "Richards Disposal",
    "rowid": "1000243",
    "final_x": "3667641.6962",
    "final_y": "525468.119037",
    "longitude": "-90.11203368884563",
    "latitude": "29.939268470424164",
    "geocoded_column": {
      "latitude": "29.939268470424164",
      "longitude": "-90.11203368884563"
    }
  },
  {
    "service_request": "2023-1000242",
    "request_type": "Trash/Recycling",
    "request_reason": "Order Trash Cart",
    "date_created": "2023-05-16T16:56:50.000",
    "date_modified": "2023-05-16T16:56:51.000",
    "request_status": "Pending",
    "responsible_agency": "Department of Sanitation",
    "final_address": "916 Third St",
    "address_councildis": "B",
    "status": "Assigned to Contractor",
    "contractor": "Richards Disposal",
    "rowid": "1000242",
    "final_x": "3677864.67272",
    "final_y": "520662.384505",
    "longitude": "-90.07992441087012",
    "latitude": "29.92575070517651",
    "geocoded_column": {
      "latitude": "29.92575070517651",
      "longitude": "-90.07992441087012"
    }
  },
  {
    "service_request": "2023-1000241",
    "request_type": "Trash/Recycling",
    "request_reason": "Request a Large Item Pick Up",
    "date_created": "2023-05-16T16:49:48.000",
    "date_modified": "2023-05-16T16:49:49.000",
    "request_status": "Pending",
    "responsible_agency": "Department of Sanitation",
    "final_address": "7711 Oak St",
    "address_councildis": "A",
    "status": "Assigned to Contractor",
    "contractor": "Richards Disposal",
    "rowid": "1000241",
    "final_x": "3662989.33056",
    "final_y": "527492.776639",
    "longitude": "-90.12665455140784",
    "latitude": "29.944971162491683",
    "geocoded_column": {
      "latitude": "29.944971162491683",
      "longitude": "-90.12665455140784"
    }
  },
  {
    "service_request": "2023-1000240",
    "request_type": "Trash/Recycling",
    "request_reason": "Replace Trash Cart",
    "date_created": "2023-05-16T16:42:12.000",
    "date_modified": "2023-05-16T16:42:13.000",
    "request_status": "Pending",
    "responsible_agency": "Department of Sanitation",
    "final_address": "3232 Upperline St",
    "address_councildis": "B",
    "status": "Assigned to Contractor",
    "contractor": "Richards Disposal",
    "rowid": "1000240",
    "final_x": "3669170.69287",
    "final_y": "526936.971518",
    "longitude": "-90.10715681355927",
    "latitude": "29.94326243985334",
    "geocoded_column": {
      "latitude": "29.94326243985334",
      "longitude": "-90.10715681355927"
    }
  },
  {
    "service_request": "2023-1000239",
    "request_type": "Roads/Drainage",
    "request_reason": "Pothole",
    "date_created": "2023-05-16T16:40:49.000",
    "date_modified": "2023-05-16T16:40:49.000",
    "request_status": "Pending",
    "responsible_agency": "Department of Public Works",
    "final_address": "311 main street",
    "status": "Pending",
    "rowid": "1000239",
    "longitude": "0.0",
    "latitude": "0.0",
    "geocoded_column": {
      "latitude": "0.0",
      "longitude": "0.0"
    }
  },
  {
    "service_request": "2023-1000238",
    "request_type": "Trash/Recycling",
    "request_reason": "Replace Trash Cart",
    "date_created": "2023-05-16T16:32:11.000",
    "date_modified": "2023-05-16T16:32:12.000",
    "request_status": "Pending",
    "responsible_agency": "Department of Sanitation",
    "final_address": "8600 Willow St",
    "address_councildis": "A",
    "status": "Assigned to Contractor",
    "contractor": "Richards Disposal",
    "rowid": "1000238",
    "final_x": "3661066.75898",
    "final_y": "530087.694785",
    "longitude": "-90.13263888064763",
    "latitude": "29.952161888748655",
    "geocoded_column": {
      "latitude": "29.952161888748655",
      "longitude": "-90.13263888064763"
    }
  },
  {
    "service_request": "2023-1000237",
    "request_type": "Trash/Recycling",
    "request_reason": "Request a Large Item Pick Up",
    "date_created": "2023-05-16T16:27:07.000",
    "date_modified": "2023-05-16T16:27:07.000",
    "request_status": "Pending",
    "responsible_agency": "Department of Sanitation",
    "final_address": "7711 Oak St",
    "address_councildis": "A",
    "status": "Assigned to Contractor",
    "contractor": "Richards Disposal",
    "rowid": "1000237",
    "final_x": "3662989.33056",
    "final_y": "527492.776639",
    "longitude": "-90.12665455140784",
    "latitude": "29.944971162491683",
    "geocoded_column": {
      "latitude": "29.944971162491683",
      "longitude": "-90.12665455140784"
    }
  },
  {
    "service_request": "2023-1000236",
    "request_type": "Trash/Recycling",
    "request_reason": "Illegal Dumping",
    "date_created": "2023-05-16T16:22:41.000",
    "date_modified": "2023-05-16T16:22:42.000",
    "request_status": "Pending",
    "responsible_agency": "Department of Sanitation",
    "final_address": "POLAND AVE & ST CLAUDE AVE",
    "address_councildis": "D",
    "status": "Pending",
    "rowid": "1000236",
    "final_x": "3693029.0",
    "final_y": "535069.58",
    "longitude": "-90.03153870808075",
    "latitude": "29.964900699623286",
    "geocoded_column": {
      "latitude": "29.964900699623286",
      "longitude": "-90.03153870808075"
    }
  },
  {
    "service_request": "2023-1000235",
    "request_type": "Trash/Recycling",
    "request_reason": "Request a Large Item Pick Up",
    "date_created": "2023-05-16T16:13:48.000",
    "date_modified": "2023-05-16T16:13:49.000",
    "request_status": "Pending",
    "responsible_agency": "Department of Sanitation",
    "final_address": "4524 Loyola Ave",
    "address_councildis": "B",
    "status": "Assigned to Contractor",
    "contractor": "Richards Disposal",
    "rowid": "1000235",
    "final_x": "3669980.72455",
    "final_y": "522896.221883",
    "longitude": "-90.10473612247968",
    "latitude": "29.93212782344512",
    "geocoded_column": {
      "latitude": "29.93212782344512",
      "longitude": "-90.10473612247968"
    }
  },
  {
    "service_request": "2023-1000234",
    "request_type": "Trash/Recycling",
    "request_reason": "Missed Trash Pick-Up",
    "date_created": "2023-05-16T16:12:14.000",
    "date_modified": "2023-05-16T16:12:15.000",
    "request_status": "Pending",
    "responsible_agency": "Department of Sanitation",
    "final_address": "933 Hillary St",
    "address_councildis": "A",
    "status": "Assigned to Contractor",
    "contractor": "Richards Disposal",
    "rowid": "1000234",
    "final_x": "3662801.12762",
    "final_y": "526571.502654",
    "longitude": "-90.12727938477502",
    "latitude": "29.942443401621805",
    "geocoded_column": {
      "latitude": "29.942443401621805",
      "longitude": "-90.12727938477502"
    }
  },
  {
    "service_request": "2023-1000233",
    "request_type": "Traffic Signals/Signs/Striping/Streetlights",
    "request_reason": "Street Light Outage/Malfunction",
    "date_created": "2023-05-16T16:09:49.000",
    "date_modified": "2023-05-16T16:09:50.000",
    "request_status": "Pending",
    "responsible_agency": "Department of Public Works",
    "final_address": "CAMPUS BLVD & PRESSBURG ST",
    "address_councildis": "D",
    "status": "Assigned to Contractor",
    "contractor": "Legacy Professional Services",
    "rowid": "1000233",
    "final_x": "3688605.2",
    "final_y": "554985.68",
    "longitude": "-90.04480149203269",
    "latitude": "30.01980025998405",
    "geocoded_column": {
      "latitude": "30.01980025998405",
      "longitude": "-90.04480149203269"
    }
  },
  {
    "service_request": "2023-1000232",
    "request_type": "Trash/Recycling",
    "request_reason": "Request a Large Item Pick Up",
    "date_created": "2023-05-16T16:09:24.000",
    "date_modified": "2023-05-16T16:09:25.000",
    "request_status": "Pending",
    "responsible_agency": "Department of Sanitation",
    "final_address": "1812 Wilton Dr",
    "address_councildis": "D",
    "status": "Assigned to Contractor",
    "contractor": "IV Waste",
    "rowid": "1000232",
    "final_x": "3681274.25711",
    "final_y": "550816.982613",
    "longitude": "-90.06811032209946",
    "latitude": "30.00856249367368",
    "geocoded_column": {
      "latitude": "30.00856249367368",
      "longitude": "-90.06811032209946"
    }
  },
  {
    "service_request": "2023-1000231",
    "request_type": "Trash/Recycling",
    "request_reason": "Request a Large Item Pick Up",
    "date_created": "2023-05-16T16:08:02.000",
    "date_modified": "2023-05-16T16:08:03.000",
    "request_status": "Pending",
    "responsible_agency": "Department of Sanitation",
    "final_address": "2426 General Pershing St",
    "address_councildis": "B",
    "status": "Assigned to Contractor",
    "contractor": "Richards Disposal",
    "rowid": "1000231",
    "final_x": "3670893.64385",
    "final_y": "523978.3431",
    "longitude": "-90.10181740394637",
    "latitude": "29.9350763613524",
    "geocoded_column": {
      "latitude": "29.9350763613524",
      "longitude": "-90.10181740394637"
    }
  },
  {
    "service_request": "2023-1000230",
    "request_type": "Property Maintenance",
    "request_reason": "Property Maintenance",
    "date_created": "2023-05-16T16:06:19.000",
    "date_modified": "2023-05-16T16:06:19.000",
    "request_status": "Pending",
    "responsible_agency": "Department of Code Enforcement",
    "final_address": "419 Warrington Dr",
    "address_councildis": "D",
    "status": "Pending",
    "rowid": "1000230",
    "final_x": "3681532.24296",
    "final_y": "548357.110738",
    "longitude": "-90.06738112447675",
    "latitude": "30.00179089428868",
    "geocoded_column": {
      "latitude": "30.00179089428868",
      "longitude": "-90.06738112447675"
    }
  },
  {
    "service_request": "2023-1000229",
    "request_type": "Trash/Recycling",
    "request_reason": "Order Recycling Cart",
    "date_created": "2023-05-16T15:56:54.000",
    "date_modified": "2023-05-16T15:56:54.000",
    "request_status": "Pending",
    "responsible_agency": "Department of Sanitation",
    "final_address": "7103 Freret St Apt 203",
    "address_councildis": "A",
    "status": "Pending",
    "rowid": "1000229",
    "final_x": "3664017.73927",
    "final_y": "525822.300669",
    "longitude": "-90.12346322417713",
    "latitude": "29.9403480686604",
    "geocoded_column": {
      "latitude": "29.9403480686604",
      "longitude": "-90.12346322417713"
    }
  },
  {
    "service_request": "2023-1000228",
    "request_type": "Trash/Recycling",
    "request_reason": "Order Recycling Cart",
    "date_created": "2023-05-16T15:56:02.000",
    "date_modified": "2023-05-16T15:56:02.000",
    "request_status": "Pending",
    "responsible_agency": "Department of Sanitation",
    "final_address": "5922 Marshal Foch St",
    "address_councildis": "A",
    "status": "Pending",
    "rowid": "1000228",
    "final_x": "3669687.36385",
    "final_y": "546714.013649",
    "longitude": "-90.10485610438451",
    "latitude": "29.997627462283",
    "geocoded_column": {
      "latitude": "29.997627462283",
      "longitude": "-90.10485610438451"
    }
  },
  {
    "service_request": "2023-1000227",
    "request_type": "Trash/Recycling",
    "request_reason": "Order Trash Cart",
    "date_created": "2023-05-16T15:53:50.000",
    "date_modified": "2023-05-16T15:53:51.000",
    "request_status": "Pending",
    "responsible_agency": "Department of Sanitation",
    "final_address": "7103 Freret St Apt 203",
    "address_councildis": "A",
    "status": "Assigned to Contractor",
    "contractor": "Richards Disposal",
    "rowid": "1000227",
    "final_x": "3664017.73927",
    "final_y": "525822.300669",
    "longitude": "-90.12346322417713",
    "latitude": "29.9403480686604",
    "geocoded_column": {
      "latitude": "29.9403480686604",
      "longitude": "-90.12346322417713"
    }
  },
  {
    "service_request": "2023-1000226",
    "request_type": "Trash/Recycling",
    "request_reason": "Order Recycling Cart",
    "date_created": "2023-05-16T15:52:19.000",
    "date_modified": "2023-05-16T15:52:19.000",
    "request_status": "Pending",
    "responsible_agency": "Department of Sanitation",
    "final_address": "7103 Freret St Apt 202",
    "address_councildis": "A",
    "status": "Pending",
    "rowid": "1000226",
    "final_x": "3664013.20608",
    "final_y": "525815.878653",
    "longitude": "-90.1234777503319",
    "latitude": "29.94033054177785",
    "geocoded_column": {
      "latitude": "29.94033054177785",
      "longitude": "-90.1234777503319"
    }
  },
  {
    "service_request": "2023-1000225",
    "request_type": "Trash/Recycling",
    "request_reason": "Missed Trash Pick-Up",
    "date_created": "2023-05-16T15:51:38.000",
    "date_modified": "2023-05-16T15:51:39.000",
    "request_status": "Pending",
    "responsible_agency": "Department of Sanitation",
    "final_address": "1042 Annunciation St",
    "address_councildis": "B",
    "status": "Assigned to Contractor",
    "contractor": "Empire Services",
    "rowid": "1000225",
    "final_x": "3681651.72968",
    "final_y": "526190.140222",
    "longitude": "-90.06777709544406",
    "latitude": "29.940835753777097",
    "geocoded_column": {
      "latitude": "29.940835753777097",
      "longitude": "-90.06777709544406"
    }
  },
  {
    "service_request": "2023-1000224",
    "request_type": "Trash/Recycling",
    "request_reason": "Order Trash Cart",
    "date_created": "2023-05-16T15:51:29.000",
    "date_modified": "2023-05-16T15:51:30.000",
    "request_status": "Pending",
    "responsible_agency": "Department of Sanitation",
    "final_address": "7103 Freret St Apt 202",
    "address_councildis": "A",
    "status": "Assigned to Contractor",
    "contractor": "Richards Disposal",
    "rowid": "1000224",
    "final_x": "3664013.20608",
    "final_y": "525815.878653",
    "longitude": "-90.1234777503319",
    "latitude": "29.94033054177785",
    "geocoded_column": {
      "latitude": "29.94033054177785",
      "longitude": "-90.1234777503319"
    }
  },
  {
    "service_request": "2023-1000223",
    "request_type": "Trash/Recycling",
    "request_reason": "Replace Trash Cart",
    "date_created": "2023-05-16T15:50:35.000",
    "date_modified": "2023-05-16T15:50:36.000",
    "request_status": "Pending",
    "responsible_agency": "Department of Sanitation",
    "final_address": "1042 Annunciation St",
    "address_councildis": "B",
    "status": "Assigned to Contractor",
    "contractor": "Empire Services",
    "rowid": "1000223",
    "final_x": "3681651.72968",
    "final_y": "526190.140222",
    "longitude": "-90.06777709544406",
    "latitude": "29.940835753777097",
    "geocoded_column": {
      "latitude": "29.940835753777097",
      "longitude": "-90.06777709544406"
    }
  },
  {
    "service_request": "2023-1000222",
    "request_type": "Trash/Recycling",
    "request_reason": "Order Recycling Cart",
    "date_created": "2023-05-16T15:50:24.000",
    "date_modified": "2023-05-16T15:50:24.000",
    "request_status": "Pending",
    "responsible_agency": "Department of Sanitation",
    "final_address": "7103 Freret St Apt 201",
    "address_councildis": "A",
    "status": "Pending",
    "rowid": "1000222",
    "final_x": "3664008.29511",
    "final_y": "525808.701117",
    "longitude": "-90.12349349438395",
    "latitude": "29.940310948422603",
    "geocoded_column": {
      "latitude": "29.940310948422603",
      "longitude": "-90.12349349438395"
    }
  },
  {
    "service_request": "2023-1000221",
    "request_type": "Trash/Recycling",
    "request_reason": "Missed Trash Pick-Up",
    "date_created": "2023-05-16T15:50:19.000",
    "date_modified": "2023-05-16T15:50:20.000",
    "request_status": "Pending",
    "responsible_agency": "Department of Sanitation",
    "final_address": "3014 Baudin St",
    "address_councildis": "B",
    "status": "Assigned to Contractor",
    "contractor": "Richards Disposal",
    "rowid": "1000221",
    "final_x": "3673233.1636",
    "final_y": "534646.846278",
    "longitude": "-90.0940672759007",
    "latitude": "29.96434187755909",
    "geocoded_column": {
      "latitude": "29.96434187755909",
      "longitude": "-90.0940672759007"
    }
  },
  {
    "service_request": "2023-1000220",
    "request_type": "Trash/Recycling",
    "request_reason": "Order Trash Cart",
    "date_created": "2023-05-16T15:49:21.000",
    "date_modified": "2023-05-16T15:49:22.000",
    "request_status": "Pending",
    "responsible_agency": "Department of Sanitation",
    "final_address": "7103 Freret St Apt 201",
    "address_councildis": "A",
    "status": "Assigned to Contractor",
    "contractor": "Richards Disposal",
    "rowid": "1000220",
    "final_x": "3664008.29511",
    "final_y": "525808.701117",
    "longitude": "-90.12349349438395",
    "latitude": "29.940310948422603",
    "geocoded_column": {
      "latitude": "29.940310948422603",
      "longitude": "-90.12349349438395"
    }
  },
  {
    "service_request": "2023-1000219",
    "request_type": "Trash/Recycling",
    "request_reason": "Order Recycling Cart",
    "date_created": "2023-05-16T15:48:24.000",
    "date_modified": "2023-05-16T15:48:24.000",
    "request_status": "Pending",
    "responsible_agency": "Department of Sanitation",
    "final_address": "7103 Freret St Apt 101",
    "address_councildis": "A",
    "status": "Pending",
    "rowid": "1000219",
    "final_x": "3664003.76192",
    "final_y": "525801.901309",
    "longitude": "-90.12350803312154",
    "latitude": "29.940292382729165",
    "geocoded_column": {
      "latitude": "29.940292382729165",
      "longitude": "-90.12350803312154"
    }
  },
  {
    "service_request": "2023-1000218",
    "request_type": "Roads/Drainage",
    "request_reason": "Catch Basin - Clogged",
    "date_created": "2023-05-16T15:48:14.000",
    "date_modified": "2023-05-16T15:48:14.000",
    "request_status": "Pending",
    "responsible_agency": "Department of Public Works",
    "final_address": "4804 Cleveland Ave",
    "address_councildis": "A",
    "status": "Pending",
    "rowid": "1000218",
    "final_x": "3668474.60423",
    "final_y": "539725.749258",
    "longitude": "-90.108923087257",
    "latitude": "29.97844781603513",
    "geocoded_column": {
      "latitude": "29.97844781603513",
      "longitude": "-90.108923087257"
    }
  },
  {
    "service_request": "2023-1000217",
    "request_type": "Trash/Recycling",
    "request_reason": "Request a Large Item Pick Up",
    "date_created": "2023-05-16T15:43:59.000",
    "date_modified": "2023-05-16T15:44:00.000",
    "request_status": "Pending",
    "responsible_agency": "Department of Sanitation",
    "final_address": "2426 Prentiss Ave",
    "address_councildis": "D",
    "status": "Assigned to Contractor",
    "contractor": "IV Waste",
    "rowid": "1000217",
    "final_x": "3685306.22684",
    "final_y": "553861.116119",
    "longitude": "-90.05526479158169",
    "latitude": "30.016809716372254",
    "geocoded_column": {
      "latitude": "30.016809716372254",
      "longitude": "-90.05526479158169"
    }
  },
  {
    "service_request": "2023-1000216",
    "request_type": "Trash/Recycling",
    "request_reason": "Damaged Caused By Contractor",
    "date_created": "2023-05-16T15:43:58.000",
    "date_modified": "2023-05-16T15:43:59.000",
    "request_status": "Pending",
    "responsible_agency": "Department of Sanitation",
    "final_address": "4315 S Liberty St",
    "address_councildis": "B",
    "status": "Assigned to Contractor",
    "contractor": "Richards Disposal",
    "rowid": "1000216",
    "final_x": "3670861.30305",
    "final_y": "523420.463995",
    "longitude": "-90.1019384311558",
    "latitude": "29.933543329375276",
    "geocoded_column": {
      "latitude": "29.933543329375276",
      "longitude": "-90.1019384311558"
    }
  },
  {
    "service_request": "2023-1000215",
    "request_type": "Trash/Recycling",
    "request_reason": "Order Trash Cart",
    "date_created": "2023-05-16T15:43:35.000",
    "date_modified": "2023-05-16T15:43:36.000",
    "request_status": "Pending",
    "responsible_agency": "Department of Sanitation",
    "final_address": "7103 Freret St Apt 101",
    "address_councildis": "A",
    "status": "Assigned to Contractor",
    "contractor": "Richards Disposal",
    "rowid": "1000215",
    "final_x": "3664003.76192",
    "final_y": "525801.901309",
    "longitude": "-90.12350803312154",
    "latitude": "29.940292382729165",
    "geocoded_column": {
      "latitude": "29.940292382729165",
      "longitude": "-90.12350803312154"
    }
  },
  {
    "service_request": "2023-1000214",
    "request_type": "Abandoned Vehicles",
    "request_reason": "Abandoned/Junk Vehicles",
    "date_created": "2023-05-16T15:43:21.000",
    "date_modified": "2023-05-16T15:45:41.000",
    "request_status": "Pending",
    "responsible_agency": "Department of Public Works",
    "final_address": "STEPHEN GIRARD AVE & PAUGER ST",
    "address_councildis": "D",
    "status": "Pending",
    "rowid": "1000214",
    "final_x": "3682866.6",
    "final_y": "548739.08",
    "longitude": "-90.06315237838895",
    "latitude": "30.00280056904919",
    "geocoded_column": {
      "latitude": "30.00280056904919",
      "longitude": "-90.06315237838895"
    }
  },
  {
    "service_request": "2023-1000213",
    "request_type": "Abandoned Vehicles",
    "request_reason": "Abandoned/Junk Vehicles",
    "date_created": "2023-05-16T15:40:46.000",
    "date_modified": "2023-05-16T15:40:46.000",
    "request_status": "Pending",
    "responsible_agency": "Department of Public Works",
    "final_address": "2230 Second St",
    "address_councildis": "B",
    "status": "Pending",
    "rowid": "1000213",
    "final_x": "3675346.62011",
    "final_y": "525031.975741",
    "longitude": "-90.0877232091532",
    "latitude": "29.937841158316367",
    "geocoded_column": {
      "latitude": "29.937841158316367",
      "longitude": "-90.0877232091532"
    }
  },
  {
    "service_request": "2023-1000212",
    "request_type": "Abandoned Vehicles",
    "request_reason": "Vehicle Blocking Your Driveway",
    "date_created": "2023-05-16T15:39:57.000",
    "date_modified": "2023-05-16T15:39:57.000",
    "request_status": "Pending",
    "responsible_agency": "Department of Public Works",
    "final_address": "1228 Eagle St. ",
    "address_councildis": "A",
    "status": "Pending",
    "rowid": "1000212",
    "final_x": "3660259.09856",
    "final_y": "530247.334401",
    "longitude": "-90.13518383969446",
    "latitude": "29.952624092934766",
    "geocoded_column": {
      "latitude": "29.952624092934766",
      "longitude": "-90.13518383969446"
    }
  },
  {
    "service_request": "2023-1000211",
    "request_type": "Trash/Recycling",
    "request_reason": "Request a Large Item Pick Up",
    "date_created": "2023-05-16T15:39:26.000",
    "date_modified": "2023-05-16T15:39:27.000",
    "request_status": "Pending",
    "responsible_agency": "Department of Sanitation",
    "final_address": "1424 Pleasant St",
    "address_councildis": "B",
    "status": "Assigned to Contractor",
    "contractor": "Richards Disposal",
    "rowid": "1000211",
    "final_x": "3674953.01192",
    "final_y": "520943.908089",
    "longitude": "-90.08910600949807",
    "latitude": "29.92661206018483",
    "geocoded_column": {
      "latitude": "29.92661206018483",
      "longitude": "-90.08910600949807"
    }
  },
  {
    "service_request": "2023-1000210",
    "request_type": "Roads/Drainage",
    "request_reason": "Pothole",
    "date_created": "2023-05-16T15:37:28.000",
    "date_modified": "2023-05-16T15:37:29.000",
    "request_status": "Pending",
    "responsible_agency": "Department of Public Works",
    "final_address": "2924 Josephine St",
    "address_councildis": "B",
    "status": "Pending",
    "rowid": "1000210",
    "final_x": "3674950.31265",
    "final_y": "527728.887999",
    "longitude": "-90.08888191443643",
    "latitude": "29.945268621413717",
    "geocoded_column": {
      "latitude": "29.945268621413717",
      "longitude": "-90.08888191443643"
    }
  },
  {
    "service_request": "2023-1000209",
    "request_type": "Trash/Recycling",
    "request_reason": "Request a Large Item Pick Up",
    "date_created": "2023-05-16T15:35:19.000",
    "date_modified": "2023-05-16T15:35:20.000",
    "request_status": "Pending",
    "responsible_agency": "Department of Sanitation",
    "final_address": "7620 Hansbrough Ave",
    "address_councildis": "E",
    "status": "Assigned to Contractor",
    "contractor": "Waste Pro",
    "rowid": "1000209",
    "final_x": "3707578.44171",
    "final_y": "564487.094049",
    "longitude": "-89.98449933284098",
    "latitude": "30.0453251012345",
    "geocoded_column": {
      "latitude": "30.0453251012345",
      "longitude": "-89.98449933284098"
    }
  },
  {
    "service_request": "2023-1000208",
    "request_type": "Trash/Recycling",
    "request_reason": "Repair Trash Cart",
    "date_created": "2023-05-16T15:34:26.000",
    "date_modified": "2023-05-16T15:34:57.000",
    "request_status": "Pending",
    "responsible_agency": "Department of Sanitation",
    "final_address": "2826 Martin Luther King, Jr. Blvd",
    "address_councildis": "B",
    "status": "Assigned to Contractor",
    "contractor": "Richards Disposal",
    "rowid": "1000208",
    "final_x": "3675410.21249",
    "final_y": "527834.883071",
    "longitude": "-90.08742622463787",
    "latitude": "29.94554633084228",
    "geocoded_column": {
      "latitude": "29.94554633084228",
      "longitude": "-90.08742622463787"
    }
  },
  {
    "service_request": "2023-1000207",
    "request_type": "Trash/Recycling",
    "request_reason": "Request a Large Item Pick Up",
    "date_created": "2023-05-16T15:33:39.000",
    "date_modified": "2023-05-16T15:33:40.000",
    "request_status": "Pending",
    "responsible_agency": "Department of Sanitation",
    "final_address": "4719 Miles Dr",
    "address_councildis": "D",
    "status": "Assigned to Contractor",
    "contractor": "IV Waste",
    "rowid": "1000207",
    "final_x": "3679670.06248",
    "final_y": "548910.907603",
    "longitude": "-90.07324470868257",
    "latitude": "30.003370077451834",
    "geocoded_column": {
      "latitude": "30.003370077451834",
      "longitude": "-90.07324470868257"
    }
  },
  {
    "service_request": "2023-1000206",
    "request_type": "Trash/Recycling",
    "request_reason": "Order Trash Cart",
    "date_created": "2023-05-16T15:33:35.000",
    "date_modified": "2023-05-16T15:33:36.000",
    "request_status": "Pending",
    "responsible_agency": "Department of Sanitation",
    "final_address": "2923 Josephine St",
    "address_councildis": "B",
    "status": "Assigned to Contractor",
    "contractor": "Richards Disposal",
    "rowid": "1000206",
    "final_x": "3675037.70459",
    "final_y": "527735.192511",
    "longitude": "-90.08860577385836",
    "latitude": "29.945283346663828",
    "geocoded_column": {
      "latitude": "29.945283346663828",
      "longitude": "-90.08860577385836"
    }
  },
  {
    "service_request": "2023-1000205",
    "request_type": "Property Maintenance",
    "request_reason": "Property Maintenance",
    "date_created": "2023-05-16T15:33:03.000",
    "date_modified": "2023-05-16T15:33:03.000",
    "request_status": "Pending",
    "responsible_agency": "Department of Code Enforcement",
    "final_address": "417 Warrington Dr",
    "address_councildis": "D",
    "status": "Pending",
    "rowid": "1000205",
    "final_x": "3681561.27669",
    "final_y": "548326.51285",
    "longitude": "-90.06729047194948",
    "latitude": "30.00170587900364",
    "geocoded_column": {
      "latitude": "30.00170587900364",
      "longitude": "-90.06729047194948"
    }
  },
  {
    "service_request": "2023-1000204",
    "request_type": "Property Maintenance",
    "request_reason": "Property Maintenance",
    "date_created": "2023-05-16T15:32:48.000",
    "date_modified": "2023-05-16T15:32:48.000",
    "request_status": "Pending",
    "responsible_agency": "Department of Code Enforcement",
    "final_address": "2054 Carnot St",
    "address_councildis": "D",
    "status": "Pending",
    "rowid": "1000204",
    "final_x": "3682940.78684",
    "final_y": "549804.219092",
    "longitude": "-90.06288070363082",
    "latitude": "30.00572705668456",
    "geocoded_column": {
      "latitude": "30.00572705668456",
      "longitude": "-90.06288070363082"
    }
  },
  {
    "service_request": "2023-1000203",
    "request_type": "Trash/Recycling",
    "request_reason": "Replace Trash Cart",
    "date_created": "2023-05-16T15:32:45.000",
    "date_modified": "2023-05-16T15:32:47.000",
    "request_status": "Pending",
    "responsible_agency": "Department of Sanitation",
    "final_address": "2915 Josephine St",
    "address_councildis": "B",
    "status": "Assigned to Contractor",
    "contractor": "Richards Disposal",
    "rowid": "1000203",
    "final_x": "3675074.50984",
    "final_y": "527686.944191",
    "longitude": "-90.08849122285153",
    "latitude": "29.94514958028682",
    "geocoded_column": {
      "latitude": "29.94514958028682",
      "longitude": "-90.08849122285153"
    }
  },
  {
    "service_request": "2023-1000202",
    "request_type": "Trash/Recycling",
    "request_reason": "Order Trash Cart",
    "date_created": "2023-05-16T15:31:55.000",
    "date_modified": "2023-05-16T15:31:55.000",
    "request_status": "Pending",
    "responsible_agency": "Department of Sanitation",
    "final_address": "1925 Jackson Ave",
    "address_councildis": "B",
    "status": "Assigned to Contractor",
    "contractor": "Richards Disposal",
    "rowid": "1000202",
    "final_x": "3676717.79067",
    "final_y": "524940.374013",
    "longitude": "-90.08339746350788",
    "latitude": "29.937548226943385",
    "geocoded_column": {
      "latitude": "29.937548226943385",
      "longitude": "-90.08339746350788"
    }
  },
  {
    "service_request": "2023-1000201",
    "request_type": "Trash/Recycling",
    "request_reason": "Replace Trash Cart",
    "date_created": "2023-05-16T15:25:31.000",
    "date_modified": "2023-05-16T15:25:32.000",
    "request_status": "Pending",
    "responsible_agency": "Department of Sanitation",
    "final_address": "1919 Marengo St",
    "address_councildis": "B",
    "status": "Assigned to Contractor",
    "contractor": "Richards Disposal",
    "rowid": "1000201",
    "final_x": "3671881.99956",
    "final_y": "522209.722554",
    "longitude": "-90.09875732333796",
    "latitude": "29.930183979821376",
    "geocoded_column": {
      "latitude": "29.930183979821376",
      "longitude": "-90.09875732333796"
    }
  },
  {
    "service_request": "2023-1000200",
    "request_type": "Trash/Recycling",
    "request_reason": "Repair Trash Cart",
    "date_created": "2023-05-16T15:24:52.000",
    "date_modified": "2023-05-16T15:24:53.000",
    "request_status": "Pending",
    "responsible_agency": "Department of Sanitation",
    "final_address": "2333 General Taylor St",
    "address_councildis": "B",
    "status": "Assigned to Contractor",
    "contractor": "Richards Disposal",
    "rowid": "1000200",
    "final_x": "3672039.26574",
    "final_y": "523739.191227",
    "longitude": "-90.09820881311921",
    "latitude": "29.93438486515152",
    "geocoded_column": {
      "latitude": "29.93438486515152",
      "longitude": "-90.09820881311921"
    }
  },
  {
    "service_request": "2023-1000199",
    "request_type": "Trash/Recycling",
    "request_reason": "Missed Trash Pick-Up",
    "date_created": "2023-05-16T15:23:48.000",
    "date_modified": "2023-05-16T15:23:49.000",
    "request_status": "Pending",
    "responsible_agency": "Department of Sanitation",
    "final_address": "7816 Ebbtide Dr",
    "address_councildis": "E",
    "status": "Assigned to Contractor",
    "contractor": "Waste Pro",
    "rowid": "1000199",
    "final_x": "3701923.32465",
    "final_y": "561988.327775",
    "longitude": "-90.00246384331544",
    "latitude": "30.038636304192146",
    "geocoded_column": {
      "latitude": "30.038636304192146",
      "longitude": "-90.00246384331544"
    }
  },
  {
    "service_request": "2023-1000198",
    "request_type": "Traffic Signals/Signs/Striping/Streetlights",
    "request_reason": "Traffic Signal Malfunctioning/Damaged",
    "date_created": "2023-05-16T15:22:55.000",
    "date_modified": "2023-05-16T15:22:56.000",
    "request_status": "Pending",
    "responsible_agency": "Department of Public Works",
    "final_address": "FRERET ST & NAPOLEON AVE",
    "address_councildis": "B",
    "status": "Pending",
    "rowid": "1000198",
    "final_x": "3670492.0",
    "final_y": "524033.18",
    "longitude": "-90.10308353572401",
    "latitude": "29.935239008691006",
    "geocoded_column": {
      "latitude": "29.935239008691006",
      "longitude": "-90.10308353572401"
    }
  },
  {
    "service_request": "2023-1000197",
    "request_type": "Roads/Drainage",
    "request_reason": "Catch Basin - Clogged",
    "date_created": "2023-05-16T15:18:22.000",
    "date_modified": "2023-05-16T15:18:22.000",
    "request_status": "Pending",
    "responsible_agency": "Department of Public Works",
    "final_address": "600 BLK Third St",
    "address_councildis": "B",
    "status": "Pending",
    "rowid": "1000197",
    "final_x": "3678483.31491",
    "final_y": "519785.34506",
    "longitude": "-90.07800187423341",
    "latitude": "29.92332050977734",
    "geocoded_column": {
      "latitude": "29.92332050977734",
      "longitude": "-90.07800187423341"
    }
  },
  {
    "service_request": "2023-1000196",
    "request_type": "Roads/Drainage",
    "request_reason": "Catch Basin - Clogged",
    "date_created": "2023-05-16T15:17:10.000",
    "date_modified": "2023-05-16T15:17:10.000",
    "request_status": "Pending",
    "responsible_agency": "Department of Public Works",
    "final_address": "600 BLK Third St",
    "address_councildis": "B",
    "status": "Pending",
    "rowid": "1000196",
    "final_x": "3678483.31491",
    "final_y": "519785.34506",
    "longitude": "-90.07800187423341",
    "latitude": "29.92332050977734",
    "geocoded_column": {
      "latitude": "29.92332050977734",
      "longitude": "-90.07800187423341"
    }
  },
  {
    "service_request": "2023-1000194",
    "request_type": "Roads/Drainage",
    "request_reason": "Damaged Sidewalk",
    "date_created": "2023-05-16T15:16:17.000",
    "date_modified": "2023-05-16T15:16:17.000",
    "request_status": "Pending",
    "responsible_agency": "Department of Public Works",
    "final_address": "5730 Waterford Blvd",
    "address_councildis": "E",
    "status": "Pending",
    "rowid": "1000194",
    "final_x": "3713889.59256",
    "final_y": "560752.669534",
    "longitude": "-89.96469422957013",
    "latitude": "30.03485115246789",
    "geocoded_column": {
      "latitude": "30.03485115246789",
      "longitude": "-89.96469422957013"
    }
  },
  {
    "service_request": "2023-1000190",
    "request_type": "Parks & Parkways",
    "request_reason": "Request Tree Service (Right of Way/Public Property)",
    "date_created": "2023-05-16T15:14:01.000",
    "date_modified": "2023-05-16T15:14:01.000",
    "request_status": "Pending",
    "responsible_agency": "Department of Parks & Parkway",
    "final_address": "5730 Waterford Blvd",
    "address_councildis": "E",
    "status": "Pending",
    "rowid": "1000190",
    "final_x": "3713889.59256",
    "final_y": "560752.669534",
    "longitude": "-89.96469422957013",
    "latitude": "30.03485115246789",
    "geocoded_column": {
      "latitude": "30.03485115246789",
      "longitude": "-89.96469422957013"
    }
  },
  {
    "service_request": "2023-1000189",
    "request_type": "Traffic Signals/Signs/Striping/Streetlights",
    "request_reason": "Street Light Outage/Malfunction",
    "date_created": "2023-05-16T15:13:18.000",
    "date_modified": "2023-05-16T15:13:19.000",
    "request_status": "Pending",
    "responsible_agency": "Department of Public Works",
    "final_address": "4900 BLK Pecan St",
    "address_councildis": "E",
    "status": "Assigned to Contractor",
    "contractor": "Legacy Professional Services",
    "rowid": "1000189",
    "final_x": "3701704.64938",
    "final_y": "555370.80965",
    "longitude": "-90.00339764296918",
    "latitude": "30.02044767310356",
    "geocoded_column": {
      "latitude": "30.02044767310356",
      "longitude": "-90.00339764296918"
    }
  },
  {
    "service_request": "2023-1000188",
    "request_type": "Trash/Recycling",
    "request_reason": "Order Trash Cart",
    "date_created": "2023-05-16T15:10:42.000",
    "date_modified": "2023-05-16T15:10:42.000",
    "request_status": "Pending",
    "responsible_agency": "Department of Sanitation",
    "final_address": "3109 Milan St",
    "address_councildis": "B",
    "status": "Assigned to Contractor",
    "contractor": "Richards Disposal",
    "rowid": "1000188",
    "final_x": "3671087.49735",
    "final_y": "526417.534398",
    "longitude": "-90.10112259851958",
    "latitude": "29.94177761664842",
    "geocoded_column": {
      "latitude": "29.94177761664842",
      "longitude": "-90.10112259851958"
    }
  },
  {
    "service_request": "2023-1000187",
    "request_type": "Abandoned Vehicles",
    "request_reason": "Abandoned/Junk Vehicles",
    "date_created": "2023-05-16T15:06:24.000",
    "date_modified": "2023-05-16T15:06:24.000",
    "request_status": "Pending",
    "responsible_agency": "Department of Public Works",
    "final_address": "2208 Fourth St",
    "address_councildis": "B",
    "status": "Inspected",
    "rowid": "1000187",
    "final_x": "3674926.8075",
    "final_y": "524550.108668",
    "longitude": "-90.08906511317478",
    "latitude": "29.93652872320799",
    "geocoded_column": {
      "latitude": "29.93652872320799",
      "longitude": "-90.08906511317478"
    }
  },
  {
    "service_request": "2023-1000186",
    "request_type": "Trash/Recycling",
    "request_reason": "Replace Trash Cart",
    "date_created": "2023-05-16T14:59:48.000",
    "date_modified": "2023-05-16T15:01:39.000",
    "request_status": "Pending",
    "responsible_agency": "Department of Sanitation",
    "final_address": "935 Joseph St",
    "address_councildis": "A",
    "status": "Assigned to Contractor",
    "contractor": "Richards Disposal",
    "rowid": "1000186",
    "final_x": "3666320.08705",
    "final_y": "519603.266104",
    "longitude": "-90.11640284103431",
    "latitude": "29.923180654381532",
    "geocoded_column": {
      "latitude": "29.923180654381532",
      "longitude": "-90.11640284103431"
    }
  },
  {
    "service_request": "2023-1000185",
    "request_type": "Traffic Signals/Signs/Striping/Streetlights",
    "request_reason": "Street Name Sign Damaged or Missing",
    "date_created": "2023-05-16T14:58:14.000",
    "date_modified": "2023-05-16T14:58:14.000",
    "request_status": "Pending",
    "responsible_agency": "Department of Public Works",
    "final_address": "BRANCH DR & MORRISON RD",
    "address_councildis": "E",
    "status": "Pending",
    "rowid": "1000185",
    "final_x": "3715224.8",
    "final_y": "568031.68",
    "longitude": "-89.96019916218374",
    "latitude": "30.054821555654993",
    "geocoded_column": {
      "latitude": "30.054821555654993",
      "longitude": "-89.96019916218374"
    }
  },
  {
    "service_request": "2023-1000184",
    "request_type": "Trash/Recycling",
    "request_reason": "Replace Trash Cart",
    "date_created": "2023-05-16T14:57:00.000",
    "date_modified": "2023-05-16T14:57:00.000",
    "request_status": "Pending",
    "responsible_agency": "Department of Sanitation",
    "final_address": "3634 Octavia St",
    "address_councildis": "A",
    "status": "Assigned to Contractor",
    "contractor": "Richards Disposal",
    "rowid": "1000184",
    "final_x": "3668606.02311",
    "final_y": "528942.664512",
    "longitude": "-90.108871954562",
    "latitude": "29.948794047035324",
    "geocoded_column": {
      "latitude": "29.948794047035324",
      "longitude": "-90.108871954562"
    }
  },
  {
    "service_request": "2023-1000182",
    "request_type": "Trash/Recycling",
    "request_reason": "Request a Large Item Pick Up",
    "date_created": "2023-05-16T14:51:54.000",
    "date_modified": "2023-05-16T14:51:55.000",
    "request_status": "Pending",
    "responsible_agency": "Department of Sanitation",
    "final_address": "1325 Frankfort St",
    "address_councildis": "D",
    "status": "Assigned to Contractor",
    "contractor": "IV Waste",
    "rowid": "1000182",
    "final_x": "3677421.36738",
    "final_y": "555910.708249",
    "longitude": "-90.08010683073951",
    "latitude": "30.022684819663386",
    "geocoded_column": {
      "latitude": "30.022684819663386",
      "longitude": "-90.08010683073951"
    }
  },
  {
    "service_request": "2023-1000181",
    "request_type": "Safety & Permits",
    "request_reason": "Safety & Permits Request (Cyber Incident Back Up)",
    "date_created": "2023-05-16T14:51:29.000",
    "date_modified": "2023-05-16T14:51:29.000",
    "request_status": "Pending",
    "responsible_agency": "Safety and Permits",
    "final_address": "1404 Prytania St Unit F2",
    "address_councildis": "B",
    "status": "Pending",
    "rowid": "1000181",
    "final_x": "3679833.64059",
    "final_y": "525417.209341",
    "longitude": "-90.07354395135549",
    "latitude": "29.938765539532767",
    "geocoded_column": {
      "latitude": "29.938765539532767",
      "longitude": "-90.07354395135549"
    }
  },
  {
    "service_request": "2023-1000180",
    "request_type": "Trash/Recycling",
    "request_reason": "Replace Trash Cart",
    "date_created": "2023-05-16T14:51:25.000",
    "date_modified": "2023-05-16T14:51:26.000",
    "request_status": "Pending",
    "responsible_agency": "Department of Sanitation",
    "final_address": "1141 Philip St",
    "address_councildis": "B",
    "status": "Assigned to Contractor",
    "contractor": "Richards Disposal",
    "rowid": "1000180",
    "final_x": "3678363.09083",
    "final_y": "522133.069562",
    "longitude": "-90.07830020534318",
    "latitude": "29.92977960854176",
    "geocoded_column": {
      "latitude": "29.92977960854176",
      "longitude": "-90.07830020534318"
    }
  },
  {
    "service_request": "2023-1000179",
    "request_type": "Trash/Recycling",
    "request_reason": "Missed Trash Pick-Up",
    "date_created": "2023-05-16T14:49:18.000",
    "date_modified": "2023-05-16T14:49:19.000",
    "request_status": "Pending",
    "responsible_agency": "Department of Sanitation",
    "final_address": "133 N Scott St",
    "address_councildis": "A",
    "status": "Assigned to Contractor",
    "contractor": "Richards Disposal",
    "rowid": "1000179",
    "final_x": "3671908.17428",
    "final_y": "538142.970633",
    "longitude": "-90.09813248005362",
    "latitude": "29.973994379887714",
    "geocoded_column": {
      "latitude": "29.973994379887714",
      "longitude": "-90.09813248005362"
    }
  },
  {
    "service_request": "2023-1000178",
    "request_type": "Safety & Permits",
    "request_reason": "Safety & Permits Request (Cyber Incident Back Up)",
    "date_created": "2023-05-16T14:47:59.000",
    "date_modified": "2023-05-16T14:47:59.000",
    "request_status": "Pending",
    "responsible_agency": "Safety and Permits",
    "final_address": "1404 Prytania St Unit F2",
    "address_councildis": "B",
    "status": "Pending",
    "rowid": "1000178",
    "final_x": "3679833.64059",
    "final_y": "525417.209341",
    "longitude": "-90.07354395135549",
    "latitude": "29.938765539532767",
    "geocoded_column": {
      "latitude": "29.938765539532767",
      "longitude": "-90.07354395135549"
    }
  },
  {
    "service_request": "2023-1000177",
    "request_type": "Roads/Drainage",
    "request_reason": "Debris in Roadway",
    "date_created": "2023-05-16T14:46:43.000",
    "date_modified": "2023-05-16T14:46:43.000",
    "request_status": "Pending",
    "responsible_agency": "Department of Public Works",
    "final_address": "FOUCHER ST & CHESTNUT ST",
    "address_councildis": "B",
    "status": "Pending",
    "rowid": "1000177",
    "final_x": "3673925.9",
    "final_y": "520001.58",
    "longitude": "-90.09238054172586",
    "latitude": "29.924051588307808",
    "geocoded_column": {
      "latitude": "29.924051588307808",
      "longitude": "-90.09238054172586"
    }
  },
  {
    "service_request": "2023-1000176",
    "request_type": "Traffic Signals/Signs/Striping/Streetlights",
    "request_reason": "Additional signage",
    "date_created": "2023-05-16T14:44:55.000",
    "date_modified": "2023-05-16T14:44:56.000",
    "request_status": "Pending",
    "responsible_agency": "Department of Public Works",
    "final_address": "CAMP ST & ANDREW HIGGINS ST & CAMP EXIT",
    "address_councildis": "B",
    "status": "Pending",
    "rowid": "1000176",
    "final_x": "3680554.8",
    "final_y": "526985.78",
    "longitude": "-90.07121262529816",
    "latitude": "29.943056765689015",
    "geocoded_column": {
      "latitude": "29.943056765689015",
      "longitude": "-90.07121262529816"
    }
  },
  {
    "service_request": "2023-1000175",
    "request_type": "Property Maintenance",
    "request_reason": "Property Maintenance",
    "date_created": "2023-05-16T14:44:23.000",
    "date_modified": "2023-05-16T14:44:23.000",
    "request_status": "Pending",
    "responsible_agency": "Department of Code Enforcement",
    "final_address": "5614 Rosemary Pl",
    "address_councildis": "A",
    "status": "Pending",
    "rowid": "1000175",
    "final_x": "3667070.51149",
    "final_y": "544843.063055",
    "longitude": "-90.11318563748733",
    "latitude": "29.992559873973242",
    "geocoded_column": {
      "latitude": "29.992559873973242",
      "longitude": "-90.11318563748733"
    }
  },
  {
    "service_request": "2023-1000174",
    "request_type": "Roads/Drainage",
    "request_reason": "Pothole",
    "date_created": "2023-05-16T14:44:12.000",
    "date_modified": "2023-05-16T14:44:12.000",
    "request_status": "Pending",
    "responsible_agency": "Department of Public Works",
    "final_address": "900 BLK Race St",
    "address_councildis": "B",
    "status": "Pending",
    "rowid": "1000174",
    "final_x": "3680923.61154",
    "final_y": "523668.014131",
    "longitude": "-90.07016367297648",
    "latitude": "29.93392283636354",
    "geocoded_column": {
      "latitude": "29.93392283636354",
      "longitude": "-90.07016367297648"
    }
  },
  {
    "service_request": "2023-1000173",
    "request_type": "Trash/Recycling",
    "request_reason": "Replace Trash Cart",
    "date_created": "2023-05-16T14:43:42.000",
    "date_modified": "2023-05-16T14:43:43.000",
    "request_status": "Pending",
    "responsible_agency": "Department of Sanitation",
    "final_address": "15260 Chef Menteur Hwy",
    "address_councildis": "E",
    "status": "Assigned to Contractor",
    "contractor": "Waste Pro",
    "rowid": "1000173",
    "final_x": "3735868.46797",
    "final_y": "563677.231841",
    "longitude": "-89.89512289701582",
    "latitude": "30.04215230539779",
    "geocoded_column": {
      "latitude": "30.04215230539779",
      "longitude": "-89.89512289701582"
    }
  },
  {
    "service_request": "2023-1000172",
    "request_type": "Roads/Drainage",
    "request_reason": "Pothole",
    "date_created": "2023-05-16T14:42:41.000",
    "date_modified": "2023-05-16T14:42:41.000",
    "request_status": "Pending",
    "responsible_agency": "Department of Public Works",
    "final_address": " & SHADE TREE LN",
    "address_councildis": "C",
    "status": "Pending",
    "rowid": "1000172",
    "final_x": "3695620.33",
    "final_y": "522834.78",
    "longitude": "-90.02379705437441",
    "latitude": "29.93117805604866",
    "geocoded_column": {
      "latitude": "29.93117805604866",
      "longitude": "-90.02379705437441"
    }
  },
  {
    "service_request": "2023-1000171",
    "request_type": "Trash/Recycling",
    "request_reason": "Request a Large Item Pick Up",
    "date_created": "2023-05-16T14:41:28.000",
    "date_modified": "2023-05-16T14:41:28.000",
    "request_status": "Pending",
    "responsible_agency": "Department of Sanitation",
    "final_address": "4217 Rayne Dr",
    "address_councildis": "D",
    "status": "Assigned to Contractor",
    "contractor": "IV Waste",
    "rowid": "1000171",
    "final_x": "3679858.29205",
    "final_y": "547862.306962",
    "longitude": "-90.07268650837212",
    "latitude": "30.000481106387962",
    "geocoded_column": {
      "latitude": "30.000481106387962",
      "longitude": "-90.07268650837212"
    }
  },
  {
    "service_request": "2023-1000170",
    "request_type": "Roads/Drainage",
    "request_reason": "Street Subsidence (Sinking)",
    "date_created": "2023-05-16T14:30:46.000",
    "date_modified": "2023-05-16T14:30:47.000",
    "request_status": "Pending",
    "responsible_agency": "Department of Public Works",
    "final_address": "CROWDER BLVD & DWYER RD",
    "address_councildis": "E",
    "status": "Pending",
    "rowid": "1000170",
    "final_x": "3706337.9",
    "final_y": "556796.57",
    "longitude": "-89.98870523707355",
    "latitude": "30.024219281691163",
    "geocoded_column": {
      "latitude": "30.024219281691163",
      "longitude": "-89.98870523707355"
    }
  },
  {
    "service_request": "2023-1000169",
    "request_type": "Abandoned Vehicles",
    "request_reason": "Abandoned/Junk Vehicles",
    "date_created": "2023-05-16T14:30:12.000",
    "date_modified": "2023-05-16T14:30:13.000",
    "request_status": "Pending",
    "responsible_agency": "Department of Public Works",
    "final_address": "LAKE FOREST BLVD & STILLWATER DR",
    "address_councildis": "E",
    "status": "Pending",
    "rowid": "1000169",
    "final_x": "3716041.6",
    "final_y": "561520.38",
    "longitude": "-89.95786451403656",
    "latitude": "30.036891193934792",
    "geocoded_column": {
      "latitude": "30.036891193934792",
      "longitude": "-89.95786451403656"
    }
  },
  {
    "service_request": "2023-1000167",
    "request_type": "Abandoned Vehicles",
    "request_reason": "Abandoned/Junk Vehicles",
    "date_created": "2023-05-16T14:23:37.000",
    "date_modified": "2023-05-16T14:23:37.000",
    "request_status": "Pending",
    "responsible_agency": "Department of Public Works",
    "final_address": "1900 BLK S Rendon St",
    "address_councildis": "B",
    "status": "Pending",
    "rowid": "1000167",
    "final_x": "3669228.80914",
    "final_y": "530101.199428",
    "longitude": "-90.10686639287226",
    "latitude": "29.951961324962475",
    "geocoded_column": {
      "latitude": "29.951961324962475",
      "longitude": "-90.10686639287226"
    }
  },
  {
    "service_request": "2023-1000166",
    "request_type": "Abandoned Vehicles",
    "request_reason": "Abandoned/Junk Vehicles",
    "date_created": "2023-05-16T14:20:34.000",
    "date_modified": "2023-05-16T14:20:34.000",
    "request_status": "Pending",
    "responsible_agency": "Department of Public Works",
    "final_address": "1900 BLK S Rendon St",
    "address_councildis": "B",
    "status": "Pending",
    "rowid": "1000166",
    "final_x": "3669228.80914",
    "final_y": "530101.199428",
    "longitude": "-90.10686639287226",
    "latitude": "29.951961324962475",
    "geocoded_column": {
      "latitude": "29.951961324962475",
      "longitude": "-90.10686639287226"
    }
  },
  {
    "service_request": "2023-1000165",
    "request_type": "Trash/Recycling",
    "request_reason": "Replace Recycling Cart",
    "date_created": "2023-05-16T14:19:39.000",
    "date_modified": "2023-05-16T14:19:39.000",
    "request_status": "Pending",
    "responsible_agency": "Department of Sanitation",
    "final_address": "12340 N Lake Carmel Dr",
    "address_councildis": "E",
    "status": "Pending",
    "rowid": "1000165",
    "final_x": "3715317.48914",
    "final_y": "567514.662244",
    "longitude": "-89.95992578229742",
    "latitude": "30.053396914605297",
    "geocoded_column": {
      "latitude": "30.053396914605297",
      "longitude": "-89.95992578229742"
    }
  },
  {
    "service_request": "2023-1000164",
    "request_type": "Property Maintenance",
    "request_reason": "Property Maintenance",
    "date_created": "2023-05-16T14:17:18.000",
    "date_modified": "2023-05-16T14:17:18.000",
    "request_status": "Pending",
    "responsible_agency": "Department of Code Enforcement",
    "final_address": "2440 St Roch Ave",
    "address_councildis": "D",
    "status": "Pending",
    "rowid": "1000164",
    "final_x": "3686004.32386",
    "final_y": "541541.460108",
    "longitude": "-90.05349387147895",
    "latitude": "29.982913677870307",
    "geocoded_column": {
      "latitude": "29.982913677870307",
      "longitude": "-90.05349387147895"
    }
  },
  {
    "service_request": "2023-1000163",
    "request_type": "Traffic Signals/Signs/Striping/Streetlights",
    "request_reason": "Traffic Signal Malfunctioning/Damaged",
    "date_created": "2023-05-16T14:15:23.000",
    "date_modified": "2023-05-16T14:15:23.000",
    "request_status": "Pending",
    "responsible_agency": "Department of Public Works",
    "final_address": "CANAL BLVD & HARRISON AVE",
    "address_councildis": "A",
    "status": "Pending",
    "rowid": "1000163",
    "final_x": "3668600.1",
    "final_y": "549325.08",
    "longitude": "-90.10820256232637",
    "latitude": "30.004838996244658",
    "geocoded_column": {
      "latitude": "30.004838996244658",
      "longitude": "-90.10820256232637"
    }
  },
  {
    "service_request": "2023-1000162",
    "request_type": "Property Maintenance",
    "request_reason": "Property Maintenance",
    "date_created": "2023-05-16T14:15:01.000",
    "date_modified": "2023-05-16T14:15:01.000",
    "request_status": "Pending",
    "responsible_agency": "Department of Code Enforcement",
    "final_address": "2438 St Roch Ave",
    "address_councildis": "D",
    "status": "Pending",
    "rowid": "1000162",
    "final_x": "3686004.99126",
    "final_y": "541533.113548",
    "longitude": "-90.05349205795179",
    "latitude": "29.98289070728518",
    "geocoded_column": {
      "latitude": "29.98289070728518",
      "longitude": "-90.05349205795179"
    }
  },
  {
    "service_request": "2023-1000161",
    "request_type": "Abandoned Vehicles",
    "request_reason": "Abandoned/Junk Vehicles",
    "date_created": "2023-05-16T14:13:57.000",
    "date_modified": "2023-05-16T14:13:58.000",
    "request_status": "Pending",
    "responsible_agency": "Department of Public Works",
    "final_address": "1804 Second St",
    "address_councildis": "B",
    "status": "Pending",
    "rowid": "1000161",
    "final_x": "3676224.04494",
    "final_y": "523701.274619",
    "longitude": "-90.08499887423883",
    "latitude": "29.93415590971917",
    "geocoded_column": {
      "latitude": "29.93415590971917",
      "longitude": "-90.08499887423883"
    }
  },
  {
    "service_request": "2023-1000160",
    "request_type": "Traffic Signals/Signs/Striping/Streetlights",
    "request_reason": "Street Light Outage/Malfunction",
    "date_created": "2023-05-16T14:09:36.000",
    "date_modified": "2023-05-16T14:09:36.000",
    "request_status": "Pending",
    "responsible_agency": "Department of Public Works",
    "final_address": "5938 Spain St",
    "address_councildis": "D",
    "status": "Assigned to Contractor",
    "contractor": "Legacy Professional Services",
    "rowid": "1000160",
    "final_x": "3684582.58633",
    "final_y": "554995.894617",
    "longitude": "-90.05751126728195",
    "latitude": "30.019952114041185",
    "geocoded_column": {
      "latitude": "30.019952114041185",
      "longitude": "-90.05751126728195"
    }
  },
  {
    "service_request": "2023-1000159",
    "request_type": "Traffic Signals/Signs/Striping/Streetlights",
    "request_reason": "Street Light Outage/Malfunction",
    "date_created": "2023-05-16T14:08:49.000",
    "date_modified": "2023-05-16T14:08:50.000",
    "request_status": "Pending",
    "responsible_agency": "Department of Public Works",
    "final_address": "5928 Spain St",
    "address_councildis": "D",
    "status": "Assigned to Contractor",
    "contractor": "Legacy Professional Services",
    "rowid": "1000159",
    "final_x": "3684560.60591",
    "final_y": "554930.351384",
    "longitude": "-90.05758302402825",
    "latitude": "30.019772567197442",
    "geocoded_column": {
      "latitude": "30.019772567197442",
      "longitude": "-90.05758302402825"
    }
  },
  {
    "service_request": "2023-1000158",
    "request_type": "Trash/Recycling",
    "request_reason": "Request a Large Item Pick Up",
    "date_created": "2023-05-16T14:07:41.000",
    "date_modified": "2023-05-16T14:07:41.000",
    "request_status": "Pending",
    "responsible_agency": "Department of Sanitation",
    "final_address": "5416 Story St",
    "address_councildis": "A",
    "status": "Assigned to Contractor",
    "contractor": "Richards Disposal",
    "rowid": "1000158",
    "final_x": "3668178.3282",
    "final_y": "525965.737405",
    "longitude": "-90.11032269961919",
    "latitude": "29.940621022314794",
    "geocoded_column": {
      "latitude": "29.940621022314794",
      "longitude": "-90.11032269961919"
    }
  },
  {
    "service_request": "2023-1000157",
    "request_type": "Trash/Recycling",
    "request_reason": "Request a Large Item Pick Up",
    "date_created": "2023-05-16T14:00:30.000",
    "date_modified": "2023-05-16T14:00:31.000",
    "request_status": "Pending",
    "responsible_agency": "Department of Sanitation",
    "final_address": "533 Dumaine St Apt B",
    "address_councildis": "C",
    "status": "Assigned to Contractor",
    "contractor": "Empire Services",
    "rowid": "1000157",
    "final_x": "3683413.87605",
    "final_y": "532774.595524",
    "longitude": "-90.06198304302943",
    "latitude": "29.958887143634875",
    "geocoded_column": {
      "latitude": "29.958887143634875",
      "longitude": "-90.06198304302943"
    }
  },
  {
    "service_request": "2023-1000156",
    "request_type": "Property Maintenance",
    "request_reason": "Property Maintenance",
    "date_created": "2023-05-16T13:55:31.000",
    "date_modified": "2023-05-16T13:55:31.000",
    "request_status": "Pending",
    "responsible_agency": "Department of Code Enforcement",
    "final_address": "1542 Piety St",
    "address_councildis": "D",
    "status": "Pending",
    "rowid": "1000156",
    "final_x": "3690257.05526",
    "final_y": "537634.643464",
    "longitude": "-90.04020089107281",
    "latitude": "29.97204002394172",
    "geocoded_column": {
      "latitude": "29.97204002394172",
      "longitude": "-90.04020089107281"
    }
  },
  {
    "service_request": "2023-1000155",
    "request_type": "Trash/Recycling",
    "request_reason": "Order Recycling Cart",
    "date_created": "2023-05-16T13:53:50.000",
    "date_modified": "2023-05-16T13:53:51.000",
    "request_status": "Pending",
    "responsible_agency": "Department of Sanitation",
    "final_address": "161 Torrey Pines Dr",
    "address_councildis": "E",
    "status": "Pending",
    "rowid": "1000155",
    "final_x": "3718466.37964",
    "final_y": "564410.987745",
    "longitude": "-89.95009150351291",
    "latitude": "30.044758931718825",
    "geocoded_column": {
      "latitude": "30.044758931718825",
      "longitude": "-89.95009150351291"
    }
  },
  {
    "service_request": "2023-1000154",
    "request_type": "Trash/Recycling",
    "request_reason": "Missed Trash Pick-Up",
    "date_created": "2023-05-16T13:53:00.000",
    "date_modified": "2023-05-16T13:53:00.000",
    "request_status": "Pending",
    "responsible_agency": "Department of Sanitation",
    "final_address": "14700 Curran Rd",
    "address_councildis": "E",
    "status": "Assigned to Contractor",
    "contractor": "Waste Pro",
    "rowid": "1000154",
    "final_x": "3720107.6846",
    "final_y": "573609.668074",
    "longitude": "-89.94455192301457",
    "latitude": "30.069996890075718",
    "geocoded_column": {
      "latitude": "30.069996890075718",
      "longitude": "-89.94455192301457"
    }
  },
  {
    "service_request": "2023-1000153",
    "request_type": "Trash/Recycling",
    "request_reason": "Order Recycling Cart",
    "date_created": "2023-05-16T13:48:30.000",
    "date_modified": "2023-05-16T13:48:31.000",
    "request_status": "Pending",
    "responsible_agency": "Department of Sanitation",
    "final_address": "725 Bartholomew St",
    "address_councildis": "C",
    "status": "Pending",
    "rowid": "1000153",
    "final_x": "3691501.38608",
    "final_y": "534000.669573",
    "longitude": "-90.0364010056956",
    "latitude": "29.96200920340838",
    "geocoded_column": {
      "latitude": "29.96200920340838",
      "longitude": "-90.0364010056956"
    }
  },
  {
    "service_request": "2023-1000152",
    "request_type": "Trash/Recycling",
    "request_reason": "Request a Large Item Pick Up",
    "date_created": "2023-05-16T13:46:10.000",
    "date_modified": "2023-05-16T13:48:11.000",
    "request_status": "Pending",
    "responsible_agency": "Department of Sanitation",
    "final_address": "4225 Erato St",
    "address_councildis": "B",
    "status": "Assigned to Contractor",
    "contractor": "Richards Disposal",
    "rowid": "1000152",
    "final_x": "3670974.44385",
    "final_y": "531475.445699",
    "longitude": "-90.10130783268608",
    "latitude": "29.95568855704515",
    "geocoded_column": {
      "latitude": "29.95568855704515",
      "longitude": "-90.10130783268608"
    }
  },
  {
    "service_request": "2023-1000151",
    "request_type": "Safety & Permits",
    "request_reason": "Licenses & Permits",
    "date_created": "2023-05-16T13:43:50.000",
    "date_modified": "2023-05-16T13:43:51.000",
    "request_status": "Pending",
    "responsible_agency": "Safety and Permits",
    "final_address": "1019 N Villere St",
    "address_councildis": "C",
    "status": "Pending",
    "rowid": "1000151",
    "final_x": "3681060.35669",
    "final_y": "535230.252934",
    "longitude": "-90.06932931797328",
    "latitude": "29.96571095562786",
    "geocoded_column": {
      "latitude": "29.96571095562786",
      "longitude": "-90.06932931797328"
    }
  },