[
  {
    "service_request": "2026-1269465",
    "request_type": "Trash/Recycling",
    "request_reason": "Change Size of Trash Cart",
    "date_created": "2026-03-29T23:48:33.000",
    "date_modified": "2026-03-29T23:48:35.000",
    "request_status": "Pending",
    "responsible_agency": "Department of Sanitation",
    "final_address": "420 Walnut St",
    "address_councildis": "A",
    "status": "Assigned to Contractor",
    "contractor": "IV Waste",
    "rowid": "1269465",
    "final_x": "3662381.42003",
    "final_y": "522883.846011",
    "longitude": "-90.12872690255466",
    "latitude": "29.932315653993466",
    "geocoded_column": {
      "latitude": "29.932315653993466",
      "longitude": "-90.12872690255466"
    }
  },
  {
    "service_request": "2026-1269464",
    "request_type": "Traffic Signals",
    "request_reason": "Traffic Signal Malfunctioning or Damaged",
    "date_created": "2026-03-29T23:38:54.000",
    "date_modified": "2026-03-29T23:38:56.000",
    "request_status": "Pending",
    "responsible_agency": "Department of Public Works",
    "final_address": "1738 Adams St",
    "address_councildis": "A",
    "status": "Pending",
    "rowid": "1269464",
    "final_x": "3664406.83104",
    "final_y": "528912.916928",
    "longitude": "-90.12213165175174",
    "latitude": "29.948834969083627",
    "geocoded_column": {
      "latitude": "29.948834969083627",
      "longitude": "-90.12213165175174"
    }
  },
  {
    "service_request": "2026-1269463",
    "request_type": "Traffic Signals",
    "request_reason": "Traffic Signal Malfunctioning or Damaged",
    "date_created": "2026-03-29T23:31:42.000",
    "date_modified": "2026-03-29T23:31:44.000",
    "request_status": "Pending",
    "responsible_agency": "Department of Public Works",
    "final_address": "1639 Burdette St",
    "address_councildis": "A",
    "status": "Pending",
    "rowid": "1269463",
    "final_x": "3663956.04531",
    "final_y": "528839.286464",
    "longitude": "-90.12355743675688",
    "latitude": "29.948645603491414",
    "geocoded_column": {
      "latitude": "29.948645603491414",
      "longitude": "-90.12355743675688"
    }
  },
  {
    "service_request": "2026-1269462",
    "request_type": "Trash/Recycling",
    "request_reason": "Request a Large Item Pick Up",
    "date_created": "2026-03-29T23:18:17.000",
    "date_modified": "2026-03-29T23:18:19.000",
    "request_status": "Pending",
    "responsible_agency": "Department of Sanitation",
    "final_address": "2029 Mediamolle Dr",
    "address_councildis": "C",
    "status": "Assigned to Contractor",
    "contractor": "Richards Disposal",
    "rowid": "1269462",
    "final_x": "3699192.52669",
    "final_y": "523825.370555",
    "longitude": "-90.01248411354189",
    "latitude": "29.933789098597618",
    "geocoded_column": {
      "latitude": "29.933789098597618",
      "longitude": "-90.01248411354189"
    }
  },
  {
    "service_request": "2026-1269461",
    "request_type": "Health Related Request",
    "request_reason": "Noise Ordinance Complaint",
    "date_created": "2026-03-29T22:57:34.000",
    "date_modified": "2026-03-29T22:57:35.000",
    "request_status": "Pending",
    "responsible_agency": "Health Department",
    "final_address": "800 Bourbon St, New Orleans, Louisiana, 70116",
    "address_councildis": "C",
    "status": "Pending",
    "rowid": "1269461",
    "final_x": "3682553.51528",
    "final_y": "533013.631428",
    "longitude": "-90.06469148499534",
    "latitude": "29.95957063099051",
    "geocoded_column": {
      "latitude": "29.95957063099051",
      "longitude": "-90.06469148499534"
    }
  },
  {
    "service_request": "2026-1269460",
    "request_type": "Health Related Request",
    "request_reason": "Noise Ordinance Complaint",
    "date_created": "2026-03-29T22:56:56.000",
    "date_modified": "2026-03-29T22:56:58.000",
    "request_status": "Pending",
    "responsible_agency": "Health Department",
    "final_address": "801 Bourbon St, New Orleans, Louisiana, 70116",
    "address_councildis": "C",
    "status": "Pending",
    "rowid": "1269460",
    "final_x": "3682490.98735",
    "final_y": "533018.672772",
    "longitude": "-90.06488875731978",
    "latitude": "29.959586396383013",
    "geocoded_column": {
      "latitude": "29.959586396383013",
      "longitude": "-90.06488875731978"
    }
  },
  {
    "service_request": "2026-1269459",
    "request_type": "Streetlights",
    "request_reason": "Streetlight Outage/Malfunction",
    "date_created": "2026-03-29T22:50:44.000",
    "date_modified": "2026-03-29T22:50:46.000",
    "request_status": "Pending",
    "responsible_agency": "Department of Public Works",
    "final_address": "504 Julia St",
    "address_councildis": "B",
    "status": "Pending",
    "rowid": "1269459",
    "final_x": "3681150.42248",
    "final_y": "527811.332159",
    "longitude": "-90.0693033463043",
    "latitude": "29.945308704893986",
    "geocoded_column": {
      "latitude": "29.945308704893986",
      "longitude": "-90.0693033463043"
    }
  },
  {
    "service_request": "2026-1269458",
    "request_type": "Trash/Recycling",
    "request_reason": "Missed Trash Pick-Up",
    "date_created": "2026-03-29T22:44:17.000",
    "date_modified": "2026-03-29T22:44:19.000",
    "request_status": "Pending",
    "responsible_agency": "Department of Sanitation",
    "final_address": "2812 Cleveland Ave, New Orleans, Louisiana, 70119",
    "address_councildis": "B",
    "status": "Assigned to Contractor",
    "contractor": "IV Waste",
    "rowid": "1269458",
    "final_x": "3674481.34132",
    "final_y": "535133.556998",
    "longitude": "-90.09010894891266",
    "latitude": "29.96564299004726",
    "geocoded_column": {
      "latitude": "29.96564299004726",
      "longitude": "-90.09010894891266"
    }
  },
  {
    "service_request": "2026-1269457",
    "request_type": "Trash/Recycling",
    "request_reason": "Request a Large Item Pick Up",
    "date_created": "2026-03-29T22:40:07.000",
    "date_modified": "2026-03-29T22:40:17.000",
    "request_status": "Pending",
    "responsible_agency": "Department of Sanitation",
    "final_address": "1900 Wildair Dr",
    "address_councildis": "D",
    "status": "Assigned to Contractor",
    "contractor": "IV Waste",
    "rowid": "1269457",
    "final_x": "3681141.9389",
    "final_y": "551104.013909",
    "longitude": "-90.06851834760108",
    "latitude": "30.009355742945843",
    "geocoded_column": {
      "latitude": "30.009355742945843",
      "longitude": "-90.06851834760108"
    }
  },
  {
    "service_request": "2026-1269456",
    "request_type": "General Services",
    "request_reason": "General Service Request",
    "date_created": "2026-03-29T22:34:47.000",
    "date_modified": "2026-03-29T22:34:48.000",
    "request_status": "Pending",
    "responsible_agency": "Orleans Parish Communication District",
    "final_address": "426 S Cortez St",
    "address_councildis": "B",
    "status": "Pending",
    "rowid": "1269456",
    "final_x": "3671229.61684",
    "final_y": "536418.488775",
    "longitude": "-90.10033412830049",
    "latitude": "29.96927273138219",
    "geocoded_column": {
      "latitude": "29.96927273138219",
      "longitude": "-90.10033412830049"
    }
  },
  {
    "service_request": "2026-1269455",
    "request_type": "General Services",
    "request_reason": "General Service Request",
    "date_created": "2026-03-29T21:52:55.000",
    "date_modified": "2026-03-29T21:52:58.000",
    "request_status": "Pending",
    "responsible_agency": "Orleans Parish Communication District",
    "final_address": "1636 Dublin St",
    "address_councildis": "A",
    "status": "Pending",
    "rowid": "1269455",
    "final_x": "3662807.78893",
    "final_y": "529888.740545",
    "longitude": "-90.12714810483516",
    "latitude": "29.95156454956953",
    "geocoded_column": {
      "latitude": "29.95156454956953",
      "longitude": "-90.12714810483516"
    }
  },
  {
    "service_request": "2026-1269454",
    "request_type": "Property Maintenance",
    "request_reason": "Property Maintenance",
    "date_created": "2026-03-29T21:34:26.000",
    "date_modified": "2026-03-29T21:34:29.000",
    "request_status": "Pending",
    "responsible_agency": "Department of Code Enforcement",
    "final_address": "3625 Napoleon Ave",
    "address_councildis": "B",
    "status": "Pending",
    "rowid": "1269454",
    "final_x": "3670233.44257",
    "final_y": "528023.318143",
    "longitude": "-90.1037646300207",
    "latitude": "29.94621822555074",
    "geocoded_column": {
      "latitude": "29.94621822555074",
      "longitude": "-90.1037646300207"
    }
  },
  {
    "service_request": "2026-1269453",
    "request_type": "Health Related Request",
    "request_reason": "Noise Ordinance Complaint",
    "date_created": "2026-03-29T21:10:40.000",
    "date_modified": "2026-03-29T21:10:41.000",
    "request_status": "Pending",
    "responsible_agency": "Health Department",
    "final_address": "800 Bourbon St, New Orleans, Louisiana, 70116",
    "address_councildis": "C",
    "status": "Pending",
    "rowid": "1269453",
    "final_x": "3682553.51528",
    "final_y": "533013.631428",
    "longitude": "-90.06469148499534",
    "latitude": "29.95957063099051",
    "geocoded_column": {
      "latitude": "29.95957063099051",
      "longitude": "-90.06469148499534"
    }
  },
  {
    "service_request": "2026-1269452",
    "request_type": "Safety & Permits",
    "request_reason": "Zoning Enforcement",
    "date_created": "2026-03-29T21:08:29.000",
    "date_modified": "2026-03-29T21:08:30.000",
    "request_status": "Pending",
    "responsible_agency": "Safety and Permits",
    "final_address": "540 S Broad St",
    "address_councildis": "B",
    "status": "Pending",
    "rowid": "1269452",
    "final_x": "3674171.78241",
    "final_y": "533407.733636",
    "longitude": "-90.09114560889088",
    "latitude": "29.96090678730102",
    "geocoded_column": {
      "latitude": "29.96090678730102",
      "longitude": "-90.09114560889088"
    }
  },
  {
    "service_request": "2026-1269451",
    "request_type": "Road Striping",
    "request_reason": "Bike Lane",
    "date_created": "2026-03-29T21:02:38.000",
    "date_modified": "2026-03-29T21:02:41.000",
    "request_status": "Pending",
    "responsible_agency": "Department of Public Works",
    "final_address": "540 S Broad St",
    "address_councildis": "B",
    "status": "Pending",
    "rowid": "1269451",
    "final_x": "3674171.78241",
    "final_y": "533407.733636",
    "longitude": "-90.09114560889088",
    "latitude": "29.96090678730102",
    "geocoded_column": {
      "latitude": "29.96090678730102",
      "longitude": "-90.09114560889088"
    }
  },
  {
    "service_request": "2026-1269450",
    "request_type": "Trash/Recycling",
    "request_reason": "Repair Recycling Cart",
    "date_created": "2026-03-29T20:52:26.000",
    "date_modified": "2026-03-29T20:52:28.000",
    "request_status": "Pending",
    "responsible_agency": "Department of Sanitation",
    "final_address": "2613 Deers St",
    "address_councildis": "D",
    "status": "Pending",
    "rowid": "1269450",
    "final_x": "3688227.2287",
    "final_y": "542276.531533",
    "longitude": "-90.04644675370967",
    "latitude": "29.98486640541314",
    "geocoded_column": {
      "latitude": "29.98486640541314",
      "longitude": "-90.04644675370967"
    }
  },
  {
    "service_request": "2026-1269449",
    "request_type": "Trash/Recycling",
    "request_reason": "Order Recycling Cart",
    "date_created": "2026-03-29T20:29:12.000",
    "date_modified": "2026-03-29T20:29:14.000",
    "request_status": "Pending",
    "responsible_agency": "Department of Sanitation",
    "final_address": "4802 Magazine St",
    "address_councildis": "B",
    "status": "Pending",
    "rowid": "1269449",
    "final_x": "3669537.17102",
    "final_y": "518578.757431",
    "longitude": "-90.10628233920794",
    "latitude": "29.92026924042312",
    "geocoded_column": {
      "latitude": "29.92026924042312",
      "longitude": "-90.10628233920794"
    }
  },
  {
    "service_request": "2026-1269448",
    "request_type": "Alley Ways",
    "request_reason": "Alley Way Issues",
    "date_created": "2026-03-29T20:25:19.000",
    "date_modified": "2026-03-29T20:25:21.000",
    "request_status": "Pending",
    "responsible_agency": "Department of Public Works",
    "final_address": "6245 Marshal Foch St",
    "address_councildis": "A",
    "status": "Pending",
    "rowid": "1269448",
    "final_x": "3670059.79463",
    "final_y": "548799.198099",
    "longitude": "-90.10360890949046",
    "latitude": "30.003350010106765",
    "geocoded_column": {
      "latitude": "30.003350010106765",
      "longitude": "-90.10360890949046"
    }
  },
  {
    "service_request": "2026-1269447",
    "request_type": "Abandoned Vehicles",
    "request_reason": "Abandoned/Junk Vehicles",
    "date_created": "2026-03-29T20:23:20.000",
    "date_modified": "2026-03-29T20:23:22.000",
    "request_status": "Pending",
    "responsible_agency": "Department of Public Works",
    "final_address": "1660 Treasure St",
    "address_councildis": "D",
    "status": "Pending",
    "rowid": "1269447",
    "final_x": "3680460.4852",
    "final_y": "543680.895246",
    "longitude": "-90.07092967336777",
    "latitude": "29.988965472999073",
    "geocoded_column": {
      "latitude": "29.988965472999073",
      "longitude": "-90.07092967336777"
    }
  },
  {
    "service_request": "2026-1269446",
    "request_type": "Trash/Recycling",
    "request_reason": "Order Second Trash Cart",
    "date_created": "2026-03-29T20:14:34.000",
    "date_modified": "2026-03-29T20:14:36.000",
    "request_status": "Pending",
    "responsible_agency": "Department of Sanitation",
    "final_address": "217 10Th St",
    "address_councildis": "A",
    "status": "Assigned to Contractor",
    "contractor": "IV Waste",
    "rowid": "1269446",
    "final_x": "3665419.85972",
    "final_y": "547568.217298",
    "longitude": "-90.11830847904572",
    "latitude": "30.000101342705946",
    "geocoded_column": {
      "latitude": "30.000101342705946",
      "longitude": "-90.11830847904572"
    }
  },
  {
    "service_request": "2026-1269445",
    "request_type": "Drainage",
    "request_reason": "Illegal Dumping (Sewer Odor)",
    "date_created": "2026-03-29T20:07:26.000",
    "date_modified": "2026-03-29T20:07:28.000",
    "request_status": "Pending",
    "responsible_agency": "Sewerage & Water Board",
    "final_address": "7021 Yorktown Dr",
    "address_councildis": "E",
    "status": "Pending",
    "rowid": "1269445",
    "final_x": "3706226.61015",
    "final_y": "560528.951262",
    "longitude": "-89.98891851514233",
    "latitude": "30.03448546108901",
    "geocoded_column": {
      "latitude": "30.03448546108901",
      "longitude": "-89.98891851514233"
    }
  },
  {
    "service_request": "2026-1269444",
    "request_type": "Streetlights",
    "request_reason": "Streetlight Outage/Malfunction",
    "date_created": "2026-03-29T20:05:22.000",
    "date_modified": "2026-03-29T20:05:24.000",
    "request_status": "Pending",
    "responsible_agency": "Department of Public Works",
    "final_address": "3504 Cleveland Ave",
    "address_councildis": "B",
    "status": "Pending",
    "rowid": "1269444",
    "final_x": "3672541.11124",
    "final_y": "536654.345351",
    "longitude": "-90.09618427909707",
    "latitude": "29.96988238760421",
    "geocoded_column": {
      "latitude": "29.96988238760421",
      "longitude": "-90.09618427909707"
    }
  },
  {
    "service_request": "2026-1269443",
    "request_type": "Graffiti Removal",
    "request_reason": "Graffiti Removal",
    "date_created": "2026-03-29T19:47:40.000",
    "date_modified": "2026-03-29T19:47:42.000",
    "request_status": "Pending",
    "responsible_agency": "Department of Code Enforcement",
    "final_address": "6500 Magazine St",
    "address_councildis": "A",
    "status": "Pending",
    "rowid": "1269443",
    "final_x": "3662586.74362",
    "final_y": "520120.866808",
    "longitude": "-90.12817045257185",
    "latitude": "29.924712390786677",
    "geocoded_column": {
      "latitude": "29.924712390786677",
      "longitude": "-90.12817045257185"
    }
  },
  {
    "service_request": "2026-1269442",
    "request_type": "Streetlights",
    "request_reason": "Streetlight Outage/Malfunction",
    "date_created": "2026-03-29T19:44:43.000",
    "date_modified": "2026-03-29T19:44:44.000",
    "request_status": "Pending",
    "responsible_agency": "Department of Public Works",
    "final_address": "47 Winners Cir",
    "address_councildis": "E",
    "status": "Pending",
    "rowid": "1269442",
    "final_x": "3715861.17957",
    "final_y": "570223.888295",
    "longitude": "-89.95810456384046",
    "latitude": "30.060828239351057",
    "geocoded_column": {
      "latitude": "30.060828239351057",
      "longitude": "-89.95810456384046"
    }
  },
  {
    "service_request": "2026-1269441",
    "request_type": "Trash/Recycling",
    "request_reason": "Illegal Dumping",
    "date_created": "2026-03-29T19:40:44.000",
    "date_modified": "2026-03-29T19:40:46.000",
    "request_status": "Pending",
    "responsible_agency": "Department of Sanitation",
    "final_address": "7600 Gannon Rd",
    "address_councildis": "E",
    "status": "Pending",
    "rowid": "1269441",
    "final_x": "3716469.08671",
    "final_y": "569659.73431",
    "longitude": "-89.95620443875303",
    "latitude": "30.059256974348585",
    "geocoded_column": {
      "latitude": "30.059256974348585",
      "longitude": "-89.95620443875303"
    }
  },
  {
    "service_request": "2026-1269440",
    "request_type": "Trash/Recycling",
    "request_reason": "Illegal Dumping",
    "date_created": "2026-03-29T19:37:51.000",
    "date_modified": "2026-03-29T19:38:03.000",
    "request_status": "Pending",
    "responsible_agency": "Department of Sanitation",
    "final_address": "12001 N Interstate 10 Service Rd",
    "address_councildis": "E",
    "status": "Pending",
    "rowid": "1269440",
    "final_x": "3715066.34872",
    "final_y": "565450.587874",
    "longitude": "-89.96079770998031",
    "latitude": "30.047729827976184",
    "geocoded_column": {
      "latitude": "30.047729827976184",
      "longitude": "-89.96079770998031"
    }
  },
  {
    "service_request": "2026-1269439",
    "request_type": "Trash/Recycling",
    "request_reason": "Illegal Dumping",
    "date_created": "2026-03-29T19:35:11.000",
    "date_modified": "2026-03-29T19:35:12.000",
    "request_status": "Pending",
    "responsible_agency": "Department of Sanitation",
    "final_address": "12000 S Interstate 10 Service Rd",
    "address_councildis": "E",
    "status": "Pending",
    "rowid": "1269439",
    "final_x": "3715494.08037",
    "final_y": "564830.081826",
    "longitude": "-89.95946936763703",
    "latitude": "30.046009594369995",
    "geocoded_column": {
      "latitude": "30.046009594369995",
      "longitude": "-89.95946936763703"
    }
  },
  {
    "service_request": "2026-1269438",
    "request_type": "Health Related Request",
    "request_reason": "Noise Ordinance Complaint",
    "date_created": "2026-03-29T19:29:29.000",
    "date_modified": "2026-03-29T19:29:31.000",
    "request_status": "Pending",
    "responsible_agency": "Health Department",
    "final_address": "800 Bourbon St, New Orleans, Louisiana, 70116",
    "address_councildis": "C",
    "status": "Pending",
    "rowid": "1269438",
    "final_x": "3682553.51528",
    "final_y": "533013.631428",
    "longitude": "-90.06469148499534",
    "latitude": "29.95957063099051",
    "geocoded_column": {
      "latitude": "29.95957063099051",
      "longitude": "-90.06469148499534"
    }
  },
  {
    "service_request": "2026-1269437",
    "request_type": "Health Related Request",
    "request_reason": "Noise Ordinance Complaint",
    "date_created": "2026-03-29T19:29:08.000",
    "date_modified": "2026-03-29T19:29:09.000",
    "request_status": "Pending",
    "responsible_agency": "Health Department",
    "final_address": "801 Bourbon St, New Orleans, Louisiana, 70116",
    "address_councildis": "C",
    "status": "Pending",
    "rowid": "1269437",
    "final_x": "3682490.98735",
    "final_y": "533018.672772",
    "longitude": "-90.06488875731978",
    "latitude": "29.959586396383013",
    "geocoded_column": {
      "latitude": "29.959586396383013",
      "longitude": "-90.06488875731978"
    }
  },
  {
    "service_request": "2026-1269436",
    "request_type": "Property Maintenance",
    "request_reason": "Property Maintenance",
    "date_created": "2026-03-29T19:27:30.000",
    "date_modified": "2026-03-29T19:27:31.000",
    "request_status": "Pending",
    "responsible_agency": "Department of Code Enforcement",
    "final_address": "4726 Wilson Ave",
    "address_councildis": "E",
    "status": "Pending",
    "rowid": "1269436",
    "final_x": "3702959.90314",
    "final_y": "554848.996952",
    "longitude": "-89.99945064498897",
    "latitude": "30.01897276864443",
    "geocoded_column": {
      "latitude": "30.01897276864443",
      "longitude": "-89.99945064498897"
    }
  },
  {
    "service_request": "2026-1269435",
    "request_type": "Property Maintenance",
    "request_reason": "Property Maintenance",
    "date_created": "2026-03-29T19:25:41.000",
    "date_modified": "2026-03-29T19:25:43.000",
    "request_status": "Pending",
    "responsible_agency": "Department of Code Enforcement",
    "final_address": "4750 Wilson Ave",
    "address_councildis": "E",
    "status": "Pending",
    "rowid": "1269435",
    "final_x": "3702940.04542",
    "final_y": "555042.126233",
    "longitude": "-89.999506284643",
    "latitude": "30.019504435674786",
    "geocoded_column": {
      "latitude": "30.019504435674786",
      "longitude": "-89.999506284643"
    }
  },
  {
    "service_request": "2026-1269434",
    "request_type": "Trash/Recycling",
    "request_reason": "Replace Trash Cart",
    "date_created": "2026-03-29T19:22:18.000",
    "date_modified": "2026-03-29T19:22:19.000",
    "request_status": "Pending",
    "responsible_agency": "Department of Sanitation",
    "final_address": "2811 St Ann St",
    "address_councildis": "C",
    "status": "Assigned to Contractor",
    "contractor": "IV Waste",
    "rowid": "1269434",
    "final_x": "3676413.28405",
    "final_y": "537654.15668",
    "longitude": "-90.08392114948728",
    "latitude": "29.972516003798795",
    "geocoded_column": {
      "latitude": "29.972516003798795",
      "longitude": "-90.08392114948728"
    }
  },
  {
    "service_request": "2026-1269433",
    "request_type": "Trash/Recycling",
    "request_reason": "Request a Large Item Pick Up",
    "date_created": "2026-03-29T19:21:12.000",
    "date_modified": "2026-03-29T19:21:14.000",
    "request_status": "Pending",
    "responsible_agency": "Department of Sanitation",
    "final_address": "8011 Dwyer Rd",
    "address_councildis": "E",
    "status": "Assigned to Contractor",
    "contractor": "Waste Pro",
    "rowid": "1269433",
    "final_x": "3704349.49962",
    "final_y": "556531.991066",
    "longitude": "-89.99499793149577",
    "latitude": "30.023555800828237",
    "geocoded_column": {
      "latitude": "30.023555800828237",
      "longitude": "-89.99499793149577"
    }
  },
  {
    "service_request": "2026-1269432",
    "request_type": "Trash/Recycling",
    "request_reason": "Request a Large Item Pick Up",
    "date_created": "2026-03-29T19:12:36.000",
    "date_modified": "2026-03-29T19:12:38.000",
    "request_status": "Pending",
    "responsible_agency": "Department of Sanitation",
    "final_address": "10310 Chevy Chase Dr",
    "address_councildis": "E",
    "status": "Assigned to Contractor",
    "contractor": "Waste Pro",
    "rowid": "1269432",
    "final_x": "3710345.83525",
    "final_y": "563311.570656",
    "longitude": "-89.97579712943346",
    "latitude": "30.04200302002155",
    "geocoded_column": {
      "latitude": "30.04200302002155",
      "longitude": "-89.97579712943346"
    }
  },
  {
    "service_request": "2026-1269431",
    "request_type": "Drainage",
    "request_reason": "Illegal Dumping (Sewer Odor)",
    "date_created": "2026-03-29T19:04:27.000",
    "date_modified": "2026-03-29T19:04:28.000",
    "request_status": "Pending",
    "responsible_agency": "Sewerage & Water Board",
    "final_address": "5101 Perlita St",
    "address_councildis": "D",
    "status": "Pending",
    "rowid": "1269431",
    "final_x": "3678658.38222",
    "final_y": "551023.448917",
    "longitude": "-90.0763675535134",
    "latitude": "30.00920936373124",
    "geocoded_column": {
      "latitude": "30.00920936373124",
      "longitude": "-90.0763675535134"
    }
  },
  {
    "service_request": "2026-1269430",
    "request_type": "Trash/Recycling",
    "request_reason": "Replace Trash Cart",
    "date_created": "2026-03-29T19:00:44.000",
    "date_modified": "2026-03-29T19:00:49.000",
    "request_status": "Pending",
    "responsible_agency": "Department of Sanitation",
    "final_address": "2522 Laurel St",
    "address_councildis": "B",
    "status": "Assigned to Contractor",
    "contractor": "IV Waste",
    "rowid": "1269430",
    "final_x": "3678076.72206",
    "final_y": "520576.103736",
    "longitude": "-90.07925801559324",
    "latitude": "29.925507081380385",
    "geocoded_column": {
      "latitude": "29.925507081380385",
      "longitude": "-90.07925801559324"
    }
  },
  {
    "service_request": "2026-1269429",
    "request_type": "Trash/Recycling",
    "request_reason": "Illegal Dumping",
    "date_created": "2026-03-29T19:00:10.000",
    "date_modified": "2026-03-29T19:00:11.000",
    "request_status": "Pending",
    "responsible_agency": "Department of Sanitation",
    "final_address": "1644 N Johnson St",
    "address_councildis": "D",
    "status": "Pending",
    "rowid": "1269429",
    "final_x": "3681503.16245",
    "final_y": "538916.568586",
    "longitude": "-90.06780238218838",
    "latitude": "29.97583361307787",
    "geocoded_column": {
      "latitude": "29.97583361307787",
      "longitude": "-90.06780238218838"
    }
  },
  {
    "service_request": "2026-1269428",
    "request_type": "Trash/Recycling",
    "request_reason": "Missed Trash Pick-Up",
    "date_created": "2026-03-29T18:55:54.000",
    "date_modified": "2026-03-29T18:55:56.000",
    "request_status": "Pending",
    "responsible_agency": "Department of Sanitation",
    "final_address": "1916 Onzaga St",
    "address_councildis": "D",
    "status": "Assigned to Contractor",
    "contractor": "IV Waste",
    "rowid": "1269428",
    "final_x": "3681412.21244",
    "final_y": "538762.276745",
    "longitude": "-90.0680950086584",
    "latitude": "29.97541212576111",
    "geocoded_column": {
      "latitude": "29.97541212576111",
      "longitude": "-90.0680950086584"
    }
  },
  {
    "service_request": "2026-1269427",
    "request_type": "Trash/Recycling",
    "request_reason": "Replace Trash Cart",
    "date_created": "2026-03-29T18:54:31.000",
    "date_modified": "2026-03-29T18:54:33.000",
    "request_status": "Pending",
    "responsible_agency": "Department of Sanitation",
    "final_address": "2522 Laurel St",
    "address_councildis": "B",
    "status": "Assigned to Contractor",
    "contractor": "IV Waste",
    "rowid": "1269427",
    "final_x": "3678076.72206",
    "final_y": "520576.103736",
    "longitude": "-90.07925801559324",
    "latitude": "29.925507081380385",
    "geocoded_column": {
      "latitude": "29.925507081380385",
      "longitude": "-90.07925801559324"
    }
  },
  {
    "service_request": "2026-1269426",
    "request_type": "Trash/Recycling",
    "request_reason": "Illegal Dumping",
    "date_created": "2026-03-29T18:45:02.000",
    "date_modified": "2026-03-29T18:45:05.000",
    "request_status": "Pending",
    "responsible_agency": "Department of Sanitation",
    "final_address": "8437 Apple St",
    "address_councildis": "A",
    "status": "Pending",
    "rowid": "1269426",
    "final_x": "3664369.27821",
    "final_y": "533053.052612",
    "longitude": "-90.12211204172667",
    "latitude": "29.960220089389743",
    "geocoded_column": {
      "latitude": "29.960220089389743",
      "longitude": "-90.12211204172667"
    }
  },
  {
    "service_request": "2026-1269425",
    "request_type": "Trash/Recycling",
    "request_reason": "Request a Large Item Pick Up",
    "date_created": "2026-03-29T18:32:07.000",
    "date_modified": "2026-03-29T18:32:08.000",
    "request_status": "Pending",
    "responsible_agency": "Department of Sanitation",
    "final_address": "3110 Cleveland Ave",
    "address_councildis": "B",
    "status": "Assigned to Contractor",
    "contractor": "IV Waste",
    "rowid": "1269425",
    "final_x": "3673704.57908",
    "final_y": "535777.075527",
    "longitude": "-90.09253993171296",
    "latitude": "29.967435599880453",
    "geocoded_column": {
      "latitude": "29.967435599880453",
      "longitude": "-90.09253993171296"
    }
  },
  {
    "service_request": "2026-1269424",
    "request_type": "Trash/Recycling",
    "request_reason": "Replace Recycling Cart",
    "date_created": "2026-03-29T18:16:05.000",
    "date_modified": "2026-03-29T18:16:07.000",
    "request_status": "Pending",
    "responsible_agency": "Department of Sanitation",
    "final_address": "316 S Clark St",
    "address_councildis": "B",
    "status": "Pending",
    "rowid": "1269424",
    "final_x": "3672319.8786",
    "final_y": "536216.720199",
    "longitude": "-90.09689786762111",
    "latitude": "29.96868563188704",
    "geocoded_column": {
      "latitude": "29.96868563188704",
      "longitude": "-90.09689786762111"
    }
  },
  {
    "service_request": "2026-1269423",
    "request_type": "Trash/Recycling",
    "request_reason": "Request a Large Item Pick Up",
    "date_created": "2026-03-29T18:14:29.000",
    "date_modified": "2026-03-29T18:14:31.000",
    "request_status": "Pending",
    "responsible_agency": "Department of Sanitation",
    "final_address": "7072 W Tamaron Blvd",
    "address_councildis": "E",
    "status": "Assigned to Contractor",
    "contractor": "Waste Pro",
    "rowid": "1269423",
    "final_x": "3718514.32172",
    "final_y": "568459.213541",
    "longitude": "-89.94978550180721",
    "latitude": "30.055888294671547",
    "geocoded_column": {
      "latitude": "30.055888294671547",
      "longitude": "-89.94978550180721"
    }
  },
  {
    "service_request": "2026-1269422",
    "request_type": "Trash/Recycling",
    "request_reason": "Request a Large Item Pick Up",
    "date_created": "2026-03-29T18:06:49.000",
    "date_modified": "2026-03-29T18:06:51.000",
    "request_status": "Pending",
    "responsible_agency": "Department of Sanitation",
    "final_address": "9208 Colapissa St",
    "address_councildis": "A",
    "status": "Assigned to Contractor",
    "contractor": "IV Waste",
    "rowid": "1269422",
    "final_x": "3663547.19271",
    "final_y": "536026.024455",
    "longitude": "-90.12460899413492",
    "latitude": "29.968418656169927",
    "geocoded_column": {
      "latitude": "29.968418656169927",
      "longitude": "-90.12460899413492"
    }
  },
  {
    "service_request": "2026-1269421",
    "request_type": "Property Maintenance",
    "request_reason": "Property Maintenance",
    "date_created": "2026-03-29T18:00:40.000",
    "date_modified": "2026-03-29T18:00:41.000",
    "request_status": "Pending",
    "responsible_agency": "Department of Code Enforcement",
    "final_address": "2405 St Roch Ave",
    "address_councildis": "D",
    "status": "Pending",
    "rowid": "1269421",
    "final_x": "3686194.5286",
    "final_y": "541252.271756",
    "longitude": "-90.05290331653532",
    "latitude": "29.9821126692386",
    "geocoded_column": {
      "latitude": "29.9821126692386",
      "longitude": "-90.05290331653532"
    }
  },
  {
    "service_request": "2026-1269420",
    "request_type": "Property Maintenance",
    "request_reason": "Property Maintenance",
    "date_created": "2026-03-29T17:49:18.000",
    "date_modified": "2026-03-29T17:49:19.000",
    "request_status": "Pending",
    "responsible_agency": "Department of Code Enforcement",
    "final_address": "2405 St Roch Ave",
    "address_councildis": "D",
    "status": "Pending",
    "rowid": "1269420",
    "final_x": "3686194.5286",
    "final_y": "541252.271756",
    "longitude": "-90.05290331653532",
    "latitude": "29.9821126692386",
    "geocoded_column": {
      "latitude": "29.9821126692386",
      "longitude": "-90.05290331653532"
    }
  },
  {
    "service_request": "2026-1269419",
    "request_type": "Trash/Recycling",
    "request_reason": "Illegal Dumping",
    "date_created": "2026-03-29T17:45:28.000",
    "date_modified": "2026-03-29T17:45:30.000",
    "request_status": "Pending",
    "responsible_agency": "Department of Sanitation",
    "final_address": "436 Flood St",
    "address_councildis": "E",
    "status": "Pending",
    "rowid": "1269419",
    "final_x": "3696987.52848",
    "final_y": "531448.798979",
    "longitude": "-90.01916912965545",
    "latitude": "29.954820579376182",
    "geocoded_column": {
      "latitude": "29.954820579376182",
      "longitude": "-90.01916912965545"
    }
  },
  {
    "service_request": "2026-1269418",
    "request_type": "Trash/Recycling",
    "request_reason": "Illegal Dumping",
    "date_created": "2026-03-29T17:40:53.000",
    "date_modified": "2026-03-29T17:40:55.000",
    "request_status": "Pending",
    "responsible_agency": "Department of Sanitation",
    "final_address": "5459 N Peters St",
    "address_councildis": "E",
    "status": "Pending",
    "rowid": "1269418",
    "final_x": "3697008.54794",
    "final_y": "531413.071299",
    "longitude": "-90.01910405251401",
    "latitude": "29.95472167795076",
    "geocoded_column": {
      "latitude": "29.95472167795076",
      "longitude": "-90.01910405251401"
    }
  },
  {
    "service_request": "2026-1269417",
    "request_type": "Roads and Streets",
    "request_reason": "Abandoned Service Cut",
    "date_created": "2026-03-29T17:26:16.000",
    "date_modified": "2026-03-29T17:26:17.000",
    "request_status": "Pending",
    "responsible_agency": "Department of Public Works",
    "final_address": "914 Piety St",
    "address_councildis": "C",
    "status": "Pending",
    "rowid": "1269417",
    "final_x": "3689639.37078",
    "final_y": "535140.106374",
    "longitude": "-90.042240401619",
    "latitude": "29.965200075658636",
    "geocoded_column": {
      "latitude": "29.965200075658636",
      "longitude": "-90.042240401619"
    }
  },
  {
    "service_request": "2026-1269416",
    "request_type": "Trash/Recycling",
    "request_reason": "Request a Large Item Pick Up",
    "date_created": "2026-03-29T17:23:56.000",
    "date_modified": "2026-03-29T17:23:58.000",
    "request_status": "Pending",
    "responsible_agency": "Department of Sanitation",
    "final_address": "7530 Wave Dr",
    "address_councildis": "E",
    "status": "Assigned to Contractor",
    "contractor": "Waste Pro",
    "rowid": "1269416",
    "final_x": "3715221.51039",
    "final_y": "568301.103845",
    "longitude": "-89.96019935469486",
    "latitude": "30.05556246890622",
    "geocoded_column": {
      "latitude": "30.05556246890622",
      "longitude": "-89.96019935469486"
    }
  },
  {
    "service_request": "2026-1269415",
    "request_type": "Trash/Recycling",
    "request_reason": "Request a Large Item Pick Up",
    "date_created": "2026-03-29T17:16:29.000",
    "date_modified": "2026-03-29T17:16:30.000",
    "request_status": "Pending",
    "responsible_agency": "Department of Sanitation",
    "final_address": "1214 Eagle St",
    "address_councildis": "A",
    "status": "Assigned to Contractor",
    "contractor": "IV Waste",
    "rowid": "1269415",
    "final_x": "3660192.68384",
    "final_y": "530170.161409",
    "longitude": "-90.13539609617789",
    "latitude": "29.952413801333165",
    "geocoded_column": {
      "latitude": "29.952413801333165",
      "longitude": "-90.13539609617789"
    }
  },
  {
    "service_request": "2026-1269414",
    "request_type": "Parks & Parkways",
    "request_reason": "Request Tree Service (Right of Way/Public Property)",
    "date_created": "2026-03-29T17:16:15.000",
    "date_modified": "2026-03-29T17:16:17.000",
    "request_status": "Pending",
    "responsible_agency": "Department of Parks & Parkway",
    "final_address": "1516 Camp St",
    "address_councildis": "B",
    "status": "Pending",
    "rowid": "1269414",
    "final_x": "3679806.64111",
    "final_y": "523760.020859",
    "longitude": "-90.07368670736403",
    "latitude": "29.93420963516469",
    "geocoded_column": {
      "latitude": "29.93420963516469",
      "longitude": "-90.07368670736403"
    }
  },
  {
    "service_request": "2026-1269413",
    "request_type": "Street and Traffic Signs",
    "request_reason": "Additional Signage Request",
    "date_created": "2026-03-29T16:40:14.000",
    "date_modified": "2026-03-29T16:40:16.000",
    "request_status": "Pending",
    "responsible_agency": "Department of Public Works",
    "final_address": "940 Orleans Ave",
    "address_councildis": "C",
    "status": "Pending",
    "rowid": "1269413",
    "final_x": "3681798.4822",
    "final_y": "533209.757508",
    "longitude": "-90.06706885895996",
    "latitude": "29.96013287504556",
    "geocoded_column": {
      "latitude": "29.96013287504556",
      "longitude": "-90.06706885895996"
    }
  },
  {
    "service_request": "2026-1269412",
    "request_type": "Trash/Recycling",
    "request_reason": "Replace Recycling Cart",
    "date_created": "2026-03-29T16:21:16.000",
    "date_modified": "2026-03-29T16:21:17.000",
    "request_status": "Pending",
    "responsible_agency": "Department of Sanitation",
    "final_address": "1012 St Ann St",
    "address_councildis": "C",
    "status": "Pending",
    "rowid": "1269412",
    "final_x": "3681809.58453",
    "final_y": "533468.779332",
    "longitude": "-90.0670247609064",
    "latitude": "29.960844759302034",
    "geocoded_column": {
      "latitude": "29.960844759302034",
      "longitude": "-90.0670247609064"
    }
  },
  {
    "service_request": "2026-1269411",
    "request_type": "Trash/Recycling",
    "request_reason": "Replace Recycling Cart",
    "date_created": "2026-03-29T16:19:01.000",
    "date_modified": "2026-03-29T16:19:02.000",
    "request_status": "Pending",
    "responsible_agency": "Department of Sanitation",
    "final_address": "1010 St Ann St",
    "address_councildis": "C",
    "status": "Pending",
    "rowid": "1269411",
    "final_x": "3681820.65775",
    "final_y": "533461.946564",
    "longitude": "-90.06699003227543",
    "latitude": "29.96082563503114",
    "geocoded_column": {
      "latitude": "29.96082563503114",
      "longitude": "-90.06699003227543"
    }
  },
  {
    "service_request": "2026-1269410",
    "request_type": "Health Related Request",
    "request_reason": "Noise Ordinance Complaint",
    "date_created": "2026-03-29T16:16:31.000",
    "date_modified": "2026-03-29T16:16:33.000",
    "request_status": "Pending",
    "responsible_agency": "Health Department",
    "final_address": "801 Bourbon St, New Orleans, Louisiana, 70116",
    "address_councildis": "C",
    "status": "Pending",
    "rowid": "1269410",
    "final_x": "3682490.98735",
    "final_y": "533018.672772",
    "longitude": "-90.06488875731978",
    "latitude": "29.959586396383013",
    "geocoded_column": {
      "latitude": "29.959586396383013",
      "longitude": "-90.06488875731978"
    }
  },
  {
    "service_request": "2026-1269409",
    "request_type": "Parks & Parkways",
    "request_reason": "Request Tree Service (Right of Way/Public Property)",
    "date_created": "2026-03-29T16:10:05.000",
    "date_modified": "2026-03-29T16:10:07.000",
    "request_status": "Pending",
    "responsible_agency": "Department of Parks & Parkway",
    "final_address": "5306 Timber Haven Ln",
    "address_councildis": "C",
    "status": "Pending",
    "rowid": "1269409",
    "final_x": "3703785.41694",
    "final_y": "511457.921904",
    "longitude": "-89.99843953582014",
    "latitude": "29.89963649269097",
    "geocoded_column": {
      "latitude": "29.89963649269097",
      "longitude": "-89.99843953582014"
    }
  },
  {
    "service_request": "2026-1269408",
    "request_type": "Trash/Recycling",
    "request_reason": "Request a Large Item Pick Up",
    "date_created": "2026-03-29T15:54:45.000",
    "date_modified": "2026-03-29T15:54:47.000",
    "request_status": "Pending",
    "responsible_agency": "Department of Sanitation",
    "final_address": "515 S Solomon St",
    "address_councildis": "A",
    "status": "Assigned to Contractor",
    "contractor": "IV Waste",
    "rowid": "1269408",
    "final_x": "3669507.26062",
    "final_y": "537363.271688",
    "longitude": "-90.10574150995144",
    "latitude": "29.971921416713126",
    "geocoded_column": {
      "latitude": "29.971921416713126",
      "longitude": "-90.10574150995144"
    }
  },
  {
    "service_request": "2026-1269407",
    "request_type": "Trash/Recycling",
    "request_reason": "Repair Trash Cart",
    "date_created": "2026-03-29T15:41:55.000",
    "date_modified": "2026-03-29T15:41:57.000",
    "request_status": "Pending",
    "responsible_agency": "Department of Sanitation",
    "final_address": "2612 Baronne St",
    "address_councildis": "B",
    "status": "Assigned to Contractor",
    "contractor": "IV Waste",
    "rowid": "1269407",
    "final_x": "3675953.3204",
    "final_y": "523398.585403",
    "longitude": "-90.08586394626346",
    "latitude": "29.933331720273628",
    "geocoded_column": {
      "latitude": "29.933331720273628",
      "longitude": "-90.08586394626346"
    }
  },
  {
    "service_request": "2026-1269406",
    "request_type": "Roads and Streets",
    "request_reason": "Pothole",
    "date_created": "2026-03-29T15:08:08.000",
    "date_modified": "2026-03-29T15:08:10.000",
    "request_status": "Pending",
    "responsible_agency": "Department of Public Works",
    "final_address": "2258 Athis St",
    "address_councildis": "D",
    "status": "Pending",
    "rowid": "1269406",
    "final_x": "3684186.00655",
    "final_y": "554196.057432",
    "longitude": "-90.05879244172537",
    "latitude": "30.01776499109079",
    "geocoded_column": {
      "latitude": "30.01776499109079",
      "longitude": "-90.05879244172537"
    }
  },
  {
    "service_request": "2026-1269405",
    "request_type": "Trash/Recycling",
    "request_reason": "Request a Large Item Pick Up",
    "date_created": "2026-03-29T14:58:34.000",
    "date_modified": "2026-03-29T14:58:36.000",
    "request_status": "Pending",
    "responsible_agency": "Department of Sanitation",
    "final_address": "919 Crystal St",
    "address_councildis": "D",
    "status": "Assigned to Contractor",
    "contractor": "IV Waste",
    "rowid": "1269405",
    "final_x": "3671105.75259",
    "final_y": "556728.765978",
    "longitude": "-90.10003493055869",
    "latitude": "30.025122603992372",
    "geocoded_column": {
      "latitude": "30.025122603992372",
      "longitude": "-90.10003493055869"
    }
  },
  {
    "service_request": "2026-1269404",
    "request_type": "Trash/Recycling",
    "request_reason": "Request a Large Item Pick Up",
    "date_created": "2026-03-29T14:31:57.000",
    "date_modified": "2026-03-29T14:31:58.000",
    "request_status": "Pending",
    "responsible_agency": "Department of Sanitation",
    "final_address": "228 S Cortez St",
    "address_councildis": "A",
    "status": "Assigned to Contractor",
    "contractor": "IV Waste",
    "rowid": "1269404",
    "final_x": "3671716.04251",
    "final_y": "537043.462472",
    "longitude": "-90.09877669037786",
    "latitude": "29.970976797235696",
    "geocoded_column": {
      "latitude": "29.970976797235696",
      "longitude": "-90.09877669037786"
    }
  },
  {
    "service_request": "2026-1269403",
    "request_type": "Trash/Recycling",
    "request_reason": "Request a Large Item Pick Up",
    "date_created": "2026-03-29T14:18:31.000",
    "date_modified": "2026-03-29T14:18:34.000",
    "request_status": "Pending",
    "responsible_agency": "Department of Sanitation",
    "final_address": "3820 State Street Dr",
    "address_councildis": "A",
    "status": "Assigned to Contractor",
    "contractor": "IV Waste",
    "rowid": "1269403",
    "final_x": "3668037.4962",
    "final_y": "529632.872001",
    "longitude": "-90.11064378882155",
    "latitude": "29.9507085857227",
    "geocoded_column": {
      "latitude": "29.9507085857227",
      "longitude": "-90.11064378882155"
    }
  },
  {
    "service_request": "2026-1269402",
    "request_type": "Trash/Recycling",
    "request_reason": "Replace Recycling Cart",
    "date_created": "2026-03-29T14:04:25.000",
    "date_modified": "2026-03-29T14:04:27.000",
    "request_status": "Pending",
    "responsible_agency": "Department of Sanitation",
    "final_address": "3923 Delgado Dr",
    "address_councildis": "A",
    "status": "Pending",
    "rowid": "1269402",
    "final_x": "3674010.22676",
    "final_y": "540781.297099",
    "longitude": "-90.09140340248179",
    "latitude": "29.981186402340843",
    "geocoded_column": {
      "latitude": "29.981186402340843",
      "longitude": "-90.09140340248179"
    }
  },
  {
    "service_request": "2026-1269401",
    "request_type": "Trash/Recycling",
    "request_reason": "Request a Large Item Pick Up",
    "date_created": "2026-03-29T13:48:41.000",
    "date_modified": "2026-03-29T13:48:42.000",
    "request_status": "Pending",
    "responsible_agency": "Department of Sanitation",
    "final_address": "1725 Urquhart St",
    "address_councildis": "C",
    "status": "Assigned to Contractor",
    "contractor": "IV Waste",
    "rowid": "1269401",
    "final_x": "3683290.44111",
    "final_y": "536937.442376",
    "longitude": "-90.0622269961087",
    "latitude": "29.970337305201642",
    "geocoded_column": {
      "latitude": "29.970337305201642",
      "longitude": "-90.0622269961087"
    }
  },
  {
    "service_request": "2026-1269400",
    "request_type": "Roads and Streets",
    "request_reason": "Push-up/Pavement Expansion",
    "date_created": "2026-03-29T13:40:34.000",
    "date_modified": "2026-03-29T13:40:36.000",
    "request_status": "Pending",
    "responsible_agency": "Department of Public Works",
    "final_address": "0 BLK Audubon Blvd",
    "address_councildis": "A",
    "status": "Pending",
    "rowid": "1269400",
    "final_x": "3665769.80622",
    "final_y": "527561.184495",
    "longitude": "-90.1178734101763",
    "latitude": "29.945078455935082",
    "geocoded_column": {
      "latitude": "29.945078455935082",
      "longitude": "-90.1178734101763"
    }
  },
  {
    "service_request": "2026-1269399",
    "request_type": "Trash/Recycling",
    "request_reason": "Order Second Trash Cart",
    "date_created": "2026-03-29T12:43:47.000",
    "date_modified": "2026-03-29T12:43:49.000",
    "request_status": "Pending",
    "responsible_agency": "Department of Sanitation",
    "final_address": "54 Fairway Oaks Dr",
    "address_councildis": "C",
    "status": "Assigned to Contractor",
    "contractor": "Richards Disposal",
    "rowid": "1269399",
    "final_x": "3717588.60991",
    "final_y": "515648.238772",
    "longitude": "-89.95471983023712",
    "latitude": "29.910709009439557",
    "geocoded_column": {
      "latitude": "29.910709009439557",
      "longitude": "-89.95471983023712"
    }
  },
  {
    "service_request": "2026-1269398",
    "request_type": "Property Maintenance",
    "request_reason": "Property Maintenance",
    "date_created": "2026-03-29T11:43:58.000",
    "date_modified": "2026-03-29T11:44:00.000",
    "request_status": "Pending",
    "responsible_agency": "Department of Code Enforcement",
    "final_address": "1620 Dumaine St",
    "address_councildis": "C",
    "status": "Pending",
    "rowid": "1269398",
    "final_x": "3680371.10152",
    "final_y": "535010.807494",
    "longitude": "-90.07151359108283",
    "latitude": "29.96512844429875",
    "geocoded_column": {
      "latitude": "29.96512844429875",
      "longitude": "-90.07151359108283"
    }
  },
  {
    "service_request": "2026-1269397",
    "request_type": "Abandoned Vehicles",
    "request_reason": "Abandoned/Junk Vehicles",
    "date_created": "2026-03-29T11:29:58.000",
    "date_modified": "2026-03-29T11:30:00.000",
    "request_status": "Pending",
    "responsible_agency": "Department of Public Works",
    "final_address": "625 N Scott St",
    "address_councildis": "A",
    "status": "Pending",
    "rowid": "1269397",
    "final_x": "3672952.3163",
    "final_y": "539448.717706",
    "longitude": "-90.09479026329839",
    "latitude": "29.9775537497934",
    "geocoded_column": {
      "latitude": "29.9775537497934",
      "longitude": "-90.09479026329839"
    }
  },
  {
    "service_request": "2026-1269396",
    "request_type": "Trash/Recycling",
    "request_reason": "Illegal Dumping",
    "date_created": "2026-03-29T11:26:03.000",
    "date_modified": "2026-03-29T11:26:05.000",
    "request_status": "Pending",
    "responsible_agency": "Department of Sanitation",
    "final_address": "625 N Scott St",
    "address_councildis": "A",
    "status": "Pending",
    "rowid": "1269396",
    "final_x": "3672952.3163",
    "final_y": "539448.717706",
    "longitude": "-90.09479026329839",
    "latitude": "29.9775537497934",
    "geocoded_column": {
      "latitude": "29.9775537497934",
      "longitude": "-90.09479026329839"
    }
  },
  {
    "service_request": "2026-1269395",
    "request_type": "Roads and Streets",
    "request_reason": "Debris in Driving Lanes",
    "date_created": "2026-03-29T11:17:31.000",
    "date_modified": "2026-03-29T11:17:33.000",
    "request_status": "Pending",
    "responsible_agency": "Department of Public Works",
    "final_address": "4144 Toulouse St",
    "address_councildis": "A",
    "status": "Pending",
    "rowid": "1269395",
    "final_x": "3671906.9723",
    "final_y": "539926.799114",
    "longitude": "-90.098075542453",
    "latitude": "29.978899338475003",
    "geocoded_column": {
      "latitude": "29.978899338475003",
      "longitude": "-90.098075542453"
    }
  },
  {
    "service_request": "2026-1269394",
    "request_type": "Trash/Recycling",
    "request_reason": "Request a Large Item Pick Up",
    "date_created": "2026-03-29T11:01:51.000",
    "date_modified": "2026-03-29T11:01:53.000",
    "request_status": "Pending",
    "responsible_agency": "Department of Sanitation",
    "final_address": "1620 Farragut St",
    "address_councildis": "C",
    "status": "Assigned to Contractor",
    "contractor": "Richards Disposal",
    "rowid": "1269394",
    "final_x": "3692339.46915",
    "final_y": "525229.122621",
    "longitude": "-90.03406855887282",
    "latitude": "29.93786437606523",
    "geocoded_column": {
      "latitude": "29.93786437606523",
      "longitude": "-90.03406855887282"
    }
  },
  {
    "service_request": "2026-1269393",
    "request_type": "Trash/Recycling",
    "request_reason": "Request a Large Item Pick Up",
    "date_created": "2026-03-29T10:59:11.000",
    "date_modified": "2026-03-29T10:59:13.000",
    "request_status": "Pending",
    "responsible_agency": "Department of Sanitation",
    "final_address": "1637 Numa St",
    "address_councildis": "C",
    "status": "Assigned to Contractor",
    "contractor": "Richards Disposal",
    "rowid": "1269393",
    "final_x": "3691670.10326",
    "final_y": "525241.858429",
    "longitude": "-90.03618133869278",
    "latitude": "29.937920247959124",
    "geocoded_column": {
      "latitude": "29.937920247959124",
      "longitude": "-90.03618133869278"
    }
  },
  {
    "service_request": "2026-1269392",
    "request_type": "Trash/Recycling",
    "request_reason": "Replace Recycling Cart",
    "date_created": "2026-03-29T10:57:06.000",
    "date_modified": "2026-03-29T10:57:13.000",
    "request_status": "Pending",
    "responsible_agency": "Department of Sanitation",
    "final_address": "7904 Walmsley Ave",
    "address_councildis": "A",
    "status": "Pending",
    "rowid": "1269392",
    "final_x": "3666318.46804",
    "final_y": "532110.977731",
    "longitude": "-90.1159884923237",
    "latitude": "29.957572894089008",
    "geocoded_column": {
      "latitude": "29.957572894089008",
      "longitude": "-90.1159884923237"
    }
  },
  {
    "service_request": "2026-1269391",
    "request_type": "Trash/Recycling",
    "request_reason": "Missed Trash Pick-Up",
    "date_created": "2026-03-29T10:56:41.000",
    "date_modified": "2026-03-29T10:56:43.000",
    "request_status": "Pending",
    "responsible_agency": "Department of Sanitation",
    "final_address": "3528 First St",
    "address_councildis": "B",
    "status": "Assigned to Contractor",
    "contractor": "IV Waste",
    "rowid": "1269391",
    "final_x": "3672982.72116",
    "final_y": "528957.70336",
    "longitude": "-90.09505230717197",
    "latitude": "29.948706071216137",
    "geocoded_column": {
      "latitude": "29.948706071216137",
      "longitude": "-90.09505230717197"
    }
  },
  {
    "service_request": "2026-1269390",
    "request_type": "Trash/Recycling",
    "request_reason": "Request a Large Item Pick Up",
    "date_created": "2026-03-29T10:34:04.000",
    "date_modified": "2026-03-29T10:34:06.000",
    "request_status": "Pending",
    "responsible_agency": "Department of Sanitation",
    "final_address": "1400 BLK Saint Andrew St",
    "address_councildis": "B",
    "status": "Assigned to Contractor",
    "contractor": "IV Waste",
    "rowid": "1269390",
    "final_x": "3678688.93655",
    "final_y": "523563.910993",
    "longitude": "-90.07722205073586",
    "latitude": "29.9337041358214",
    "geocoded_column": {
      "latitude": "29.9337041358214",
      "longitude": "-90.07722205073586"
    }
  },
  {
    "service_request": "2026-1269389",
    "request_type": "Trash/Recycling",
    "request_reason": "Request a Large Item Pick Up",
    "date_created": "2026-03-29T10:16:58.000",
    "date_modified": "2026-03-29T10:17:00.000",
    "request_status": "Pending",
    "responsible_agency": "Department of Sanitation",
    "final_address": "132 S Telemachus St",
    "address_councildis": "B",
    "status": "Assigned to Contractor",
    "contractor": "IV Waste",
    "rowid": "1269389",
    "final_x": "3672181.59854",
    "final_y": "537075.8386",
    "longitude": "-90.09730529794084",
    "latitude": "29.97105202012073",
    "geocoded_column": {
      "latitude": "29.97105202012073",
      "longitude": "-90.09730529794084"
    }
  },
  {
    "service_request": "2026-1269388",
    "request_type": "Trash/Recycling",
    "request_reason": "Order Recycling Cart",
    "date_created": "2026-03-29T09:56:58.000",
    "date_modified": "2026-03-29T09:56:59.000",
    "request_status": "Pending",
    "responsible_agency": "Department of Sanitation",
    "final_address": "1223 N Dupre St",
    "address_councildis": "A",
    "status": "Pending",
    "rowid": "1269388",
    "final_x": "3676984.16686",
    "final_y": "539458.427786",
    "longitude": "-90.0820559730083",
    "latitude": "29.977460002027602",
    "geocoded_column": {
      "latitude": "29.977460002027602",
      "longitude": "-90.0820559730083"
    }
  },
  {
    "service_request": "2026-1269387",
    "request_type": "Trash/Recycling",
    "request_reason": "Request a Large Item Pick Up",
    "date_created": "2026-03-29T09:47:02.000",
    "date_modified": "2026-03-29T09:47:05.000",
    "request_status": "Pending",
    "responsible_agency": "Department of Sanitation",
    "final_address": "207 Ringold St",
    "address_councildis": "A",
    "status": "Assigned to Contractor",
    "contractor": "IV Waste",
    "rowid": "1269387",
    "final_x": "3666997.10637",
    "final_y": "548556.104786",
    "longitude": "-90.11329262805548",
    "latitude": "30.00277161026287",
    "geocoded_column": {
      "latitude": "30.00277161026287",
      "longitude": "-90.11329262805548"
    }
  },
  {
    "service_request": "2026-1269386",
    "request_type": "Trash/Recycling",
    "request_reason": "Request a Large Item Pick Up",
    "date_created": "2026-03-29T09:45:56.000",
    "date_modified": "2026-03-29T09:45:59.000",
    "request_status": "Pending",
    "responsible_agency": "Department of Sanitation",
    "final_address": "2830 Constance St",
    "address_councildis": "B",
    "status": "Assigned to Contractor",
    "contractor": "IV Waste",
    "rowid": "1269386",
    "final_x": "3677053.62126",
    "final_y": "520333.675576",
    "longitude": "-90.08249598505334",
    "latitude": "29.92487123213293",
    "geocoded_column": {
      "latitude": "29.92487123213293",
      "longitude": "-90.08249598505334"
    }
  },
  {
    "service_request": "2026-1269385",
    "request_type": "Trash/Recycling",
    "request_reason": "Replace Trash Cart",
    "date_created": "2026-03-29T09:42:01.000",
    "date_modified": "2026-03-29T09:42:03.000",
    "request_status": "Pending",
    "responsible_agency": "Department of Sanitation",
    "final_address": "5211 Annunciation St",
    "address_councildis": "B",
    "status": "Assigned to Contractor",
    "contractor": "IV Waste",
    "rowid": "1269385",
    "final_x": "3667909.69351",
    "final_y": "517607.481078",
    "longitude": "-90.11145222429562",
    "latitude": "29.917646357630986",
    "geocoded_column": {
      "latitude": "29.917646357630986",
      "longitude": "-90.11145222429562"
    }
  },
  {
    "service_request": "2026-1269384",
    "request_type": "Trash/Recycling",
    "request_reason": "Order Second Trash Cart",
    "date_created": "2026-03-29T09:39:03.000",
    "date_modified": "2026-03-29T09:39:04.000",
    "request_status": "Pending",
    "responsible_agency": "Department of Sanitation",
    "final_address": "1915 Governor Nicholls St",
    "address_councildis": "C",
    "status": "Assigned to Contractor",
    "contractor": "IV Waste",
    "rowid": "1269384",
    "final_x": "3680217.33551",
    "final_y": "536621.304839",
    "longitude": "-90.07194318815915",
    "latitude": "29.96956141532005",
    "geocoded_column": {
      "latitude": "29.96956141532005",
      "longitude": "-90.07194318815915"
    }
  },
  {
    "service_request": "2026-1269383",
    "request_type": "Utility Poles",
    "request_reason": "Wires Sagging/Hanging Low",
    "date_created": "2026-03-29T09:31:52.000",
    "date_modified": "2026-03-29T09:31:55.000",
    "request_status": "Pending",
    "responsible_agency": "Utility Company Collective",
    "final_address": "500 BLK N Scott St",
    "address_councildis": "A",
    "status": "Pending",
    "rowid": "1269383",
    "final_x": "3672767.19281",
    "final_y": "539127.557359",
    "longitude": "-90.09538590567755",
    "latitude": "29.976676168921415",
    "geocoded_column": {
      "latitude": "29.976676168921415",
      "longitude": "-90.09538590567755"
    }
  },
  {
    "service_request": "2026-1269382",
    "request_type": "Traffic Signals",
    "request_reason": "Traffic Signal Malfunctioning or Damaged",
    "date_created": "2026-03-29T09:17:21.000",
    "date_modified": "2026-03-29T09:17:23.000",
    "request_status": "Pending",
    "responsible_agency": "Department of Public Works",
    "final_address": "127 Elk Pl",
    "address_councildis": "B",
    "status": "Pending",
    "rowid": "1269382",
    "final_x": "3679578.0884",
    "final_y": "531587.434243",
    "longitude": "-90.07413668563346",
    "latitude": "29.955739318102275",
    "geocoded_column": {
      "latitude": "29.955739318102275",
      "longitude": "-90.07413668563346"
    }
  },
  {
    "service_request": "2026-1269381",
    "request_type": "Trash/Recycling",
    "request_reason": "Request a Large Item Pick Up",
    "date_created": "2026-03-29T09:00:12.000",
    "date_modified": "2026-03-29T09:00:14.000",
    "request_status": "Pending",
    "responsible_agency": "Department of Sanitation",
    "final_address": "411 S Norman C Francis Prkwy",
    "address_councildis": "B",
    "status": "Assigned to Contractor",
    "contractor": "IV Waste",
    "rowid": "1269381",
    "final_x": "3672300.56398",
    "final_y": "535769.950471",
    "longitude": "-90.09697408827694",
    "latitude": "29.967457738470944",
    "geocoded_column": {
      "latitude": "29.967457738470944",
      "longitude": "-90.09697408827694"
    }
  },
  {
    "service_request": "2026-1269380",
    "request_type": "Trash/Recycling",
    "request_reason": "Replace Trash Cart",
    "date_created": "2026-03-29T08:52:53.000",
    "date_modified": "2026-03-29T08:52:55.000",
    "request_status": "Pending",
    "responsible_agency": "Department of Sanitation",
    "final_address": "841 Barracks St",
    "address_councildis": "C",
    "status": "Assigned to Contractor",
    "contractor": "IV Waste",
    "rowid": "1269380",
    "final_x": "3683359.00565",
    "final_y": "534637.147206",
    "longitude": "-90.06209105828535",
    "latitude": "29.964010195916835",
    "geocoded_column": {
      "latitude": "29.964010195916835",
      "longitude": "-90.06209105828535"
    }
  },
  {
    "service_request": "2026-1269379",
    "request_type": "Trash/Recycling",
    "request_reason": "Replace Trash Cart",
    "date_created": "2026-03-29T08:35:33.000",
    "date_modified": "2026-03-29T08:35:41.000",
    "request_status": "Pending",
    "responsible_agency": "Department of Sanitation",
    "final_address": "130 Cypress Grove Ct",
    "address_councildis": "C",
    "status": "Assigned to Contractor",
    "contractor": "Richards Disposal",
    "rowid": "1269379",
    "final_x": "3705048.91671",
    "final_y": "511789.354544",
    "longitude": "-89.99443990079293",
    "latitude": "29.900507285232035",
    "geocoded_column": {
      "latitude": "29.900507285232035",
      "longitude": "-89.99443990079293"
    }
  },
  {
    "service_request": "2026-1269378",
    "request_type": "Trash/Recycling",
    "request_reason": "Replace Recycling Cart",
    "date_created": "2026-03-29T08:17:45.000",
    "date_modified": "2026-03-29T08:17:48.000",
    "request_status": "Pending",
    "responsible_agency": "Department of Sanitation",
    "final_address": "1917 Joseph St",
    "address_councildis": "A",
    "status": "Pending",
    "rowid": "1269378",
    "final_x": "3667160.56935",
    "final_y": "523241.020859",
    "longitude": "-90.11362751765479",
    "latitude": "29.93315875513036",
    "geocoded_column": {
      "latitude": "29.93315875513036",
      "longitude": "-90.11362751765479"
    }
  },
  {
    "service_request": "2026-1269377",
    "request_type": "Trash/Recycling",
    "request_reason": "Replace Trash Cart",
    "date_created": "2026-03-29T07:56:00.000",
    "date_modified": "2026-03-29T07:56:03.000",
    "request_status": "Pending",
    "responsible_agency": "Department of Sanitation",
    "final_address": "2052 Timoleon St",
    "address_councildis": "D",
    "status": "Assigned to Contractor",
    "contractor": "IV Waste",
    "rowid": "1269377",
    "final_x": "3682840.77135",
    "final_y": "550953.662293",
    "longitude": "-90.06315642125799",
    "latitude": "30.00889065907835",
    "geocoded_column": {
      "latitude": "30.00889065907835",
      "longitude": "-90.06315642125799"
    }
  },
  {
    "service_request": "2026-1269376",
    "request_type": "General Services",
    "request_reason": "General Service Request",
    "date_created": "2026-03-29T07:36:16.000",
    "date_modified": "2026-03-29T07:36:18.000",
    "request_status": "Pending",
    "responsible_agency": "Orleans Parish Communication District",
    "final_address": "CALLIOPE ST & ANNUNCIATION ST & GAIENNIE ST",
    "address_councildis": "B",
    "status": "Pending",
    "rowid": "1269376",
    "final_x": "3681532.2",
    "final_y": "525857.38",
    "longitude": "-90.06816607131924",
    "latitude": "29.93992440362708",
    "geocoded_column": {
      "latitude": "29.93992440362708",
      "longitude": "-90.06816607131924"
    }
  },
  {
    "service_request": "2026-1269375",
    "request_type": "Trash/Recycling",
    "request_reason": "Request a Large Item Pick Up",
    "date_created": "2026-03-29T07:34:55.000",
    "date_modified": "2026-03-29T07:34:57.000",
    "request_status": "Pending",
    "responsible_agency": "Department of Sanitation",
    "final_address": "237 Adams St",
    "address_councildis": "A",
    "status": "Assigned to Contractor",
    "contractor": "IV Waste",
    "rowid": "1269375",
    "final_x": "3660917.43552",
    "final_y": "524980.091837",
    "longitude": "-90.13327928222685",
    "latitude": "29.938121908461333",
    "geocoded_column": {
      "latitude": "29.938121908461333",
      "longitude": "-90.13327928222685"
    }
  },
  {
    "service_request": "2026-1269374",
    "request_type": "Drainage",
    "request_reason": "Ditch and Culvert Maintenance",
    "date_created": "2026-03-29T07:06:43.000",
    "date_modified": "2026-03-29T07:06:45.000",
    "request_status": "Pending",
    "responsible_agency": "Department of Public Works",
    "final_address": "7916 Nelson St",
    "address_councildis": "A",
    "status": "Pending",
    "rowid": "1269374",
    "final_x": "3665567.52672",
    "final_y": "531384.066435",
    "longitude": "-90.11838409173271",
    "latitude": "29.955596040854758",
    "geocoded_column": {
      "latitude": "29.955596040854758",
      "longitude": "-90.11838409173271"
    }
  },
  {
    "service_request": "2026-1269373",
    "request_type": "Trash/Recycling",
    "request_reason": "Order Second Trash Cart",
    "date_created": "2026-03-29T06:53:12.000",
    "date_modified": "2026-03-29T06:53:14.000",
    "request_status": "Pending",
    "responsible_agency": "Department of Sanitation",
    "final_address": "6565 Canal Blvd",
    "address_councildis": "A",
    "status": "Assigned to Contractor",
    "contractor": "IV Waste",
    "rowid": "1269373",
    "final_x": "3668996.79559",
    "final_y": "551193.543317",
    "longitude": "-90.10688613593328",
    "latitude": "30.009964948298855",
    "geocoded_column": {
      "latitude": "30.009964948298855",
      "longitude": "-90.10688613593328"
    }
  },
  {
    "service_request": "2026-1269372",
    "request_type": "Streetlights",
    "request_reason": "Streetlight Outage/Malfunction",
    "date_created": "2026-03-29T05:01:48.000",
    "date_modified": "2026-03-29T05:01:51.000",
    "request_status": "Pending",
    "responsible_agency": "Department of Public Works",
    "final_address": "932 Bourbon St",
    "address_councildis": "C",
    "status": "Pending",
    "rowid": "1269372",
    "final_x": "3682896.80719",
    "final_y": "533468.87162",
    "longitude": "-90.06359151985345",
    "latitude": "29.960811930342988",
    "geocoded_column": {
      "latitude": "29.960811930342988",
      "longitude": "-90.06359151985345"
    }
  },
  {
    "service_request": "2026-1269370",
    "request_type": "Parks & Parkways",
    "request_reason": "Park Maintenance/Clean Up",
    "date_created": "2026-03-29T00:40:17.000",
    "date_modified": "2026-03-29T00:40:19.000",
    "request_status": "Pending",
    "responsible_agency": "Department of Parks & Parkway",
    "final_address": "6000 BLK Magazine St",
    "address_councildis": "A",
    "status": "Pending",
    "rowid": "1269370",
    "final_x": "3664408.52909",
    "final_y": "519308.294833",
    "longitude": "-90.12244676502212",
    "latitude": "29.922425260043084",
    "geocoded_column": {
      "latitude": "29.922425260043084",
      "longitude": "-90.12244676502212"
    }
  },
  {
    "service_request": "2026-1269369",
    "request_type": "Parks & Parkways",
    "request_reason": "Park Maintenance/Clean Up",
    "date_created": "2026-03-29T00:32:04.000",
    "date_modified": "2026-03-29T00:32:06.000",
    "request_status": "Pending",
    "responsible_agency": "Department of Parks & Parkway",
    "final_address": "1009 Harrison Ave",
    "address_councildis": "A",
    "status": "Pending",
    "rowid": "1269369",
    "final_x": "3672515.93959",
    "final_y": "549149.554899",
    "longitude": "-90.09583759809985",
    "latitude": "30.0042406602565",
    "geocoded_column": {
      "latitude": "30.0042406602565",
      "longitude": "-90.09583759809985"
    }
  },
  {
    "service_request": "2026-1269368",
    "request_type": "Trash/Recycling",
    "request_reason": "Request a Large Item Pick Up",
    "date_created": "2026-03-29T00:26:52.000",
    "date_modified": "2026-03-29T00:26:54.000",
    "request_status": "Pending",
    "responsible_agency": "Department of Sanitation",
    "final_address": "3525 Franklin Ave",
    "address_councildis": "D",
    "status": "Assigned to Contractor",
    "contractor": "IV Waste",
    "rowid": "1269368",
    "final_x": "3687230.49679",
    "final_y": "545988.568656",
    "longitude": "-90.04946362204637",
    "latitude": "29.995103922488923",
    "geocoded_column": {
      "latitude": "29.995103922488923",
      "longitude": "-90.04946362204637"
    }
  },
  {
    "service_request": "2026-1269367",
    "request_type": "Streetlights",
    "request_reason": "Streetlight Outage/Malfunction",
    "date_created": "2026-03-28T22:55:22.000",
    "date_modified": "2026-03-28T22:55:25.000",
    "request_status": "Pending",
    "responsible_agency": "Department of Public Works",
    "final_address": "FILMORE AVE & PARIS AVE",
    "address_councildis": "D",
    "status": "Pending",
    "rowid": "1269367",
    "final_x": "3679133.5",
    "final_y": "551850.98",
    "longitude": "-90.07483777973088",
    "latitude": "30.01147043724532",
    "geocoded_column": {
      "latitude": "30.01147043724532",
      "longitude": "-90.07483777973088"
    }
  },
  {
    "service_request": "2026-1269366",
    "request_type": "Trash/Recycling",
    "request_reason": "Request a Large Item Pick Up",
    "date_created": "2026-03-28T22:13:49.000",
    "date_modified": "2026-03-28T22:13:51.000",
    "request_status": "Pending",
    "responsible_agency": "Department of Sanitation",
    "final_address": "7301 Ebbtide Dr",
    "address_councildis": "E",
    "status": "Assigned to Contractor",
    "contractor": "Waste Pro",
    "rowid": "1269366",
    "final_x": "3702663.11153",
    "final_y": "560476.154782",
    "longitude": "-90.00018153280496",
    "latitude": "30.034454773097114",
    "geocoded_column": {
      "latitude": "30.034454773097114",
      "longitude": "-90.00018153280496"
    }
  },
  {
    "service_request": "2026-1269365",
    "request_type": "Abandoned Vehicles",
    "request_reason": "Abandoned/Junk Vehicles",
    "date_created": "2026-03-28T22:07:10.000",
    "date_modified": "2026-03-28T22:07:12.000",
    "request_status": "Pending",
    "responsible_agency": "Department of Public Works",
    "final_address": "5434 N Prieur St",
    "address_councildis": "E",
    "status": "Pending",
    "rowid": "1269365",
    "final_x": "3698290.86909",
    "final_y": "536847.851656",
    "longitude": "-90.01485753530797",
    "latitude": "29.96962488576889",
    "geocoded_column": {
      "latitude": "29.96962488576889",
      "longitude": "-90.01485753530797"
    }
  },
  {
    "service_request": "2026-1269364",
    "request_type": "Trash/Recycling",
    "request_reason": "Order Recycling Cart",
    "date_created": "2026-03-28T21:27:21.000",
    "date_modified": "2026-03-28T21:27:23.000",
    "request_status": "Pending",
    "responsible_agency": "Department of Sanitation",
    "final_address": "2724 Urquhart St",
    "address_councildis": "C",
    "status": "Pending",
    "rowid": "1269364",
    "final_x": "3687797.97929",
    "final_y": "537041.546952",
    "longitude": "-90.04798804598911",
    "latitude": "29.970485295082106",
    "geocoded_column": {
      "latitude": "29.970485295082106",
      "longitude": "-90.04798804598911"
    }
  },
  {
    "service_request": "2026-1269363",
    "request_type": "Health Related Request",
    "request_reason": "Noise Ordinance Complaint",
    "date_created": "2026-03-28T21:01:58.000",
    "date_modified": "2026-03-28T21:01:59.000",
    "request_status": "Pending",
    "responsible_agency": "Health Department",
    "final_address": "800 Bourbon St, New Orleans, Louisiana, 70116",
    "address_councildis": "C",
    "status": "Pending",
    "rowid": "1269363",
    "final_x": "3682553.51528",
    "final_y": "533013.631428",
    "longitude": "-90.06469148499534",
    "latitude": "29.95957063099051",
    "geocoded_column": {
      "latitude": "29.95957063099051",
      "longitude": "-90.06469148499534"
    }
  },
  {
    "service_request": "2026-1269362",
    "request_type": "Health Related Request",
    "request_reason": "Noise Ordinance Complaint",
    "date_created": "2026-03-28T21:01:28.000",
    "date_modified": "2026-03-28T21:01:30.000",
    "request_status": "Pending",
    "responsible_agency": "Health Department",
    "final_address": "801 Bourbon St, New Orleans, Louisiana, 70116",
    "address_councildis": "C",
    "status": "Pending",
    "rowid": "1269362",
    "final_x": "3682490.98735",
    "final_y": "533018.672772",
    "longitude": "-90.06488875731978",
    "latitude": "29.959586396383013",
    "geocoded_column": {
      "latitude": "29.959586396383013",
      "longitude": "-90.06488875731978"
    }
  },
  {
    "service_request": "2026-1269361",
    "request_type": "Streetlights",
    "request_reason": "Streetlight Outage/Malfunction",
    "date_created": "2026-03-28T20:35:29.000",
    "date_modified": "2026-03-28T20:35:31.000",
    "request_status": "Pending",
    "responsible_agency": "Department of Public Works",
    "final_address": "1308 N Gayoso St B",
    "address_councildis": "A",
    "status": "Pending",
    "rowid": "1269361",
    "final_x": "3676823.90267",
    "final_y": "539770.750282",
    "longitude": "-90.08255137377422",
    "latitude": "29.978323592689016",
    "geocoded_column": {
      "latitude": "29.978323592689016",
      "longitude": "-90.08255137377422"
    }
  },
  {
    "service_request": "2026-1269360",
    "request_type": "Health Related Request",
    "request_reason": "Noise Ordinance Complaint",
    "date_created": "2026-03-28T20:35:17.000",
    "date_modified": "2026-03-28T20:35:18.000",
    "request_status": "Pending",
    "responsible_agency": "Health Department",
    "final_address": "800 Bourbon St, New Orleans, Louisiana, 70116",
    "address_councildis": "C",
    "status": "Pending",
    "rowid": "1269360",
    "final_x": "3682553.51528",
    "final_y": "533013.631428",
    "longitude": "-90.06469148499534",
    "latitude": "29.95957063099051",
    "geocoded_column": {
      "latitude": "29.95957063099051",
      "longitude": "-90.06469148499534"
    }
  },
  {
    "service_request": "2026-1269359",
    "request_type": "Health Related Request",
    "request_reason": "Noise Ordinance Complaint",
    "date_created": "2026-03-28T20:34:28.000",
    "date_modified": "2026-03-28T20:34:30.000",
    "request_status": "Pending",
    "responsible_agency": "Health Department",
    "final_address": "801 Bourbon St, New Orleans, Louisiana, 70116",
    "address_councildis": "C",
    "status": "Pending",
    "rowid": "1269359",
    "final_x": "3682490.98735",
    "final_y": "533018.672772",
    "longitude": "-90.06488875731978",
    "latitude": "29.959586396383013",
    "geocoded_column": {
      "latitude": "29.959586396383013",
      "longitude": "-90.06488875731978"
    }
  },
  {
    "service_request": "2026-1269358",
    "request_type": "Trash/Recycling",
    "request_reason": "Order Trash Cart",
    "date_created": "2026-03-28T20:30:10.000",
    "date_modified": "2026-03-28T20:30:12.000",
    "request_status": "Pending",
    "responsible_agency": "Department of Sanitation",
    "final_address": "2225 St Andrew St",
    "address_councildis": "B",
    "status": "Assigned to Contractor",
    "contractor": "IV Waste",
    "rowid": "1269358",
    "final_x": "3676663.98747",
    "final_y": "526127.85203",
    "longitude": "-90.08352643310593",
    "latitude": "29.940815014603846",
    "geocoded_column": {
      "latitude": "29.940815014603846",
      "longitude": "-90.08352643310593"
    }
  },
  {
    "service_request": "2026-1269357",
    "request_type": "Property Maintenance",
    "request_reason": "Property Maintenance",
    "date_created": "2026-03-28T19:57:15.000",
    "date_modified": "2026-03-28T19:57:17.000",
    "request_status": "Pending",
    "responsible_agency": "Department of Code Enforcement",
    "final_address": "4941 Feliciana Dr",
    "address_councildis": "D",
    "status": "Pending",
    "rowid": "1269357",
    "final_x": "3690082.47888",
    "final_y": "551717.619541",
    "longitude": "-90.0402503142131",
    "latitude": "30.010768544518875",
    "geocoded_column": {
      "latitude": "30.010768544518875",
      "longitude": "-90.0402503142131"
    }
  },
  {
    "service_request": "2026-1269356",
    "request_type": "Abandoned Vehicles",
    "request_reason": "Abandoned/Junk Vehicles",
    "date_created": "2026-03-28T19:00:16.000",
    "date_modified": "2026-03-28T19:00:18.000",
    "request_status": "Pending",
    "responsible_agency": "Department of Public Works",
    "final_address": "7719 Hampson St",
    "address_councildis": "A",
    "status": "Pending",
    "rowid": "1269356",
    "final_x": "3661785.86842",
    "final_y": "526239.630782",
    "longitude": "-90.13049580419134",
    "latitude": "29.941560203722855",
    "geocoded_column": {
      "latitude": "29.941560203722855",
      "longitude": "-90.13049580419134"
    }
  },
  {
    "service_request": "2026-1269355",
    "request_type": "Trash/Recycling",
    "request_reason": "Illegal Dumping",
    "date_created": "2026-03-28T18:20:19.000",
    "date_modified": "2026-03-28T18:20:23.000",
    "request_status": "Pending",
    "responsible_agency": "Department of Sanitation",
    "final_address": "2718 Ursulines Ave",
    "address_councildis": "A",
    "status": "Pending",
    "rowid": "1269355",
    "final_x": "3677409.17314",
    "final_y": "538242.511945",
    "longitude": "-90.08075564004085",
    "latitude": "29.974103882896493",
    "geocoded_column": {
      "latitude": "29.974103882896493",
      "longitude": "-90.08075564004085"
    }
  },
  {
    "service_request": "2026-1269354",
    "request_type": "Trash/Recycling",
    "request_reason": "Repair Trash Cart",
    "date_created": "2026-03-28T18:08:28.000",
    "date_modified": "2026-03-28T18:08:31.000",
    "request_status": "Pending",
    "responsible_agency": "Department of Sanitation",
    "final_address": "2718 Ursulines Ave",
    "address_councildis": "A",
    "status": "Assigned to Contractor",
    "contractor": "IV Waste",
    "rowid": "1269354",
    "final_x": "3677409.17314",
    "final_y": "538242.511945",
    "longitude": "-90.08075564004085",
    "latitude": "29.974103882896493",
    "geocoded_column": {
      "latitude": "29.974103882896493",
      "longitude": "-90.08075564004085"
    }
  },
  {
    "service_request": "2026-1269353",
    "request_type": "Trash/Recycling",
    "request_reason": "Request a Large Item Pick Up",
    "date_created": "2026-03-28T17:57:28.000",
    "date_modified": "2026-03-28T17:57:30.000",
    "request_status": "Pending",
    "responsible_agency": "Department of Sanitation",
    "final_address": "1315 St Andrew St",
    "address_councildis": "B",
    "status": "Assigned to Contractor",
    "contractor": "IV Waste",
    "rowid": "1269353",
    "final_x": "3678976.02146",
    "final_y": "523267.033787",
    "longitude": "-90.07632601935202",
    "latitude": "29.93287916439355",
    "geocoded_column": {
      "latitude": "29.93287916439355",
      "longitude": "-90.07632601935202"
    }
  },
  {
    "service_request": "2026-1269352",
    "request_type": "Trash/Recycling",
    "request_reason": "Request a Large Item Pick Up",
    "date_created": "2026-03-28T17:47:00.000",
    "date_modified": "2026-03-28T17:47:01.000",
    "request_status": "Pending",
    "responsible_agency": "Department of Sanitation",
    "final_address": "34 Kings Canyon Dr",
    "address_councildis": "C",
    "status": "Assigned to Contractor",
    "contractor": "Richards Disposal",
    "rowid": "1269352",
    "final_x": "3700081.24624",
    "final_y": "515841.231732",
    "longitude": "-90.00996959104926",
    "latitude": "29.91180725562046",
    "geocoded_column": {
      "latitude": "29.91180725562046",
      "longitude": "-90.00996959104926"
    }
  },
  {
    "service_request": "2026-1269351",
    "request_type": "Abandoned Vehicles",
    "request_reason": "Abandoned/Junk Vehicles",
    "date_created": "2026-03-28T17:46:58.000",
    "date_modified": "2026-03-28T17:47:00.000",
    "request_status": "Pending",
    "responsible_agency": "Department of Public Works",
    "final_address": "7516 Oak St",
    "address_councildis": "A",
    "status": "Pending",
    "rowid": "1269351",
    "final_x": "3663398.53043",
    "final_y": "527027.392062",
    "longitude": "-90.12537806593485",
    "latitude": "29.943679648451337",
    "geocoded_column": {
      "latitude": "29.943679648451337",
      "longitude": "-90.12537806593485"
    }
  },
  {
    "service_request": "2026-1269350",
    "request_type": "Abandoned Vehicles",
    "request_reason": "Abandoned/Junk Vehicles",
    "date_created": "2026-03-28T17:16:44.000",
    "date_modified": "2026-03-28T17:16:47.000",
    "request_status": "Pending",
    "responsible_agency": "Department of Public Works",
    "final_address": "4001 Behrman Hwy",
    "address_councildis": "C",
    "status": "Pending",
    "rowid": "1269350",
    "final_x": "3696937.88842",
    "final_y": "515592.1365",
    "longitude": "-90.01989979746514",
    "latitude": "29.91122177614972",
    "geocoded_column": {
      "latitude": "29.91122177614972",
      "longitude": "-90.01989979746514"
    }
  },
  {
    "service_request": "2026-1269349",
    "request_type": "Trash/Recycling",
    "request_reason": "Request a Large Item Pick Up",
    "date_created": "2026-03-28T16:34:59.000",
    "date_modified": "2026-03-28T16:35:00.000",
    "request_status": "Pending",
    "responsible_agency": "Department of Sanitation",
    "final_address": "4800 Longfellow Dr",
    "address_councildis": "E",
    "status": "Assigned to Contractor",
    "contractor": "Waste Pro",
    "rowid": "1269349",
    "final_x": "3709523.81099",
    "final_y": "556150.64585",
    "longitude": "-89.97866257050241",
    "latitude": "30.022340060039514",
    "geocoded_column": {
      "latitude": "30.022340060039514",
      "longitude": "-89.97866257050241"
    }
  },
  {
    "service_request": "2026-1269348",
    "request_type": "Trash/Recycling",
    "request_reason": "Replace Recycling Cart",
    "date_created": "2026-03-28T16:34:04.000",
    "date_modified": "2026-03-28T16:34:06.000",
    "request_status": "Pending",
    "responsible_agency": "Department of Sanitation",
    "final_address": "4223 Marais St",
    "address_councildis": "D",
    "status": "Pending",
    "rowid": "1269348",
    "final_x": "3692665.68797",
    "final_y": "535497.63143",
    "longitude": "-90.03267067598672",
    "latitude": "29.96608903468532",
    "geocoded_column": {
      "latitude": "29.96608903468532",
      "longitude": "-90.03267067598672"
    }
  },
  {
    "service_request": "2026-1269347",
    "request_type": "Abandoned Vehicles",
    "request_reason": "Abandoned/Junk Vehicles",
    "date_created": "2026-03-28T15:33:06.000",
    "date_modified": "2026-03-28T15:33:08.000",
    "request_status": "Pending",
    "responsible_agency": "Department of Public Works",
    "final_address": "5535 S Miro St",
    "address_councildis": "B",
    "status": "Pending",
    "rowid": "1269347",
    "final_x": "3668133.80788",
    "final_y": "527796.530751",
    "longitude": "-90.11040156813331",
    "latitude": "29.945656418441313",
    "geocoded_column": {
      "latitude": "29.945656418441313",
      "longitude": "-90.11040156813331"
    }
  },
  {
    "service_request": "2026-1269346",
    "request_type": "General Services",
    "request_reason": "General Service Request",
    "date_created": "2026-03-28T15:25:20.000",
    "date_modified": "2026-03-28T15:25:22.000",
    "request_status": "Pending",
    "responsible_agency": "Orleans Parish Communication District",
    "final_address": "2100 BLK Gentilly Blvd",
    "address_councildis": "D",
    "status": "Pending",
    "rowid": "1269346",
    "final_x": "3680550.06242",
    "final_y": "544322.765473",
    "longitude": "-90.07062438333936",
    "latitude": "29.99072767629497",
    "geocoded_column": {
      "latitude": "29.99072767629497",
      "longitude": "-90.07062438333936"
    }
  },
  {
    "service_request": "2026-1269345",
    "request_type": "General Services",
    "request_reason": "General Service Request",
    "date_created": "2026-03-28T15:20:25.000",
    "date_modified": "2026-03-28T15:20:26.000",
    "request_status": "Pending",
    "responsible_agency": "Orleans Parish Communication District",
    "final_address": "2100 BLK Gentilly Blvd",
    "address_councildis": "D",
    "status": "Pending",
    "rowid": "1269345",
    "final_x": "3680550.06242",
    "final_y": "544322.765473",
    "longitude": "-90.07062438333936",
    "latitude": "29.99072767629497",
    "geocoded_column": {
      "latitude": "29.99072767629497",
      "longitude": "-90.07062438333936"
    }
  },
  {
    "service_request": "2026-1269344",
    "request_type": "Trash/Recycling",
    "request_reason": "Request a Large Item Pick Up",
    "date_created": "2026-03-28T15:18:22.000",
    "date_modified": "2026-03-28T15:18:24.000",
    "request_status": "Pending",
    "responsible_agency": "Department of Sanitation",
    "final_address": "3001 Conti St",
    "address_councildis": "B",
    "status": "Assigned to Contractor",
    "contractor": "IV Waste",
    "rowid": "1269344",
    "final_x": "3675011.24097",
    "final_y": "536879.988424",
    "longitude": "-90.08837562201467",
    "latitude": "29.970429265782542",
    "geocoded_column": {
      "latitude": "29.970429265782542",
      "longitude": "-90.08837562201467"
    }
  },
  {
    "service_request": "2026-1269343",
    "request_type": "General Services",
    "request_reason": "General Service Request",
    "date_created": "2026-03-28T15:15:54.000",
    "date_modified": "2026-03-28T15:15:57.000",
    "request_status": "Pending",
    "responsible_agency": "Orleans Parish Communication District",
    "final_address": "2200 BLK Gentilly Blvd",
    "address_councildis": "D",
    "status": "Pending",
    "rowid": "1269343",
    "final_x": "3680804.4858",
    "final_y": "544554.751885",
    "longitude": "-90.06981264211615",
    "latitude": "29.991357845393306",
    "geocoded_column": {
      "latitude": "29.991357845393306",
      "longitude": "-90.06981264211615"
    }
  },
  {
    "service_request": "2026-1269342",
    "request_type": "Property Maintenance",
    "request_reason": "Property Maintenance",
    "date_created": "2026-03-28T15:12:50.000",
    "date_modified": "2026-03-28T15:12:52.000",
    "request_status": "Pending",
    "responsible_agency": "Department of Code Enforcement",
    "final_address": "1410 Aviators St",
    "address_councildis": "D",
    "status": "Pending",
    "rowid": "1269342",
    "final_x": "3677652.99067",
    "final_y": "554793.76188",
    "longitude": "-90.07941357655179",
    "latitude": "30.01960665472546",
    "geocoded_column": {
      "latitude": "30.01960665472546",
      "longitude": "-90.07941357655179"
    }
  },
  {
    "service_request": "2026-1269341",
    "request_type": "Trash/Recycling",
    "request_reason": "Replace Trash Cart",
    "date_created": "2026-03-28T14:37:18.000",
    "date_modified": "2026-03-28T14:37:23.000",
    "request_status": "Pending",
    "responsible_agency": "Department of Sanitation",
    "final_address": "1319 Pauline St",
    "address_councildis": "D",
    "status": "Assigned to Contractor",
    "contractor": "IV Waste",
    "rowid": "1269341",
    "final_x": "3691473.10704",
    "final_y": "536338.081607",
    "longitude": "-90.03640676189542",
    "latitude": "29.96843714544395",
    "geocoded_column": {
      "latitude": "29.96843714544395",
      "longitude": "-90.03640676189542"
    }
  },
  {
    "service_request": "2026-1269340",
    "request_type": "Roads and Streets",
    "request_reason": "Sidewalk Damaged or Missing",
    "date_created": "2026-03-28T14:24:47.000",
    "date_modified": "2026-03-28T14:24:49.000",
    "request_status": "Pending",
    "responsible_agency": "Department of Public Works",
    "final_address": "1040 S Peters St",
    "address_councildis": "B",
    "status": "Pending",
    "rowid": "1269340",
    "final_x": "3682341.11804",
    "final_y": "526321.81363",
    "longitude": "-90.0655959776472",
    "latitude": "29.94117685725306",
    "geocoded_column": {
      "latitude": "29.94117685725306",
      "longitude": "-90.0655959776472"
    }
  },
  {
    "service_request": "2026-1269339",
    "request_type": "Trash/Recycling",
    "request_reason": "Request a Large Item Pick Up",
    "date_created": "2026-03-28T14:06:54.000",
    "date_modified": "2026-03-28T14:06:55.000",
    "request_status": "Pending",
    "responsible_agency": "Department of Sanitation",
    "final_address": "600 BLK S Norman C Francis Pkwy",
    "address_councildis": "B",
    "status": "Assigned to Contractor",
    "contractor": "IV Waste",
    "rowid": "1269339",
    "final_x": "3672032.32946",
    "final_y": "535028.248301",
    "longitude": "-90.09784643530955",
    "latitude": "29.965426261805117",
    "geocoded_column": {
      "latitude": "29.965426261805117",
      "longitude": "-90.09784643530955"
    }
  },
  {
    "service_request": "2026-1269338",
    "request_type": "Trash/Recycling",
    "request_reason": "Illegal Dumping",
    "date_created": "2026-03-28T13:59:59.000",
    "date_modified": "2026-03-28T14:00:01.000",
    "request_status": "Pending",
    "responsible_agency": "Department of Sanitation",
    "final_address": "3400 BLK Baudin St",
    "address_councildis": "B",
    "status": "Pending",
    "rowid": "1269338",
    "final_x": "3672027.58668",
    "final_y": "535612.973509",
    "longitude": "-90.09784150271294",
    "latitude": "29.967034200617057",
    "geocoded_column": {
      "latitude": "29.967034200617057",
      "longitude": "-90.09784150271294"
    }
  },
  {
    "service_request": "2026-1269337",
    "request_type": "Property Maintenance",
    "request_reason": "Property Maintenance",
    "date_created": "2026-03-28T13:35:03.000",
    "date_modified": "2026-03-28T13:35:05.000",
    "request_status": "Pending",
    "responsible_agency": "Department of Code Enforcement",
    "final_address": "3213 Fern St",
    "address_councildis": "B",
    "status": "Pending",
    "rowid": "1269337",
    "final_x": "3667454.35565",
    "final_y": "533205.57114",
    "longitude": "-90.11236485076957",
    "latitude": "29.960549434906948",
    "geocoded_column": {
      "latitude": "29.960549434906948",
      "longitude": "-90.11236485076957"
    }
  },
  {
    "service_request": "2026-1269336",
    "request_type": "Trash/Recycling",
    "request_reason": "Replace Trash Cart",
    "date_created": "2026-03-28T13:18:59.000",
    "date_modified": "2026-03-28T13:19:01.000",
    "request_status": "Pending",
    "responsible_agency": "Department of Sanitation",
    "final_address": "1226 Henriette Delille St",
    "address_councildis": "C",
    "status": "Assigned to Contractor",
    "contractor": "IV Waste",
    "rowid": "1269336",
    "final_x": "3682340.80559",
    "final_y": "535237.729158",
    "longitude": "-90.06528545009698",
    "latitude": "29.96569261179904",
    "geocoded_column": {
      "latitude": "29.96569261179904",
      "longitude": "-90.06528545009698"
    }
  },
  {
    "service_request": "2026-1269335",
    "request_type": "Roads and Streets",
    "request_reason": "Pothole",
    "date_created": "2026-03-28T13:10:04.000",
    "date_modified": "2026-03-28T13:10:06.000",
    "request_status": "Pending",
    "responsible_agency": "Department of Public Works",
    "final_address": "1501 Canal St",
    "address_councildis": "C",
    "status": "Pending",
    "rowid": "1269335",
    "final_x": "3679191.82191",
    "final_y": "532310.356419",
    "longitude": "-90.0753313172871",
    "latitude": "29.95773877609644",
    "geocoded_column": {
      "latitude": "29.95773877609644",
      "longitude": "-90.0753313172871"
    }
  },
  {
    "service_request": "2026-1269334",
    "request_type": "General Services",
    "request_reason": "General Service Request",
    "date_created": "2026-03-28T12:58:49.000",
    "date_modified": "2026-03-28T12:58:51.000",
    "request_status": "Pending",
    "responsible_agency": "Orleans Parish Communication District",
    "final_address": "1510 Pauger St",
    "address_councildis": "C",
    "status": "Pending",
    "rowid": "1269334",
    "final_x": "3683922.55522",
    "final_y": "535247.97607",
    "longitude": "-90.060289991615",
    "latitude": "29.965672561138778",
    "geocoded_column": {
      "latitude": "29.965672561138778",
      "longitude": "-90.060289991615"
    }
  },
  {
    "service_request": "2026-1269333",
    "request_type": "Roads and Streets",
    "request_reason": "Pothole",
    "date_created": "2026-03-28T12:33:29.000",
    "date_modified": "2026-03-28T12:33:31.000",
    "request_status": "Pending",
    "responsible_agency": "Department of Public Works",
    "final_address": "7818 St Charles Ave",
    "address_councildis": "A",
    "status": "Pending",
    "rowid": "1269333",
    "final_x": "3661243.76934",
    "final_y": "526130.934718",
    "longitude": "-90.13221092529518",
    "latitude": "29.94127696031059",
    "geocoded_column": {
      "latitude": "29.94127696031059",
      "longitude": "-90.13221092529518"
    }
  },
  {
    "service_request": "2026-1269332",
    "request_type": "Utility Poles",
    "request_reason": "Wires Sagging/Hanging Low",
    "date_created": "2026-03-28T12:05:40.000",
    "date_modified": "2026-03-28T12:05:42.000",
    "request_status": "Pending",
    "responsible_agency": "Utility Company Collective",
    "final_address": "5336 Dryades St",
    "address_councildis": "B",
    "status": "Pending",
    "rowid": "1269332",
    "final_x": "3667609.66049",
    "final_y": "521793.283898",
    "longitude": "-90.11225846699281",
    "latitude": "29.929164787498774",
    "geocoded_column": {
      "latitude": "29.929164787498774",
      "longitude": "-90.11225846699281"
    }
  },
  {
    "service_request": "2026-1269331",
    "request_type": "Streetlights",
    "request_reason": "Streetlight Outage/Malfunction",
    "date_created": "2026-03-28T11:51:20.000",
    "date_modified": "2026-03-28T11:51:22.000",
    "request_status": "Pending",
    "responsible_agency": "Department of Public Works",
    "final_address": "8008 Mercier St",
    "address_councildis": "E",
    "status": "Pending",
    "rowid": "1269331",
    "final_x": "3710738.04792",
    "final_y": "567490.149412",
    "longitude": "-89.97440098346397",
    "latitude": "30.053479643264083",
    "geocoded_column": {
      "latitude": "30.053479643264083",
      "longitude": "-89.97440098346397"
    }
  },
  {
    "service_request": "2026-1269330",
    "request_type": "Trash/Recycling",
    "request_reason": "Replace Recycling Cart",
    "date_created": "2026-03-28T11:42:25.000",
    "date_modified": "2026-03-28T11:42:27.000",
    "request_status": "Pending",
    "responsible_agency": "Department of Sanitation",
    "final_address": "6749 General Haig St",
    "address_councildis": "A",
    "status": "Pending",
    "rowid": "1269330",
    "final_x": "3671096.99028",
    "final_y": "552216.587094",
    "longitude": "-90.10021605605695",
    "latitude": "30.012715979896253",
    "geocoded_column": {
      "latitude": "30.012715979896253",
      "longitude": "-90.10021605605695"
    }
  },
  {
    "service_request": "2026-1269329",
    "request_type": "Trash/Recycling",
    "request_reason": "Request a Large Item Pick Up",
    "date_created": "2026-03-28T11:34:49.000",
    "date_modified": "2026-03-28T11:34:50.000",
    "request_status": "Pending",
    "responsible_agency": "Department of Sanitation",
    "final_address": "4036 Buick St",
    "address_councildis": "D",
    "status": "Assigned to Contractor",
    "contractor": "IV Waste",
    "rowid": "1269329",
    "final_x": "3688823.39798",
    "final_y": "548225.948754",
    "longitude": "-90.04435232604216",
    "latitude": "30.001206735602302",
    "geocoded_column": {
      "latitude": "30.001206735602302",
      "longitude": "-90.04435232604216"
    }
  },
  {
    "service_request": "2026-1269328",
    "request_type": "Trash/Recycling",
    "request_reason": "Order Trash Cart",
    "date_created": "2026-03-28T11:28:18.000",
    "date_modified": "2026-03-28T11:28:19.000",
    "request_status": "Pending",
    "responsible_agency": "Department of Sanitation",
    "final_address": "2526 Chartres St",
    "address_councildis": "C",
    "status": "Assigned to Contractor",
    "contractor": "IV Waste",
    "rowid": "1269328",
    "final_x": "3686511.5421",
    "final_y": "534588.246341",
    "longitude": "-90.05213738286753",
    "latitude": "29.963779188174605",
    "geocoded_column": {
      "latitude": "29.963779188174605",
      "longitude": "-90.05213738286753"
    }
  },
  {
    "service_request": "2026-1269327",
    "request_type": "Trash/Recycling",
    "request_reason": "Order Recycling Cart",
    "date_created": "2026-03-28T11:17:00.000",
    "date_modified": "2026-03-28T11:17:02.000",
    "request_status": "Pending",
    "responsible_agency": "Department of Sanitation",
    "final_address": "4946 Camelia St",
    "address_councildis": "E",
    "status": "Pending",
    "rowid": "1269327",
    "final_x": "3701385.44266",
    "final_y": "555391.775065",
    "longitude": "-90.00440546403776",
    "latitude": "30.020515503256842",
    "geocoded_column": {
      "latitude": "30.020515503256842",
      "longitude": "-90.00440546403776"
    }
  },
  {
    "service_request": "2026-1269326",
    "request_type": "Trash/Recycling",
    "request_reason": "Request a Large Item Pick Up",
    "date_created": "2026-03-28T11:16:26.000",
    "date_modified": "2026-03-28T11:16:28.000",
    "request_status": "Pending",
    "responsible_agency": "Department of Sanitation",
    "final_address": "42 Crane St",
    "address_councildis": "D",
    "status": "Assigned to Contractor",
    "contractor": "IV Waste",
    "rowid": "1269326",
    "final_x": "3673229.33729",
    "final_y": "554999.568793",
    "longitude": "-90.0933838485865",
    "latitude": "30.020304915430234",
    "geocoded_column": {
      "latitude": "30.020304915430234",
      "longitude": "-90.0933838485865"
    }
  },
  {
    "service_request": "2026-1269325",
    "request_type": "Property Maintenance",
    "request_reason": "Property Maintenance",
    "date_created": "2026-03-28T11:04:26.000",
    "date_modified": "2026-03-28T11:04:27.000",
    "request_status": "Pending",
    "responsible_agency": "Department of Code Enforcement",
    "final_address": "1111 Poland Ave",
    "address_councildis": "D",
    "status": "Pending",
    "rowid": "1269325",
    "final_x": "3693198.2847",
    "final_y": "535193.421126",
    "longitude": "-90.03099967493971",
    "latitude": "29.965235929674588",
    "geocoded_column": {
      "latitude": "29.965235929674588",
      "longitude": "-90.03099967493971"
    }
  },