[
  {
    "service_request": "2026-1275869",
    "request_type": "Trash/Recycling",
    "request_reason": "Repair Trash Cart",
    "date_created": "2026-04-22T23:04:08.000",
    "date_modified": "2026-04-22T23:04:09.000",
    "request_status": "Pending",
    "responsible_agency": "Department of Sanitation",
    "final_address": "2020 Cadiz St",
    "address_councildis": "B",
    "status": "Assigned to Contractor",
    "contractor": "IV Waste",
    "rowid": "1275869",
    "final_x": "3669907.44622",
    "final_y": "522389.489978",
    "longitude": "-90.10498460446588",
    "latitude": "29.930736633374483",
    "geocoded_column": {
      "latitude": "29.930736633374483",
      "longitude": "-90.10498460446588"
    }
  },
  {
    "service_request": "2026-1275868",
    "request_type": "Abandoned Vehicles",
    "request_reason": "Abandoned/Junk Vehicles",
    "date_created": "2026-04-22T23:01:23.000",
    "date_modified": "2026-04-22T23:01:24.000",
    "request_status": "Pending",
    "responsible_agency": "Department of Public Works",
    "final_address": "5999 Bullard Ave",
    "address_councildis": "E",
    "status": "Pending",
    "rowid": "1275868",
    "final_x": "3716190.90642",
    "final_y": "563497.356448",
    "longitude": "-89.9573176520887",
    "latitude": "30.042322150301143",
    "geocoded_column": {
      "latitude": "30.042322150301143",
      "longitude": "-89.9573176520887"
    }
  },
  {
    "service_request": "2026-1275867",
    "request_type": "Trash/Recycling",
    "request_reason": "Order Recycling Cart",
    "date_created": "2026-04-22T22:24:48.000",
    "date_modified": "2026-04-22T22:24:50.000",
    "request_status": "Pending",
    "responsible_agency": "Department of Sanitation",
    "final_address": "1512 Sixth St",
    "address_councildis": "B",
    "status": "Pending",
    "rowid": "1275867",
    "final_x": "3675680.93576",
    "final_y": "521914.055866",
    "longitude": "-90.08677483395378",
    "latitude": "29.92925789801292",
    "geocoded_column": {
      "latitude": "29.92925789801292",
      "longitude": "-90.08677483395378"
    }
  },
  {
    "service_request": "2026-1275866",
    "request_type": "Trash/Recycling",
    "request_reason": "Order Second Trash Cart",
    "date_created": "2026-04-22T22:18:21.000",
    "date_modified": "2026-04-22T22:18:30.000",
    "request_status": "Pending",
    "responsible_agency": "Department of Sanitation",
    "final_address": "9100 Morrison Rd",
    "address_councildis": "E",
    "status": "Assigned to Contractor",
    "contractor": "Waste Pro",
    "rowid": "1275866",
    "final_x": "3706214.87294",
    "final_y": "562019.668447",
    "longitude": "-89.98890033274857",
    "latitude": "30.038584724275047",
    "geocoded_column": {
      "latitude": "30.038584724275047",
      "longitude": "-89.98890033274857"
    }
  },
  {
    "service_request": "2026-1275865",
    "request_type": "Trash/Recycling",
    "request_reason": "Request a Large Item Pick Up",
    "date_created": "2026-04-22T22:05:35.000",
    "date_modified": "2026-04-22T22:05:37.000",
    "request_status": "Pending",
    "responsible_agency": "Department of Sanitation",
    "final_address": "7451 Crowder Blvd",
    "address_councildis": "E",
    "status": "Assigned to Contractor",
    "contractor": "Waste Pro",
    "rowid": "1275865",
    "final_x": "3703647.45054",
    "final_y": "561568.208415",
    "longitude": "-89.99703066057539",
    "latitude": "30.037425966040214",
    "geocoded_column": {
      "latitude": "30.037425966040214",
      "longitude": "-89.99703066057539"
    }
  },
  {
    "service_request": "2026-1275864",
    "request_type": "Trash/Recycling",
    "request_reason": "Order Second Trash Cart",
    "date_created": "2026-04-22T21:59:11.000",
    "date_modified": "2026-04-22T21:59:18.000",
    "request_status": "Pending",
    "responsible_agency": "Department of Sanitation",
    "final_address": "2052 Timoleon St",
    "address_councildis": "D",
    "status": "Assigned to Contractor",
    "contractor": "IV Waste",
    "rowid": "1275864",
    "final_x": "3682840.77135",
    "final_y": "550953.662293",
    "longitude": "-90.06315642125799",
    "latitude": "30.00889065907835",
    "geocoded_column": {
      "latitude": "30.00889065907835",
      "longitude": "-90.06315642125799"
    }
  },
  {
    "service_request": "2026-1275863",
    "request_type": "Trash/Recycling",
    "request_reason": "Request a Large Item Pick Up",
    "date_created": "2026-04-22T21:12:59.000",
    "date_modified": "2026-04-22T21:13:01.000",
    "request_status": "Pending",
    "responsible_agency": "Department of Sanitation",
    "final_address": "2725 Lapeyrouse St",
    "address_councildis": "D",
    "status": "Assigned to Contractor",
    "contractor": "IV Waste",
    "rowid": "1275863",
    "final_x": "3678643.81243",
    "final_y": "540541.450187",
    "longitude": "-90.07677674483078",
    "latitude": "29.980388000958428",
    "geocoded_column": {
      "latitude": "29.980388000958428",
      "longitude": "-90.07677674483078"
    }
  },
  {
    "service_request": "2026-1275862",
    "request_type": "Street and Traffic Signs",
    "request_reason": "Stop Sign Missing or Damaged",
    "date_created": "2026-04-22T21:08:44.000",
    "date_modified": "2026-04-22T21:08:45.000",
    "request_status": "Pending",
    "responsible_agency": "Department of Public Works",
    "final_address": "2858 Magazine St",
    "address_councildis": "B",
    "status": "Pending",
    "rowid": "1275862",
    "final_x": "3676678.48053",
    "final_y": "520519.29612",
    "longitude": "-90.08367379156977",
    "latitude": "29.925392883548568",
    "geocoded_column": {
      "latitude": "29.925392883548568",
      "longitude": "-90.08367379156977"
    }
  },
  {
    "service_request": "2026-1275861",
    "request_type": "Trash/Recycling",
    "request_reason": "Replace Trash Cart",
    "date_created": "2026-04-22T21:07:18.000",
    "date_modified": "2026-04-22T21:07:20.000",
    "request_status": "Pending",
    "responsible_agency": "Department of Sanitation",
    "final_address": "2725 Lapeyrouse St",
    "address_councildis": "D",
    "status": "Assigned to Contractor",
    "contractor": "IV Waste",
    "rowid": "1275861",
    "final_x": "3678643.81243",
    "final_y": "540541.450187",
    "longitude": "-90.07677674483078",
    "latitude": "29.980388000958428",
    "geocoded_column": {
      "latitude": "29.980388000958428",
      "longitude": "-90.07677674483078"
    }
  },
  {
    "service_request": "2026-1275860",
    "request_type": "Streetlights",
    "request_reason": "Streetlight Outage/Malfunction",
    "date_created": "2026-04-22T20:55:29.000",
    "date_modified": "2026-04-22T20:55:31.000",
    "request_status": "Pending",
    "responsible_agency": "Department of Public Works",
    "final_address": "47 Versailles Blvd",
    "address_councildis": "A",
    "status": "Pending",
    "rowid": "1275860",
    "final_x": "3667559.09505",
    "final_y": "529785.679297",
    "longitude": "-90.11214919803243",
    "latitude": "29.951142784001696",
    "geocoded_column": {
      "latitude": "29.951142784001696",
      "longitude": "-90.11214919803243"
    }
  },
  {
    "service_request": "2026-1275859",
    "request_type": "Trash/Recycling",
    "request_reason": "Request a Large Item Pick Up",
    "date_created": "2026-04-22T20:44:06.000",
    "date_modified": "2026-04-22T20:44:07.000",
    "request_status": "Pending",
    "responsible_agency": "Department of Sanitation",
    "final_address": "2911 General Taylor St",
    "address_councildis": "B",
    "status": "Assigned to Contractor",
    "contractor": "IV Waste",
    "rowid": "1275859",
    "final_x": "3671579.08769",
    "final_y": "525661.412541",
    "longitude": "-90.0995962466171",
    "latitude": "29.939683982370216",
    "geocoded_column": {
      "latitude": "29.939683982370216",
      "longitude": "-90.0995962466171"
    }
  },
  {
    "service_request": "2026-1275858",
    "request_type": "Trash/Recycling",
    "request_reason": "Request a Large Item Pick Up",
    "date_created": "2026-04-22T19:48:56.000",
    "date_modified": "2026-04-22T19:49:00.000",
    "request_status": "Pending",
    "responsible_agency": "Department of Sanitation",
    "final_address": "4754 Bonita Dr",
    "address_councildis": "E",
    "status": "Assigned to Contractor",
    "contractor": "Waste Pro",
    "rowid": "1275858",
    "final_x": "3704416.27185",
    "final_y": "555377.375001",
    "longitude": "-89.99482956438592",
    "latitude": "30.02037890792999",
    "geocoded_column": {
      "latitude": "30.02037890792999",
      "longitude": "-89.99482956438592"
    }
  },
  {
    "service_request": "2026-1275857",
    "request_type": "General Services",
    "request_reason": "General Service Request",
    "date_created": "2026-04-22T19:43:17.000",
    "date_modified": "2026-04-22T19:43:18.000",
    "request_status": "Pending",
    "responsible_agency": "Orleans Parish Communication District",
    "final_address": "5601 Burgundy St",
    "address_councildis": "E",
    "status": "Pending",
    "rowid": "1275857",
    "final_x": "3697866.80919",
    "final_y": "532997.011076",
    "longitude": "-90.01633652383119",
    "latitude": "29.959049857057465",
    "geocoded_column": {
      "latitude": "29.959049857057465",
      "longitude": "-90.01633652383119"
    }
  },
  {
    "service_request": "2026-1275856",
    "request_type": "Street and Traffic Signs",
    "request_reason": "Street Name Sign Damaged or Missing",
    "date_created": "2026-04-22T19:34:13.000",
    "date_modified": "2026-04-22T19:34:16.000",
    "request_status": "Pending",
    "responsible_agency": "Department of Public Works",
    "final_address": "201 Helena St",
    "address_councildis": "A",
    "status": "Pending",
    "rowid": "1275856",
    "final_x": "3668489.53428",
    "final_y": "540915.227467",
    "longitude": "-90.10883578552816",
    "latitude": "29.981718040331383",
    "geocoded_column": {
      "latitude": "29.981718040331383",
      "longitude": "-90.10883578552816"
    }
  },
  {
    "service_request": "2026-1275855",
    "request_type": "Trash/Recycling",
    "request_reason": "Request a Large Item Pick Up",
    "date_created": "2026-04-22T19:22:56.000",
    "date_modified": "2026-04-22T19:22:58.000",
    "request_status": "Pending",
    "responsible_agency": "Department of Sanitation",
    "final_address": "3323 Second St",
    "address_councildis": "B",
    "status": "Assigned to Contractor",
    "contractor": "IV Waste",
    "rowid": "1275855",
    "final_x": "3673276.82216",
    "final_y": "528296.002432",
    "longitude": "-90.09414629840323",
    "latitude": "29.946877869114008",
    "geocoded_column": {
      "latitude": "29.946877869114008",
      "longitude": "-90.09414629840323"
    }
  },
  {
    "service_request": "2026-1275854",
    "request_type": "Trash/Recycling",
    "request_reason": "Request a Large Item Pick Up",
    "date_created": "2026-04-22T19:11:40.000",
    "date_modified": "2026-04-22T19:11:42.000",
    "request_status": "Pending",
    "responsible_agency": "Department of Sanitation",
    "final_address": "202 Fairfax Pl",
    "address_councildis": "C",
    "status": "Assigned to Contractor",
    "contractor": "Richards Disposal",
    "rowid": "1275854",
    "final_x": "3706147.04196",
    "final_y": "517505.955702",
    "longitude": "-89.99076297110616",
    "latitude": "29.916190648726104",
    "geocoded_column": {
      "latitude": "29.916190648726104",
      "longitude": "-89.99076297110616"
    }
  },
  {
    "service_request": "2026-1275853",
    "request_type": "Roads and Streets",
    "request_reason": "Pothole",
    "date_created": "2026-04-22T19:05:42.000",
    "date_modified": "2026-04-22T19:05:44.000",
    "request_status": "Pending",
    "responsible_agency": "Department of Public Works",
    "final_address": "6141 S Hermes St",
    "address_councildis": "D",
    "status": "Pending",
    "rowid": "1275853",
    "final_x": "3696787.90391",
    "final_y": "555154.773081",
    "longitude": "-90.01894081161547",
    "latitude": "30.020009650757366",
    "geocoded_column": {
      "latitude": "30.020009650757366",
      "longitude": "-90.01894081161547"
    }
  },
  {
    "service_request": "2026-1275852",
    "request_type": "Trash/Recycling",
    "request_reason": "Request a Large Item Pick Up",
    "date_created": "2026-04-22T18:56:48.000",
    "date_modified": "2026-04-22T18:56:50.000",
    "request_status": "Pending",
    "responsible_agency": "Department of Sanitation",
    "final_address": "3100 Behrman Hwy",
    "address_councildis": "C",
    "status": "Assigned to Contractor",
    "contractor": "Richards Disposal",
    "rowid": "1275852",
    "final_x": "3694623.90397",
    "final_y": "519141.873079",
    "longitude": "-90.02707552884621",
    "latitude": "29.921055090156532",
    "geocoded_column": {
      "latitude": "29.921055090156532",
      "longitude": "-90.02707552884621"
    }
  },
  {
    "service_request": "2026-1275850",
    "request_type": "Trash/Recycling",
    "request_reason": "Return Trash Cart",
    "date_created": "2026-04-22T18:52:04.000",
    "date_modified": "2026-04-22T18:52:06.000",
    "request_status": "Pending",
    "responsible_agency": "Department of Sanitation",
    "final_address": "2714 Coliseum St",
    "address_councildis": "B",
    "status": "Assigned to Contractor",
    "contractor": "IV Waste",
    "rowid": "1275850",
    "final_x": "3676653.73237",
    "final_y": "521751.276922",
    "longitude": "-90.08370950164189",
    "latitude": "29.92878117309633",
    "geocoded_column": {
      "latitude": "29.92878117309633",
      "longitude": "-90.08370950164189"
    }
  },
  {
    "service_request": "2026-1275851",
    "request_type": "Trash/Recycling",
    "request_reason": "Return Trash Cart",
    "date_created": "2026-04-22T18:52:04.000",
    "date_modified": "2026-04-22T18:52:06.000",
    "request_status": "Pending",
    "responsible_agency": "Department of Sanitation",
    "final_address": "2714 Coliseum St",
    "address_councildis": "B",
    "status": "Assigned to Contractor",
    "contractor": "IV Waste",
    "rowid": "1275851",
    "final_x": "3676653.73237",
    "final_y": "521751.276922",
    "longitude": "-90.08370950164189",
    "latitude": "29.92878117309633",
    "geocoded_column": {
      "latitude": "29.92878117309633",
      "longitude": "-90.08370950164189"
    }
  },
  {
    "service_request": "2026-1275849",
    "request_type": "Trash/Recycling",
    "request_reason": "Damaged Caused By Contractor",
    "date_created": "2026-04-22T18:45:57.000",
    "date_modified": "2026-04-22T18:45:59.000",
    "request_status": "Pending",
    "responsible_agency": "Department of Sanitation",
    "final_address": "818 Bordeaux St",
    "address_councildis": "B",
    "status": "Assigned to Contractor",
    "contractor": "IV Waste",
    "rowid": "1275849",
    "final_x": "3669564.27969",
    "final_y": "518429.819446",
    "longitude": "-90.10620180454744",
    "latitude": "29.919858909799583",
    "geocoded_column": {
      "latitude": "29.919858909799583",
      "longitude": "-90.10620180454744"
    }
  },
  {
    "service_request": "2026-1275848",
    "request_type": "Trash/Recycling",
    "request_reason": "Replace Recycling Cart",
    "date_created": "2026-04-22T18:24:07.000",
    "date_modified": "2026-04-22T18:24:09.000",
    "request_status": "Pending",
    "responsible_agency": "Department of Sanitation",
    "final_address": "6027 Patton St",
    "address_councildis": "A",
    "status": "Pending",
    "rowid": "1275848",
    "final_x": "3664267.91277",
    "final_y": "518677.558071",
    "longitude": "-90.12291166757618",
    "latitude": "29.92069501626707",
    "geocoded_column": {
      "latitude": "29.92069501626707",
      "longitude": "-90.12291166757618"
    }
  },
  {
    "service_request": "2026-1275847",
    "request_type": "Abandoned Vehicles",
    "request_reason": "Abandoned/Junk Vehicles",
    "date_created": "2026-04-22T18:15:13.000",
    "date_modified": "2026-04-22T18:15:15.000",
    "request_status": "Pending",
    "responsible_agency": "Department of Public Works",
    "final_address": "2300 BLK Chippewa St",
    "address_councildis": "B",
    "status": "Pending",
    "rowid": "1275847",
    "final_x": "3679287.96094",
    "final_y": "520571.884825",
    "longitude": "-90.07543465463681",
    "latitude": "29.925458974097197",
    "geocoded_column": {
      "latitude": "29.925458974097197",
      "longitude": "-90.07543465463681"
    }
  },
  {
    "service_request": "2026-1275846",
    "request_type": "Trash/Recycling",
    "request_reason": "Missed Trash Pick-Up",
    "date_created": "2026-04-22T17:54:38.000",
    "date_modified": "2026-04-22T17:54:42.000",
    "request_status": "Pending",
    "responsible_agency": "Department of Sanitation",
    "final_address": "5551 Pratt Dr",
    "address_councildis": "D",
    "status": "Assigned to Contractor",
    "contractor": "IV Waste",
    "rowid": "1275846",
    "final_x": "3680429.96623",
    "final_y": "553052.351511",
    "longitude": "-90.0706998852243",
    "latitude": "30.014734557747904",
    "geocoded_column": {
      "latitude": "30.014734557747904",
      "longitude": "-90.0706998852243"
    }
  },
  {
    "service_request": "2026-1275845",
    "request_type": "Trash/Recycling",
    "request_reason": "Order Trash Cart",
    "date_created": "2026-04-22T17:46:19.000",
    "date_modified": "2026-04-22T17:46:21.000",
    "request_status": "Pending",
    "responsible_agency": "Department of Sanitation",
    "final_address": "4310 Laurel St",
    "address_councildis": "B",
    "status": "Assigned to Contractor",
    "contractor": "IV Waste",
    "rowid": "1275845",
    "final_x": "3671424.317",
    "final_y": "518036.395574",
    "longitude": "-90.10034392242575",
    "latitude": "29.918722214502708",
    "geocoded_column": {
      "latitude": "29.918722214502708",
      "longitude": "-90.10034392242575"
    }
  },
  {
    "service_request": "2026-1275844",
    "request_type": "Abandoned Vehicles",
    "request_reason": "Abandoned/Junk Vehicles",
    "date_created": "2026-04-22T17:44:16.000",
    "date_modified": "2026-04-22T17:44:18.000",
    "request_status": "Pending",
    "responsible_agency": "Department of Public Works",
    "final_address": "4949 Donna Dr",
    "address_councildis": "E",
    "status": "Pending",
    "rowid": "1275844",
    "final_x": "3710920.22021",
    "final_y": "557168.613403",
    "longitude": "-89.97421214944282",
    "latitude": "30.02509360335045",
    "geocoded_column": {
      "latitude": "30.02509360335045",
      "longitude": "-89.97421214944282"
    }
  },
  {
    "service_request": "2026-1275843",
    "request_type": "Roads and Streets",
    "request_reason": "Pothole",
    "date_created": "2026-04-22T17:41:25.000",
    "date_modified": "2026-04-22T17:41:26.000",
    "request_status": "Pending",
    "responsible_agency": "Department of Public Works",
    "final_address": "923 Piety St",
    "address_councildis": "C",
    "status": "Pending",
    "rowid": "1275843",
    "final_x": "3689713.32598",
    "final_y": "535178.838214",
    "longitude": "-90.04200547733988",
    "latitude": "29.965304283170802",
    "geocoded_column": {
      "latitude": "29.965304283170802",
      "longitude": "-90.04200547733988"
    }
  },
  {
    "service_request": "2026-1275842",
    "request_type": "Property Maintenance",
    "request_reason": "Property Maintenance",
    "date_created": "2026-04-22T17:41:00.000",
    "date_modified": "2026-04-22T17:41:01.000",
    "request_status": "Pending",
    "responsible_agency": "Department of Code Enforcement",
    "final_address": "1710 S Carrollton Ave Apt E",
    "address_councildis": "A",
    "status": "Pending",
    "rowid": "1275842",
    "final_x": "3663150.94695",
    "final_y": "529848.707201",
    "longitude": "-90.1260659047295",
    "latitude": "29.95144453369245",
    "geocoded_column": {
      "latitude": "29.95144453369245",
      "longitude": "-90.1260659047295"
    }
  },
  {
    "service_request": "2026-1275841",
    "request_type": "Tree Service",
    "request_reason": "Tree Trim",
    "date_created": "2026-04-22T17:39:50.000",
    "date_modified": "2026-04-22T17:39:52.000",
    "request_status": "Pending",
    "responsible_agency": "Department of Parks & Parkways",
    "final_address": "2419 Decatur St",
    "address_councildis": "C",
    "status": "Pending",
    "rowid": "1275841",
    "final_x": "3686107.96598",
    "final_y": "534256.239621",
    "longitude": "-90.05342354520306",
    "latitude": "29.962878686214506",
    "geocoded_column": {
      "latitude": "29.962878686214506",
      "longitude": "-90.05342354520306"
    }
  },
  {
    "service_request": "2026-1275840",
    "request_type": "Roads and Streets",
    "request_reason": "Abandoned Service Cut",
    "date_created": "2026-04-22T17:34:14.000",
    "date_modified": "2026-04-22T17:34:15.000",
    "request_status": "Pending",
    "responsible_agency": "Department of Public Works",
    "final_address": "8233 Pritchard Pl",
    "address_councildis": "A",
    "status": "Pending",
    "rowid": "1275840",
    "final_x": "3665623.5145",
    "final_y": "533335.086148",
    "longitude": "-90.11814196660848",
    "latitude": "29.960959074384633",
    "geocoded_column": {
      "latitude": "29.960959074384633",
      "longitude": "-90.11814196660848"
    }
  },
  {
    "service_request": "2026-1275839",
    "request_type": "Abandoned Vehicles",
    "request_reason": "Abandoned/Junk Vehicles",
    "date_created": "2026-04-22T17:30:18.000",
    "date_modified": "2026-04-22T17:30:21.000",
    "request_status": "Pending",
    "responsible_agency": "Department of Public Works",
    "final_address": "4998 Donna Dr",
    "address_councildis": "E",
    "status": "Pending",
    "rowid": "1275839",
    "final_x": "3710853.37809",
    "final_y": "557248.628699",
    "longitude": "-89.97442035947807",
    "latitude": "30.025315793778056",
    "geocoded_column": {
      "latitude": "30.025315793778056",
      "longitude": "-89.97442035947807"
    }
  },
  {
    "service_request": "2026-1275838",
    "request_type": "Trash/Recycling",
    "request_reason": "Request a Large Item Pick Up",
    "date_created": "2026-04-22T17:28:08.000",
    "date_modified": "2026-04-22T17:28:11.000",
    "request_status": "Pending",
    "responsible_agency": "Department of Sanitation",
    "final_address": "4040 Banks St",
    "address_councildis": "A",
    "status": "Assigned to Contractor",
    "contractor": "IV Waste",
    "rowid": "1275838",
    "final_x": "3670463.79892",
    "final_y": "537235.198536",
    "longitude": "-90.1027249453035",
    "latitude": "29.97154104588882",
    "geocoded_column": {
      "latitude": "29.97154104588882",
      "longitude": "-90.1027249453035"
    }
  },
  {
    "service_request": "2026-1275837",
    "request_type": "Trash/Recycling",
    "request_reason": "Request a Large Item Pick Up",
    "date_created": "2026-04-22T17:23:30.000",
    "date_modified": "2026-04-22T17:34:03.000",
    "request_status": "Pending",
    "responsible_agency": "Department of Sanitation",
    "final_address": "6900 Coventry St",
    "address_councildis": "E",
    "status": "Assigned to Contractor",
    "contractor": "Waste Pro",
    "rowid": "1275837",
    "final_x": "3698807.26416",
    "final_y": "559688.739997",
    "longitude": "-90.01239516298646",
    "latitude": "30.032412475617893",
    "geocoded_column": {
      "latitude": "30.032412475617893",
      "longitude": "-90.01239516298646"
    }
  },
  {
    "service_request": "2026-1275836",
    "request_type": "Trash/Recycling",
    "request_reason": "Replace Trash Cart",
    "date_created": "2026-04-22T17:19:15.000",
    "date_modified": "2026-04-22T17:19:17.000",
    "request_status": "Pending",
    "responsible_agency": "Department of Sanitation",
    "final_address": "3524 Robert St",
    "address_councildis": "B",
    "status": "Assigned to Contractor",
    "contractor": "IV Waste",
    "rowid": "1275836",
    "final_x": "3668897.11732",
    "final_y": "527827.780927",
    "longitude": "-90.10799048685394",
    "latitude": "29.945719923620853",
    "geocoded_column": {
      "latitude": "29.945719923620853",
      "longitude": "-90.10799048685394"
    }
  },
  {
    "service_request": "2026-1275835",
    "request_type": "Roads and Streets",
    "request_reason": "Curb Damage",
    "date_created": "2026-04-22T17:14:58.000",
    "date_modified": "2026-04-22T17:14:59.000",
    "request_status": "Pending",
    "responsible_agency": "Department of Public Works",
    "final_address": "1501 Mandeville St",
    "address_councildis": "C",
    "status": "Pending",
    "rowid": "1275835",
    "final_x": "3685693.2742",
    "final_y": "537873.872585",
    "longitude": "-90.05460559774029",
    "latitude": "29.972838650290722",
    "geocoded_column": {
      "latitude": "29.972838650290722",
      "longitude": "-90.05460559774029"
    }
  },
  {
    "service_request": "2026-1275834",
    "request_type": "Trash/Recycling",
    "request_reason": "Request a Large Item Pick Up",
    "date_created": "2026-04-22T17:14:21.000",
    "date_modified": "2026-04-22T17:14:22.000",
    "request_status": "Pending",
    "responsible_agency": "Department of Sanitation",
    "final_address": "2618 New Orleans St",
    "address_councildis": "D",
    "status": "Assigned to Contractor",
    "contractor": "IV Waste",
    "rowid": "1275834",
    "final_x": "3681910.17327",
    "final_y": "541786.814924",
    "longitude": "-90.06641669852775",
    "latitude": "29.98371342217677",
    "geocoded_column": {
      "latitude": "29.98371342217677",
      "longitude": "-90.06641669852775"
    }
  },
  {
    "service_request": "2026-1275833",
    "request_type": "Roads and Streets",
    "request_reason": "Pothole",
    "date_created": "2026-04-22T17:09:31.000",
    "date_modified": "2026-04-22T17:09:32.000",
    "request_status": "Pending",
    "responsible_agency": "Department of Public Works",
    "final_address": "1501 Mandeville St",
    "address_councildis": "C",
    "status": "Pending",
    "rowid": "1275833",
    "final_x": "3685693.2742",
    "final_y": "537873.872585",
    "longitude": "-90.05460559774029",
    "latitude": "29.972838650290722",
    "geocoded_column": {
      "latitude": "29.972838650290722",
      "longitude": "-90.05460559774029"
    }
  },
  {
    "service_request": "2026-1275832",
    "request_type": "Trash/Recycling",
    "request_reason": "Replace Trash Cart",
    "date_created": "2026-04-22T17:00:21.000",
    "date_modified": "2026-04-22T17:00:23.000",
    "request_status": "Pending",
    "responsible_agency": "Department of Sanitation",
    "final_address": "7266 Ring St",
    "address_councildis": "D",
    "status": "Assigned to Contractor",
    "contractor": "IV Waste",
    "rowid": "1275832",
    "final_x": "3669051.37185",
    "final_y": "555138.465305",
    "longitude": "-90.106580273565",
    "latitude": "30.020810483768894",
    "geocoded_column": {
      "latitude": "30.020810483768894",
      "longitude": "-90.106580273565"
    }
  },
  {
    "service_request": "2026-1275831",
    "request_type": "Trash/Recycling",
    "request_reason": "Request a Large Item Pick Up",
    "date_created": "2026-04-22T16:55:12.000",
    "date_modified": "2026-04-22T16:55:15.000",
    "request_status": "Pending",
    "responsible_agency": "Department of Sanitation",
    "final_address": "89 Spanish Fort Blvd",
    "address_councildis": "D",
    "status": "Assigned to Contractor",
    "contractor": "IV Waste",
    "rowid": "1275831",
    "final_x": "3673988.38542",
    "final_y": "555750.480537",
    "longitude": "-90.09095976122573",
    "latitude": "30.0223470453973",
    "geocoded_column": {
      "latitude": "30.0223470453973",
      "longitude": "-90.09095976122573"
    }
  },
  {
    "service_request": "2026-1275830",
    "request_type": "Trash/Recycling",
    "request_reason": "Request a Large Item Pick Up",
    "date_created": "2026-04-22T16:50:46.000",
    "date_modified": "2026-04-22T16:50:48.000",
    "request_status": "Pending",
    "responsible_agency": "Department of Sanitation",
    "final_address": "4713 Stemway Dr",
    "address_councildis": "D",
    "status": "Assigned to Contractor",
    "contractor": "Waste Pro",
    "rowid": "1275830",
    "final_x": "3697000.21725",
    "final_y": "554022.09532",
    "longitude": "-90.0183110457092",
    "latitude": "30.016888516910516",
    "geocoded_column": {
      "latitude": "30.016888516910516",
      "longitude": "-90.0183110457092"
    }
  },
  {
    "service_request": "2026-1275829",
    "request_type": "Trash/Recycling",
    "request_reason": "Request a Large Item Pick Up",
    "date_created": "2026-04-22T16:49:58.000",
    "date_modified": "2026-04-22T16:50:00.000",
    "request_status": "Pending",
    "responsible_agency": "Department of Sanitation",
    "final_address": "2319 Lowerline St",
    "address_councildis": "A",
    "status": "Assigned to Contractor",
    "contractor": "IV Waste",
    "rowid": "1275829",
    "final_x": "3666007.34868",
    "final_y": "530151.576705",
    "longitude": "-90.11703659618213",
    "latitude": "29.952194265219717",
    "geocoded_column": {
      "latitude": "29.952194265219717",
      "longitude": "-90.11703659618213"
    }
  },
  {
    "service_request": "2026-1275828",
    "request_type": "Streetlights",
    "request_reason": "Streetlight Outage/Malfunction",
    "date_created": "2026-04-22T16:49:18.000",
    "date_modified": "2026-04-22T16:49:20.000",
    "request_status": "Pending",
    "responsible_agency": "Department of Public Works",
    "final_address": "6123 Canal Blvd",
    "address_councildis": "A",
    "status": "Pending",
    "rowid": "1275828",
    "final_x": "3668698.27342",
    "final_y": "548117.828882",
    "longitude": "-90.1079331993933",
    "latitude": "30.001516588922147",
    "geocoded_column": {
      "latitude": "30.001516588922147",
      "longitude": "-90.1079331993933"
    }
  },
  {
    "service_request": "2026-1275827",
    "request_type": "Trash/Recycling",
    "request_reason": "Order Second Trash Cart",
    "date_created": "2026-04-22T16:47:52.000",
    "date_modified": "2026-04-22T16:47:54.000",
    "request_status": "Pending",
    "responsible_agency": "Department of Sanitation",
    "final_address": "2501 Dryades St",
    "address_councildis": "B",
    "status": "Assigned to Contractor",
    "contractor": "IV Waste",
    "rowid": "1275827",
    "final_x": "3676050.20821",
    "final_y": "523959.904828",
    "longitude": "-90.08553877984605",
    "latitude": "29.934872264653777",
    "geocoded_column": {
      "latitude": "29.934872264653777",
      "longitude": "-90.08553877984605"
    }
  },
  {
    "service_request": "2026-1275826",
    "request_type": "Trash/Recycling",
    "request_reason": "Replace Trash Cart",
    "date_created": "2026-04-22T16:45:57.000",
    "date_modified": "2026-04-22T16:45:59.000",
    "request_status": "Pending",
    "responsible_agency": "Department of Sanitation",
    "final_address": "6115 Perrier St",
    "address_councildis": "A",
    "status": "Assigned to Contractor",
    "contractor": "IV Waste",
    "rowid": "1275826",
    "final_x": "3664495.39988",
    "final_y": "520802.324281",
    "longitude": "-90.12212269700856",
    "latitude": "29.926530847825603",
    "geocoded_column": {
      "latitude": "29.926530847825603",
      "longitude": "-90.12212269700856"
    }
  },
  {
    "service_request": "2026-1275825",
    "request_type": "Trash/Recycling",
    "request_reason": "Request a Large Item Pick Up",
    "date_created": "2026-04-22T16:39:04.000",
    "date_modified": "2026-04-22T16:39:06.000",
    "request_status": "Pending",
    "responsible_agency": "Department of Sanitation",
    "final_address": "7703 Wales St",
    "address_councildis": "E",
    "status": "Assigned to Contractor",
    "contractor": "Waste Pro",
    "rowid": "1275825",
    "final_x": "3700883.63594",
    "final_y": "561790.500063",
    "longitude": "-90.0057567645267",
    "latitude": "30.038125518012926",
    "geocoded_column": {
      "latitude": "30.038125518012926",
      "longitude": "-90.0057567645267"
    }
  },
  {
    "service_request": "2026-1275824",
    "request_type": "Parks & Grass Service",
    "request_reason": "Request Grass Cutting Service (City Owned Property)",
    "date_created": "2026-04-22T16:37:11.000",
    "date_modified": "2026-04-22T16:37:13.000",
    "request_status": "Pending",
    "responsible_agency": "Department of Parks & Parkways",
    "final_address": "6229 St Roch Ave",
    "address_councildis": "D",
    "status": "Pending",
    "rowid": "1275824",
    "final_x": "3685026.14754",
    "final_y": "556164.768218",
    "longitude": "-90.05606858926967",
    "latitude": "30.023152497602283",
    "geocoded_column": {
      "latitude": "30.023152497602283",
      "longitude": "-90.05606858926967"
    }
  },
  {
    "service_request": "2026-1275823",
    "request_type": "Trash/Recycling",
    "request_reason": "Request a Large Item Pick Up",
    "date_created": "2026-04-22T16:35:09.000",
    "date_modified": "2026-04-22T16:35:17.000",
    "request_status": "Pending",
    "responsible_agency": "Department of Sanitation",
    "final_address": "636 Second St",
    "address_councildis": "B",
    "status": "Assigned to Contractor",
    "contractor": "IV Waste",
    "rowid": "1275823",
    "final_x": "3678636.13858",
    "final_y": "520030.456056",
    "longitude": "-90.07751098769033",
    "latitude": "29.92398988079921",
    "geocoded_column": {
      "latitude": "29.92398988079921",
      "longitude": "-90.07751098769033"
    }
  },
  {
    "service_request": "2026-1275822",
    "request_type": "Trash/Recycling",
    "request_reason": "Request a Large Item Pick Up",
    "date_created": "2026-04-22T16:32:42.000",
    "date_modified": "2026-04-22T16:32:43.000",
    "request_status": "Pending",
    "responsible_agency": "Department of Sanitation",
    "final_address": "9022 Cohn St",
    "address_councildis": "A",
    "status": "Assigned to Contractor",
    "contractor": "IV Waste",
    "rowid": "1275822",
    "final_x": "3661120.50214",
    "final_y": "532419.490947",
    "longitude": "-90.1323920158935",
    "latitude": "29.958572027778718",
    "geocoded_column": {
      "latitude": "29.958572027778718",
      "longitude": "-90.1323920158935"
    }
  },
  {
    "service_request": "2026-1275821",
    "request_type": "Roads and Streets",
    "request_reason": "Pothole",
    "date_created": "2026-04-22T16:29:40.000",
    "date_modified": "2026-04-22T16:29:42.000",
    "request_status": "Pending",
    "responsible_agency": "Department of Public Works",
    "final_address": "1419 Euterpe St",
    "address_councildis": "B",
    "status": "Pending",
    "rowid": "1275821",
    "final_x": "3679595.76719",
    "final_y": "524598.160124",
    "longitude": "-90.0743233561039",
    "latitude": "29.936520614151217",
    "geocoded_column": {
      "latitude": "29.936520614151217",
      "longitude": "-90.0743233561039"
    }
  },
  {
    "service_request": "2026-1275820",
    "request_type": "Trash/Recycling",
    "request_reason": "Request a Large Item Pick Up",
    "date_created": "2026-04-22T16:28:38.000",
    "date_modified": "2026-04-22T16:28:40.000",
    "request_status": "Pending",
    "responsible_agency": "Department of Sanitation",
    "final_address": "6960 W Laverne St",
    "address_councildis": "D",
    "status": "Assigned to Contractor",
    "contractor": "Waste Pro",
    "rowid": "1275820",
    "final_x": "3695890.54058",
    "final_y": "556526.70025",
    "longitude": "-90.02172656059912",
    "latitude": "30.02381020417033",
    "geocoded_column": {
      "latitude": "30.02381020417033",
      "longitude": "-90.02172656059912"
    }
  },
  {
    "service_request": "2026-1275819",
    "request_type": "Property Maintenance",
    "request_reason": "Property Maintenance",
    "date_created": "2026-04-22T16:26:48.000",
    "date_modified": "2026-04-22T16:26:50.000",
    "request_status": "Pending",
    "responsible_agency": "Department of Code Enforcement",
    "final_address": "1505 Mandeville St",
    "address_councildis": "C",
    "status": "Pending",
    "rowid": "1275819",
    "final_x": "3685691.04975",
    "final_y": "537913.187209",
    "longitude": "-90.05461123734",
    "latitude": "29.972946820028078",
    "geocoded_column": {
      "latitude": "29.972946820028078",
      "longitude": "-90.05461123734"
    }
  },
  {
    "service_request": "2026-1275818",
    "request_type": "Trash/Recycling",
    "request_reason": "Replace Trash Cart",
    "date_created": "2026-04-22T16:26:45.000",
    "date_modified": "2026-04-22T16:26:46.000",
    "request_status": "Pending",
    "responsible_agency": "Department of Sanitation",
    "final_address": "4781 Viola St",
    "address_councildis": "E",
    "status": "Assigned to Contractor",
    "contractor": "Waste Pro",
    "rowid": "1275818",
    "final_x": "3703967.20074",
    "final_y": "555437.100761",
    "longitude": "-89.99624627868128",
    "latitude": "30.02055754708939",
    "geocoded_column": {
      "latitude": "30.02055754708939",
      "longitude": "-89.99624627868128"
    }
  },
  {
    "service_request": "2026-1275817",
    "request_type": "Trash/Recycling",
    "request_reason": "Order Second Trash Cart",
    "date_created": "2026-04-22T16:24:47.000",
    "date_modified": "2026-04-22T16:24:48.000",
    "request_status": "Pending",
    "responsible_agency": "Department of Sanitation",
    "final_address": "4222 S Carrollton Ave",
    "address_councildis": "A",
    "status": "Assigned to Contractor",
    "contractor": "IV Waste",
    "rowid": "1275817",
    "final_x": "3669732.85466",
    "final_y": "536664.601351",
    "longitude": "-90.10505269859684",
    "latitude": "29.96999366006072",
    "geocoded_column": {
      "latitude": "29.96999366006072",
      "longitude": "-90.10505269859684"
    }
  },
  {
    "service_request": "2026-1275816",
    "request_type": "Streetlights",
    "request_reason": "Streetlight Outage/Malfunction",
    "date_created": "2026-04-22T16:23:42.000",
    "date_modified": "2026-04-22T16:23:44.000",
    "request_status": "Pending",
    "responsible_agency": "Department of Public Works",
    "final_address": "5200 BLK N Prieur St",
    "address_councildis": "E",
    "status": "Pending",
    "rowid": "1275816",
    "final_x": "3697502.64269",
    "final_y": "537078.574909",
    "longitude": "-90.01733844032988",
    "latitude": "29.970284207353615",
    "geocoded_column": {
      "latitude": "29.970284207353615",
      "longitude": "-90.01733844032988"
    }
  },
  {
    "service_request": "2026-1275815",
    "request_type": "Roads and Streets",
    "request_reason": "Street Subsidence (Sinking)",
    "date_created": "2026-04-22T16:23:41.000",
    "date_modified": "2026-04-22T16:23:44.000",
    "request_status": "Pending",
    "responsible_agency": "Sewerage & Water Board",
    "final_address": "2728 Valentine Ct",
    "address_councildis": "C",
    "status": "Pending",
    "rowid": "1275815",
    "final_x": "3699123.41104",
    "final_y": "520900.195961",
    "longitude": "-90.01280873151312",
    "latitude": "29.925748066911787",
    "geocoded_column": {
      "latitude": "29.925748066911787",
      "longitude": "-90.01280873151312"
    }
  },
  {
    "service_request": "2026-1275814",
    "request_type": "Streetlights",
    "request_reason": "Streetlight Outage/Malfunction",
    "date_created": "2026-04-22T16:19:07.000",
    "date_modified": "2026-04-22T16:19:08.000",
    "request_status": "Pending",
    "responsible_agency": "Department of Public Works",
    "final_address": "3700 Rue Denise",
    "address_councildis": "C",
    "status": "Pending",
    "rowid": "1275814",
    "final_x": "3704310.76574",
    "final_y": "516927.871221",
    "longitude": "-89.99658022873541",
    "latitude": "29.914660148025142",
    "geocoded_column": {
      "latitude": "29.914660148025142",
      "longitude": "-89.99658022873541"
    }
  },
  {
    "service_request": "2026-1275813",
    "request_type": "Trash/Recycling",
    "request_reason": "Replace Trash Cart",
    "date_created": "2026-04-22T16:19:00.000",
    "date_modified": "2026-04-22T16:19:02.000",
    "request_status": "Pending",
    "responsible_agency": "Department of Sanitation",
    "final_address": "1 Cypress Grove Ct Unit 69",
    "address_councildis": "C",
    "status": "Assigned to Contractor",
    "contractor": "Richards Disposal",
    "rowid": "1275813",
    "final_x": "3704723.4177",
    "final_y": "512188.467761",
    "longitude": "-89.99545242867957",
    "latitude": "29.901615165193935",
    "geocoded_column": {
      "latitude": "29.901615165193935",
      "longitude": "-89.99545242867957"
    }
  },
  {
    "service_request": "2026-1275812",
    "request_type": "Trash/Recycling",
    "request_reason": "Request a Large Item Pick Up",
    "date_created": "2026-04-22T16:17:48.000",
    "date_modified": "2026-04-22T16:17:49.000",
    "request_status": "Pending",
    "responsible_agency": "Department of Sanitation",
    "final_address": "5000 N Prieur St",
    "address_councildis": "E",
    "status": "Assigned to Contractor",
    "contractor": "Waste Pro",
    "rowid": "1275812",
    "final_x": "3696820.63101",
    "final_y": "537159.73076",
    "longitude": "-90.01948935629362",
    "latitude": "29.97052887698136",
    "geocoded_column": {
      "latitude": "29.97052887698136",
      "longitude": "-90.01948935629362"
    }
  },
  {
    "service_request": "2026-1275811",
    "request_type": "Streetlights",
    "request_reason": "Streetlight Outage/Malfunction",
    "date_created": "2026-04-22T16:15:01.000",
    "date_modified": "2026-04-22T16:15:03.000",
    "request_status": "Pending",
    "responsible_agency": "Department of Public Works",
    "final_address": "3701 Rue Denise",
    "address_councildis": "C",
    "status": "Pending",
    "rowid": "1275811",
    "final_x": "3704202.23537",
    "final_y": "516923.488437",
    "longitude": "-89.99692294706256",
    "latitude": "29.914651577869794",
    "geocoded_column": {
      "latitude": "29.914651577869794",
      "longitude": "-89.99692294706256"
    }
  },
  {
    "service_request": "2026-1275810",
    "request_type": "Roads and Streets",
    "request_reason": "Pothole",
    "date_created": "2026-04-22T16:10:05.000",
    "date_modified": "2026-04-22T16:10:06.000",
    "request_status": "Pending",
    "responsible_agency": "Department of Public Works",
    "final_address": "704 Esplanade Ave",
    "address_councildis": "C",
    "status": "Pending",
    "rowid": "1275810",
    "final_x": "3683862.58927",
    "final_y": "534340.565253",
    "longitude": "-90.06051119282262",
    "latitude": "29.96317932578047",
    "geocoded_column": {
      "latitude": "29.96317932578047",
      "longitude": "-90.06051119282262"
    }
  },
  {
    "service_request": "2026-1275809",
    "request_type": "Trash/Recycling",
    "request_reason": "Order Recycling Cart",
    "date_created": "2026-04-22T16:08:07.000",
    "date_modified": "2026-04-22T16:08:09.000",
    "request_status": "Pending",
    "responsible_agency": "Department of Sanitation",
    "final_address": "3148 N Rampart St",
    "address_councildis": "C",
    "status": "Pending",
    "rowid": "1275809",
    "final_x": "3689267.20681",
    "final_y": "535436.263622",
    "longitude": "-90.0434051435427",
    "latitude": "29.966025929760608",
    "geocoded_column": {
      "latitude": "29.966025929760608",
      "longitude": "-90.0434051435427"
    }
  },
  {
    "service_request": "2026-1275808",
    "request_type": "Streetlights",
    "request_reason": "Streetlight Outage/Malfunction",
    "date_created": "2026-04-22T16:07:42.000",
    "date_modified": "2026-04-22T16:07:46.000",
    "request_status": "Pending",
    "responsible_agency": "Department of Public Works",
    "final_address": "1500 BLK Paul Morphy St",
    "address_councildis": "D",
    "status": "Pending",
    "rowid": "1275808",
    "final_x": "3678684.82599",
    "final_y": "540242.371731",
    "longitude": "-90.0766575663365",
    "latitude": "29.979564402034526",
    "geocoded_column": {
      "latitude": "29.979564402034526",
      "longitude": "-90.0766575663365"
    }
  },
  {
    "service_request": "2026-1275807",
    "request_type": "Trash/Recycling",
    "request_reason": "Order Recycling Cart",
    "date_created": "2026-04-22T16:06:40.000",
    "date_modified": "2026-04-22T16:06:41.000",
    "request_status": "Pending",
    "responsible_agency": "Department of Sanitation",
    "final_address": "3146 N Rampart St",
    "address_councildis": "C",
    "status": "Pending",
    "rowid": "1275807",
    "final_x": "3689253.66511",
    "final_y": "535439.04135",
    "longitude": "-90.04344780898849",
    "latitude": "29.966033986706897",
    "geocoded_column": {
      "latitude": "29.966033986706897",
      "longitude": "-90.04344780898849"
    }
  },
  {
    "service_request": "2026-1275806",
    "request_type": "Trash/Recycling",
    "request_reason": "Request a Large Item Pick Up",
    "date_created": "2026-04-22T16:05:04.000",
    "date_modified": "2026-04-22T16:05:06.000",
    "request_status": "Pending",
    "responsible_agency": "Department of Sanitation",
    "final_address": "4608 Francis Dr",
    "address_councildis": "D",
    "status": "Assigned to Contractor",
    "contractor": "Waste Pro",
    "rowid": "1275806",
    "final_x": "3698263.16919",
    "final_y": "553583.717207",
    "longitude": "-90.01433661100569",
    "latitude": "30.015643228584963",
    "geocoded_column": {
      "latitude": "30.015643228584963",
      "longitude": "-90.01433661100569"
    }
  },
  {
    "service_request": "2026-1275805",
    "request_type": "Trash/Recycling",
    "request_reason": "Order Trash Cart",
    "date_created": "2026-04-22T16:03:51.000",
    "date_modified": "2026-04-22T16:03:53.000",
    "request_status": "Pending",
    "responsible_agency": "Department of Sanitation",
    "final_address": "6623 Foch Rd",
    "address_councildis": "D",
    "status": "Assigned to Contractor",
    "contractor": "Waste Pro",
    "rowid": "1275805",
    "final_x": "3696980.26282",
    "final_y": "555705.460121",
    "longitude": "-90.01831305289907",
    "latitude": "30.021517762753394",
    "geocoded_column": {
      "latitude": "30.021517762753394",
      "longitude": "-90.01831305289907"
    }
  },
  {
    "service_request": "2026-1275804",
    "request_type": "New Orleans Recreation Development Commission (NORDC)",
    "request_reason": "Facilities and Parks Maintenance/Clean Up",
    "date_created": "2026-04-22T16:03:27.000",
    "date_modified": "2026-04-22T16:03:29.000",
    "request_status": "Pending",
    "responsible_agency": "New Orleans Recreation Development Commission",
    "final_address": "2500 New Orleans St",
    "address_councildis": "D",
    "status": "Pending",
    "rowid": "1275804",
    "final_x": "3681949.2742",
    "final_y": "541292.19214",
    "longitude": "-90.06631047211904",
    "latitude": "29.98235219399944",
    "geocoded_column": {
      "latitude": "29.98235219399944",
      "longitude": "-90.06631047211904"
    }
  },
  {
    "service_request": "2026-1275803",
    "request_type": "Trash/Recycling",
    "request_reason": "Return Trash Cart",
    "date_created": "2026-04-22T16:02:39.000",
    "date_modified": "2026-04-22T16:02:40.000",
    "request_status": "Pending",
    "responsible_agency": "Department of Sanitation",
    "final_address": "4624 Toulouse St",
    "address_councildis": "A",
    "status": "Assigned to Contractor",
    "contractor": "IV Waste",
    "rowid": "1275803",
    "final_x": "3670291.95866",
    "final_y": "541137.014028",
    "longitude": "-90.10313534653713",
    "latitude": "29.98227479221905",
    "geocoded_column": {
      "latitude": "29.98227479221905",
      "longitude": "-90.10313534653713"
    }
  },
  {
    "service_request": "2026-1275802",
    "request_type": "Trash/Recycling",
    "request_reason": "Order Trash Cart",
    "date_created": "2026-04-22T16:02:29.000",
    "date_modified": "2026-04-22T16:02:31.000",
    "request_status": "Pending",
    "responsible_agency": "Department of Sanitation",
    "final_address": "3642 Huntlee Dr",
    "address_councildis": "C",
    "status": "Assigned to Contractor",
    "contractor": "Richards Disposal",
    "rowid": "1275802",
    "final_x": "3701765.22986",
    "final_y": "517589.247798",
    "longitude": "-90.0045905628738",
    "latitude": "29.91656011791266",
    "geocoded_column": {
      "latitude": "29.91656011791266",
      "longitude": "-90.0045905628738"
    }
  },
  {
    "service_request": "2026-1275801",
    "request_type": "Trash/Recycling",
    "request_reason": "Request a Large Item Pick Up",
    "date_created": "2026-04-22T16:01:11.000",
    "date_modified": "2026-04-22T16:01:13.000",
    "request_status": "Pending",
    "responsible_agency": "Department of Sanitation",
    "final_address": "4810 Brittany Ct",
    "address_councildis": "E",
    "status": "Assigned to Contractor",
    "contractor": "Waste Pro",
    "rowid": "1275801",
    "final_x": "3726877.6055",
    "final_y": "561397.326622",
    "longitude": "-89.9236256882864",
    "latitude": "30.0361907378187",
    "geocoded_column": {
      "latitude": "30.0361907378187",
      "longitude": "-89.9236256882864"
    }
  },
  {
    "service_request": "2026-1275800",
    "request_type": "Roads and Streets",
    "request_reason": "Pothole",
    "date_created": "2026-04-22T16:00:26.000",
    "date_modified": "2026-04-22T16:00:29.000",
    "request_status": "Pending",
    "responsible_agency": "Department of Public Works",
    "final_address": "1418 Bourbon St",
    "address_councildis": "C",
    "status": "Pending",
    "rowid": "1275800",
    "final_x": "3683859.01621",
    "final_y": "534831.726022",
    "longitude": "-90.06050524691263",
    "latitude": "29.964529957925453",
    "geocoded_column": {
      "latitude": "29.964529957925453",
      "longitude": "-90.06050524691263"
    }
  },
  {
    "service_request": "2026-1275799",
    "request_type": "Trash/Recycling",
    "request_reason": "Request a Large Item Pick Up",
    "date_created": "2026-04-22T15:58:54.000",
    "date_modified": "2026-04-22T15:58:55.000",
    "request_status": "Pending",
    "responsible_agency": "Department of Sanitation",
    "final_address": "1491 Filmore Ave",
    "address_councildis": "D",
    "status": "Assigned to Contractor",
    "contractor": "IV Waste",
    "rowid": "1275799",
    "final_x": "3678476.01627",
    "final_y": "551953.758742",
    "longitude": "-90.07691148159748",
    "latitude": "30.01177288130767",
    "geocoded_column": {
      "latitude": "30.01177288130767",
      "longitude": "-90.07691148159748"
    }
  },
  {
    "service_request": "2026-1275798",
    "request_type": "Trash/Recycling",
    "request_reason": "Repair Recycling Cart",
    "date_created": "2026-04-22T15:58:15.000",
    "date_modified": "2026-04-22T15:58:18.000",
    "request_status": "Pending",
    "responsible_agency": "Department of Sanitation",
    "final_address": "4624 Toulouse St",
    "address_councildis": "A",
    "status": "Pending",
    "rowid": "1275798",
    "final_x": "3670291.95866",
    "final_y": "541137.014028",
    "longitude": "-90.10313534653713",
    "latitude": "29.98227479221905",
    "geocoded_column": {
      "latitude": "29.98227479221905",
      "longitude": "-90.10313534653713"
    }
  },
  {
    "service_request": "2026-1275797",
    "request_type": "Streetlights",
    "request_reason": "Streetlight Outage/Malfunction",
    "date_created": "2026-04-22T15:58:06.000",
    "date_modified": "2026-04-22T15:58:08.000",
    "request_status": "Pending",
    "responsible_agency": "Department of Public Works",
    "final_address": "4637 Bienville Ave",
    "address_councildis": "A",
    "status": "Pending",
    "rowid": "1275797",
    "final_x": "3669686.15226",
    "final_y": "540476.648139",
    "longitude": "-90.1050711418082",
    "latitude": "29.980476880264224",
    "geocoded_column": {
      "latitude": "29.980476880264224",
      "longitude": "-90.1050711418082"
    }
  },
  {
    "service_request": "2026-1275796",
    "request_type": "Tree Service",
    "request_reason": "Tree Trim",
    "date_created": "2026-04-22T15:56:25.000",
    "date_modified": "2026-04-22T15:56:27.000",
    "request_status": "Pending",
    "responsible_agency": "Department of Parks & Parkways",
    "final_address": "4637 Bienville Ave",
    "address_councildis": "A",
    "status": "Pending",
    "rowid": "1275796",
    "final_x": "3669686.15226",
    "final_y": "540476.648139",
    "longitude": "-90.1050711418082",
    "latitude": "29.980476880264224",
    "geocoded_column": {
      "latitude": "29.980476880264224",
      "longitude": "-90.1050711418082"
    }
  },
  {
    "service_request": "2026-1275795",
    "request_type": "Trash/Recycling",
    "request_reason": "Illegal Dumping",
    "date_created": "2026-04-22T15:56:04.000",
    "date_modified": "2026-04-22T15:56:06.000",
    "request_status": "Pending",
    "responsible_agency": "Department of Sanitation",
    "final_address": "3231 Rabbits St",
    "address_councildis": "D",
    "status": "Pending",
    "rowid": "1275795",
    "final_x": "3688355.25596",
    "final_y": "545003.306639",
    "longitude": "-90.0459456054516",
    "latitude": "29.99236010645137",
    "geocoded_column": {
      "latitude": "29.99236010645137",
      "longitude": "-90.0459456054516"
    }
  },
  {
    "service_request": "2026-1275794",
    "request_type": "Tree Service",
    "request_reason": "Street or Sidewalk Blocked",
    "date_created": "2026-04-22T15:50:57.000",
    "date_modified": "2026-04-22T15:50:59.000",
    "request_status": "Pending",
    "responsible_agency": "Department of Parks & Parkways",
    "final_address": "341 N Murat St",
    "address_councildis": "A",
    "status": "Pending",
    "rowid": "1275794",
    "final_x": "3670362.38855",
    "final_y": "540321.197835",
    "longitude": "-90.10294056289774",
    "latitude": "29.980029495723407",
    "geocoded_column": {
      "latitude": "29.980029495723407",
      "longitude": "-90.10294056289774"
    }
  },
  {
    "service_request": "2026-1275793",
    "request_type": "Tree Service",
    "request_reason": "Tree Trim",
    "date_created": "2026-04-22T15:50:35.000",
    "date_modified": "2026-04-22T15:51:18.000",
    "request_status": "Pending",
    "responsible_agency": "Department of Parks & Parkways",
    "final_address": "405 Henry Clay Ave",
    "address_councildis": "A",
    "status": "Pending",
    "rowid": "1275793",
    "final_x": "3663328.99335",
    "final_y": "518282.37119",
    "longitude": "-90.12588856234305",
    "latitude": "29.919635614322065",
    "geocoded_column": {
      "latitude": "29.919635614322065",
      "longitude": "-90.12588856234305"
    }
  },
  {
    "service_request": "2026-1275792",
    "request_type": "Trash/Recycling",
    "request_reason": "Request a Large Item Pick Up",
    "date_created": "2026-04-22T15:48:42.000",
    "date_modified": "2026-04-22T15:48:44.000",
    "request_status": "Pending",
    "responsible_agency": "Department of Sanitation",
    "final_address": "4536 Laurel St",
    "address_councildis": "B",
    "status": "Assigned to Contractor",
    "contractor": "IV Waste",
    "rowid": "1275792",
    "final_x": "3670426.55963",
    "final_y": "517948.381046",
    "longitude": "-90.10349631047903",
    "latitude": "29.918509686441755",
    "geocoded_column": {
      "latitude": "29.918509686441755",
      "longitude": "-90.10349631047903"
    }
  },
  {
    "service_request": "2026-1275791",
    "request_type": "Tree Service",
    "request_reason": "Dead or Dying Tree",
    "date_created": "2026-04-22T15:47:13.000",
    "date_modified": "2026-04-22T15:47:14.000",
    "request_status": "Pending",
    "responsible_agency": "Department of Parks & Parkways",
    "final_address": "1636 Jefferson Ave",
    "address_councildis": "A",
    "status": "Pending",
    "rowid": "1275791",
    "final_x": "3667374.86394",
    "final_y": "521940.29881",
    "longitude": "-90.11299473427253",
    "latitude": "29.929575909750156",
    "geocoded_column": {
      "latitude": "29.929575909750156",
      "longitude": "-90.11299473427253"
    }
  },
  {
    "service_request": "2026-1275790",
    "request_type": "Trash/Recycling",
    "request_reason": "Order Recycling Cart",
    "date_created": "2026-04-22T15:46:54.000",
    "date_modified": "2026-04-22T15:46:56.000",
    "request_status": "Pending",
    "responsible_agency": "Department of Sanitation",
    "final_address": "6944 E Hermes St",
    "address_councildis": "D",
    "status": "Pending",
    "rowid": "1275790",
    "final_x": "3697373.82832",
    "final_y": "556898.15913",
    "longitude": "-90.01702620651903",
    "latitude": "30.02478480596281",
    "geocoded_column": {
      "latitude": "30.02478480596281",
      "longitude": "-90.01702620651903"
    }
  },
  {
    "service_request": "2026-1275789",
    "request_type": "Trash/Recycling",
    "request_reason": "Repair Trash Cart",
    "date_created": "2026-04-22T15:46:28.000",
    "date_modified": "2026-04-22T15:46:30.000",
    "request_status": "Pending",
    "responsible_agency": "Department of Sanitation",
    "final_address": "5934 Laurel St",
    "address_councildis": "A",
    "status": "Assigned to Contractor",
    "contractor": "IV Waste",
    "rowid": "1275789",
    "final_x": "3664715.69076",
    "final_y": "518098.19007",
    "longitude": "-90.12151757372686",
    "latitude": "29.91908892115693",
    "geocoded_column": {
      "latitude": "29.91908892115693",
      "longitude": "-90.12151757372686"
    }
  },
  {
    "service_request": "2026-1275788",
    "request_type": "Trash/Recycling",
    "request_reason": "Replace Trash Cart",
    "date_created": "2026-04-22T15:44:29.000",
    "date_modified": "2026-04-22T15:44:31.000",
    "request_status": "Pending",
    "responsible_agency": "Department of Sanitation",
    "final_address": "6944 E Hermes St",
    "address_councildis": "D",
    "status": "Assigned to Contractor",
    "contractor": "Waste Pro",
    "rowid": "1275788",
    "final_x": "3697373.82832",
    "final_y": "556898.15913",
    "longitude": "-90.01702620651903",
    "latitude": "30.02478480596281",
    "geocoded_column": {
      "latitude": "30.02478480596281",
      "longitude": "-90.01702620651903"
    }
  },
  {
    "service_request": "2026-1275786",
    "request_type": "Trash/Recycling",
    "request_reason": "Request a Large Item Pick Up",
    "date_created": "2026-04-22T15:40:55.000",
    "date_modified": "2026-04-22T15:40:57.000",
    "request_status": "Pending",
    "responsible_agency": "Department of Sanitation",
    "final_address": "5360 Chestnut St",
    "address_councildis": "B",
    "status": "Assigned to Contractor",
    "contractor": "IV Waste",
    "rowid": "1275786",
    "final_x": "3667092.52199",
    "final_y": "519384.759735",
    "longitude": "-90.11397189037513",
    "latitude": "29.922557250929447",
    "geocoded_column": {
      "latitude": "29.922557250929447",
      "longitude": "-90.11397189037513"
    }
  },
  {
    "service_request": "2026-1275785",
    "request_type": "Trash/Recycling",
    "request_reason": "Replace Trash Cart",
    "date_created": "2026-04-22T15:39:27.000",
    "date_modified": "2026-04-22T15:39:29.000",
    "request_status": "Pending",
    "responsible_agency": "Department of Sanitation",
    "final_address": "7844 N Coronet Ct",
    "address_councildis": "E",
    "status": "Assigned to Contractor",
    "contractor": "Waste Pro",
    "rowid": "1275785",
    "final_x": "3703273.2522",
    "final_y": "557626.960539",
    "longitude": "-89.99835831738993",
    "latitude": "30.02660106394982",
    "geocoded_column": {
      "latitude": "30.02660106394982",
      "longitude": "-89.99835831738993"
    }
  },
  {
    "service_request": "2026-1275784",
    "request_type": "Trash/Recycling",
    "request_reason": "Request a Large Item Pick Up",
    "date_created": "2026-04-22T15:33:28.000",
    "date_modified": "2026-04-22T15:33:29.000",
    "request_status": "Pending",
    "responsible_agency": "Department of Sanitation",
    "final_address": "1535 Octavia St",
    "address_councildis": "A",
    "status": "Assigned to Contractor",
    "contractor": "IV Waste",
    "rowid": "1275784",
    "final_x": "3667038.77991",
    "final_y": "521320.761017",
    "longitude": "-90.1140765057204",
    "latitude": "29.9278822151392",
    "geocoded_column": {
      "latitude": "29.9278822151392",
      "longitude": "-90.1140765057204"
    }
  },
  {
    "service_request": "2026-1275783",
    "request_type": "Trash/Recycling",
    "request_reason": "Request a Large Item Pick Up",
    "date_created": "2026-04-22T15:24:56.000",
    "date_modified": "2026-04-22T15:24:57.000",
    "request_status": "Pending",
    "responsible_agency": "Department of Sanitation",
    "final_address": "1438 Alabo St",
    "address_councildis": "E",
    "status": "Assigned to Contractor",
    "contractor": "Waste Pro",
    "rowid": "1275783",
    "final_x": "3699237.09488",
    "final_y": "534983.651078",
    "longitude": "-90.01193718342252",
    "latitude": "29.964469031162583",
    "geocoded_column": {
      "latitude": "29.964469031162583",
      "longitude": "-90.01193718342252"
    }
  },
  {
    "service_request": "2026-1275782",
    "request_type": "Trash/Recycling",
    "request_reason": "Order Second Trash Cart",
    "date_created": "2026-04-22T15:21:26.000",
    "date_modified": "2026-04-22T15:21:28.000",
    "request_status": "Pending",
    "responsible_agency": "Department of Sanitation",
    "final_address": "3624 Magazine St Apt 201",
    "address_councildis": "B",
    "status": "Assigned to Contractor",
    "contractor": "IV Waste",
    "rowid": "1275782",
    "final_x": "3673979.26465",
    "final_y": "519130.762295",
    "longitude": "-90.09224186189503",
    "latitude": "29.92165552970547",
    "geocoded_column": {
      "latitude": "29.92165552970547",
      "longitude": "-90.09224186189503"
    }
  },
  {
    "service_request": "2026-1275781",
    "request_type": "Trash/Recycling",
    "request_reason": "Order Second Trash Cart",
    "date_created": "2026-04-22T15:19:20.000",
    "date_modified": "2026-04-22T15:21:37.000",
    "request_status": "Pending",
    "responsible_agency": "Department of Sanitation",
    "final_address": "3616 Magazine St Apt 201",
    "address_councildis": "B",
    "status": "Assigned to Contractor",
    "contractor": "IV Waste",
    "rowid": "1275781",
    "final_x": "3674030.84174",
    "final_y": "519163.359927",
    "longitude": "-90.09207794032119",
    "latitude": "29.921743626552637",
    "geocoded_column": {
      "latitude": "29.921743626552637",
      "longitude": "-90.09207794032119"
    }
  },
  {
    "service_request": "2026-1275780",
    "request_type": "Trash/Recycling",
    "request_reason": "Missed Trash Pick-Up",
    "date_created": "2026-04-22T15:15:08.000",
    "date_modified": "2026-04-22T15:15:10.000",
    "request_status": "Pending",
    "responsible_agency": "Department of Sanitation",
    "final_address": "5313 Timber Haven Ln",
    "address_councildis": "C",
    "status": "Assigned to Contractor",
    "contractor": "Richards Disposal",
    "rowid": "1275780",
    "final_x": "3703822.19633",
    "final_y": "511339.661808",
    "longitude": "-89.99832781387074",
    "latitude": "29.899310139188913",
    "geocoded_column": {
      "latitude": "29.899310139188913",
      "longitude": "-89.99832781387074"
    }
  },
  {
    "service_request": "2026-1275779",
    "request_type": "Roads and Streets",
    "request_reason": "Push-up/Pavement Expansion",
    "date_created": "2026-04-22T15:11:33.000",
    "date_modified": "2026-04-22T15:11:35.000",
    "request_status": "Pending",
    "responsible_agency": "Department of Public Works",
    "final_address": "700 BLK Lizardi St",
    "address_councildis": "E",
    "status": "Pending",
    "rowid": "1275779",
    "final_x": "3696157.36159",
    "final_y": "532822.391492",
    "longitude": "-90.0217408194367",
    "latitude": "29.95862362910418",
    "geocoded_column": {
      "latitude": "29.95862362910418",
      "longitude": "-90.0217408194367"
    }
  },
  {
    "service_request": "2026-1275778",
    "request_type": "Roads and Streets",
    "request_reason": "Push-up/Pavement Expansion",
    "date_created": "2026-04-22T15:10:33.000",
    "date_modified": "2026-04-22T15:10:34.000",
    "request_status": "Pending",
    "responsible_agency": "Department of Public Works",
    "final_address": "800 BLK Lizardi St",
    "address_councildis": "E",
    "status": "Pending",
    "rowid": "1275778",
    "final_x": "3696257.92995",
    "final_y": "533172.405884",
    "longitude": "-90.02141059797724",
    "latitude": "29.959582879429483",
    "geocoded_column": {
      "latitude": "29.959582879429483",
      "longitude": "-90.02141059797724"
    }
  },
  {
    "service_request": "2026-1275777",
    "request_type": "Streetlights",
    "request_reason": "Streetlight Outage/Malfunction",
    "date_created": "2026-04-22T15:10:17.000",
    "date_modified": "2026-04-22T15:10:19.000",
    "request_status": "Pending",
    "responsible_agency": "Department of Public Works",
    "final_address": "MOSS ST & GRAND ROUTE ST JOHN",
    "address_councildis": "A",
    "status": "Pending",
    "rowid": "1275777",
    "final_x": "3675385.8",
    "final_y": "540337.48",
    "longitude": "-90.08707396030022",
    "latitude": "29.97992499086232",
    "geocoded_column": {
      "latitude": "29.97992499086232",
      "longitude": "-90.08707396030022"
    }
  },
  {
    "service_request": "2026-1275776",
    "request_type": "Roads and Streets",
    "request_reason": "Push-up/Pavement Expansion",
    "date_created": "2026-04-22T15:09:33.000",
    "date_modified": "2026-04-22T15:09:35.000",
    "request_status": "Pending",
    "responsible_agency": "Department of Public Works",
    "final_address": "1000 BLK Egania St",
    "address_councildis": "E",
    "status": "Pending",
    "rowid": "1275776",
    "final_x": "3696777.12281",
    "final_y": "533959.569336",
    "longitude": "-90.01974261988134",
    "latitude": "29.96173094474035",
    "geocoded_column": {
      "latitude": "29.96173094474035",
      "longitude": "-90.01974261988134"
    }
  },
  {
    "service_request": "2026-1275775",
    "request_type": "Trash/Recycling",
    "request_reason": "Request a Large Item Pick Up",
    "date_created": "2026-04-22T15:03:14.000",
    "date_modified": "2026-04-22T15:03:15.000",
    "request_status": "Pending",
    "responsible_agency": "Department of Sanitation",
    "final_address": "4734 Bonita Dr",
    "address_councildis": "E",
    "status": "Assigned to Contractor",
    "contractor": "Waste Pro",
    "rowid": "1275775",
    "final_x": "3704431.2961",
    "final_y": "555224.748441",
    "longitude": "-89.99478772628613",
    "latitude": "30.019958761129878",
    "geocoded_column": {
      "latitude": "30.019958761129878",
      "longitude": "-89.99478772628613"
    }
  },
  {
    "service_request": "2026-1275774",
    "request_type": "Trash/Recycling",
    "request_reason": "Request a Large Item Pick Up",
    "date_created": "2026-04-22T15:01:38.000",
    "date_modified": "2026-04-22T15:01:40.000",
    "request_status": "Pending",
    "responsible_agency": "Department of Sanitation",
    "final_address": "1622 Pine St",
    "address_councildis": "A",
    "status": "Assigned to Contractor",
    "contractor": "IV Waste",
    "rowid": "1275774",
    "final_x": "3664824.26925",
    "final_y": "528075.965311",
    "longitude": "-90.12084157789087",
    "latitude": "29.94652148249838",
    "geocoded_column": {
      "latitude": "29.94652148249838",
      "longitude": "-90.12084157789087"
    }
  },
  {
    "service_request": "2026-1275773",
    "request_type": "Safety & Permits",
    "request_reason": "Zoning Enforcement",
    "date_created": "2026-04-22T15:01:09.000",
    "date_modified": "2026-04-22T15:01:11.000",
    "request_status": "Pending",
    "responsible_agency": "Safety and Permits",
    "final_address": "7600 BLK Jahncke Rd",
    "address_councildis": "E",
    "status": "Pending",
    "rowid": "1275773",
    "final_x": "3714138.21047",
    "final_y": "568301.633854",
    "longitude": "-89.96362340130587",
    "latitude": "30.055599576808135",
    "geocoded_column": {
      "latitude": "30.055599576808135",
      "longitude": "-89.96362340130587"
    }
  },
  {
    "service_request": "2026-1275772",
    "request_type": "Trash/Recycling",
    "request_reason": "Replace Trash Cart",
    "date_created": "2026-04-22T15:00:31.000",
    "date_modified": "2026-04-22T15:02:22.000",
    "request_status": "Pending",
    "responsible_agency": "Department of Sanitation",
    "final_address": "3814 Third St",
    "address_councildis": "B",
    "status": "Assigned to Contractor",
    "contractor": "IV Waste",
    "rowid": "1275772",
    "final_x": "3672073.07265",
    "final_y": "529380.262657",
    "longitude": "-90.09791007524238",
    "latitude": "29.949894969113174",
    "geocoded_column": {
      "latitude": "29.949894969113174",
      "longitude": "-90.09791007524238"
    }
  },
  {
    "service_request": "2026-1275771",
    "request_type": "Trash/Recycling",
    "request_reason": "Request a Large Item Pick Up",
    "date_created": "2026-04-22T15:00:28.000",
    "date_modified": "2026-04-22T15:00:30.000",
    "request_status": "Pending",
    "responsible_agency": "Department of Sanitation",
    "final_address": "1122 Congress St",
    "address_councildis": "C",
    "status": "Assigned to Contractor",
    "contractor": "IV Waste",
    "rowid": "1275771",
    "final_x": "3690755.9224",
    "final_y": "535858.451399",
    "longitude": "-90.03868877240784",
    "latitude": "29.967140631882664",
    "geocoded_column": {
      "latitude": "29.967140631882664",
      "longitude": "-90.03868877240784"
    }
  },
  {
    "service_request": "2026-1275770",
    "request_type": "Trash/Recycling",
    "request_reason": "Repair Trash Cart",
    "date_created": "2026-04-22T14:57:45.000",
    "date_modified": "2026-04-22T14:57:46.000",
    "request_status": "Pending",
    "responsible_agency": "Department of Sanitation",
    "final_address": "3028 Monroe St, New Orleans, Louisiana, 70118",
    "address_councildis": "A",
    "status": "Assigned to Contractor",
    "contractor": "IV Waste",
    "rowid": "1275770",
    "final_x": "3664855.27252",
    "final_y": "534769.770374",
    "longitude": "-90.12051998857714",
    "latitude": "29.964926365196256",
    "geocoded_column": {
      "latitude": "29.964926365196256",
      "longitude": "-90.12051998857714"
    }
  },
  {
    "service_request": "2026-1275769",
    "request_type": "Roads and Streets",
    "request_reason": "Pothole",
    "date_created": "2026-04-22T14:53:48.000",
    "date_modified": "2026-04-22T14:53:49.000",
    "request_status": "Pending",
    "responsible_agency": "Department of Public Works",
    "final_address": "700 BLK Soniat St",
    "address_councildis": "B",
    "status": "Pending",
    "rowid": "1275769",
    "final_x": "3668323.46286",
    "final_y": "518038.844616",
    "longitude": "-90.11013164576559",
    "latitude": "29.918820332834642",
    "geocoded_column": {
      "latitude": "29.918820332834642",
      "longitude": "-90.11013164576559"
    }
  },
  {
    "service_request": "2026-1275768",
    "request_type": "Trash/Recycling",
    "request_reason": "Request a Large Item Pick Up",
    "date_created": "2026-04-22T14:53:42.000",
    "date_modified": "2026-04-22T14:53:44.000",
    "request_status": "Pending",
    "responsible_agency": "Department of Sanitation",
    "final_address": "7210 Salem Dr",
    "address_councildis": "E",
    "status": "Assigned to Contractor",
    "contractor": "Waste Pro",
    "rowid": "1275768",
    "final_x": "3706295.59537",
    "final_y": "561496.854559",
    "longitude": "-89.9886646194157",
    "latitude": "30.03714458806444",
    "geocoded_column": {
      "latitude": "30.03714458806444",
      "longitude": "-89.9886646194157"
    }
  },
  {
    "service_request": "2026-1275767",
    "request_type": "Tax and Revenue",
    "request_reason": "Occupational License Tax",
    "date_created": "2026-04-22T14:52:43.000",
    "date_modified": "2026-04-22T15:01:34.000",
    "case_close_date": "2026-04-22T10:01:33.000",
    "request_status": "Closed",
    "responsible_agency": "Bureau of Revenue",
    "final_address": "530 Lyons St",
    "address_councildis": "B",
    "status": "Resolved",
    "rowid": "1275767",
    "final_x": "3669312.65748",
    "final_y": "517527.298038",
    "longitude": "-90.10702654441026",
    "latitude": "29.91738466791682",
    "geocoded_column": {
      "latitude": "29.91738466791682",
      "longitude": "-90.10702654441026"
    }
  },
  {
    "service_request": "2026-1275766",
    "request_type": "Safety & Permits",
    "request_reason": "Construction permit",
    "date_created": "2026-04-22T14:50:49.000",
    "date_modified": "2026-04-22T14:53:59.000",
    "request_status": "Pending",
    "responsible_agency": "Safety and Permits",
    "final_address": "2001 Iberville St",
    "address_councildis": "B",
    "status": "Pending",
    "rowid": "1275766",
    "final_x": "3677777.89685",
    "final_y": "533850.326533",
    "longitude": "-90.07974288516735",
    "latitude": "29.96201578193654",
    "geocoded_column": {
      "latitude": "29.96201578193654",
      "longitude": "-90.07974288516735"
    }
  },
  {
    "service_request": "2026-1275765",
    "request_type": "Trash/Recycling",
    "request_reason": "Request a Large Item Pick Up",
    "date_created": "2026-04-22T14:50:10.000",
    "date_modified": "2026-04-22T14:50:12.000",
    "request_status": "Pending",
    "responsible_agency": "Department of Sanitation",
    "final_address": "520 Octavia St",
    "address_councildis": "A",
    "status": "Assigned to Contractor",
    "contractor": "IV Waste",
    "rowid": "1275765",
    "final_x": "3666235.90804",
    "final_y": "518068.929718",
    "longitude": "-90.11671998769167",
    "latitude": "29.918964168887502",
    "geocoded_column": {
      "latitude": "29.918964168887502",
      "longitude": "-90.11671998769167"
    }
  },
  {
    "service_request": "2026-1275764",
    "request_type": "Trash/Recycling",
    "request_reason": "Repair Trash Cart",
    "date_created": "2026-04-22T14:43:39.000",
    "date_modified": "2026-04-22T14:43:41.000",
    "request_status": "Pending",
    "responsible_agency": "Department of Sanitation",
    "final_address": "3938 Clermont Dr",
    "address_councildis": "D",
    "status": "Assigned to Contractor",
    "contractor": "IV Waste",
    "rowid": "1275764",
    "final_x": "3685049.73468",
    "final_y": "546998.964241",
    "longitude": "-90.05631683412619",
    "latitude": "29.997949154313208",
    "geocoded_column": {
      "latitude": "29.997949154313208",
      "longitude": "-90.05631683412619"
    }
  },
  {
    "service_request": "2026-1275763",
    "request_type": "Tree Service",
    "request_reason": "Tree Trim",
    "date_created": "2026-04-22T14:42:29.000",
    "date_modified": "2026-04-22T14:42:30.000",
    "request_status": "Pending",
    "responsible_agency": "Department of Parks & Parkways",
    "final_address": "3110 Louisiana Avenue Prkwy",
    "address_councildis": "B",
    "status": "Pending",
    "rowid": "1275763",
    "final_x": "3671983.06382",
    "final_y": "526592.951102",
    "longitude": "-90.09828913522597",
    "latitude": "29.94223344369895",
    "geocoded_column": {
      "latitude": "29.94223344369895",
      "longitude": "-90.09828913522597"
    }
  },
  {
    "service_request": "2026-1275762",
    "request_type": "Trash/Recycling",
    "request_reason": "Request a Large Item Pick Up",
    "date_created": "2026-04-22T14:39:42.000",
    "date_modified": "2026-04-22T14:39:44.000",
    "request_status": "Pending",
    "responsible_agency": "Department of Sanitation",
    "final_address": "6 Lark St",
    "address_councildis": "D",
    "status": "Assigned to Contractor",
    "contractor": "IV Waste",
    "rowid": "1275762",
    "final_x": "3676120.72494",
    "final_y": "556503.813594",
    "longitude": "-90.08419613176544",
    "latitude": "30.02435469471793",
    "geocoded_column": {
      "latitude": "30.02435469471793",
      "longitude": "-90.08419613176544"
    }
  },
  {
    "service_request": "2026-1275761",
    "request_type": "Property Maintenance",
    "request_reason": "Property Maintenance",
    "date_created": "2026-04-22T14:39:06.000",
    "date_modified": "2026-04-22T15:27:47.000",
    "case_close_date": "2026-04-22T10:27:46.000",
    "request_status": "Closed",
    "responsible_agency": "Department of Code Enforcement",
    "final_address": "5011 Dreux Ave",
    "address_councildis": "D",
    "status": "Referred to Code Enforcement",
    "rowid": "1275761",
    "final_x": "3691940.28771",
    "final_y": "553448.476887",
    "longitude": "-90.03431880044442",
    "latitude": "30.01546998126646",
    "geocoded_column": {
      "latitude": "30.01546998126646",
      "longitude": "-90.03431880044442"
    }
  },
  {
    "service_request": "2026-1275760",
    "request_type": "Property Maintenance",
    "request_reason": "Property Maintenance",
    "date_created": "2026-04-22T14:36:42.000",
    "date_modified": "2026-04-22T14:36:43.000",
    "request_status": "Pending",
    "responsible_agency": "Department of Code Enforcement",
    "final_address": "3350 Adam St",
    "address_councildis": "C",
    "status": "Pending",
    "rowid": "1275760",
    "final_x": "3715070.83538",
    "final_y": "518063.144438",
    "longitude": "-89.96257521841733",
    "latitude": "29.917432201387985",
    "geocoded_column": {
      "latitude": "29.917432201387985",
      "longitude": "-89.96257521841733"
    }
  },
  {
    "service_request": "2026-1275759",
    "request_type": "Abandoned Vehicles",
    "request_reason": "Abandoned/Junk Vehicles",
    "date_created": "2026-04-22T14:35:06.000",
    "date_modified": "2026-04-22T14:35:07.000",
    "request_status": "Pending",
    "responsible_agency": "Department of Public Works",
    "final_address": "5019 Dreux Ave",
    "address_councildis": "D",
    "status": "Pending",
    "rowid": "1275759",
    "final_x": "3691998.21533",
    "final_y": "553463.857047",
    "longitude": "-90.0341352256285",
    "latitude": "30.015510465129516",
    "geocoded_column": {
      "latitude": "30.015510465129516",
      "longitude": "-90.0341352256285"
    }
  },
  {
    "service_request": "2026-1275758",
    "request_type": "Trash/Recycling",
    "request_reason": "Request a Large Item Pick Up",
    "date_created": "2026-04-22T14:34:52.000",
    "date_modified": "2026-04-22T14:34:54.000",
    "request_status": "Pending",
    "responsible_agency": "Department of Sanitation",
    "final_address": "7240 W Tamaron Blvd",
    "address_councildis": "E",
    "status": "Assigned to Contractor",
    "contractor": "Waste Pro",
    "rowid": "1275758",
    "final_x": "3717667.73836",
    "final_y": "569552.285478",
    "longitude": "-89.95241972848594",
    "latitude": "30.058921869310716",
    "geocoded_column": {
      "latitude": "30.058921869310716",
      "longitude": "-89.95241972848594"
    }
  },
  {
    "service_request": "2026-1275757",
    "request_type": "General Services",
    "request_reason": "General Service Request",
    "date_created": "2026-04-22T14:33:41.000",
    "date_modified": "2026-04-22T14:33:42.000",
    "request_status": "Pending",
    "responsible_agency": "Orleans Parish Communication District",
    "final_address": "819 Soniat St",
    "address_councildis": "B",
    "status": "Pending",
    "rowid": "1275757",
    "final_x": "3668406.74554",
    "final_y": "518345.65855",
    "longitude": "-90.10985842412649",
    "latitude": "29.91966152963728",
    "geocoded_column": {
      "latitude": "29.91966152963728",
      "longitude": "-90.10985842412649"
    }
  },
  {
    "service_request": "2026-1275756",
    "request_type": "Abandoned Vehicles",
    "request_reason": "Abandoned/Junk Vehicles",
    "date_created": "2026-04-22T14:30:12.000",
    "date_modified": "2026-04-22T14:34:40.000",
    "request_status": "Pending",
    "responsible_agency": "Department of Public Works",
    "final_address": "1891 Gentilly Blvd",
    "address_councildis": "A",
    "status": "Pending",
    "rowid": "1275756",
    "final_x": "3678868.89813",
    "final_y": "543039.944781",
    "longitude": "-90.07597923484262",
    "latitude": "29.987251202408146",
    "geocoded_column": {
      "latitude": "29.987251202408146",
      "longitude": "-90.07597923484262"
    }
  },
  {
    "service_request": "2026-1275755",
    "request_type": "Trash/Recycling",
    "request_reason": "Request a Large Item Pick Up",
    "date_created": "2026-04-22T14:29:32.000",
    "date_modified": "2026-04-22T14:29:34.000",
    "request_status": "Pending",
    "responsible_agency": "Department of Sanitation",
    "final_address": "7801 Branch Dr",
    "address_councildis": "E",
    "status": "Assigned to Contractor",
    "contractor": "Waste Pro",
    "rowid": "1275755",
    "final_x": "3714364.85938",
    "final_y": "569256.51959",
    "longitude": "-89.96287091635176",
    "latitude": "30.0582176686775",
    "geocoded_column": {
      "latitude": "30.0582176686775",
      "longitude": "-89.96287091635176"
    }
  },
  {
    "service_request": "2026-1275754",
    "request_type": "Safety & Permits",
    "request_reason": "Zoning Enforcement",
    "date_created": "2026-04-22T14:28:41.000",
    "date_modified": "2026-04-22T14:28:42.000",
    "request_status": "Pending",
    "responsible_agency": "Safety and Permits",
    "final_address": "RANKIN ST & ADAM ST",
    "address_councildis": "C",
    "status": "Pending",
    "rowid": "1275754",
    "final_x": "3715035.7",
    "final_y": "517895.38",
    "longitude": "-89.96269245398362",
    "latitude": "29.91697206430823",
    "geocoded_column": {
      "latitude": "29.91697206430823",
      "longitude": "-89.96269245398362"
    }
  },
  {
    "service_request": "2026-1275753",
    "request_type": "Trash/Recycling",
    "request_reason": "Request a Large Item Pick Up",
    "date_created": "2026-04-22T14:18:50.000",
    "date_modified": "2026-04-22T14:18:52.000",
    "request_status": "Pending",
    "responsible_agency": "Department of Sanitation",
    "final_address": "7817 Ebbtide Dr",
    "address_councildis": "E",
    "status": "Assigned to Contractor",
    "contractor": "Waste Pro",
    "rowid": "1275753",
    "final_x": "3702068.33418",
    "final_y": "562015.759583",
    "longitude": "-90.00200456965834",
    "latitude": "30.038707099061597",
    "geocoded_column": {
      "latitude": "30.038707099061597",
      "longitude": "-90.00200456965834"
    }
  },
  {
    "service_request": "2026-1275752",
    "request_type": "Trash/Recycling",
    "request_reason": "Illegal Dumping",
    "date_created": "2026-04-22T14:18:00.000",
    "date_modified": "2026-04-22T14:18:31.000",
    "request_status": "Pending",
    "responsible_agency": "Department of Sanitation",
    "final_address": "SHUBRICK ST & FULTON ST",
    "address_councildis": "E",
    "status": "Pending",
    "rowid": "1275752",
    "final_x": "3706719.6",
    "final_y": "563812.68",
    "longitude": "-89.98723870536523",
    "latitude": "30.04349850164116",
    "geocoded_column": {
      "latitude": "30.04349850164116",
      "longitude": "-89.98723870536523"
    }
  },
  {
    "service_request": "2026-1275751",
    "request_type": "Trash/Recycling",
    "request_reason": "Illegal Dumping",
    "date_created": "2026-04-22T14:17:14.000",
    "date_modified": "2026-04-22T14:17:16.000",
    "request_status": "Pending",
    "responsible_agency": "Department of Sanitation",
    "final_address": "803 Red Allen Way",
    "address_councildis": "C",
    "status": "Pending",
    "rowid": "1275751",
    "final_x": "3687875.75555",
    "final_y": "528695.464128",
    "longitude": "-90.04803807781852",
    "latitude": "29.947534054457382",
    "geocoded_column": {
      "latitude": "29.947534054457382",
      "longitude": "-90.04803807781852"
    }
  },
  {
    "service_request": "2026-1275750",
    "request_type": "Trash/Recycling",
    "request_reason": "Request a Large Item Pick Up",
    "date_created": "2026-04-22T14:16:56.000",
    "date_modified": "2026-04-22T14:16:58.000",
    "request_status": "Pending",
    "responsible_agency": "Department of Sanitation",
    "final_address": "6132 Constance St",
    "address_councildis": "A",
    "status": "Assigned to Contractor",
    "contractor": "IV Waste",
    "rowid": "1275750",
    "final_x": "3663813.7152",
    "final_y": "519142.300087",
    "longitude": "-90.12432988809304",
    "latitude": "29.92198609686308",
    "geocoded_column": {
      "latitude": "29.92198609686308",
      "longitude": "-90.12432988809304"
    }
  },
  {
    "service_request": "2026-1275749",
    "request_type": "Trash/Recycling",
    "request_reason": "Replace Recycling Cart",
    "date_created": "2026-04-22T14:15:33.000",
    "date_modified": "2026-04-22T14:15:35.000",
    "request_status": "Pending",
    "responsible_agency": "Department of Sanitation",
    "final_address": "511 Westchester St",
    "address_councildis": "C",
    "status": "Pending",
    "rowid": "1275749",
    "final_x": "3706121.81975",
    "final_y": "519617.72108",
    "longitude": "-89.99076448220573",
    "latitude": "29.921998083497687",
    "geocoded_column": {
      "latitude": "29.921998083497687",
      "longitude": "-89.99076448220573"
    }
  },
  {
    "service_request": "2026-1275748",
    "request_type": "Trash/Recycling",
    "request_reason": "Repair Trash Cart",
    "date_created": "2026-04-22T14:13:38.000",
    "date_modified": "2026-04-22T14:13:40.000",
    "request_status": "Pending",
    "responsible_agency": "Department of Sanitation",
    "final_address": "511 Westchester St",
    "address_councildis": "C",
    "status": "Assigned to Contractor",
    "contractor": "Richards Disposal",
    "rowid": "1275748",
    "final_x": "3706121.81975",
    "final_y": "519617.72108",
    "longitude": "-89.99076448220573",
    "latitude": "29.921998083497687",
    "geocoded_column": {
      "latitude": "29.921998083497687",
      "longitude": "-89.99076448220573"
    }
  },
  {
    "service_request": "2026-1275747",
    "request_type": "Trash/Recycling",
    "request_reason": "Request a Large Item Pick Up",
    "date_created": "2026-04-22T14:10:22.000",
    "date_modified": "2026-04-22T14:10:24.000",
    "request_status": "Pending",
    "responsible_agency": "Department of Sanitation",
    "final_address": "7518 Briarwood Dr",
    "address_councildis": "E",
    "status": "Assigned to Contractor",
    "contractor": "Waste Pro",
    "rowid": "1275747",
    "final_x": "3717861.5221",
    "final_y": "570387.849127",
    "longitude": "-89.95177535733048",
    "latitude": "30.06121289922372",
    "geocoded_column": {
      "latitude": "30.06121289922372",
      "longitude": "-89.95177535733048"
    }
  },
  {
    "service_request": "2026-1275746",
    "request_type": "Property Maintenance",
    "request_reason": "Property Maintenance",
    "date_created": "2026-04-22T14:08:10.000",
    "date_modified": "2026-04-22T14:36:13.000",
    "case_close_date": "2026-04-22T09:36:13.000",
    "request_status": "Closed",
    "responsible_agency": "Department of Code Enforcement",
    "final_address": "2616 Calhoun St",
    "address_councildis": "A",
    "status": "Referred to Code Enforcement",
    "rowid": "1275746",
    "final_x": "3666343.76276",
    "final_y": "526531.382526",
    "longitude": "-90.11609578435562",
    "latitude": "29.942230079004645",
    "geocoded_column": {
      "latitude": "29.942230079004645",
      "longitude": "-90.11609578435562"
    }
  },
  {
    "service_request": "2026-1275745",
    "request_type": "Abandoned Vehicles",
    "request_reason": "Abandoned/Junk Vehicles",
    "date_created": "2026-04-22T14:06:42.000",
    "date_modified": "2026-04-22T14:06:43.000",
    "request_status": "Pending",
    "responsible_agency": "Department of Public Works",
    "final_address": "5183 Pauline Dr",
    "address_councildis": "D",
    "status": "Pending",
    "rowid": "1275745",
    "final_x": "3692444.51363",
    "final_y": "553463.854935",
    "longitude": "-90.03272513412875",
    "latitude": "30.015496537788522",
    "geocoded_column": {
      "latitude": "30.015496537788522",
      "longitude": "-90.03272513412875"
    }
  },
  {
    "service_request": "2026-1275744",
    "request_type": "Trash/Recycling",
    "request_reason": "Order Second Trash Cart",
    "date_created": "2026-04-22T14:06:35.000",
    "date_modified": "2026-04-22T14:06:36.000",
    "request_status": "Pending",
    "responsible_agency": "Department of Sanitation",
    "final_address": "8333 Oleander St",
    "address_councildis": "A",
    "status": "Assigned to Contractor",
    "contractor": "IV Waste",
    "rowid": "1275744",
    "final_x": "3666063.1474",
    "final_y": "534357.078469",
    "longitude": "-90.11671941680986",
    "latitude": "29.963756389579004",
    "geocoded_column": {
      "latitude": "29.963756389579004",
      "longitude": "-90.11671941680986"
    }
  },
  {
    "service_request": "2026-1275743",
    "request_type": "Trash/Recycling",
    "request_reason": "Request a Large Item Pick Up",
    "date_created": "2026-04-22T14:06:34.000",
    "date_modified": "2026-04-22T14:06:37.000",
    "request_status": "Pending",
    "responsible_agency": "Department of Sanitation",
    "final_address": "2026 Burgundy St",
    "address_councildis": "C",
    "status": "Assigned to Contractor",
    "contractor": "IV Waste",
    "rowid": "1275743",
    "final_x": "3684518.40649",
    "final_y": "535513.318982",
    "longitude": "-90.05839899555353",
    "latitude": "29.96638394627885",
    "geocoded_column": {
      "latitude": "29.96638394627885",
      "longitude": "-90.05839899555353"
    }
  },
  {
    "service_request": "2026-1275742",
    "request_type": "Trash/Recycling",
    "request_reason": "Order Second Trash Cart",
    "date_created": "2026-04-22T14:05:08.000",
    "date_modified": "2026-04-22T14:05:10.000",
    "request_status": "Pending",
    "responsible_agency": "Department of Sanitation",
    "final_address": "2024 Burgundy St",
    "address_councildis": "C",
    "status": "Assigned to Contractor",
    "contractor": "IV Waste",
    "rowid": "1275742",
    "final_x": "3684509.23983",
    "final_y": "535510.819014",
    "longitude": "-90.05842803151769",
    "latitude": "29.966377352676854",
    "geocoded_column": {
      "latitude": "29.966377352676854",
      "longitude": "-90.05842803151769"
    }
  },
  {
    "service_request": "2026-1275741",
    "request_type": "Trash/Recycling",
    "request_reason": "Request a Large Item Pick Up",
    "date_created": "2026-04-22T14:04:14.000",
    "date_modified": "2026-04-22T14:04:15.000",
    "request_status": "Pending",
    "responsible_agency": "Department of Sanitation",
    "final_address": "1200 Kabel Dr",
    "address_councildis": "C",
    "status": "Assigned to Contractor",
    "contractor": "Richards Disposal",
    "rowid": "1275741",
    "final_x": "3700865.88829",
    "final_y": "523276.587579",
    "longitude": "-90.00722147520297",
    "latitude": "29.93222699050869",
    "geocoded_column": {
      "latitude": "29.93222699050869",
      "longitude": "-90.00722147520297"
    }
  },
  {
    "service_request": "2026-1275740",
    "request_type": "Trash/Recycling",
    "request_reason": "Order Second Trash Cart",
    "date_created": "2026-04-22T14:03:40.000",
    "date_modified": "2026-04-22T14:03:41.000",
    "request_status": "Pending",
    "responsible_agency": "Department of Sanitation",
    "final_address": "2026 Burgundy St",
    "address_councildis": "C",
    "status": "Assigned to Contractor",
    "contractor": "IV Waste",
    "rowid": "1275740",
    "final_x": "3684518.40649",
    "final_y": "535513.318982",
    "longitude": "-90.05839899555353",
    "latitude": "29.96638394627885",
    "geocoded_column": {
      "latitude": "29.96638394627885",
      "longitude": "-90.05839899555353"
    }
  },
  {
    "service_request": "2026-1275739",
    "request_type": "Street and Traffic Signs",
    "request_reason": "Stop Sign Missing or Damaged",
    "date_created": "2026-04-22T14:03:15.000",
    "date_modified": "2026-04-22T14:03:17.000",
    "request_status": "Pending",
    "responsible_agency": "Department of Public Works",
    "final_address": "2900 Dauphine St",
    "address_councildis": "C",
    "status": "Pending",
    "rowid": "1275739",
    "final_x": "3687920.64438",
    "final_y": "534953.990918",
    "longitude": "-90.04767462861132",
    "latitude": "29.964741460893404",
    "geocoded_column": {
      "latitude": "29.964741460893404",
      "longitude": "-90.04767462861132"
    }
  },
  {
    "service_request": "2026-1275738",
    "request_type": "Abandoned Vehicles",
    "request_reason": "Abandoned/Junk Vehicles",
    "date_created": "2026-04-22T14:02:11.000",
    "date_modified": "2026-04-22T14:02:13.000",
    "request_status": "Pending",
    "responsible_agency": "Department of Public Works",
    "final_address": "5183 Pauline Dr",
    "address_councildis": "D",
    "status": "Pending",
    "rowid": "1275738",
    "final_x": "3692444.51363",
    "final_y": "553463.854935",
    "longitude": "-90.03272513412875",
    "latitude": "30.015496537788522",
    "geocoded_column": {
      "latitude": "30.015496537788522",
      "longitude": "-90.03272513412875"
    }
  },
  {
    "service_request": "2026-1275737",
    "request_type": "Trash/Recycling",
    "request_reason": "Repair Recycling Cart",
    "date_created": "2026-04-22T14:01:49.000",
    "date_modified": "2026-04-22T14:01:50.000",
    "request_status": "Pending",
    "responsible_agency": "Department of Sanitation",
    "final_address": "3203 Prytania St",
    "address_councildis": "B",
    "status": "Pending",
    "rowid": "1275737",
    "final_x": "3675032.57992",
    "final_y": "521395.361465",
    "longitude": "-90.08883935665293",
    "latitude": "29.927851035089873",
    "geocoded_column": {
      "latitude": "29.927851035089873",
      "longitude": "-90.08883935665293"
    }
  },
  {
    "service_request": "2026-1275736",
    "request_type": "Trash/Recycling",
    "request_reason": "Replace Trash Cart",
    "date_created": "2026-04-22T14:01:08.000",
    "date_modified": "2026-04-22T16:32:37.000",
    "request_status": "Pending",
    "responsible_agency": "Department of Sanitation",
    "final_address": "4500 Coronado Dr",
    "address_councildis": "E",
    "status": "Assigned to Contractor",
    "contractor": "Waste Pro",
    "rowid": "1275736",
    "final_x": "3714168.47647",
    "final_y": "555351.136729",
    "longitude": "-89.96401691085643",
    "latitude": "30.01998992117307",
    "geocoded_column": {
      "latitude": "30.01998992117307",
      "longitude": "-89.96401691085643"
    }
  },
  {
    "service_request": "2026-1275735",
    "request_type": "Abandoned Vehicles",
    "request_reason": "Abandoned/Junk Vehicles",
    "date_created": "2026-04-22T13:54:24.000",
    "date_modified": "2026-04-22T13:54:25.000",
    "request_status": "Pending",
    "responsible_agency": "Department of Public Works",
    "final_address": "2703 DAbadie St",
    "address_councildis": "D",
    "status": "Pending",
    "rowid": "1275735",
    "final_x": "3679223.65019",
    "final_y": "541032.553739",
    "longitude": "-90.0749283342616",
    "latitude": "29.98172086839014",
    "geocoded_column": {
      "latitude": "29.98172086839014",
      "longitude": "-90.0749283342616"
    }
  },
  {
    "service_request": "2026-1275734",
    "request_type": "Roads and Streets",
    "request_reason": "Debris in Driving Lanes",
    "date_created": "2026-04-22T13:51:58.000",
    "date_modified": "2026-04-22T13:51:59.000",
    "request_status": "Pending",
    "responsible_agency": "Department of Public Works",
    "final_address": "600 BLK Poland Ave",
    "address_councildis": "C",
    "status": "Pending",
    "rowid": "1275734",
    "final_x": "3692604.38017",
    "final_y": "533333.690994",
    "longitude": "-90.03294183754993",
    "latitude": "29.960140872385946",
    "geocoded_column": {
      "latitude": "29.960140872385946",
      "longitude": "-90.03294183754993"
    }
  },
  {
    "service_request": "2026-1275733",
    "request_type": "Trash/Recycling",
    "request_reason": "Return Trash Cart",
    "date_created": "2026-04-22T13:51:27.000",
    "date_modified": "2026-04-22T15:41:24.000",
    "request_status": "Pending",
    "responsible_agency": "Department of Sanitation",
    "final_address": "1441 France St",
    "address_councildis": "D",
    "status": "Assigned to Contractor",
    "contractor": "IV Waste",
    "rowid": "1275733",
    "final_x": "3692782.12387",
    "final_y": "536606.685895",
    "longitude": "-90.03226320750355",
    "latitude": "29.969134907879464",
    "geocoded_column": {
      "latitude": "29.969134907879464",
      "longitude": "-90.03226320750355"
    }
  },
  {
    "service_request": "2026-1275732",
    "request_type": "Roads and Streets",
    "request_reason": "Debris in Driving Lanes",
    "date_created": "2026-04-22T13:49:04.000",
    "date_modified": "2026-04-22T13:49:06.000",
    "request_status": "Pending",
    "responsible_agency": "Department of Public Works",
    "final_address": "600 BLK Poland Ave",
    "address_councildis": "C",
    "status": "Pending",
    "rowid": "1275732",
    "final_x": "3692604.38017",
    "final_y": "533333.690994",
    "longitude": "-90.03294183754993",
    "latitude": "29.960140872385946",
    "geocoded_column": {
      "latitude": "29.960140872385946",
      "longitude": "-90.03294183754993"
    }
  },
  {
    "service_request": "2026-1275731",
    "request_type": "General Services",
    "request_reason": "General Service Request",
    "date_created": "2026-04-22T13:47:57.000",
    "date_modified": "2026-04-22T13:47:59.000",
    "request_status": "Pending",
    "responsible_agency": "Orleans Parish Communication District",
    "final_address": "8631 Cohn St",
    "address_councildis": "A",
    "status": "Pending",
    "rowid": "1275731",
    "final_x": "3662152.29402",
    "final_y": "531573.520643",
    "longitude": "-90.12916194524814",
    "latitude": "29.956216108082657",
    "geocoded_column": {
      "latitude": "29.956216108082657",
      "longitude": "-90.12916194524814"
    }
  },
  {
    "service_request": "2026-1275730",
    "request_type": "Trash/Recycling",
    "request_reason": "Repair Trash Cart",
    "date_created": "2026-04-22T13:42:52.000",
    "date_modified": "2026-04-22T13:42:54.000",
    "request_status": "Pending",
    "responsible_agency": "Department of Sanitation",
    "final_address": "4514 Laine Ave",
    "address_councildis": "E",
    "status": "Assigned to Contractor",
    "contractor": "Waste Pro",
    "rowid": "1275730",
    "final_x": "3705805.86852",
    "final_y": "553923.153175",
    "longitude": "-89.99049274900715",
    "latitude": "30.01633565252675",
    "geocoded_column": {
      "latitude": "30.01633565252675",
      "longitude": "-89.99049274900715"
    }
  },