[
  {
    "service_request": "2022-882143",
    "request_type": "Traffic Signals/Signs/Striping/Streetlights",
    "request_reason": "Street Light Outage/Malfunction",
    "date_created": "2022-05-12T01:19:17.000",
    "date_modified": "2022-05-12T01:19:18.000",
    "request_status": "Pending",
    "responsible_agency": "Department of Public Works",
    "final_address": "7327 Weaver Ave",
    "address_councildis": "E",
    "status": "Pending",
    "contractor": "Royal Engineering",
    "rowid": "882143",
    "final_x": "3707982.08446",
    "final_y": "563439.370976",
    "longitude": "-89.98326265256676",
    "latitude": "30.042431209997275",
    "geocoded_column": {
      "latitude": "30.042431209997275",
      "longitude": "-89.98326265256676"
    }
  },
  {
    "service_request": "2022-882142",
    "request_type": "Abandoned Vehicles",
    "request_reason": "Abandoned/Junk Vehicles",
    "date_created": "2022-05-11T23:20:37.000",
    "date_modified": "2022-05-11T23:20:37.000",
    "request_status": "Pending",
    "responsible_agency": "Department of Public Works",
    "final_address": "1726 St Philip St",
    "address_councildis": "D",
    "status": "Pending",
    "rowid": "882142",
    "final_x": "3680177.23752",
    "final_y": "535651.63495",
    "longitude": "-90.07210352780197",
    "latitude": "29.96689636933013",
    "geocoded_column": {
      "latitude": "29.96689636933013",
      "longitude": "-90.07210352780197"
    }
  },
  {
    "service_request": "2022-882141",
    "request_type": "Abandoned Vehicles",
    "request_reason": "Abandoned/Junk Vehicles",
    "date_created": "2022-05-11T23:06:46.000",
    "date_modified": "2022-05-11T23:06:46.000",
    "request_status": "Pending",
    "responsible_agency": "Department of Public Works",
    "final_address": "1722 St Philip St",
    "address_councildis": "D",
    "status": "Pending",
    "rowid": "882141",
    "final_x": "3680197.9917",
    "final_y": "535628.266374",
    "longitude": "-90.0720387984453",
    "latitude": "29.966831485594362",
    "geocoded_column": {
      "latitude": "29.966831485594362",
      "longitude": "-90.0720387984453"
    }
  },
  {
    "service_request": "2022-882140",
    "request_type": "Trash/Recycling",
    "request_reason": "Missed Trash Pick-Up",
    "date_created": "2022-05-11T22:56:24.000",
    "date_modified": "2022-05-11T22:56:25.000",
    "request_status": "Pending",
    "responsible_agency": "Department of Sanitation",
    "final_address": "7608 Willow St",
    "address_councildis": "A",
    "status": "Assigned to Contractor",
    "contractor": "Richards Disposal",
    "rowid": "882140",
    "final_x": "3663649.92634",
    "final_y": "527726.555327",
    "longitude": "-90.12456105164493",
    "latitude": "29.945594833762172",
    "geocoded_column": {
      "latitude": "29.945594833762172",
      "longitude": "-90.12456105164493"
    }
  },
  {
    "service_request": "2022-882139",
    "request_type": "Trash/Recycling",
    "request_reason": "Missed Trash Pick-Up",
    "date_created": "2022-05-11T22:23:02.000",
    "date_modified": "2022-05-11T22:23:03.000",
    "request_status": "Pending",
    "responsible_agency": "Department of Sanitation",
    "final_address": "2211 Burdette St",
    "address_councildis": "A",
    "status": "Assigned to Contractor",
    "contractor": "Richards Disposal",
    "rowid": "882139",
    "final_x": "3665301.43386",
    "final_y": "530242.914689",
    "longitude": "-90.119262500693",
    "latitude": "29.952465999976287",
    "geocoded_column": {
      "latitude": "29.952465999976287",
      "longitude": "-90.119262500693"
    }
  },
  {
    "service_request": "2022-882138",
    "request_type": "Trash/Recycling",
    "request_reason": "Missed Trash Pick-Up",
    "date_created": "2022-05-11T21:46:19.000",
    "date_modified": "2022-05-11T21:46:20.000",
    "request_status": "Pending",
    "responsible_agency": "Department of Sanitation",
    "final_address": "506 Cherokee St",
    "address_councildis": "A",
    "status": "Assigned to Contractor",
    "contractor": "Richards Disposal",
    "rowid": "882138",
    "final_x": "3661911.13267",
    "final_y": "525207.355517",
    "longitude": "-90.13013454047525",
    "latitude": "29.938718158011792",
    "geocoded_column": {
      "latitude": "29.938718158011792",
      "longitude": "-90.13013454047525"
    }
  },
  {
    "service_request": "2022-882137",
    "request_type": "Trash/Recycling",
    "request_reason": "Missed Trash Pick-Up",
    "date_created": "2022-05-11T21:37:41.000",
    "date_modified": "2022-05-11T21:37:42.000",
    "request_status": "Pending",
    "responsible_agency": "Department of Sanitation",
    "final_address": "1512 Audubon St",
    "address_councildis": "A",
    "status": "Assigned to Contractor",
    "contractor": "Richards Disposal",
    "rowid": "882137",
    "final_x": "3665060.85274",
    "final_y": "527354.346751",
    "longitude": "-90.12011872023237",
    "latitude": "29.9445303779126",
    "geocoded_column": {
      "latitude": "29.9445303779126",
      "longitude": "-90.12011872023237"
    }
  },
  {
    "service_request": "2022-882136",
    "request_type": "Abandoned Vehicles",
    "request_reason": "Abandoned/Junk Vehicles",
    "date_created": "2022-05-11T21:29:50.000",
    "date_modified": "2022-05-11T21:29:50.000",
    "request_status": "Pending",
    "responsible_agency": "Department of Public Works",
    "final_address": "12011 E Barrington Dr",
    "address_councildis": "E",
    "status": "Pending",
    "rowid": "882136",
    "final_x": "3714611.51979",
    "final_y": "566119.146659",
    "longitude": "-89.96220992393337",
    "latitude": "30.049583064711584",
    "geocoded_column": {
      "latitude": "30.049583064711584",
      "longitude": "-89.96220992393337"
    }
  },
  {
    "service_request": "2022-882135",
    "request_type": "Traffic Signals/Signs/Striping/Streetlights",
    "request_reason": "Street Light Outage/Malfunction",
    "date_created": "2022-05-11T21:14:24.000",
    "date_modified": "2022-05-11T21:14:25.000",
    "request_status": "Pending",
    "responsible_agency": "Department of Public Works",
    "final_address": "1 Yellowstone Ct",
    "address_councildis": "C",
    "status": "Pending",
    "contractor": "Royal Engineering",
    "rowid": "882135",
    "final_x": "3699465.26154",
    "final_y": "518122.142518",
    "longitude": "-90.01183075771621",
    "latitude": "29.918098532995085",
    "geocoded_column": {
      "latitude": "29.918098532995085",
      "longitude": "-90.01183075771621"
    }
  },
  {
    "service_request": "2022-882134",
    "request_type": "Health Related Questions",
    "request_reason": "Noise Ordinance Complaint",
    "date_created": "2022-05-11T21:09:11.000",
    "date_modified": "2022-05-11T21:09:11.000",
    "request_status": "Pending",
    "responsible_agency": "Health Department",
    "final_address": "550 baronne st",
    "address_councildis": "B",
    "status": "Pending",
    "rowid": "882134",
    "final_x": "3679871.27515",
    "final_y": "529133.143296",
    "longitude": "-90.07329612681656",
    "latitude": "29.948981981496516",
    "geocoded_column": {
      "latitude": "29.948981981496516",
      "longitude": "-90.07329612681656"
    }
  },
  {
    "service_request": "2022-882133",
    "request_type": "Trash/Recycling",
    "request_reason": "Missed Trash Pick-Up",
    "date_created": "2022-05-11T21:00:33.000",
    "date_modified": "2022-05-11T21:00:34.000",
    "request_status": "Pending",
    "responsible_agency": "Department of Sanitation",
    "final_address": "7705 Willow St",
    "address_councildis": "A",
    "status": "Assigned to Contractor",
    "contractor": "Richards Disposal",
    "rowid": "882133",
    "final_x": "3663500.18957",
    "final_y": "527973.290815",
    "longitude": "-90.12502560678689",
    "latitude": "29.94627761976448",
    "geocoded_column": {
      "latitude": "29.94627761976448",
      "longitude": "-90.12502560678689"
    }
  },
  {
    "service_request": "2022-882132",
    "request_type": "Trash/Recycling",
    "request_reason": "Order Trash Cart",
    "date_created": "2022-05-11T20:57:24.000",
    "date_modified": "2022-05-11T20:57:25.000",
    "request_status": "Pending",
    "responsible_agency": "Department of Sanitation",
    "final_address": "4822 Montegut Dr",
    "address_councildis": "D",
    "status": "Assigned to Contractor",
    "contractor": "Metro Disposal",
    "rowid": "882132",
    "final_x": "3689836.37622",
    "final_y": "550781.580949",
    "longitude": "-90.04106119824708",
    "latitude": "30.008202417104027",
    "geocoded_column": {
      "latitude": "30.008202417104027",
      "longitude": "-90.04106119824708"
    }
  },
  {
    "service_request": "2022-882131",
    "request_type": "Health Related Questions",
    "request_reason": "Noise Ordinance Complaint",
    "date_created": "2022-05-11T20:55:48.000",
    "date_modified": "2022-05-11T20:55:48.000",
    "request_status": "Pending",
    "responsible_agency": "Health Department",
    "final_address": "550 baronne st ",
    "address_councildis": "B",
    "status": "Pending",
    "rowid": "882131",
    "final_x": "3679871.27515",
    "final_y": "529133.143296",
    "longitude": "-90.07329612681656",
    "latitude": "29.948981981496516",
    "geocoded_column": {
      "latitude": "29.948981981496516",
      "longitude": "-90.07329612681656"
    }
  },
  {
    "service_request": "2022-882130",
    "request_type": "Trash/Recycling",
    "request_reason": "Missed Trash Pick-Up",
    "date_created": "2022-05-11T20:52:56.000",
    "date_modified": "2022-05-11T20:52:57.000",
    "request_status": "Pending",
    "responsible_agency": "Department of Sanitation",
    "final_address": "7809 Cohn St",
    "address_councildis": "A",
    "status": "Assigned to Contractor",
    "contractor": "Richards Disposal",
    "rowid": "882130",
    "final_x": "3664419.81492",
    "final_y": "529524.518401",
    "longitude": "-90.12207024240811",
    "latitude": "29.950516298276018",
    "geocoded_column": {
      "latitude": "29.950516298276018",
      "longitude": "-90.12207024240811"
    }
  },
  {
    "service_request": "2022-882129",
    "request_type": "Trash/Recycling",
    "request_reason": "Illegal Dumping",
    "date_created": "2022-05-11T20:51:44.000",
    "date_modified": "2022-05-11T20:51:44.000",
    "request_status": "Pending",
    "responsible_agency": "Department of Sanitation",
    "final_address": "1228 Gallier St",
    "address_councildis": "C",
    "status": "Pending",
    "rowid": "882129",
    "final_x": "3690574.97276",
    "final_y": "536246.590471",
    "longitude": "-90.03924636760223",
    "latitude": "29.968213498292172",
    "geocoded_column": {
      "latitude": "29.968213498292172",
      "longitude": "-90.03924636760223"
    }
  },
  {
    "service_request": "2022-882128",
    "request_type": "Roads/Drainage",
    "request_reason": "Damaged Sidewalk",
    "date_created": "2022-05-11T20:51:04.000",
    "date_modified": "2022-05-11T20:51:04.000",
    "request_status": "Pending",
    "responsible_agency": "Department of Public Works",
    "final_address": "330 Carondelet St",
    "address_councildis": "B",
    "status": "Pending",
    "rowid": "882128",
    "final_x": "3680490.83061",
    "final_y": "529959.555713",
    "longitude": "-90.07131118307936",
    "latitude": "29.95123558976461",
    "geocoded_column": {
      "latitude": "29.95123558976461",
      "longitude": "-90.07131118307936"
    }
  },
  {
    "service_request": "2022-882127",
    "request_type": "Trash/Recycling",
    "request_reason": "Missed Trash Pick-Up",
    "date_created": "2022-05-11T20:46:57.000",
    "date_modified": "2022-05-11T20:46:58.000",
    "request_status": "Pending",
    "responsible_agency": "Department of Sanitation",
    "final_address": "1607 Pine St",
    "address_councildis": "A",
    "status": "Assigned to Contractor",
    "contractor": "Richards Disposal",
    "rowid": "882127",
    "final_x": "3664824.95968",
    "final_y": "527862.477375",
    "longitude": "-90.12084653058926",
    "latitude": "29.945934439308413",
    "geocoded_column": {
      "latitude": "29.945934439308413",
      "longitude": "-90.12084653058926"
    }
  },
  {
    "service_request": "2022-882125",
    "request_type": "Trash/Recycling",
    "request_reason": "Missed Trash Pick-Up",
    "date_created": "2022-05-11T20:45:45.000",
    "date_modified": "2022-05-11T20:45:46.000",
    "request_status": "Pending",
    "responsible_agency": "Department of Sanitation",
    "final_address": "329 Lowerline St",
    "address_councildis": "A",
    "status": "Assigned to Contractor",
    "contractor": "Richards Disposal",
    "rowid": "882125",
    "final_x": "3661536.41658",
    "final_y": "523552.803195",
    "longitude": "-90.13137236076453",
    "latitude": "29.93417947531416",
    "geocoded_column": {
      "latitude": "29.93417947531416",
      "longitude": "-90.13137236076453"
    }
  },
  {
    "service_request": "2022-882124",
    "request_type": "Trash/Recycling",
    "request_reason": "Missed Trash Pick-Up",
    "date_created": "2022-05-11T20:43:02.000",
    "date_modified": "2022-05-11T20:43:02.000",
    "request_status": "Pending",
    "responsible_agency": "Department of Sanitation",
    "final_address": "7544 Plum St",
    "address_councildis": "A",
    "status": "Assigned to Contractor",
    "contractor": "Richards Disposal",
    "rowid": "882124",
    "final_x": "3663585.54163",
    "final_y": "527324.637247",
    "longitude": "-90.12477772058831",
    "latitude": "29.944491555287335",
    "geocoded_column": {
      "latitude": "29.944491555287335",
      "longitude": "-90.12477772058831"
    }
  },
  {
    "service_request": "2022-882123",
    "request_type": "Trash/Recycling",
    "request_reason": "Missed Trash Pick-Up",
    "date_created": "2022-05-11T20:42:35.000",
    "date_modified": "2022-05-11T20:42:36.000",
    "request_status": "Pending",
    "responsible_agency": "Department of Sanitation",
    "final_address": "2133 S Carrollton Ave",
    "address_councildis": "A",
    "status": "Assigned to Contractor",
    "contractor": "Richards Disposal",
    "rowid": "882123",
    "final_x": "3664399.18464",
    "final_y": "530806.402754",
    "longitude": "-90.12209259692824",
    "latitude": "29.954041664744928",
    "geocoded_column": {
      "latitude": "29.954041664744928",
      "longitude": "-90.12209259692824"
    }
  },
  {
    "service_request": "2022-882122",
    "request_type": "Traffic Signals/Signs/Striping/Streetlights",
    "request_reason": "Street Light Outage/Malfunction",
    "date_created": "2022-05-11T20:40:39.000",
    "date_modified": "2022-05-11T20:40:41.000",
    "request_status": "Pending",
    "responsible_agency": "Department of Public Works",
    "final_address": "869 Robert E Lee Blvd",
    "address_councildis": "D",
    "status": "Pending",
    "contractor": "Royal Engineering",
    "rowid": "882122",
    "final_x": "3670465.38561",
    "final_y": "554692.200216",
    "longitude": "-90.10212754260152",
    "latitude": "30.019541712298764",
    "geocoded_column": {
      "latitude": "30.019541712298764",
      "longitude": "-90.10212754260152"
    }
  },
  {
    "service_request": "2022-882120",
    "request_type": "Property Maintenance",
    "request_reason": "Property Maintenance",
    "date_created": "2022-05-11T20:32:35.000",
    "date_modified": "2022-05-11T20:32:35.000",
    "request_status": "Pending",
    "responsible_agency": "Department of Code Enforcement",
    "final_address": "4967 N Rampart St",
    "address_councildis": "E",
    "status": "Pending",
    "rowid": "882120",
    "final_x": "3695802.50192",
    "final_y": "533895.995461",
    "longitude": "-90.02282259427349",
    "latitude": "29.961586825108164",
    "geocoded_column": {
      "latitude": "29.961586825108164",
      "longitude": "-90.02282259427349"
    }
  },
  {
    "service_request": "2022-882119",
    "request_type": "Abandoned Vehicles",
    "request_reason": "Abandoned/Junk Vehicles",
    "date_created": "2022-05-11T20:29:36.000",
    "date_modified": "2022-05-11T20:29:36.000",
    "request_status": "Pending",
    "responsible_agency": "Department of Public Works",
    "final_address": "1013 Soniat St",
    "address_councildis": "B",
    "status": "Pending",
    "rowid": "882119",
    "final_x": "3668402.95124",
    "final_y": "519085.745847",
    "longitude": "-90.1098454569261",
    "latitude": "29.92169664762382",
    "geocoded_column": {
      "latitude": "29.92169664762382",
      "longitude": "-90.1098454569261"
    }
  },
  {
    "service_request": "2022-882118",
    "request_type": "Trash/Recycling",
    "request_reason": "Request a Large Item Pick Up",
    "date_created": "2022-05-11T20:26:49.000",
    "date_modified": "2022-05-11T20:26:50.000",
    "request_status": "Pending",
    "responsible_agency": "Department of Sanitation",
    "final_address": "2225 Urquhart St",
    "address_councildis": "C",
    "status": "Assigned to Contractor",
    "contractor": "Metro Disposal",
    "rowid": "882118",
    "final_x": "3685247.01653",
    "final_y": "537103.670728",
    "longitude": "-90.05604207600916",
    "latitude": "29.970734549725336",
    "geocoded_column": {
      "latitude": "29.970734549725336",
      "longitude": "-90.05604207600916"
    }
  },
  {
    "service_request": "2022-882117",
    "request_type": "Trash/Recycling",
    "request_reason": "Missed Trash Pick-Up",
    "date_created": "2022-05-11T20:19:33.000",
    "date_modified": "2022-05-11T20:19:33.000",
    "request_status": "Pending",
    "responsible_agency": "Department of Sanitation",
    "final_address": "7451 Benjamin St",
    "address_councildis": "A",
    "status": "Assigned to Contractor",
    "contractor": "Richards Disposal",
    "rowid": "882117",
    "final_x": "3661576.44422",
    "final_y": "524507.525052",
    "longitude": "-90.13121437357768",
    "latitude": "29.936803504768722",
    "geocoded_column": {
      "latitude": "29.936803504768722",
      "longitude": "-90.13121437357768"
    }
  },
  {
    "service_request": "2022-882116",
    "request_type": "Trash/Recycling",
    "request_reason": "Missed Trash Pick-Up",
    "date_created": "2022-05-11T20:12:45.000",
    "date_modified": "2022-05-11T20:12:46.000",
    "request_status": "Pending",
    "responsible_agency": "Department of Sanitation",
    "final_address": "1322 Burdette St",
    "address_councildis": "A",
    "status": "Assigned to Contractor",
    "contractor": "Richards Disposal",
    "rowid": "882116",
    "final_x": "3663123.46458",
    "final_y": "528036.821247",
    "longitude": "-90.1262129512925",
    "latitude": "29.94646322612481",
    "geocoded_column": {
      "latitude": "29.94646322612481",
      "longitude": "-90.1262129512925"
    }
  },
  {
    "service_request": "2022-882115",
    "request_type": "Trash/Recycling",
    "request_reason": "MIssed Recycling Pick-Up",
    "date_created": "2022-05-11T20:09:05.000",
    "date_modified": "2022-05-11T20:09:05.000",
    "request_status": "Pending",
    "responsible_agency": "Department of Sanitation",
    "final_address": "1409 Saint Mary St, New Orleans, Louisiana, 70130",
    "status": "Assigned to Contractor",
    "rowid": "882115",
    "longitude": "0.0",
    "latitude": "0.0",
    "geocoded_column": {
      "latitude": "0.0",
      "longitude": "0.0"
    }
  },
  {
    "service_request": "2022-882114",
    "request_type": "Property Maintenance",
    "request_reason": "Property Maintenance",
    "date_created": "2022-05-11T20:08:06.000",
    "date_modified": "2022-05-11T20:08:06.000",
    "request_status": "Pending",
    "responsible_agency": "Department of Code Enforcement",
    "final_address": "4645 Kendall Dr",
    "address_councildis": "D",
    "status": "Pending",
    "rowid": "882114",
    "final_x": "3690501.80752",
    "final_y": "550693.675989",
    "longitude": "-90.03896203996844",
    "latitude": "30.00794005883105",
    "geocoded_column": {
      "latitude": "30.00794005883105",
      "longitude": "-90.03896203996844"
    }
  },
  {
    "service_request": "2022-882113",
    "request_type": "Trash/Recycling",
    "request_reason": "Missed Trash Pick-Up",
    "date_created": "2022-05-11T20:00:36.000",
    "date_modified": "2022-05-11T20:00:37.000",
    "request_status": "Pending",
    "responsible_agency": "Department of Sanitation",
    "final_address": "3329 Joseph St, New Orleans, Louisiana, 70125",
    "address_councildis": "A",
    "status": "Assigned to Contractor",
    "contractor": "Richards Disposal",
    "rowid": "882113",
    "final_x": "3668192.0978",
    "final_y": "527999.439871",
    "longitude": "-90.11021068848942",
    "latitude": "29.9462126419332",
    "geocoded_column": {
      "latitude": "29.9462126419332",
      "longitude": "-90.11021068848942"
    }
  },
  {
    "service_request": "2022-882112",
    "request_type": "Trash/Recycling",
    "request_reason": "Missed Trash Pick-Up",
    "date_created": "2022-05-11T19:58:04.000",
    "date_modified": "2022-05-11T19:58:05.000",
    "request_status": "Pending",
    "responsible_agency": "Department of Sanitation",
    "final_address": "1423 Pine St, New Orleans, Louisiana, 70118",
    "address_councildis": "A",
    "status": "Assigned to Contractor",
    "contractor": "Richards Disposal",
    "rowid": "882112",
    "final_x": "3664494.86317",
    "final_y": "527364.868863",
    "longitude": "-90.12190537170652",
    "latitude": "29.944575776135945",
    "geocoded_column": {
      "latitude": "29.944575776135945",
      "longitude": "-90.12190537170652"
    }
  },
  {
    "service_request": "2022-882111",
    "request_type": "Trash/Recycling",
    "request_reason": "Missed Trash Pick-Up",
    "date_created": "2022-05-11T19:52:28.000",
    "date_modified": "2022-05-11T19:52:28.000",
    "request_status": "Pending",
    "responsible_agency": "Department of Sanitation",
    "final_address": "44 Neron Pl",
    "address_councildis": "A",
    "status": "Assigned to Contractor",
    "contractor": "Richards Disposal",
    "rowid": "882111",
    "final_x": "3665403.34516",
    "final_y": "530408.729666",
    "longitude": "-90.11893516100587",
    "latitude": "29.952918967827237",
    "geocoded_column": {
      "latitude": "29.952918967827237",
      "longitude": "-90.11893516100587"
    }
  },
  {
    "service_request": "2022-882110",
    "request_type": "Mosquito, Termite & Rodent Control",
    "request_reason": "Rodent Complaint (Rats)",
    "date_created": "2022-05-11T19:50:08.000",
    "date_modified": "2022-05-11T19:50:08.000",
    "request_status": "Pending",
    "responsible_agency": "Mosquito, Termite & Rodent Control Board",
    "final_address": "1909 Carnot St",
    "address_councildis": "D",
    "status": "Pending",
    "rowid": "882110",
    "final_x": "3681766.42146",
    "final_y": "549836.946644",
    "longitude": "-90.06658964814753",
    "latitude": "30.005852795931506",
    "geocoded_column": {
      "latitude": "30.005852795931506",
      "longitude": "-90.06658964814753"
    }
  },
  {
    "service_request": "2022-882109",
    "request_type": "Trash/Recycling",
    "request_reason": "Missed Trash Pick-Up",
    "date_created": "2022-05-11T19:47:16.000",
    "date_modified": "2022-05-11T19:47:17.000",
    "request_status": "Pending",
    "responsible_agency": "Department of Sanitation",
    "final_address": "1517 Audubon St",
    "address_councildis": "A",
    "status": "Assigned to Contractor",
    "contractor": "Richards Disposal",
    "rowid": "882109",
    "final_x": "3665148.36218",
    "final_y": "527341.708927",
    "longitude": "-90.11984284870844",
    "latitude": "29.944493079965188",
    "geocoded_column": {
      "latitude": "29.944493079965188",
      "longitude": "-90.11984284870844"
    }
  },
  {
    "service_request": "2022-882108",
    "request_type": "Roads/Drainage",
    "request_reason": "Street Flooding / Drainage",
    "date_created": "2022-05-11T19:46:42.000",
    "date_modified": "2022-05-11T19:46:42.000",
    "request_status": "Pending",
    "responsible_agency": "Department of Public Works",
    "final_address": "532 S Hennessey St",
    "address_councildis": "A",
    "status": "Pending",
    "rowid": "882108",
    "final_x": "3669206.83354",
    "final_y": "537457.6914",
    "longitude": "-90.1066871172714",
    "latitude": "29.97218988592311",
    "geocoded_column": {
      "latitude": "29.97218988592311",
      "longitude": "-90.1066871172714"
    }
  },
  {
    "service_request": "2022-882107",
    "request_type": "Trash/Recycling",
    "request_reason": "Missed Trash Pick-Up",
    "date_created": "2022-05-11T19:41:46.000",
    "date_modified": "2022-05-11T19:41:47.000",
    "request_status": "Pending",
    "responsible_agency": "Department of Sanitation",
    "final_address": "4507 S Derbigny St, New Orleans, Louisiana, 70125",
    "address_councildis": "B",
    "status": "Assigned to Contractor",
    "contractor": "Richards Disposal",
    "rowid": "882107",
    "final_x": "3669813.92961",
    "final_y": "526233.115518",
    "longitude": "-90.10514976631",
    "latitude": "29.941308121614924",
    "geocoded_column": {
      "latitude": "29.941308121614924",
      "longitude": "-90.10514976631"
    }
  },
  {
    "service_request": "2022-882106",
    "request_type": "Roads/Drainage",
    "request_reason": "Damaged Sidewalk",
    "date_created": "2022-05-11T19:40:14.000",
    "date_modified": "2022-05-11T19:40:14.000",
    "request_status": "Pending",
    "responsible_agency": "Department of Public Works",
    "final_address": "322 Lafayette St",
    "address_councildis": "B",
    "status": "Pending",
    "rowid": "882106",
    "final_x": "3681973.35426",
    "final_y": "528564.886976",
    "longitude": "-90.0666787908127",
    "latitude": "29.94735573993066",
    "geocoded_column": {
      "latitude": "29.94735573993066",
      "longitude": "-90.0666787908127"
    }
  },
  {
    "service_request": "2022-882105",
    "request_type": "Trash/Recycling",
    "request_reason": "Missed Trash Pick-Up",
    "date_created": "2022-05-11T19:32:02.000",
    "date_modified": "2022-05-11T19:32:03.000",
    "request_status": "Pending",
    "responsible_agency": "Department of Sanitation",
    "final_address": "7602 Hampson St",
    "address_councildis": "A",
    "status": "Assigned to Contractor",
    "contractor": "Richards Disposal",
    "rowid": "882105",
    "final_x": "3662068.96128",
    "final_y": "525889.555645",
    "longitude": "-90.12961363003518",
    "latitude": "29.94058943397732",
    "geocoded_column": {
      "latitude": "29.94058943397732",
      "longitude": "-90.12961363003518"
    }
  },
  {
    "service_request": "2022-882104",
    "request_type": "Abandoned Vehicles",
    "request_reason": "Abandoned/Junk Vehicles",
    "date_created": "2022-05-11T19:22:53.000",
    "date_modified": "2022-05-11T19:22:53.000",
    "request_status": "Pending",
    "responsible_agency": "Department of Public Works",
    "final_address": "1522 N Robertson St",
    "address_councildis": "C",
    "status": "Pending",
    "rowid": "882104",
    "final_x": "3682179.87618",
    "final_y": "537087.37524",
    "longitude": "-90.06572904046273",
    "latitude": "29.970783397096294",
    "geocoded_column": {
      "latitude": "29.970783397096294",
      "longitude": "-90.06572904046273"
    }
  },
  {
    "service_request": "2022-882103",
    "request_type": "Trash/Recycling",
    "request_reason": "Missed Trash Pick-Up",
    "date_created": "2022-05-11T19:20:49.000",
    "date_modified": "2022-05-11T19:20:50.000",
    "request_status": "Pending",
    "responsible_agency": "Department of Sanitation",
    "final_address": "8534 Apricot St",
    "address_councildis": "A",
    "status": "Assigned to Contractor",
    "contractor": "Richards Disposal",
    "rowid": "882103",
    "final_x": "3664541.88282",
    "final_y": "533743.219781",
    "longitude": "-90.12154394193134",
    "latitude": "29.96211280517692",
    "geocoded_column": {
      "latitude": "29.96211280517692",
      "longitude": "-90.12154394193134"
    }
  },
  {
    "service_request": "2022-882102",
    "request_type": "Safety & Permits",
    "request_reason": "Licenses & Permits",
    "date_created": "2022-05-11T19:11:42.000",
    "date_modified": "2022-05-11T19:11:42.000",
    "request_status": "Pending",
    "responsible_agency": "Safety and Permits",
    "final_address": "2 Wren St",
    "address_councildis": "D",
    "status": "Pending",
    "rowid": "882102",
    "final_x": "3672042.56212",
    "final_y": "555973.218393",
    "longitude": "-90.09710050923744",
    "latitude": "30.023017361545506",
    "geocoded_column": {
      "latitude": "30.023017361545506",
      "longitude": "-90.09710050923744"
    }
  },
  {
    "service_request": "2022-882101",
    "request_type": "Abandoned Vehicles",
    "request_reason": "Vehicle Blocking Your Driveway",
    "date_created": "2022-05-11T19:07:31.000",
    "date_modified": "2022-05-11T19:07:31.000",
    "request_status": "Pending",
    "responsible_agency": "Department of Public Works",
    "final_address": "2 Wren St",
    "address_councildis": "D",
    "status": "Pending",
    "rowid": "882101",
    "final_x": "3672042.56212",
    "final_y": "555973.218393",
    "longitude": "-90.09710050923744",
    "latitude": "30.023017361545506",
    "geocoded_column": {
      "latitude": "30.023017361545506",
      "longitude": "-90.09710050923744"
    }
  },
  {
    "service_request": "2022-882100",
    "request_type": "Trash/Recycling",
    "request_reason": "Missed Trash Pick-Up",
    "date_created": "2022-05-11T19:04:48.000",
    "date_modified": "2022-05-11T19:04:49.000",
    "request_status": "Pending",
    "responsible_agency": "Department of Sanitation",
    "final_address": "7710 Spruce St, New Orleans, Louisiana, 70118",
    "address_councildis": "A",
    "status": "Assigned to Contractor",
    "contractor": "Richards Disposal",
    "rowid": "882100",
    "final_x": "3664840.9017",
    "final_y": "529502.147649",
    "longitude": "-90.12074141015833",
    "latitude": "29.95044253965382",
    "geocoded_column": {
      "latitude": "29.95044253965382",
      "longitude": "-90.12074141015833"
    }
  },
  {
    "service_request": "2022-882099",
    "request_type": "Trash/Recycling",
    "request_reason": "Missed Trash Pick-Up",
    "date_created": "2022-05-11T19:04:37.000",
    "date_modified": "2022-05-11T19:04:38.000",
    "request_status": "Pending",
    "responsible_agency": "Department of Sanitation",
    "final_address": "1029 Burdette St",
    "address_councildis": "A",
    "status": "Assigned to Contractor",
    "contractor": "Richards Disposal",
    "rowid": "882099",
    "final_x": "3662506.69619",
    "final_y": "527239.734975",
    "longitude": "-90.12818678660965",
    "latitude": "29.944289345400932",
    "geocoded_column": {
      "latitude": "29.944289345400932",
      "longitude": "-90.12818678660965"
    }
  },
  {
    "service_request": "2022-882098",
    "request_type": "Roads/Drainage",
    "request_reason": "Pothole",
    "date_created": "2022-05-11T18:58:10.000",
    "date_modified": "2022-05-11T18:58:10.000",
    "request_status": "Pending",
    "responsible_agency": "Department of Public Works",
    "final_address": "2721 Baronne St",
    "address_councildis": "B",
    "status": "Pending",
    "rowid": "882098",
    "final_x": "3675597.2187",
    "final_y": "523240.372667",
    "longitude": "-90.08699357150044",
    "latitude": "29.93290734208012",
    "geocoded_column": {
      "latitude": "29.93290734208012",
      "longitude": "-90.08699357150044"
    }
  },
  {
    "service_request": "2022-882097",
    "request_type": "Trash/Recycling",
    "request_reason": "Missed Trash Pick-Up",
    "date_created": "2022-05-11T18:48:26.000",
    "date_modified": "2022-05-11T18:48:27.000",
    "request_status": "Pending",
    "responsible_agency": "Department of Sanitation",
    "final_address": "7612 Malvern Dr",
    "address_councildis": "E",
    "status": "Assigned to Contractor",
    "contractor": "Metro Disposal",
    "rowid": "882097",
    "final_x": "3702354.18948",
    "final_y": "561580.724383",
    "longitude": "-90.00111717930676",
    "latitude": "30.037501787195165",
    "geocoded_column": {
      "latitude": "30.037501787195165",
      "longitude": "-90.00111717930676"
    }
  },
  {
    "service_request": "2022-882096",
    "request_type": "Trash/Recycling",
    "request_reason": "Replace Trash Cart",
    "date_created": "2022-05-11T18:47:02.000",
    "date_modified": "2022-05-11T18:47:03.000",
    "request_status": "Pending",
    "responsible_agency": "Department of Sanitation",
    "final_address": "7514 Willow St",
    "address_councildis": "A",
    "status": "Assigned to Contractor",
    "contractor": "Richards Disposal",
    "rowid": "882096",
    "final_x": "3663903.04058",
    "final_y": "527463.415679",
    "longitude": "-90.12377065390213",
    "latitude": "29.94486393966146",
    "geocoded_column": {
      "latitude": "29.94486393966146",
      "longitude": "-90.12377065390213"
    }
  },
  {
    "service_request": "2022-882095",
    "request_type": "Property Maintenance",
    "request_reason": "Property Maintenance",
    "date_created": "2022-05-11T18:46:26.000",
    "date_modified": "2022-05-11T18:46:26.000",
    "request_status": "Pending",
    "responsible_agency": "Department of Code Enforcement",
    "final_address": "8601 Green St",
    "address_councildis": "A",
    "status": "Pending",
    "rowid": "882095",
    "final_x": "3661826.2473",
    "final_y": "530923.185666",
    "longitude": "-90.1302130580833",
    "latitude": "29.9544373144888",
    "geocoded_column": {
      "latitude": "29.9544373144888",
      "longitude": "-90.1302130580833"
    }
  },
  {
    "service_request": "2022-882094",
    "request_type": "Trash/Recycling",
    "request_reason": "Missed Trash Pick-Up",
    "date_created": "2022-05-11T18:45:11.000",
    "date_modified": "2022-05-11T18:45:12.000",
    "request_status": "Pending",
    "responsible_agency": "Department of Sanitation",
    "final_address": "7514 Willow St",
    "address_councildis": "A",
    "status": "Assigned to Contractor",
    "contractor": "Richards Disposal",
    "rowid": "882094",
    "final_x": "3663903.04058",
    "final_y": "527463.415679",
    "longitude": "-90.12377065390213",
    "latitude": "29.94486393966146",
    "geocoded_column": {
      "latitude": "29.94486393966146",
      "longitude": "-90.12377065390213"
    }
  },
  {
    "service_request": "2022-882093",
    "request_type": "Trash/Recycling",
    "request_reason": "Missed Trash Pick-Up",
    "date_created": "2022-05-11T18:41:05.000",
    "date_modified": "2022-05-11T18:41:05.000",
    "request_status": "Pending",
    "responsible_agency": "Department of Sanitation",
    "final_address": "4037 Ulloa St",
    "address_councildis": "A",
    "status": "Assigned to Contractor",
    "contractor": "Richards Disposal",
    "rowid": "882093",
    "final_x": "3669819.61492",
    "final_y": "536399.998919",
    "longitude": "-90.1047876599315",
    "latitude": "29.96926353446488",
    "geocoded_column": {
      "latitude": "29.96926353446488",
      "longitude": "-90.1047876599315"
    }
  },
  {
    "service_request": "2022-882092",
    "request_type": "Trash/Recycling",
    "request_reason": "Replace Trash Cart",
    "date_created": "2022-05-11T18:38:05.000",
    "date_modified": "2022-05-11T18:38:05.000",
    "request_status": "Pending",
    "responsible_agency": "Department of Sanitation",
    "final_address": "7732 S Claiborne Ave",
    "address_councildis": "A",
    "status": "Assigned to Contractor",
    "contractor": "Richards Disposal",
    "rowid": "882092",
    "final_x": "3665682.56378",
    "final_y": "530626.834114",
    "longitude": "-90.11804620419285",
    "latitude": "29.953510544223114",
    "geocoded_column": {
      "latitude": "29.953510544223114",
      "longitude": "-90.11804620419285"
    }
  },
  {
    "service_request": "2022-882091",
    "request_type": "Trash/Recycling",
    "request_reason": "Missed Trash Pick-Up",
    "date_created": "2022-05-11T18:37:21.000",
    "date_modified": "2022-05-11T18:37:22.000",
    "request_status": "Pending",
    "responsible_agency": "Department of Sanitation",
    "final_address": "1900 BLK Audubon St",
    "address_councildis": "A",
    "status": "Assigned to Contractor",
    "contractor": "Richards Disposal",
    "rowid": "882091",
    "final_x": "3665898.29021",
    "final_y": "528531.215035",
    "longitude": "-90.11743524527486",
    "latitude": "29.947741978596035",
    "geocoded_column": {
      "latitude": "29.947741978596035",
      "longitude": "-90.11743524527486"
    }
  },
  {
    "service_request": "2022-882090",
    "request_type": "Trash/Recycling",
    "request_reason": "Order Recycling Cart",
    "date_created": "2022-05-11T18:37:12.000",
    "date_modified": "2022-05-11T18:37:12.000",
    "request_status": "Pending",
    "responsible_agency": "Department of Sanitation",
    "final_address": "7732 S Claiborne Ave",
    "address_councildis": "A",
    "status": "Pending",
    "rowid": "882090",
    "final_x": "3665682.56378",
    "final_y": "530626.834114",
    "longitude": "-90.11804620419285",
    "latitude": "29.953510544223114",
    "geocoded_column": {
      "latitude": "29.953510544223114",
      "longitude": "-90.11804620419285"
    }
  },
  {
    "service_request": "2022-882088",
    "request_type": "Trash/Recycling",
    "request_reason": "Replace Trash Cart",
    "date_created": "2022-05-11T18:35:40.000",
    "date_modified": "2022-05-11T18:35:41.000",
    "request_status": "Pending",
    "responsible_agency": "Department of Sanitation",
    "final_address": "7730 S Claiborne Ave",
    "address_councildis": "A",
    "status": "Assigned to Contractor",
    "contractor": "Richards Disposal",
    "rowid": "882088",
    "final_x": "3665698.26586",
    "final_y": "530612.496898",
    "longitude": "-90.11799710363186",
    "latitude": "29.953470663611846",
    "geocoded_column": {
      "latitude": "29.953470663611846",
      "longitude": "-90.11799710363186"
    }
  },
  {
    "service_request": "2022-882087",
    "request_type": "Trash/Recycling",
    "request_reason": "Order Recycling Cart",
    "date_created": "2022-05-11T18:34:06.000",
    "date_modified": "2022-05-11T18:34:06.000",
    "request_status": "Pending",
    "responsible_agency": "Department of Sanitation",
    "final_address": "7730 S Claiborne Ave",
    "address_councildis": "A",
    "status": "Pending",
    "rowid": "882087",
    "final_x": "3665698.26586",
    "final_y": "530612.496898",
    "longitude": "-90.11799710363186",
    "latitude": "29.953470663611846",
    "geocoded_column": {
      "latitude": "29.953470663611846",
      "longitude": "-90.11799710363186"
    }
  },
  {
    "service_request": "2022-882086",
    "request_type": "Trash/Recycling",
    "request_reason": "Missed Trash Pick-Up",
    "date_created": "2022-05-11T18:32:00.000",
    "date_modified": "2022-05-11T18:32:01.000",
    "request_status": "Pending",
    "responsible_agency": "Department of Sanitation",
    "final_address": "1831 S Dupre St",
    "address_councildis": "B",
    "status": "Assigned to Contractor",
    "contractor": "Richards Disposal",
    "rowid": "882086",
    "final_x": "3670426.38862",
    "final_y": "529658.538625",
    "longitude": "-90.10309999869328",
    "latitude": "29.95070885225849",
    "geocoded_column": {
      "latitude": "29.95070885225849",
      "longitude": "-90.10309999869328"
    }
  },
  {
    "service_request": "2022-882085",
    "request_type": "Trash/Recycling",
    "request_reason": "Repair Trash Cart",
    "date_created": "2022-05-11T18:24:28.000",
    "date_modified": "2022-05-11T18:24:29.000",
    "request_status": "Pending",
    "responsible_agency": "Department of Sanitation",
    "final_address": "1015 Jena St",
    "address_councildis": "B",
    "status": "Assigned to Contractor",
    "contractor": "Richards Disposal",
    "rowid": "882085",
    "final_x": "3670656.57447",
    "final_y": "519283.009591",
    "longitude": "-90.10272502996892",
    "latitude": "29.92217270131177",
    "geocoded_column": {
      "latitude": "29.92217270131177",
      "longitude": "-90.10272502996892"
    }
  },
  {
    "service_request": "2022-882084",
    "request_type": "Trash/Recycling",
    "request_reason": "Missed Trash Pick-Up",
    "date_created": "2022-05-11T18:18:33.000",
    "date_modified": "2022-05-11T18:18:34.000",
    "request_status": "Pending",
    "responsible_agency": "Department of Sanitation",
    "final_address": "4133 Vincennes Pl",
    "address_councildis": "B",
    "status": "Assigned to Contractor",
    "contractor": "Richards Disposal",
    "rowid": "882084",
    "final_x": "3668690.06023",
    "final_y": "530771.10797",
    "longitude": "-90.10854490304123",
    "latitude": "29.953819199199952",
    "geocoded_column": {
      "latitude": "29.953819199199952",
      "longitude": "-90.10854490304123"
    }
  },
  {
    "service_request": "2022-882083",
    "request_type": "Trash/Recycling",
    "request_reason": "Replace Trash Cart",
    "date_created": "2022-05-11T18:16:33.000",
    "date_modified": "2022-05-11T18:16:33.000",
    "request_status": "Pending",
    "responsible_agency": "Department of Sanitation",
    "final_address": "4661 Stephen Girard Ave",
    "address_councildis": "D",
    "status": "Assigned to Contractor",
    "contractor": "Metro Disposal",
    "rowid": "882083",
    "final_x": "3691468.9919",
    "final_y": "550665.378772",
    "longitude": "-90.03590743796941",
    "latitude": "30.007832175101335",
    "geocoded_column": {
      "latitude": "30.007832175101335",
      "longitude": "-90.03590743796941"
    }
  },
  {
    "service_request": "2022-882082",
    "request_type": "Trash/Recycling",
    "request_reason": "Request a Large Item Pick Up",
    "date_created": "2022-05-11T18:13:41.000",
    "date_modified": "2022-05-11T18:13:42.000",
    "request_status": "Pending",
    "responsible_agency": "Department of Sanitation",
    "final_address": "4116 Prytania St",
    "address_councildis": "B",
    "status": "Assigned to Contractor",
    "contractor": "Richards Disposal",
    "rowid": "882082",
    "final_x": "3671852.56423",
    "final_y": "520362.412024",
    "longitude": "-90.09891307101228",
    "latitude": "29.925105340436552",
    "geocoded_column": {
      "latitude": "29.925105340436552",
      "longitude": "-90.09891307101228"
    }
  },
  {
    "service_request": "2022-882081",
    "request_type": "Trash/Recycling",
    "request_reason": "Missed Trash Pick-Up",
    "date_created": "2022-05-11T18:09:36.000",
    "date_modified": "2022-05-11T18:09:37.000",
    "request_status": "Pending",
    "responsible_agency": "Department of Sanitation",
    "final_address": "2408 Pine St, New Orleans, Louisiana, 70125",
    "address_councildis": "A",
    "status": "Assigned to Contractor",
    "contractor": "Richards Disposal",
    "rowid": "882081",
    "final_x": "3666358.19073",
    "final_y": "530441.541698",
    "longitude": "-90.11591906807385",
    "latitude": "29.952981329720956",
    "geocoded_column": {
      "latitude": "29.952981329720956",
      "longitude": "-90.11591906807385"
    }
  },
  {
    "service_request": "2022-882080",
    "request_type": "Trash/Recycling",
    "request_reason": "Missed Trash Pick-Up",
    "date_created": "2022-05-11T18:07:05.000",
    "date_modified": "2022-05-11T18:07:06.000",
    "request_status": "Pending",
    "responsible_agency": "Department of Sanitation",
    "final_address": "7719 Pearl St",
    "address_councildis": "A",
    "status": "Assigned to Contractor",
    "contractor": "Richards Disposal",
    "rowid": "882080",
    "final_x": "3661322.75584",
    "final_y": "525685.491069",
    "longitude": "-90.1319762934953",
    "latitude": "29.940049854606897",
    "geocoded_column": {
      "latitude": "29.940049854606897",
      "longitude": "-90.1319762934953"
    }
  },
  {
    "service_request": "2022-882079",
    "request_type": "Safety & Permits",
    "request_reason": "Licenses & Permits",
    "date_created": "2022-05-11T18:06:07.000",
    "date_modified": "2022-05-11T18:06:07.000",
    "request_status": "Pending",
    "responsible_agency": "Safety and Permits",
    "final_address": "3238 Milan St",
    "address_councildis": "B",
    "status": "Pending",
    "rowid": "882079",
    "final_x": "3670954.56903",
    "final_y": "526933.200574",
    "longitude": "-90.1015247795002",
    "latitude": "29.94319946073394",
    "geocoded_column": {
      "latitude": "29.94319946073394",
      "longitude": "-90.1015247795002"
    }
  },
  {
    "service_request": "2022-882078",
    "request_type": "Trash/Recycling",
    "request_reason": "Missed Trash Pick-Up",
    "date_created": "2022-05-11T17:55:30.000",
    "date_modified": "2022-05-11T17:55:31.000",
    "request_status": "Pending",
    "responsible_agency": "Department of Sanitation",
    "final_address": "208 Hillary St",
    "address_councildis": "A",
    "status": "Assigned to Contractor",
    "contractor": "Richards Disposal",
    "rowid": "882078",
    "final_x": "3660791.92806",
    "final_y": "524467.190908",
    "longitude": "-90.13369247583448",
    "latitude": "29.936715206414828",
    "geocoded_column": {
      "latitude": "29.936715206414828",
      "longitude": "-90.13369247583448"
    }
  },
  {
    "service_request": "2022-882077",
    "request_type": "Abandoned Vehicles",
    "request_reason": "Abandoned/Junk Vehicles",
    "date_created": "2022-05-11T17:47:13.000",
    "date_modified": "2022-05-11T17:47:13.000",
    "request_status": "Pending",
    "responsible_agency": "Department of Public Works",
    "final_address": "3101 Bienville Ave",
    "address_councildis": "B",
    "status": "Pending",
    "rowid": "882077",
    "final_x": "3674582.29089",
    "final_y": "536815.156296",
    "longitude": "-90.08973251866163",
    "latitude": "29.97026380736531",
    "geocoded_column": {
      "latitude": "29.97026380736531",
      "longitude": "-90.08973251866163"
    }
  },
  {
    "service_request": "2022-882076",
    "request_type": "Abandoned Vehicles",
    "request_reason": "Abandoned/Junk Vehicles",
    "date_created": "2022-05-11T17:45:17.000",
    "date_modified": "2022-05-11T17:45:17.000",
    "request_status": "Pending",
    "responsible_agency": "Department of Public Works",
    "final_address": "110 Ringold St",
    "address_councildis": "A",
    "status": "Pending",
    "rowid": "882076",
    "final_x": "3666700.19706",
    "final_y": "548424.351442",
    "longitude": "-90.11423503696736",
    "latitude": "30.002418023424237",
    "geocoded_column": {
      "latitude": "30.002418023424237",
      "longitude": "-90.11423503696736"
    }
  },
  {
    "service_request": "2022-882075",
    "request_type": "Abandoned Vehicles",
    "request_reason": "Abandoned/Junk Vehicles",
    "date_created": "2022-05-11T17:41:20.000",
    "date_modified": "2022-05-11T17:41:20.000",
    "request_status": "Pending",
    "responsible_agency": "Department of Public Works",
    "final_address": "3101 Bienville Ave",
    "address_councildis": "B",
    "status": "Pending",
    "rowid": "882075",
    "final_x": "3674582.29089",
    "final_y": "536815.156296",
    "longitude": "-90.08973251866163",
    "latitude": "29.97026380736531",
    "geocoded_column": {
      "latitude": "29.97026380736531",
      "longitude": "-90.08973251866163"
    }
  },
  {
    "service_request": "2022-882074",
    "request_type": "Trash/Recycling",
    "request_reason": "Missed Trash Pick-Up",
    "date_created": "2022-05-11T17:38:37.000",
    "date_modified": "2022-05-11T17:38:38.000",
    "request_status": "Pending",
    "responsible_agency": "Department of Sanitation",
    "final_address": "721 Short St",
    "address_councildis": "A",
    "status": "Assigned to Contractor",
    "contractor": "Richards Disposal",
    "rowid": "882074",
    "final_x": "3661288.63936",
    "final_y": "526885.025342",
    "longitude": "-90.13204430114482",
    "latitude": "29.943349176632033",
    "geocoded_column": {
      "latitude": "29.943349176632033",
      "longitude": "-90.13204430114482"
    }
  },
  {
    "service_request": "2022-882072",
    "request_type": "Trash/Recycling",
    "request_reason": "Missed Trash Pick-Up",
    "date_created": "2022-05-11T17:32:35.000",
    "date_modified": "2022-05-11T17:32:36.000",
    "request_status": "Pending",
    "responsible_agency": "Department of Sanitation",
    "final_address": "7328 Plum St",
    "address_councildis": "A",
    "status": "Assigned to Contractor",
    "contractor": "Richards Disposal",
    "rowid": "882072",
    "final_x": "3663927.37088",
    "final_y": "527035.813182",
    "longitude": "-90.12370808767713",
    "latitude": "29.94368746359225",
    "geocoded_column": {
      "latitude": "29.94368746359225",
      "longitude": "-90.12370808767713"
    }
  },
  {
    "service_request": "2022-882071",
    "request_type": "Abandoned Vehicles",
    "request_reason": "Abandoned/Junk Vehicles",
    "date_created": "2022-05-11T17:31:41.000",
    "date_modified": "2022-05-11T17:31:41.000",
    "request_status": "Pending",
    "responsible_agency": "Department of Public Works",
    "final_address": "3101 Bienville Ave",
    "address_councildis": "B",
    "status": "Pending",
    "rowid": "882071",
    "final_x": "3674582.29089",
    "final_y": "536815.156296",
    "longitude": "-90.08973251866163",
    "latitude": "29.97026380736531",
    "geocoded_column": {
      "latitude": "29.97026380736531",
      "longitude": "-90.08973251866163"
    }
  },
  {
    "service_request": "2022-882070",
    "request_type": "Traffic Signals/Signs/Striping/Streetlights",
    "request_reason": "Street Light Outage/Malfunction",
    "date_created": "2022-05-11T17:29:42.000",
    "date_modified": "2022-05-11T17:29:43.000",
    "request_status": "Pending",
    "responsible_agency": "Department of Public Works",
    "final_address": "I 10 W & PONTCHARTRAIN BLVD",
    "address_councildis": "A",
    "status": "Pending",
    "contractor": "Royal Engineering",
    "rowid": "882070",
    "final_x": "3666016.1",
    "final_y": "544801.78",
    "longitude": "-90.11651772422064",
    "latitude": "29.99247719031937",
    "geocoded_column": {
      "latitude": "29.99247719031937",
      "longitude": "-90.11651772422064"
    }
  },
  {
    "service_request": "2022-882069",
    "request_type": "Trash/Recycling",
    "request_reason": "Request a Large Item Pick Up",
    "date_created": "2022-05-11T17:28:55.000",
    "date_modified": "2022-05-11T17:28:56.000",
    "request_status": "Pending",
    "responsible_agency": "Department of Sanitation",
    "final_address": "2040 Louisa St",
    "address_councildis": "D",
    "status": "Assigned to Contractor",
    "contractor": "Metro Disposal",
    "rowid": "882069",
    "final_x": "3690437.55612",
    "final_y": "539556.846666",
    "longitude": "-90.0395622982569",
    "latitude": "29.977319799622823",
    "geocoded_column": {
      "latitude": "29.977319799622823",
      "longitude": "-90.0395622982569"
    }
  },
  {
    "service_request": "2022-882068",
    "request_type": "Trash/Recycling",
    "request_reason": "MIssed Recycling Pick-Up",
    "date_created": "2022-05-11T17:28:51.000",
    "date_modified": "2022-05-11T17:28:52.000",
    "request_status": "Pending",
    "responsible_agency": "Department of Sanitation",
    "final_address": "1618 S Liberty St",
    "address_councildis": "B",
    "status": "Assigned to Contractor",
    "contractor": "Richards Disposal",
    "rowid": "882068",
    "final_x": "3676745.19873",
    "final_y": "526531.537982",
    "longitude": "-90.08325613022687",
    "latitude": "29.941922581934552",
    "geocoded_column": {
      "latitude": "29.941922581934552",
      "longitude": "-90.08325613022687"
    }
  },
  {
    "service_request": "2022-882067",
    "request_type": "Traffic Signals/Signs/Striping/Streetlights",
    "request_reason": "Street Light Outage/Malfunction",
    "date_created": "2022-05-11T17:25:24.000",
    "date_modified": "2022-05-11T17:25:25.000",
    "request_status": "Pending",
    "responsible_agency": "Department of Public Works",
    "final_address": "I 10 E & PONTCHARTRAIN BLVD",
    "address_councildis": "A",
    "status": "Pending",
    "contractor": "Royal Engineering",
    "rowid": "882067",
    "final_x": "3665978.1",
    "final_y": "544658.28",
    "longitude": "-90.11664257267154",
    "latitude": "29.992083723786866",
    "geocoded_column": {
      "latitude": "29.992083723786866",
      "longitude": "-90.11664257267154"
    }
  },
  {
    "service_request": "2022-882066",
    "request_type": "Trash/Recycling",
    "request_reason": "Missed Trash Pick-Up",
    "date_created": "2022-05-11T17:22:28.000",
    "date_modified": "2022-05-11T17:22:29.000",
    "request_status": "Pending",
    "responsible_agency": "Department of Sanitation",
    "final_address": "4139 State Street Dr",
    "address_councildis": "B",
    "status": "Assigned to Contractor",
    "contractor": "Richards Disposal",
    "rowid": "882066",
    "final_x": "3668430.47412",
    "final_y": "530808.382338",
    "longitude": "-90.10936331414214",
    "latitude": "29.953929318484317",
    "geocoded_column": {
      "latitude": "29.953929318484317",
      "longitude": "-90.10936331414214"
    }
  },
  {
    "service_request": "2022-882065",
    "request_type": "Roads/Drainage",
    "request_reason": "Damaged Sidewalk",
    "date_created": "2022-05-11T17:20:39.000",
    "date_modified": "2022-05-11T17:20:39.000",
    "request_status": "Pending",
    "responsible_agency": "Department of Public Works",
    "final_address": "1016 Euterpe St",
    "address_councildis": "B",
    "status": "Pending",
    "rowid": "882065",
    "final_x": "3680513.37115",
    "final_y": "524122.04518",
    "longitude": "-90.07144299866361",
    "latitude": "29.935183700662616",
    "geocoded_column": {
      "latitude": "29.935183700662616",
      "longitude": "-90.07144299866361"
    }
  },
  {
    "service_request": "2022-882064",
    "request_type": "Trash/Recycling",
    "request_reason": "Missed Trash Pick-Up",
    "date_created": "2022-05-11T17:18:47.000",
    "date_modified": "2022-05-11T17:18:48.000",
    "request_status": "Pending",
    "responsible_agency": "Department of Sanitation",
    "final_address": "2708 S Carrollton Ave",
    "address_councildis": "A",
    "status": "Assigned to Contractor",
    "contractor": "Richards Disposal",
    "rowid": "882064",
    "final_x": "3665652.67418",
    "final_y": "532454.124164",
    "longitude": "-90.11807938984224",
    "latitude": "29.958535867283196",
    "geocoded_column": {
      "latitude": "29.958535867283196",
      "longitude": "-90.11807938984224"
    }
  },
  {
    "service_request": "2022-882063",
    "request_type": "Trash/Recycling",
    "request_reason": "Missed Trash Pick-Up",
    "date_created": "2022-05-11T17:18:35.000",
    "date_modified": "2022-05-11T17:18:35.000",
    "request_status": "Pending",
    "responsible_agency": "Department of Sanitation",
    "final_address": "1028 Burdette St",
    "address_councildis": "A",
    "status": "Assigned to Contractor",
    "contractor": "Richards Disposal",
    "rowid": "882063",
    "final_x": "3662456.47648",
    "final_y": "527307.691327",
    "longitude": "-90.1283430890142",
    "latitude": "29.944477655921556",
    "geocoded_column": {
      "latitude": "29.944477655921556",
      "longitude": "-90.1283430890142"
    }
  },
  {
    "service_request": "2022-882062",
    "request_type": "Trash/Recycling",
    "request_reason": "Missed Trash Pick-Up",
    "date_created": "2022-05-11T17:18:06.000",
    "date_modified": "2022-05-11T17:18:07.000",
    "request_status": "Pending",
    "responsible_agency": "Department of Sanitation",
    "final_address": "4815 Walmsley Ave, New Orleans, Louisiana, 70125",
    "address_councildis": "B",
    "status": "Assigned to Contractor",
    "contractor": "Richards Disposal",
    "rowid": "882062",
    "final_x": "3668173.76909",
    "final_y": "530634.130626",
    "longitude": "-90.11017975954138",
    "latitude": "29.95345772065518",
    "geocoded_column": {
      "latitude": "29.95345772065518",
      "longitude": "-90.11017975954138"
    }
  },
  {
    "service_request": "2022-882061",
    "request_type": "Roads/Drainage",
    "request_reason": "Pothole",
    "date_created": "2022-05-11T17:17:51.000",
    "date_modified": "2022-05-11T17:17:51.000",
    "request_status": "Pending",
    "responsible_agency": "Department of Public Works",
    "final_address": "835 Julia St",
    "address_councildis": "B",
    "status": "Pending",
    "rowid": "882061",
    "final_x": "3679723.8436",
    "final_y": "528227.776256",
    "longitude": "-90.07379305504593",
    "latitude": "29.946496982187416",
    "geocoded_column": {
      "latitude": "29.946496982187416",
      "longitude": "-90.07379305504593"
    }
  },
  {
    "service_request": "2022-882060",
    "request_type": "Trash/Recycling",
    "request_reason": "Missed Trash Pick-Up",
    "date_created": "2022-05-11T17:16:57.000",
    "date_modified": "2022-05-11T17:16:58.000",
    "request_status": "Pending",
    "responsible_agency": "Department of Sanitation",
    "final_address": "4814 Walmsley Ave, New Orleans, Louisiana, 70125",
    "address_councildis": "B",
    "status": "Assigned to Contractor",
    "contractor": "Richards Disposal",
    "rowid": "882060",
    "final_x": "3668219.68052",
    "final_y": "530542.170818",
    "longitude": "-90.11003789024738",
    "latitude": "29.953203513614355",
    "geocoded_column": {
      "latitude": "29.953203513614355",
      "longitude": "-90.11003789024738"
    }
  },
  {
    "service_request": "2022-882059",
    "request_type": "Trash/Recycling",
    "request_reason": "Order Trash Cart",
    "date_created": "2022-05-11T17:16:24.000",
    "date_modified": "2022-05-11T17:16:25.000",
    "request_status": "Pending",
    "responsible_agency": "Department of Sanitation",
    "final_address": "2611 Magazine St",
    "address_councildis": "B",
    "status": "Assigned to Contractor",
    "contractor": "Richards Disposal",
    "rowid": "882059",
    "final_x": "3677413.97282",
    "final_y": "521149.930937",
    "longitude": "-90.08133031926926",
    "latitude": "29.92710484794721",
    "geocoded_column": {
      "latitude": "29.92710484794721",
      "longitude": "-90.08133031926926"
    }
  },
  {
    "service_request": "2022-882058",
    "request_type": "Trash/Recycling",
    "request_reason": "Request a Large Item Pick Up",
    "date_created": "2022-05-11T17:15:42.000",
    "date_modified": "2022-05-11T17:15:43.000",
    "request_status": "Pending",
    "responsible_agency": "Department of Sanitation",
    "final_address": "5871 Vicksburg St",
    "address_councildis": "A",
    "status": "Assigned to Contractor",
    "contractor": "Metro Disposal",
    "rowid": "882058",
    "final_x": "3668889.38644",
    "final_y": "546475.210833",
    "longitude": "-90.10738497282507",
    "latitude": "29.99699433687705",
    "geocoded_column": {
      "latitude": "29.99699433687705",
      "longitude": "-90.10738497282507"
    }
  },
  {
    "service_request": "2022-882057",
    "request_type": "Trash/Recycling",
    "request_reason": "Request a Large Item Pick Up",
    "date_created": "2022-05-11T17:11:22.000",
    "date_modified": "2022-05-11T17:11:22.000",
    "request_status": "Pending",
    "responsible_agency": "Department of Sanitation",
    "final_address": "2546 Dumaine St",
    "address_councildis": "D",
    "status": "Assigned to Contractor",
    "contractor": "Richards Disposal",
    "rowid": "882057",
    "final_x": "3677637.75342",
    "final_y": "537106.053896",
    "longitude": "-90.08007298761224",
    "latitude": "29.97097213989023",
    "geocoded_column": {
      "latitude": "29.97097213989023",
      "longitude": "-90.08007298761224"
    }
  },
  {
    "service_request": "2022-882056",
    "request_type": "Trash/Recycling",
    "request_reason": "Missed Trash Pick-Up",
    "date_created": "2022-05-11T17:10:28.000",
    "date_modified": "2022-05-11T17:10:29.000",
    "request_status": "Pending",
    "responsible_agency": "Department of Sanitation",
    "final_address": "7312 Benjamin St",
    "address_councildis": "A",
    "status": "Assigned to Contractor",
    "contractor": "Richards Disposal",
    "rowid": "882056",
    "final_x": "3662079.13799",
    "final_y": "524067.913532",
    "longitude": "-90.12964191636387",
    "latitude": "29.93558020108946",
    "geocoded_column": {
      "latitude": "29.93558020108946",
      "longitude": "-90.12964191636387"
    }
  },
  {
    "service_request": "2022-882055",
    "request_type": "Trash/Recycling",
    "request_reason": "MIssed Recycling Pick-Up",
    "date_created": "2022-05-11T17:08:35.000",
    "date_modified": "2022-05-11T17:08:36.000",
    "request_status": "Pending",
    "responsible_agency": "Department of Sanitation",
    "final_address": "2823 Second St",
    "address_councildis": "B",
    "status": "Assigned to Contractor",
    "contractor": "Richards Disposal",
    "rowid": "882055",
    "final_x": "3674291.72552",
    "final_y": "526780.611518",
    "longitude": "-90.09099374698583",
    "latitude": "29.942680823820208",
    "geocoded_column": {
      "latitude": "29.942680823820208",
      "longitude": "-90.09099374698583"
    }
  },
  {
    "service_request": "2022-882054",
    "request_type": "Trash/Recycling",
    "request_reason": "Missed Trash Pick-Up",
    "date_created": "2022-05-11T17:06:12.000",
    "date_modified": "2022-05-11T17:06:12.000",
    "request_status": "Pending",
    "responsible_agency": "Department of Sanitation",
    "final_address": "15 Neron Pl",
    "address_councildis": "A",
    "status": "Assigned to Contractor",
    "contractor": "Richards Disposal",
    "rowid": "882054",
    "final_x": "3664971.9529",
    "final_y": "530921.682178",
    "longitude": "-90.12028016613827",
    "latitude": "29.954341985133834",
    "geocoded_column": {
      "latitude": "29.954341985133834",
      "longitude": "-90.12028016613827"
    }
  },
  {
    "service_request": "2022-882053",
    "request_type": "Trash/Recycling",
    "request_reason": "Missed Trash Pick-Up",
    "date_created": "2022-05-11T17:05:40.000",
    "date_modified": "2022-05-11T17:05:40.000",
    "request_status": "Pending",
    "responsible_agency": "Department of Sanitation",
    "final_address": "7037 Walmsley Ave",
    "address_councildis": "B",
    "status": "Assigned to Contractor",
    "contractor": "Richards Disposal",
    "rowid": "882053",
    "final_x": "3667684.06036",
    "final_y": "531082.994242",
    "longitude": "-90.11171094650865",
    "latitude": "29.954706313557086",
    "geocoded_column": {
      "latitude": "29.954706313557086",
      "longitude": "-90.11171094650865"
    }
  },
  {
    "service_request": "2022-882052",
    "request_type": "Trash/Recycling",
    "request_reason": "Missed Trash Pick-Up",
    "date_created": "2022-05-11T17:04:26.000",
    "date_modified": "2022-05-11T17:04:27.000",
    "request_status": "Pending",
    "responsible_agency": "Department of Sanitation",
    "final_address": "4124 Eve St",
    "address_councildis": "B",
    "status": "Assigned to Contractor",
    "contractor": "Richards Disposal",
    "rowid": "882052",
    "final_x": "3670711.26836",
    "final_y": "530475.20205",
    "longitude": "-90.1021727857965",
    "latitude": "29.952945994930364",
    "geocoded_column": {
      "latitude": "29.952945994930364",
      "longitude": "-90.1021727857965"
    }
  },
  {
    "service_request": "2022-882051",
    "request_type": "Traffic Signals/Signs/Striping/Streetlights",
    "request_reason": "Traffic Sign Missing/Damaged",
    "date_created": "2022-05-11T16:57:43.000",
    "date_modified": "2022-05-11T16:57:43.000",
    "request_status": "Pending",
    "responsible_agency": "Department of Public Works",
    "final_address": "501 Barracks St",
    "address_councildis": "C",
    "status": "Pending",
    "rowid": "882051",
    "final_x": "3684432.48885",
    "final_y": "533812.737989",
    "longitude": "-90.05873006069552",
    "latitude": "29.96171056332066",
    "geocoded_column": {
      "latitude": "29.96171056332066",
      "longitude": "-90.05873006069552"
    }
  },
  {
    "service_request": "2022-882050",
    "request_type": "Trash/Recycling",
    "request_reason": "Missed Trash Pick-Up",
    "date_created": "2022-05-11T16:56:40.000",
    "date_modified": "2022-05-11T16:56:40.000",
    "request_status": "Pending",
    "responsible_agency": "Department of Sanitation",
    "final_address": "7925 Zimple St, New Orleans, Louisiana, 70118",
    "address_councildis": "A",
    "status": "Assigned to Contractor",
    "contractor": "Richards Disposal",
    "rowid": "882050",
    "final_x": "3662202.01178",
    "final_y": "527738.123967",
    "longitude": "-90.12913223003447",
    "latitude": "29.945668563892553",
    "geocoded_column": {
      "latitude": "29.945668563892553",
      "longitude": "-90.12913223003447"
    }
  },
  {
    "service_request": "2022-882049",
    "request_type": "Trash/Recycling",
    "request_reason": "Return Trash Cart",
    "date_created": "2022-05-11T16:55:53.000",
    "date_modified": "2022-05-11T16:55:53.000",
    "request_status": "Pending",
    "responsible_agency": "Department of Sanitation",
    "final_address": "2546 Dumaine St",
    "address_councildis": "D",
    "status": "Assigned to Contractor",
    "contractor": "Richards Disposal",
    "rowid": "882049",
    "final_x": "3677637.75342",
    "final_y": "537106.053896",
    "longitude": "-90.08007298761224",
    "latitude": "29.97097213989023",
    "geocoded_column": {
      "latitude": "29.97097213989023",
      "longitude": "-90.08007298761224"
    }
  },
  {
    "service_request": "2022-882048",
    "request_type": "Trash/Recycling",
    "request_reason": "Missed Trash Pick-Up",
    "date_created": "2022-05-11T16:54:04.000",
    "date_modified": "2022-05-11T16:54:05.000",
    "request_status": "Pending",
    "responsible_agency": "Department of Sanitation",
    "final_address": "1119 Fern St",
    "address_councildis": "A",
    "status": "Assigned to Contractor",
    "contractor": "Richards Disposal",
    "rowid": "882048",
    "final_x": "3662438.17479",
    "final_y": "527681.157183",
    "longitude": "-90.12838847342192",
    "latitude": "29.945505096891736",
    "geocoded_column": {
      "latitude": "29.945505096891736",
      "longitude": "-90.12838847342192"
    }
  },
  {
    "service_request": "2022-882047",
    "request_type": "Parks & Parkways",
    "request_reason": "Request Tree Service (Right of Way/Public Property)",
    "date_created": "2022-05-11T16:48:28.000",
    "date_modified": "2022-05-11T16:48:28.000",
    "request_status": "Pending",
    "responsible_agency": "Department of Parks & Parkway",
    "final_address": "ACADEMY DR & MARCIA AVE",
    "address_councildis": "A",
    "status": "Pending",
    "rowid": "882047",
    "final_x": "3664889.4",
    "final_y": "545546.38",
    "longitude": "-90.12005186623442",
    "latitude": "29.99455743785832",
    "geocoded_column": {
      "latitude": "29.99455743785832",
      "longitude": "-90.12005186623442"
    }
  },
  {
    "service_request": "2022-882045",
    "request_type": "Abandoned Vehicles",
    "request_reason": "Abandoned/Junk Vehicles",
    "date_created": "2022-05-11T16:44:59.000",
    "date_modified": "2022-05-11T16:44:59.000",
    "request_status": "Pending",
    "responsible_agency": "Department of Public Works",
    "final_address": "1312 Cambronne St",
    "address_councildis": "A",
    "status": "Pending",
    "rowid": "882045",
    "final_x": "3661449.3591",
    "final_y": "529474.887169",
    "longitude": "-90.13145109726668",
    "latitude": "29.95046583518375",
    "geocoded_column": {
      "latitude": "29.95046583518375",
      "longitude": "-90.13145109726668"
    }
  },
  {
    "service_request": "2022-882044",
    "request_type": "Trash/Recycling",
    "request_reason": "Replace Trash Cart",
    "date_created": "2022-05-11T16:44:14.000",
    "date_modified": "2022-05-11T16:44:15.000",
    "request_status": "Pending",
    "responsible_agency": "Department of Sanitation",
    "final_address": "5627 Royal St, New Orleans, Louisiana, 70117",
    "address_councildis": "E",
    "status": "Assigned to Contractor",
    "contractor": "Metro Disposal",
    "rowid": "882044",
    "final_x": "3697867.89763",
    "final_y": "532257.026051",
    "longitude": "-90.01635994354929",
    "latitude": "29.957015125819076",
    "geocoded_column": {
      "latitude": "29.957015125819076",
      "longitude": "-90.01635994354929"
    }
  },
  {
    "service_request": "2022-882043",
    "request_type": "Trash/Recycling",
    "request_reason": "Replace Trash Cart",
    "date_created": "2022-05-11T16:41:05.000",
    "date_modified": "2022-05-11T16:41:06.000",
    "request_status": "Pending",
    "responsible_agency": "Department of Sanitation",
    "final_address": "251 English Turn Dr",
    "address_councildis": "C",
    "status": "Assigned to Contractor",
    "contractor": "Richards Disposal",
    "rowid": "882043",
    "final_x": "3718208.08581",
    "final_y": "512460.231665",
    "longitude": "-89.95288587189728",
    "latitude": "29.901922607996948",
    "geocoded_column": {
      "latitude": "29.901922607996948",
      "longitude": "-89.95288587189728"
    }
  },
  {
    "service_request": "2022-882042",
    "request_type": "Abandoned Vehicles",
    "request_reason": "Abandoned/Junk Vehicles",
    "date_created": "2022-05-11T16:39:12.000",
    "date_modified": "2022-05-11T16:39:12.000",
    "request_status": "Pending",
    "responsible_agency": "Department of Public Works",
    "final_address": "N ROMAN ST & BARTHOLOMEW ST",
    "address_councildis": "D",
    "status": "Pending",
    "rowid": "882042",
    "final_x": "3692447.2",
    "final_y": "537929.08",
    "longitude": "-90.0332735338448",
    "latitude": "29.972781475607793",
    "geocoded_column": {
      "latitude": "29.972781475607793",
      "longitude": "-90.0332735338448"
    }
  },
  {
    "service_request": "2022-882041",
    "request_type": "Abandoned Vehicles",
    "request_reason": "Abandoned/Junk Vehicles",
    "date_created": "2022-05-11T16:38:33.000",
    "date_modified": "2022-05-11T16:38:33.000",
    "request_status": "Pending",
    "responsible_agency": "Department of Public Works",
    "final_address": "2212 Napoleon Ave",
    "address_councildis": "B",
    "status": "Pending",
    "rowid": "882041",
    "final_x": "3670500.6418",
    "final_y": "523100.290747",
    "longitude": "-90.10308787427464",
    "latitude": "29.9326736084586",
    "geocoded_column": {
      "latitude": "29.9326736084586",
      "longitude": "-90.10308787427464"
    }
  },
  {
    "service_request": "2022-882040",
    "request_type": "Trash/Recycling",
    "request_reason": "Request a Large Item Pick Up",
    "date_created": "2022-05-11T16:27:52.000",
    "date_modified": "2022-05-11T16:27:53.000",
    "request_status": "Pending",
    "responsible_agency": "Department of Sanitation",
    "final_address": "4017 N Roman St",
    "address_councildis": "D",
    "status": "Assigned to Contractor",
    "contractor": "Metro Disposal",
    "rowid": "882040",
    "final_x": "3692634.27741",
    "final_y": "537928.808521",
    "longitude": "-90.03268272058625",
    "latitude": "29.97277489150138",
    "geocoded_column": {
      "latitude": "29.97277489150138",
      "longitude": "-90.03268272058625"
    }
  },
  {
    "service_request": "2022-882039",
    "request_type": "Property Maintenance",
    "request_reason": "Property Maintenance",
    "date_created": "2022-05-11T16:24:05.000",
    "date_modified": "2022-05-11T16:24:05.000",
    "request_status": "Pending",
    "responsible_agency": "Department of Code Enforcement",
    "final_address": "3512 Elysian Fields Ave",
    "address_councildis": "D",
    "status": "Pending",
    "rowid": "882039",
    "final_x": "3684104.70786",
    "final_y": "545634.779408",
    "longitude": "-90.0593500677827",
    "latitude": "29.99422705953505",
    "geocoded_column": {
      "latitude": "29.99422705953505",
      "longitude": "-90.0593500677827"
    }
  },
  {
    "service_request": "2022-882038",
    "request_type": "Trash/Recycling",
    "request_reason": "Missed Trash Pick-Up",
    "date_created": "2022-05-11T16:23:44.000",
    "date_modified": "2022-05-11T16:23:45.000",
    "request_status": "Pending",
    "responsible_agency": "Department of Sanitation",
    "final_address": "625 Broadway St",
    "address_councildis": "A",
    "status": "Assigned to Contractor",
    "contractor": "Richards Disposal",
    "rowid": "882038",
    "final_x": "3663179.67975",
    "final_y": "524888.07334",
    "longitude": "-90.1261401997073",
    "latitude": "29.937803545509258",
    "geocoded_column": {
      "latitude": "29.937803545509258",
      "longitude": "-90.1261401997073"
    }
  },
  {
    "service_request": "2022-882036",
    "request_type": "Trash/Recycling",
    "request_reason": "Missed Trash Pick-Up",
    "date_created": "2022-05-11T16:21:52.000",
    "date_modified": "2022-05-11T16:21:53.000",
    "request_status": "Pending",
    "responsible_agency": "Department of Sanitation",
    "final_address": "3108 College Ct",
    "address_councildis": "B",
    "status": "Assigned to Contractor",
    "contractor": "Richards Disposal",
    "rowid": "882036",
    "final_x": "3668438.72218",
    "final_y": "531824.666499",
    "longitude": "-90.10930299017294",
    "latitude": "29.956723524055274",
    "geocoded_column": {
      "latitude": "29.956723524055274",
      "longitude": "-90.10930299017294"
    }
  },
  {
    "service_request": "2022-882035",
    "request_type": "Trash/Recycling",
    "request_reason": "Missed Trash Pick-Up",
    "date_created": "2022-05-11T16:21:34.000",
    "date_modified": "2022-05-11T16:21:35.000",
    "request_status": "Pending",
    "responsible_agency": "Department of Sanitation",
    "final_address": "541 Audubon St",
    "address_councildis": "A",
    "status": "Assigned to Contractor",
    "contractor": "Richards Disposal",
    "rowid": "882035",
    "final_x": "3662921.3417",
    "final_y": "524026.812348",
    "longitude": "-90.12698442419376",
    "latitude": "29.935442831917573",
    "geocoded_column": {
      "latitude": "29.935442831917573",
      "longitude": "-90.12698442419376"
    }
  },
  {
    "service_request": "2022-882034",
    "request_type": "Trash/Recycling",
    "request_reason": "Request a Large Item Pick Up",
    "date_created": "2022-05-11T16:19:24.000",
    "date_modified": "2022-05-11T16:19:25.000",
    "request_status": "Pending",
    "responsible_agency": "Department of Sanitation",
    "final_address": "2111 St Nick Dr",
    "address_councildis": "C",
    "status": "Assigned to Contractor",
    "contractor": "Richards Disposal",
    "rowid": "882034",
    "final_x": "3699914.22679",
    "final_y": "523365.234491",
    "longitude": "-90.01022252828784",
    "latitude": "29.932500988879482",
    "geocoded_column": {
      "latitude": "29.932500988879482",
      "longitude": "-90.01022252828784"
    }
  },
  {
    "service_request": "2022-882033",
    "request_type": "Trash/Recycling",
    "request_reason": "Missed Trash Pick-Up",
    "date_created": "2022-05-11T16:18:56.000",
    "date_modified": "2022-05-11T16:18:58.000",
    "request_status": "Pending",
    "responsible_agency": "Department of Sanitation",
    "final_address": "1600 BLK Soniat St",
    "address_councildis": "B",
    "status": "Assigned to Contractor",
    "contractor": "Richards Disposal",
    "rowid": "882033",
    "final_x": "3668426.04172",
    "final_y": "521247.442529",
    "longitude": "-90.1096997017646",
    "latitude": "29.927639950470635",
    "geocoded_column": {
      "latitude": "29.927639950470635",
      "longitude": "-90.1096997017646"
    }
  },
  {
    "service_request": "2022-882030",
    "request_type": "Trash/Recycling",
    "request_reason": "Missed Trash Pick-Up",
    "date_created": "2022-05-11T16:13:31.000",
    "date_modified": "2022-05-11T16:13:32.000",
    "request_status": "Pending",
    "responsible_agency": "Department of Sanitation",
    "final_address": "7733 Gannon Rd",
    "address_councildis": "E",
    "status": "Assigned to Contractor",
    "contractor": "Metro Disposal",
    "rowid": "882030",
    "final_x": "3716124.3285",
    "final_y": "570390.443047",
    "longitude": "-89.95726644351016",
    "latitude": "30.061277509188713",
    "geocoded_column": {
      "latitude": "30.061277509188713",
      "longitude": "-89.95726644351016"
    }
  },
  {
    "service_request": "2022-882029",
    "request_type": "Parks & Parkways",
    "request_reason": "Request Tree Service (Right of Way/Public Property)",
    "date_created": "2022-05-11T16:13:17.000",
    "date_modified": "2022-05-11T16:13:18.000",
    "request_status": "Pending",
    "responsible_agency": "Department of Parks & Parkway",
    "final_address": "5503 Elysian Fields Ave",
    "address_councildis": "D",
    "status": "Pending",
    "rowid": "882029",
    "final_x": "3683804.61948",
    "final_y": "553089.450775",
    "longitude": "-90.06003632867481",
    "latitude": "30.014733886755533",
    "geocoded_column": {
      "latitude": "30.014733886755533",
      "longitude": "-90.06003632867481"
    }
  },
  {
    "service_request": "2022-882028",
    "request_type": "Roads/Drainage",
    "request_reason": "Ditch Issue",
    "date_created": "2022-05-11T16:13:01.000",
    "date_modified": "2022-05-11T16:13:01.000",
    "request_status": "Pending",
    "responsible_agency": "Department of Public Works",
    "final_address": "1034 Tricou St",
    "address_councildis": "E",
    "status": "Pending",
    "rowid": "882028",
    "final_x": "3700036.54199",
    "final_y": "532901.775428",
    "longitude": "-90.00948856374288",
    "latitude": "29.958719242847327",
    "geocoded_column": {
      "latitude": "29.958719242847327",
      "longitude": "-90.00948856374288"
    }
  },
  {
    "service_request": "2022-882027",
    "request_type": "Traffic Signals/Signs/Striping/Streetlights",
    "request_reason": "Traffic Sign Missing/Damaged",
    "date_created": "2022-05-11T16:09:56.000",
    "date_modified": "2022-05-11T16:09:56.000",
    "request_status": "Pending",
    "responsible_agency": "Department of Public Works",
    "final_address": "1518 N Dupre St",
    "address_councildis": "A",
    "status": "Pending",
    "rowid": "882027",
    "final_x": "3677337.40718",
    "final_y": "540087.387403",
    "longitude": "-90.080918608843",
    "latitude": "29.97917881287847",
    "geocoded_column": {
      "latitude": "29.97917881287847",
      "longitude": "-90.080918608843"
    }
  },
  {
    "service_request": "2022-882026",
    "request_type": "Trash/Recycling",
    "request_reason": "Missed Trash Pick-Up",
    "date_created": "2022-05-11T16:09:47.000",
    "date_modified": "2022-05-11T16:09:48.000",
    "request_status": "Pending",
    "responsible_agency": "Department of Sanitation",
    "final_address": "541 Audubon St",
    "address_councildis": "A",
    "status": "Assigned to Contractor",
    "contractor": "Richards Disposal",
    "rowid": "882026",
    "final_x": "3662921.3417",
    "final_y": "524026.812348",
    "longitude": "-90.12698442419376",
    "latitude": "29.935442831917573",
    "geocoded_column": {
      "latitude": "29.935442831917573",
      "longitude": "-90.12698442419376"
    }
  },
  {
    "service_request": "2022-882025",
    "request_type": "Trash/Recycling",
    "request_reason": "Illegal Dumping",
    "date_created": "2022-05-11T16:09:27.000",
    "date_modified": "2022-05-11T16:09:27.000",
    "request_status": "Pending",
    "responsible_agency": "Department of Sanitation",
    "final_address": "7800 BLK S Coronet Ct",
    "address_councildis": "E",
    "status": "Pending",
    "rowid": "882025",
    "final_x": "3703243.02786",
    "final_y": "557352.130162",
    "longitude": "-89.99846393927412",
    "latitude": "30.02584635497195",
    "geocoded_column": {
      "latitude": "30.02584635497195",
      "longitude": "-89.99846393927412"
    }
  },
  {
    "service_request": "2022-882024",
    "request_type": "Trash/Recycling",
    "request_reason": "Missed Trash Pick-Up",
    "date_created": "2022-05-11T16:05:22.000",
    "date_modified": "2022-05-11T16:05:23.000",
    "request_status": "Pending",
    "responsible_agency": "Department of Sanitation",
    "final_address": "2929 Pine St",
    "address_councildis": "B",
    "status": "Assigned to Contractor",
    "contractor": "Richards Disposal",
    "rowid": "882024",
    "final_x": "3667460.51994",
    "final_y": "531955.695875",
    "longitude": "-90.11238744072737",
    "latitude": "29.957112508302433",
    "geocoded_column": {
      "latitude": "29.957112508302433",
      "longitude": "-90.11238744072737"
    }
  },
  {
    "service_request": "2022-882023",
    "request_type": "Trash/Recycling",
    "request_reason": "Missed Trash Pick-Up",
    "date_created": "2022-05-11T16:03:31.000",
    "date_modified": "2022-05-11T16:03:32.000",
    "request_status": "Pending",
    "responsible_agency": "Department of Sanitation",
    "final_address": "474 Pine St",
    "address_councildis": "A",
    "status": "Assigned to Contractor",
    "contractor": "Richards Disposal",
    "rowid": "882023",
    "final_x": "3662271.71021",
    "final_y": "524353.757756",
    "longitude": "-90.12902447629864",
    "latitude": "29.936360618508427",
    "geocoded_column": {
      "latitude": "29.936360618508427",
      "longitude": "-90.12902447629864"
    }
  },
  {
    "service_request": "2022-882022",
    "request_type": "Trash/Recycling",
    "request_reason": "Illegal Dumping",
    "date_created": "2022-05-11T16:02:33.000",
    "date_modified": "2022-05-11T16:02:33.000",
    "request_status": "Pending",
    "responsible_agency": "Department of Sanitation",
    "final_address": "1312 St Anthony St",
    "address_councildis": "C",
    "status": "Pending",
    "rowid": "882022",
    "final_x": "3683437.22524",
    "final_y": "536682.485127",
    "longitude": "-90.06177237160287",
    "latitude": "29.969631782964573",
    "geocoded_column": {
      "latitude": "29.969631782964573",
      "longitude": "-90.06177237160287"
    }
  },
  {
    "service_request": "2022-882021",
    "request_type": "Trash/Recycling",
    "request_reason": "Request a Large Item Pick Up",
    "date_created": "2022-05-11T15:59:31.000",
    "date_modified": "2022-05-11T15:59:32.000",
    "request_status": "Pending",
    "responsible_agency": "Department of Sanitation",
    "final_address": "1816 6th St, New Orleans, Louisiana, 70115",
    "status": "Assigned to Contractor",
    "rowid": "882021",
    "longitude": "0.0",
    "latitude": "0.0",
    "geocoded_column": {
      "latitude": "0.0",
      "longitude": "0.0"
    }
  },
  {
    "service_request": "2022-882020",
    "request_type": "Trash/Recycling",
    "request_reason": "Missed Trash Pick-Up",
    "date_created": "2022-05-11T15:58:01.000",
    "date_modified": "2022-05-11T15:58:02.000",
    "request_status": "Pending",
    "responsible_agency": "Department of Sanitation",
    "final_address": "1600 Filmore Ave",
    "address_councildis": "D",
    "status": "Assigned to Contractor",
    "contractor": "Metro Disposal",
    "rowid": "882020",
    "final_x": "3679305.24443",
    "final_y": "551797.25807",
    "longitude": "-90.07429703330367",
    "latitude": "30.01131753351933",
    "geocoded_column": {
      "latitude": "30.01131753351933",
      "longitude": "-90.07429703330367"
    }
  },
  {
    "service_request": "2022-882019",
    "request_type": "Safety & Permits",
    "request_reason": "Licenses & Permits",
    "date_created": "2022-05-11T15:57:26.000",
    "date_modified": "2022-05-11T15:57:26.000",
    "request_status": "Pending",
    "responsible_agency": "Safety and Permits",
    "status": "Pending",
    "rowid": "882019",
    "longitude": "0.0",
    "latitude": "0.0",
    "geocoded_column": {
      "latitude": "0.0",
      "longitude": "0.0"
    }
  },
  {
    "service_request": "2022-882018",
    "request_type": "Trash/Recycling",
    "request_reason": "Repair Recycling Cart",
    "date_created": "2022-05-11T15:51:35.000",
    "date_modified": "2022-05-11T15:51:35.000",
    "request_status": "Pending",
    "responsible_agency": "Department of Sanitation",
    "final_address": "2123 Broadway St",
    "address_councildis": "A",
    "status": "Pending",
    "rowid": "882018",
    "final_x": "3666112.92826",
    "final_y": "529285.727937",
    "longitude": "-90.11673225146713",
    "latitude": "29.9498103802666",
    "geocoded_column": {
      "latitude": "29.9498103802666",
      "longitude": "-90.11673225146713"
    }
  },
  {
    "service_request": "2022-882017",
    "request_type": "Trash/Recycling",
    "request_reason": "Request a Large Item Pick Up",
    "date_created": "2022-05-11T15:44:46.000",
    "date_modified": "2022-05-11T15:44:46.000",
    "request_status": "Pending",
    "responsible_agency": "Department of Sanitation",
    "final_address": "2515 Dante St",
    "address_councildis": "A",
    "status": "Assigned to Contractor",
    "contractor": "Richards Disposal",
    "rowid": "882017",
    "final_x": "3664721.12295",
    "final_y": "532430.889731",
    "longitude": "-90.12102177169251",
    "latitude": "29.958499113536806",
    "geocoded_column": {
      "latitude": "29.958499113536806",
      "longitude": "-90.12102177169251"
    }
  },
  {
    "service_request": "2022-882016",
    "request_type": "Trash/Recycling",
    "request_reason": "Request a Large Item Pick Up",
    "date_created": "2022-05-11T15:42:38.000",
    "date_modified": "2022-05-11T15:42:38.000",
    "request_status": "Pending",
    "responsible_agency": "Department of Sanitation",
    "final_address": "3520 DHemecourt St",
    "address_councildis": "B",
    "status": "Assigned to Contractor",
    "contractor": "Richards Disposal",
    "rowid": "882016",
    "final_x": "3671496.8923",
    "final_y": "535508.096518",
    "longitude": "-90.09952100841346",
    "latitude": "29.966761547383914",
    "geocoded_column": {
      "latitude": "29.966761547383914",
      "longitude": "-90.09952100841346"
    }
  },
  {
    "service_request": "2022-882015",
    "request_type": "Trash/Recycling",
    "request_reason": "Order Recycling Cart",
    "date_created": "2022-05-11T15:35:08.000",
    "date_modified": "2022-05-11T15:35:08.000",
    "request_status": "Pending",
    "responsible_agency": "Department of Sanitation",
    "final_address": "1327 Adams St",
    "address_councildis": "A",
    "status": "Pending",
    "rowid": "882015",
    "final_x": "3663453.5849",
    "final_y": "527758.153855",
    "longitude": "-90.12517991667768",
    "latitude": "29.94568741337653",
    "geocoded_column": {
      "latitude": "29.94568741337653",
      "longitude": "-90.12517991667768"
    }
  },
  {
    "service_request": "2022-882014",
    "request_type": "Trash/Recycling",
    "request_reason": "Request a Large Item Pick Up",
    "date_created": "2022-05-11T15:34:28.000",
    "date_modified": "2022-05-11T15:34:29.000",
    "request_status": "Pending",
    "responsible_agency": "Department of Sanitation",
    "final_address": "809 N Rocheblave St",
    "address_councildis": "D",
    "status": "Assigned to Contractor",
    "contractor": "Richards Disposal",
    "rowid": "882014",
    "final_x": "3677765.29634",
    "final_y": "536713.153927",
    "longitude": "-90.07968376611245",
    "latitude": "29.969887962881344",
    "geocoded_column": {
      "latitude": "29.969887962881344",
      "longitude": "-90.07968376611245"
    }
  },
  {
    "service_request": "2022-882013",
    "request_type": "Trash/Recycling",
    "request_reason": "Illegal Dumping",
    "date_created": "2022-05-11T15:34:09.000",
    "date_modified": "2022-05-11T15:34:09.000",
    "request_status": "Pending",
    "responsible_agency": "Department of Sanitation",
    "final_address": "9029 Green St",
    "address_councildis": "A",
    "status": "Pending",
    "rowid": "882013",
    "final_x": "3660651.99846",
    "final_y": "532001.686595",
    "longitude": "-90.13388524595148",
    "latitude": "29.957436694237707",
    "geocoded_column": {
      "latitude": "29.957436694237707",
      "longitude": "-90.13388524595148"
    }
  },
  {
    "service_request": "2022-882012",
    "request_type": "Trash/Recycling",
    "request_reason": "Missed Trash Pick-Up",
    "date_created": "2022-05-11T15:33:59.000",
    "date_modified": "2022-05-11T15:34:00.000",
    "request_status": "Pending",
    "responsible_agency": "Department of Sanitation",
    "final_address": "2609 Palmyra St",
    "address_councildis": "B",
    "status": "Assigned to Contractor",
    "contractor": "Richards Disposal",
    "rowid": "882012",
    "final_x": "3675271.0667",
    "final_y": "534211.155589",
    "longitude": "-90.08764669133168",
    "latitude": "29.963083113418957",
    "geocoded_column": {
      "latitude": "29.963083113418957",
      "longitude": "-90.08764669133168"
    }
  },
  {
    "service_request": "2022-882011",
    "request_type": "Trash/Recycling",
    "request_reason": "Missed Trash Pick-Up",
    "date_created": "2022-05-11T15:28:46.000",
    "date_modified": "2022-05-11T15:28:47.000",
    "request_status": "Pending",
    "responsible_agency": "Department of Sanitation",
    "final_address": "2123 Broadway St",
    "address_councildis": "A",
    "status": "Assigned to Contractor",
    "contractor": "Richards Disposal",
    "rowid": "882011",
    "final_x": "3666112.92826",
    "final_y": "529285.727937",
    "longitude": "-90.11673225146713",
    "latitude": "29.9498103802666",
    "geocoded_column": {
      "latitude": "29.9498103802666",
      "longitude": "-90.11673225146713"
    }
  },
  {
    "service_request": "2022-882010",
    "request_type": "Property Maintenance",
    "request_reason": "Property Maintenance",
    "date_created": "2022-05-11T15:27:20.000",
    "date_modified": "2022-05-11T15:27:20.000",
    "request_status": "Pending",
    "responsible_agency": "Department of Code Enforcement",
    "final_address": "1924 Shalett St",
    "address_councildis": "C",
    "status": "Pending",
    "rowid": "882010",
    "final_x": "3694276.65245",
    "final_y": "523293.634939",
    "longitude": "-90.02802234947158",
    "latitude": "29.932481907120884",
    "geocoded_column": {
      "latitude": "29.932481907120884",
      "longitude": "-90.02802234947158"
    }
  },
  {
    "service_request": "2022-882009",
    "request_type": "Abandoned Vehicles",
    "request_reason": "Vehicle Blocking Your Driveway",
    "date_created": "2022-05-11T15:26:49.000",
    "date_modified": "2022-05-11T15:26:50.000",
    "request_status": "Pending",
    "responsible_agency": "Department of Public Works",
    "final_address": "929 Howard Ave",
    "address_councildis": "B",
    "status": "Pending",
    "rowid": "882009",
    "final_x": "3679276.18325",
    "final_y": "527801.571583",
    "longitude": "-90.07522125306808",
    "latitude": "29.945338584507894",
    "geocoded_column": {
      "latitude": "29.945338584507894",
      "longitude": "-90.07522125306808"
    }
  },
  {
    "service_request": "2022-882008",
    "request_type": "Trash/Recycling",
    "request_reason": "Request a Large Item Pick Up",
    "date_created": "2022-05-11T15:19:57.000",
    "date_modified": "2022-05-11T15:20:01.000",
    "request_status": "Pending",
    "responsible_agency": "Department of Sanitation",
    "final_address": "623 Royal St",
    "address_councildis": "C",
    "status": "Assigned to Contractor",
    "contractor": "Empire Services",
    "rowid": "882008",
    "final_x": "3682417.57058",
    "final_y": "532326.460291",
    "longitude": "-90.06514478274211",
    "latitude": "29.9576852826533",
    "geocoded_column": {
      "latitude": "29.9576852826533",
      "longitude": "-90.06514478274211"
    }
  },
  {
    "service_request": "2022-882006",
    "request_type": "Trash/Recycling",
    "request_reason": "Request a Large Item Pick Up",
    "date_created": "2022-05-11T15:17:20.000",
    "date_modified": "2022-05-11T15:17:21.000",
    "request_status": "Pending",
    "responsible_agency": "Department of Sanitation",
    "final_address": "36 Versailles Blvd",
    "address_councildis": "A",
    "status": "Assigned to Contractor",
    "contractor": "Richards Disposal",
    "rowid": "882006",
    "final_x": "3667364.09997",
    "final_y": "529796.166913",
    "longitude": "-90.1127645448514",
    "latitude": "29.95117733435958",
    "geocoded_column": {
      "latitude": "29.95117733435958",
      "longitude": "-90.1127645448514"
    }
  },
  {
    "service_request": "2022-882005",
    "request_type": "Trash/Recycling",
    "request_reason": "Order Recycling Cart",
    "date_created": "2022-05-11T15:15:36.000",
    "date_modified": "2022-05-11T15:15:36.000",
    "request_status": "Pending",
    "responsible_agency": "Department of Sanitation",
    "final_address": "8408 Belfast St",
    "address_councildis": "A",
    "status": "Pending",
    "rowid": "882005",
    "final_x": "3664699.9001",
    "final_y": "533122.086276",
    "longitude": "-90.12106569661265",
    "latitude": "29.960400295518387",
    "geocoded_column": {
      "latitude": "29.960400295518387",
      "longitude": "-90.12106569661265"
    }
  },
  {
    "service_request": "2022-882004",
    "request_type": "Trash/Recycling",
    "request_reason": "Missed Trash Pick-Up",
    "date_created": "2022-05-11T15:15:34.000",
    "date_modified": "2022-05-11T15:15:35.000",
    "request_status": "Pending",
    "responsible_agency": "Department of Sanitation",
    "final_address": "7903 Plum St",
    "address_councildis": "A",
    "status": "Assigned to Contractor",
    "contractor": "Richards Disposal",
    "rowid": "882004",
    "final_x": "3662757.28013",
    "final_y": "528177.268416",
    "longitude": "-90.1273644637923",
    "latitude": "29.946860013110612",
    "geocoded_column": {
      "latitude": "29.946860013110612",
      "longitude": "-90.1273644637923"
    }
  },
  {
    "service_request": "2022-882003",
    "request_type": "Property Maintenance",
    "request_reason": "Property Maintenance",
    "date_created": "2022-05-11T15:14:50.000",
    "date_modified": "2022-05-11T16:27:45.000",
    "request_status": "Pending",
    "responsible_agency": "Department of Code Enforcement",
    "final_address": "13658 Granville St, New Orleans, Louisiana, 70129",
    "address_councildis": "E",
    "rowid": "882003",
    "final_x": "3726712.17638",
    "final_y": "562499.885151",
    "longitude": "-89.92410561669753",
    "latitude": "30.039227913006005",
    "geocoded_column": {
      "latitude": "30.039227913006005",
      "longitude": "-89.92410561669753"
    }
  },
  {
    "service_request": "2022-882002",
    "request_type": "Trash/Recycling",
    "request_reason": "Order Trash Cart",
    "date_created": "2022-05-11T15:14:39.000",
    "date_modified": "2022-05-11T15:14:39.000",
    "request_status": "Pending",
    "responsible_agency": "Department of Sanitation",
    "final_address": "8408 Belfast St",
    "address_councildis": "A",
    "status": "Assigned to Contractor",
    "contractor": "Richards Disposal",
    "rowid": "882002",
    "final_x": "3664699.9001",
    "final_y": "533122.086276",
    "longitude": "-90.12106569661265",
    "latitude": "29.960400295518387",
    "geocoded_column": {
      "latitude": "29.960400295518387",
      "longitude": "-90.12106569661265"
    }
  },
  {
    "service_request": "2022-882001",
    "request_type": "Trash/Recycling",
    "request_reason": "MIssed Recycling Pick-Up",
    "date_created": "2022-05-11T15:12:04.000",
    "date_modified": "2022-05-11T15:12:04.000",
    "request_status": "Pending",
    "responsible_agency": "Department of Sanitation",
    "final_address": "4133 General Pershing St",
    "address_councildis": "B",
    "status": "Assigned to Contractor",
    "contractor": "Richards Disposal",
    "rowid": "882001",
    "final_x": "3670028.04846",
    "final_y": "529492.805889",
    "longitude": "-90.10436336924452",
    "latitude": "29.95026489527118",
    "geocoded_column": {
      "latitude": "29.95026489527118",
      "longitude": "-90.10436336924452"
    }
  },
  {
    "service_request": "2022-882000",
    "request_type": "Trash/Recycling",
    "request_reason": "Missed Trash Pick-Up",
    "date_created": "2022-05-11T15:11:19.000",
    "date_modified": "2022-05-11T15:11:20.000",
    "request_status": "Pending",
    "responsible_agency": "Department of Sanitation",
    "final_address": "7516 Jeannette St",
    "address_councildis": "A",
    "status": "Assigned to Contractor",
    "contractor": "Richards Disposal",
    "rowid": "882000",
    "final_x": "3664126.82996",
    "final_y": "527737.963967",
    "longitude": "-90.12305492392811",
    "latitude": "29.945612361756364",
    "geocoded_column": {
      "latitude": "29.945612361756364",
      "longitude": "-90.12305492392811"
    }
  },
  {
    "service_request": "2022-881999",
    "request_type": "Abandoned Vehicles",
    "request_reason": "Abandoned/Junk Vehicles",
    "date_created": "2022-05-11T15:09:03.000",
    "date_modified": "2022-05-11T15:09:04.000",
    "request_status": "Pending",
    "responsible_agency": "Department of Public Works",
    "final_address": "1511 Maura Pl",
    "address_councildis": "C",
    "status": "Pending",
    "rowid": "881999",
    "final_x": "3699200.47658",
    "final_y": "525591.457853",
    "longitude": "-90.01239474188907",
    "latitude": "29.93864497388045",
    "geocoded_column": {
      "latitude": "29.93864497388045",
      "longitude": "-90.01239474188907"
    }
  },
  {
    "service_request": "2022-881998",
    "request_type": "Trash/Recycling",
    "request_reason": "Dead Animal Pick Up",
    "date_created": "2022-05-11T15:08:28.000",
    "date_modified": "2022-05-11T15:08:28.000",
    "request_status": "Pending",
    "responsible_agency": "Department of Sanitation",
    "final_address": "1117 S Galvez St",
    "address_councildis": "B",
    "status": "Assigned to Contractor",
    "contractor": "Richards Disposal",
    "rowid": "881998",
    "final_x": "3674141.37806",
    "final_y": "530122.822273",
    "longitude": "-90.09135405489566",
    "latitude": "29.951875282279385",
    "geocoded_column": {
      "latitude": "29.951875282279385",
      "longitude": "-90.09135405489566"
    }
  },
  {
    "service_request": "2022-881996",
    "request_type": "Trash/Recycling",
    "request_reason": "Missed Trash Pick-Up",
    "date_created": "2022-05-11T15:06:32.000",
    "date_modified": "2022-05-11T15:06:33.000",
    "request_status": "Pending",
    "responsible_agency": "Department of Sanitation",
    "final_address": "7911 Jeannette St",
    "address_councildis": "A",
    "status": "Assigned to Contractor",
    "contractor": "Richards Disposal",
    "rowid": "881996",
    "final_x": "3663202.66061",
    "final_y": "528727.407936",
    "longitude": "-90.12593992459634",
    "latitude": "29.9483598234777",
    "geocoded_column": {
      "latitude": "29.9483598234777",
      "longitude": "-90.12593992459634"
    }
  },