[
  {
    "service_request": "2022-948608",
    "request_type": "Abandoned Vehicles",
    "request_reason": "Abandoned/Junk Vehicles",
    "date_created": "2022-12-02T00:00:53.000",
    "date_modified": "2022-12-02T00:00:53.000",
    "request_status": "Pending",
    "responsible_agency": "Department of Public Works",
    "final_address": "1420 Felicity St",
    "address_councildis": "B",
    "status": "Pending",
    "rowid": "948608",
    "final_x": "3679131.96315",
    "final_y": "523873.1575",
    "longitude": "-90.07581272334708",
    "latitude": "29.934541100410353",
    "geocoded_column": {
      "latitude": "29.934541100410353",
      "longitude": "-90.07581272334708"
    }
  },
  {
    "service_request": "2022-948607",
    "request_type": "Trash/Recycling",
    "request_reason": "Order Recycling Cart",
    "date_created": "2022-12-01T22:51:29.000",
    "date_modified": "2022-12-01T22:51:29.000",
    "request_status": "Pending",
    "responsible_agency": "Department of Sanitation",
    "final_address": "4825 Dauphine St",
    "address_councildis": "E",
    "status": "Pending",
    "rowid": "948607",
    "final_x": "3694946.9471",
    "final_y": "533340.936324",
    "longitude": "-90.0255442852158",
    "latitude": "29.960087486051076",
    "geocoded_column": {
      "latitude": "29.960087486051076",
      "longitude": "-90.0255442852158"
    }
  },
  {
    "service_request": "2022-948606",
    "request_type": "Property Maintenance",
    "request_reason": "Property Maintenance",
    "date_created": "2022-12-01T22:49:35.000",
    "date_modified": "2022-12-01T22:49:35.000",
    "request_status": "Pending",
    "responsible_agency": "Department of Code Enforcement",
    "final_address": "8020 Olive St",
    "address_councildis": "B",
    "status": "Pending",
    "rowid": "948606",
    "final_x": "3667424.98893",
    "final_y": "533960.105029",
    "longitude": "-90.1124321978029",
    "latitude": "29.962625014608445",
    "geocoded_column": {
      "latitude": "29.962625014608445",
      "longitude": "-90.1124321978029"
    }
  },
  {
    "service_request": "2022-948605",
    "request_type": "Trash/Recycling",
    "request_reason": "Replace Trash Cart",
    "date_created": "2022-12-01T22:39:04.000",
    "date_modified": "2022-12-01T22:39:05.000",
    "request_status": "Pending",
    "responsible_agency": "Department of Sanitation",
    "final_address": "7300 Hickman St",
    "address_councildis": "E",
    "status": "Assigned to Contractor",
    "contractor": "Waste Pro",
    "rowid": "948605",
    "final_x": "3706543.43268",
    "final_y": "562446.634719",
    "longitude": "-89.98784615952005",
    "latitude": "30.039748108554694",
    "geocoded_column": {
      "latitude": "30.039748108554694",
      "longitude": "-89.98784615952005"
    }
  },
  {
    "service_request": "2022-948604",
    "request_type": "Abandoned Vehicles",
    "request_reason": "Abandoned/Junk Vehicles",
    "date_created": "2022-12-01T22:35:44.000",
    "date_modified": "2022-12-01T22:35:44.000",
    "request_status": "Pending",
    "responsible_agency": "Department of Public Works",
    "final_address": "10340 Chevy Chase Dr",
    "address_councildis": "E",
    "status": "Pending",
    "rowid": "948604",
    "final_x": "3710538.83889",
    "final_y": "563455.218272",
    "longitude": "-89.97518178974379",
    "latitude": "30.042391704681283",
    "geocoded_column": {
      "latitude": "30.042391704681283",
      "longitude": "-89.97518178974379"
    }
  },
  {
    "service_request": "2022-948603",
    "request_type": "Trash/Recycling",
    "request_reason": "Missed Trash Pick-Up",
    "date_created": "2022-12-01T22:09:53.000",
    "date_modified": "2022-12-01T22:09:54.000",
    "request_status": "Pending",
    "responsible_agency": "Department of Sanitation",
    "final_address": "617 Fourth St",
    "address_councildis": "B",
    "status": "Assigned to Contractor",
    "contractor": "Richards Disposal",
    "rowid": "948603",
    "final_x": "3678273.21928",
    "final_y": "519613.663864",
    "longitude": "-90.07867100095176",
    "latitude": "29.922854769476718",
    "geocoded_column": {
      "latitude": "29.922854769476718",
      "longitude": "-90.07867100095176"
    }
  },
  {
    "service_request": "2022-948602",
    "request_type": "Trash/Recycling",
    "request_reason": "Illegal Dumping",
    "date_created": "2022-12-01T21:59:07.000",
    "date_modified": "2022-12-01T21:59:07.000",
    "request_status": "Pending",
    "responsible_agency": "Department of Sanitation",
    "final_address": "1320 Fats Domino Ave",
    "address_councildis": "E",
    "status": "Pending",
    "rowid": "948602",
    "final_x": "3698209.02826",
    "final_y": "534680.50055",
    "longitude": "-90.01519473316911",
    "latitude": "29.96366803458303",
    "geocoded_column": {
      "latitude": "29.96366803458303",
      "longitude": "-90.01519473316911"
    }
  },
  {
    "service_request": "2022-948601",
    "request_type": "Trash/Recycling",
    "request_reason": "Missed Trash Pick-Up",
    "date_created": "2022-12-01T21:41:30.000",
    "date_modified": "2022-12-01T21:41:30.000",
    "request_status": "Pending",
    "responsible_agency": "Department of Sanitation",
    "final_address": "2370 Annunciation St",
    "address_councildis": "B",
    "status": "Assigned to Contractor",
    "contractor": "Richards Disposal",
    "rowid": "948601",
    "final_x": "3678731.81538",
    "final_y": "520578.180536",
    "longitude": "-90.07719001603417",
    "latitude": "29.92549306123653",
    "geocoded_column": {
      "latitude": "29.92549306123653",
      "longitude": "-90.07719001603417"
    }
  },
  {
    "service_request": "2022-948600",
    "request_type": "Trash/Recycling",
    "request_reason": "MIssed Recycling Pick-Up",
    "date_created": "2022-12-01T21:38:40.000",
    "date_modified": "2022-12-01T21:38:41.000",
    "request_status": "Pending",
    "responsible_agency": "Department of Sanitation",
    "final_address": "18 Richmond Pl",
    "address_councildis": "A",
    "status": "Assigned to Contractor",
    "contractor": "Richards Disposal",
    "rowid": "948600",
    "final_x": "3666565.54554",
    "final_y": "524105.339644",
    "longitude": "-90.11547697427197",
    "latitude": "29.935552758662038",
    "geocoded_column": {
      "latitude": "29.935552758662038",
      "longitude": "-90.11547697427197"
    }
  },
  {
    "service_request": "2022-948599",
    "request_type": "Trash/Recycling",
    "request_reason": "Replace Trash Cart",
    "date_created": "2022-12-01T21:16:26.000",
    "date_modified": "2022-12-01T21:16:27.000",
    "request_status": "Pending",
    "responsible_agency": "Department of Sanitation",
    "final_address": "721 Seventh St",
    "address_councildis": "B",
    "status": "Assigned to Contractor",
    "contractor": "Richards Disposal",
    "rowid": "948599",
    "final_x": "3677125.86971",
    "final_y": "519302.421879",
    "longitude": "-90.08230346202996",
    "latitude": "29.92203344934166",
    "geocoded_column": {
      "latitude": "29.92203344934166",
      "longitude": "-90.08230346202996"
    }
  },
  {
    "service_request": "2022-948598",
    "request_type": "Trash/Recycling",
    "request_reason": "MIssed Recycling Pick-Up",
    "date_created": "2022-12-01T21:08:39.000",
    "date_modified": "2022-12-01T21:08:40.000",
    "request_status": "Pending",
    "responsible_agency": "Department of Sanitation",
    "final_address": "312 S Genois St",
    "address_councildis": "B",
    "status": "Assigned to Contractor",
    "contractor": "Richards Disposal",
    "rowid": "948598",
    "final_x": "3672061.14561",
    "final_y": "536426.030791",
    "longitude": "-90.09770783487232",
    "latitude": "29.969268839802982",
    "geocoded_column": {
      "latitude": "29.969268839802982",
      "longitude": "-90.09770783487232"
    }
  },
  {
    "service_request": "2022-948597",
    "request_type": "Trash/Recycling",
    "request_reason": "Request a Large Item Pick Up",
    "date_created": "2022-12-01T21:00:11.000",
    "date_modified": "2022-12-01T21:00:12.000",
    "request_status": "Pending",
    "responsible_agency": "Department of Sanitation",
    "final_address": "914 Pleasant St",
    "address_councildis": "B",
    "status": "Assigned to Contractor",
    "contractor": "Richards Disposal",
    "rowid": "948597",
    "final_x": "3675790.90683",
    "final_y": "519311.832951",
    "longitude": "-90.08651706221367",
    "latitude": "29.92209933617099",
    "geocoded_column": {
      "latitude": "29.92209933617099",
      "longitude": "-90.08651706221367"
    }
  },
  {
    "service_request": "2022-948596",
    "request_type": "Trash/Recycling",
    "request_reason": "Missed Trash Pick-Up",
    "date_created": "2022-12-01T20:43:56.000",
    "date_modified": "2022-12-01T20:43:57.000",
    "request_status": "Pending",
    "responsible_agency": "Department of Sanitation",
    "final_address": "2301 Magazine St",
    "address_councildis": "B",
    "status": "Assigned to Contractor",
    "contractor": "Richards Disposal",
    "rowid": "948596",
    "final_x": "3678487.91016",
    "final_y": "521851.003578",
    "longitude": "-90.07791592815494",
    "latitude": "29.929000259503336",
    "geocoded_column": {
      "latitude": "29.929000259503336",
      "longitude": "-90.07791592815494"
    }
  },
  {
    "service_request": "2022-948595",
    "request_type": "Trash/Recycling",
    "request_reason": "Missed Trash Pick-Up",
    "date_created": "2022-12-01T20:38:34.000",
    "date_modified": "2022-12-01T20:38:35.000",
    "request_status": "Pending",
    "responsible_agency": "Department of Sanitation",
    "final_address": "609 Third St",
    "address_councildis": "B",
    "status": "Assigned to Contractor",
    "contractor": "Richards Disposal",
    "rowid": "948595",
    "final_x": "3678559.51554",
    "final_y": "519742.287352",
    "longitude": "-90.0777628269166",
    "latitude": "29.92319981935844",
    "geocoded_column": {
      "latitude": "29.92319981935844",
      "longitude": "-90.0777628269166"
    }
  },
  {
    "service_request": "2022-948594",
    "request_type": "Traffic Signals/Signs/Striping/Streetlights",
    "request_reason": "Street Light Outage/Malfunction",
    "date_created": "2022-12-01T20:12:04.000",
    "date_modified": "2022-12-01T20:12:05.000",
    "request_status": "Pending",
    "responsible_agency": "Department of Public Works",
    "final_address": "6001 Franklin Ave",
    "address_councildis": "D",
    "status": "Pending",
    "contractor": "Legacy Professional Services",
    "rowid": "948594",
    "final_x": "3686492.05449",
    "final_y": "555251.343897",
    "longitude": "-90.05146894149112",
    "latitude": "30.020595907583584",
    "geocoded_column": {
      "latitude": "30.020595907583584",
      "longitude": "-90.05146894149112"
    }
  },
  {
    "service_request": "2022-948593",
    "request_type": "Trash/Recycling",
    "request_reason": "Order Trash Cart",
    "date_created": "2022-12-01T20:11:36.000",
    "date_modified": "2022-12-01T20:11:36.000",
    "request_status": "Pending",
    "responsible_agency": "Department of Sanitation",
    "final_address": "6620 General Diaz St",
    "address_councildis": "A",
    "status": "Assigned to Contractor",
    "contractor": "IV Waste",
    "rowid": "948593",
    "final_x": "3669827.85198",
    "final_y": "551478.684629",
    "longitude": "-90.10425085554571",
    "latitude": "30.010724501834563",
    "geocoded_column": {
      "latitude": "30.010724501834563",
      "longitude": "-90.10425085554571"
    }
  },
  {
    "service_request": "2022-948592",
    "request_type": "Trash/Recycling",
    "request_reason": "Request a Large Item Pick Up",
    "date_created": "2022-12-01T20:10:22.000",
    "date_modified": "2022-12-01T20:10:23.000",
    "request_status": "Pending",
    "responsible_agency": "Department of Sanitation",
    "final_address": "1773 Sere St",
    "address_councildis": "D",
    "status": "Assigned to Contractor",
    "contractor": "IV Waste",
    "rowid": "948592",
    "final_x": "3681071.42203",
    "final_y": "545700.195536",
    "longitude": "-90.06892952526506",
    "latitude": "29.994499314018398",
    "geocoded_column": {
      "latitude": "29.994499314018398",
      "longitude": "-90.06892952526506"
    }
  },
  {
    "service_request": "2022-948591",
    "request_type": "Traffic Signals/Signs/Striping/Streetlights",
    "request_reason": "Street Light Outage/Malfunction",
    "date_created": "2022-12-01T20:09:21.000",
    "date_modified": "2022-12-01T20:09:21.000",
    "request_status": "Pending",
    "responsible_agency": "Department of Public Works",
    "final_address": "400 Chartres St",
    "address_councildis": "C",
    "status": "Pending",
    "contractor": "Legacy Professional Services",
    "rowid": "948591",
    "final_x": "3682207.49794",
    "final_y": "531375.162242",
    "longitude": "-90.06584135886212",
    "latitude": "29.95507592785548",
    "geocoded_column": {
      "latitude": "29.95507592785548",
      "longitude": "-90.06584135886212"
    }
  },
  {
    "service_request": "2022-948590",
    "request_type": "Abandoned Vehicles",
    "request_reason": "Abandoned/Junk Vehicles",
    "date_created": "2022-12-01T20:09:14.000",
    "date_modified": "2022-12-01T20:09:14.000",
    "request_status": "Pending",
    "responsible_agency": "Department of Public Works",
    "final_address": "1640 Tropic Dr",
    "address_councildis": "C",
    "status": "Pending",
    "rowid": "948590",
    "final_x": "3699539.25994",
    "final_y": "524628.59398",
    "longitude": "-90.01136024466365",
    "latitude": "29.935986689744134",
    "geocoded_column": {
      "latitude": "29.935986689744134",
      "longitude": "-90.01136024466365"
    }
  },
  {
    "service_request": "2022-948589",
    "request_type": "Trash/Recycling",
    "request_reason": "Replace Trash Cart",
    "date_created": "2022-12-01T19:59:57.000",
    "date_modified": "2022-12-01T19:59:58.000",
    "request_status": "Pending",
    "responsible_agency": "Department of Sanitation",
    "final_address": "4819 Camp St",
    "address_councildis": "B",
    "status": "Assigned to Contractor",
    "contractor": "Richards Disposal",
    "rowid": "948589",
    "final_x": "3669383.06106",
    "final_y": "519031.590839",
    "longitude": "-90.10675349168065",
    "latitude": "29.921518926003223",
    "geocoded_column": {
      "latitude": "29.921518926003223",
      "longitude": "-90.10675349168065"
    }
  },
  {
    "service_request": "2022-948588",
    "request_type": "Trash/Recycling",
    "request_reason": "Order Recycling Cart",
    "date_created": "2022-12-01T19:53:17.000",
    "date_modified": "2022-12-01T19:53:17.000",
    "request_status": "Pending",
    "responsible_agency": "Department of Sanitation",
    "final_address": "737 Emerald St",
    "address_councildis": "D",
    "status": "Pending",
    "rowid": "948588",
    "final_x": "3669999.07214",
    "final_y": "555006.964185",
    "longitude": "-90.10359026852021",
    "latitude": "30.020420970072532",
    "geocoded_column": {
      "latitude": "30.020420970072532",
      "longitude": "-90.10359026852021"
    }
  },
  {
    "service_request": "2022-948587",
    "request_type": "Trash/Recycling",
    "request_reason": "Replace Trash Cart",
    "date_created": "2022-12-01T19:34:54.000",
    "date_modified": "2022-12-01T19:34:55.000",
    "request_status": "Pending",
    "responsible_agency": "Department of Sanitation",
    "final_address": "14 Grand Canyon Dr",
    "address_councildis": "C",
    "status": "Assigned to Contractor",
    "contractor": "Richards Disposal",
    "rowid": "948587",
    "final_x": "3699632.24247",
    "final_y": "517457.553526",
    "longitude": "-90.01132789547145",
    "latitude": "29.916265843205856",
    "geocoded_column": {
      "latitude": "29.916265843205856",
      "longitude": "-90.01132789547145"
    }
  },
  {
    "service_request": "2022-948586",
    "request_type": "Trash/Recycling",
    "request_reason": "Missed Trash Pick-Up",
    "date_created": "2022-12-01T19:12:26.000",
    "date_modified": "2022-12-01T19:12:27.000",
    "request_status": "Pending",
    "responsible_agency": "Department of Sanitation",
    "final_address": "719 Ninth St",
    "address_councildis": "B",
    "status": "Assigned to Contractor",
    "contractor": "Richards Disposal",
    "rowid": "948586",
    "final_x": "3676638.94773",
    "final_y": "518953.604919",
    "longitude": "-90.0838524787258",
    "latitude": "29.92108892410324",
    "geocoded_column": {
      "latitude": "29.92108892410324",
      "longitude": "-90.0838524787258"
    }
  },
  {
    "service_request": "2022-948585",
    "request_type": "Trash/Recycling",
    "request_reason": "MIssed Recycling Pick-Up",
    "date_created": "2022-12-01T18:59:36.000",
    "date_modified": "2022-12-01T18:59:36.000",
    "request_status": "Pending",
    "responsible_agency": "Department of Sanitation",
    "final_address": "6100 Block of Patton St, New Orleans, Louisiana, 70118",
    "status": "Assigned to Contractor",
    "rowid": "948585",
    "longitude": "0.0",
    "latitude": "0.0",
    "geocoded_column": {
      "latitude": "0.0",
      "longitude": "0.0"
    }
  },
  {
    "service_request": "2022-948584",
    "request_type": "Trash/Recycling",
    "request_reason": "Missed Trash Pick-Up",
    "date_created": "2022-12-01T18:58:43.000",
    "date_modified": "2022-12-01T18:58:43.000",
    "request_status": "Pending",
    "responsible_agency": "Department of Sanitation",
    "final_address": "817 Eighth St",
    "address_councildis": "B",
    "status": "Assigned to Contractor",
    "contractor": "Richards Disposal",
    "rowid": "948584",
    "final_x": "3676682.56149",
    "final_y": "519437.537271",
    "longitude": "-90.08369815023748",
    "latitude": "29.922418274163473",
    "geocoded_column": {
      "latitude": "29.922418274163473",
      "longitude": "-90.08369815023748"
    }
  },
  {
    "service_request": "2022-948583",
    "request_type": "Trash/Recycling",
    "request_reason": "MIssed Recycling Pick-Up",
    "date_created": "2022-12-01T18:48:17.000",
    "date_modified": "2022-12-01T18:48:18.000",
    "request_status": "Pending",
    "responsible_agency": "Department of Sanitation",
    "final_address": "1218 St Mary St",
    "address_councildis": "B",
    "status": "Assigned to Contractor",
    "contractor": "Richards Disposal",
    "rowid": "948583",
    "final_x": "3679346.67362",
    "final_y": "523214.533499",
    "longitude": "-90.07515771841543",
    "latitude": "29.932723620166904",
    "geocoded_column": {
      "latitude": "29.932723620166904",
      "longitude": "-90.07515771841543"
    }
  },
  {
    "service_request": "2022-948582",
    "request_type": "Trash/Recycling",
    "request_reason": "Missed Trash Pick-Up",
    "date_created": "2022-12-01T18:44:45.000",
    "date_modified": "2022-12-01T18:44:46.000",
    "request_status": "Pending",
    "responsible_agency": "Department of Sanitation",
    "final_address": "600 BLK Ninth St",
    "address_councildis": "B",
    "status": "Assigned to Contractor",
    "contractor": "Richards Disposal",
    "rowid": "948582",
    "final_x": "3676782.03616",
    "final_y": "518653.158348",
    "longitude": "-90.08341115758518",
    "latitude": "29.920258501760525",
    "geocoded_column": {
      "latitude": "29.920258501760525",
      "longitude": "-90.08341115758518"
    }
  },
  {
    "service_request": "2022-948581",
    "request_type": "Trash/Recycling",
    "request_reason": "Request a Large Item Pick Up",
    "date_created": "2022-12-01T18:42:01.000",
    "date_modified": "2022-12-01T18:42:02.000",
    "request_status": "Pending",
    "responsible_agency": "Department of Sanitation",
    "final_address": "414 38Th St",
    "address_councildis": "A",
    "status": "Assigned to Contractor",
    "contractor": "IV Waste",
    "rowid": "948581",
    "final_x": "3664863.24429",
    "final_y": "552647.602966",
    "longitude": "-90.1198969369261",
    "latitude": "30.014084111419965",
    "geocoded_column": {
      "latitude": "30.014084111419965",
      "longitude": "-90.1198969369261"
    }
  },
  {
    "service_request": "2022-948580",
    "request_type": "Roads/Drainage",
    "request_reason": "Street Subsidence (Sinking)",
    "date_created": "2022-12-01T18:40:13.000",
    "date_modified": "2022-12-01T18:40:14.000",
    "request_status": "Pending",
    "responsible_agency": "Department of Public Works",
    "final_address": "14TH ST & FLEUR DE LIS DR",
    "address_councildis": "A",
    "status": "Pending",
    "rowid": "948580",
    "final_x": "3665152.4",
    "final_y": "548129.38",
    "longitude": "-90.11913461669027",
    "latitude": "30.0016521426651",
    "geocoded_column": {
      "latitude": "30.0016521426651",
      "longitude": "-90.11913461669027"
    }
  },
  {
    "service_request": "2022-948579",
    "request_type": "Taxi Issues",
    "request_reason": "Taxi Complaint",
    "date_created": "2022-12-01T18:39:47.000",
    "date_modified": "2022-12-01T18:53:12.000",
    "request_status": "Pending",
    "responsible_agency": "Ground Transportation Bureau",
    "status": "Pending",
    "rowid": "948579",
    "longitude": "0.0",
    "latitude": "0.0",
    "geocoded_column": {
      "latitude": "0.0",
      "longitude": "0.0"
    }
  },
  {
    "service_request": "2022-948578",
    "request_type": "Abandoned Vehicles",
    "request_reason": "Abandoned/Junk Vehicles",
    "date_created": "2022-12-01T18:38:32.000",
    "date_modified": "2022-12-01T18:38:32.000",
    "request_status": "Pending",
    "responsible_agency": "Department of Public Works",
    "final_address": "2110 Bienville Ave",
    "address_councildis": "B",
    "status": "Pending",
    "rowid": "948578",
    "final_x": "3677614.68616",
    "final_y": "534291.808645",
    "longitude": "-90.08024303344772",
    "latitude": "29.963234616997656",
    "geocoded_column": {
      "latitude": "29.963234616997656",
      "longitude": "-90.08024303344772"
    }
  },
  {
    "service_request": "2022-948577",
    "request_type": "Traffic Signals/Signs/Striping/Streetlights",
    "request_reason": "Street Light Outage/Malfunction",
    "date_created": "2022-12-01T18:35:05.000",
    "date_modified": "2022-12-01T18:35:06.000",
    "request_status": "Pending",
    "responsible_agency": "Department of Public Works",
    "final_address": "3640 Forest Park Ln",
    "address_councildis": "C",
    "status": "Pending",
    "contractor": "Legacy Professional Services",
    "rowid": "948577",
    "final_x": "3703036.11562",
    "final_y": "511067.962864",
    "longitude": "-90.00081852993044",
    "latitude": "29.898588218329696",
    "geocoded_column": {
      "latitude": "29.898588218329696",
      "longitude": "-90.00081852993044"
    }
  },
  {
    "service_request": "2022-948576",
    "request_type": "Trash/Recycling",
    "request_reason": "MIssed Recycling Pick-Up",
    "date_created": "2022-12-01T18:28:39.000",
    "date_modified": "2022-12-01T18:28:40.000",
    "request_status": "Pending",
    "responsible_agency": "Department of Sanitation",
    "final_address": "1215 Dufossat St",
    "address_councildis": "B",
    "status": "Assigned to Contractor",
    "contractor": "Richards Disposal",
    "rowid": "948576",
    "final_x": "3668111.37703",
    "final_y": "519807.254392",
    "longitude": "-90.1107415341361",
    "latitude": "29.923689125583262",
    "geocoded_column": {
      "latitude": "29.923689125583262",
      "longitude": "-90.1107415341361"
    }
  },
  {
    "service_request": "2022-948573",
    "request_type": "Trash/Recycling",
    "request_reason": "MIssed Recycling Pick-Up",
    "date_created": "2022-12-01T18:16:23.000",
    "date_modified": "2022-12-01T18:16:23.000",
    "request_status": "Pending",
    "responsible_agency": "Department of Sanitation",
    "final_address": "6016 St Charles Ave",
    "address_councildis": "A",
    "status": "Assigned to Contractor",
    "contractor": "Richards Disposal",
    "rowid": "948573",
    "final_x": "3665536.5257",
    "final_y": "522450.08089",
    "longitude": "-90.11878100278054",
    "latitude": "29.931031355859783",
    "geocoded_column": {
      "latitude": "29.931031355859783",
      "longitude": "-90.11878100278054"
    }
  },
  {
    "service_request": "2022-948572",
    "request_type": "Traffic Signals/Signs/Striping/Streetlights",
    "request_reason": "Street Light Outage/Malfunction",
    "date_created": "2022-12-01T18:11:08.000",
    "date_modified": "2022-12-01T18:11:08.000",
    "request_status": "Pending",
    "responsible_agency": "Department of Public Works",
    "final_address": "6120 Law St, New Orleans, Louisiana, 70117",
    "address_councildis": "E",
    "status": "Pending",
    "contractor": "Legacy Professional Services",
    "rowid": "948572",
    "final_x": "3701816.47895",
    "final_y": "538559.798473",
    "longitude": "-90.0036606924821",
    "latitude": "29.974220099732527",
    "geocoded_column": {
      "latitude": "29.974220099732527",
      "longitude": "-90.0036606924821"
    }
  },
  {
    "service_request": "2022-948571",
    "request_type": "Traffic Signals/Signs/Striping/Streetlights",
    "request_reason": "Street Light Outage/Malfunction",
    "date_created": "2022-12-01T18:09:05.000",
    "date_modified": "2022-12-01T18:09:05.000",
    "request_status": "Pending",
    "responsible_agency": "Department of Public Works",
    "final_address": "540 Olivier St",
    "address_councildis": "C",
    "status": "Pending",
    "contractor": "Legacy Professional Services",
    "rowid": "948571",
    "final_x": "3687328.09545",
    "final_y": "529594.280001",
    "longitude": "-90.04973545802754",
    "latitude": "29.950022371398884",
    "geocoded_column": {
      "latitude": "29.950022371398884",
      "longitude": "-90.04973545802754"
    }
  },
  {
    "service_request": "2022-948568",
    "request_type": "Traffic Signals/Signs/Striping/Streetlights",
    "request_reason": "Street Light Outage/Malfunction",
    "date_created": "2022-12-01T18:03:57.000",
    "date_modified": "2022-12-01T18:03:58.000",
    "request_status": "Pending",
    "responsible_agency": "Department of Public Works",
    "final_address": "6347 Bellaire Dr",
    "address_councildis": "A",
    "status": "Pending",
    "contractor": "Legacy Professional Services",
    "rowid": "948568",
    "final_x": "3664499.92999",
    "final_y": "550082.412436",
    "longitude": "-90.12113057269407",
    "latitude": "30.007041303102504",
    "geocoded_column": {
      "latitude": "30.007041303102504",
      "longitude": "-90.12113057269407"
    }
  },
  {
    "service_request": "2022-948566",
    "request_type": "Trash/Recycling",
    "request_reason": "MIssed Recycling Pick-Up",
    "date_created": "2022-12-01T17:47:54.000",
    "date_modified": "2022-12-01T17:47:55.000",
    "request_status": "Pending",
    "responsible_agency": "Department of Sanitation",
    "final_address": "1218 St Mary St",
    "address_councildis": "B",
    "status": "Assigned to Contractor",
    "contractor": "Richards Disposal",
    "rowid": "948566",
    "final_x": "3679346.67362",
    "final_y": "523214.533499",
    "longitude": "-90.07515771841543",
    "latitude": "29.932723620166904",
    "geocoded_column": {
      "latitude": "29.932723620166904",
      "longitude": "-90.07515771841543"
    }
  },
  {
    "service_request": "2022-948565",
    "request_type": "Traffic Signals/Signs/Striping/Streetlights",
    "request_reason": "Street Light Outage/Malfunction",
    "date_created": "2022-12-01T17:32:51.000",
    "date_modified": "2022-12-01T17:32:59.000",
    "request_status": "Pending",
    "responsible_agency": "Department of Public Works",
    "final_address": "4956 Painters St",
    "address_councildis": "D",
    "status": "Pending",
    "contractor": "Legacy Professional Services",
    "rowid": "948565",
    "final_x": "3686061.26358",
    "final_y": "551388.691797",
    "longitude": "-90.05296648630976",
    "latitude": "30.00998827755513",
    "geocoded_column": {
      "latitude": "30.00998827755513",
      "longitude": "-90.05296648630976"
    }
  },
  {
    "service_request": "2022-948564",
    "request_type": "Traffic Signals/Signs/Striping/Streetlights",
    "request_reason": "Street Light Outage/Malfunction",
    "date_created": "2022-12-01T17:32:10.000",
    "date_modified": "2022-12-01T17:32:36.000",
    "request_status": "Pending",
    "responsible_agency": "Department of Public Works",
    "final_address": "2606 Gordon St, New Orleans, Louisiana, 70117",
    "address_councildis": "E",
    "status": "Pending",
    "contractor": "Legacy Professional Services",
    "rowid": "948564",
    "final_x": "3701309.80452",
    "final_y": "538869.135625",
    "longitude": "-90.00524955372448",
    "latitude": "29.975086821609285",
    "geocoded_column": {
      "latitude": "29.975086821609285",
      "longitude": "-90.00524955372448"
    }
  },
  {
    "service_request": "2022-948563",
    "request_type": "Abandoned Vehicles",
    "request_reason": "Abandoned/Junk Vehicles",
    "date_created": "2022-12-01T17:31:36.000",
    "date_modified": "2022-12-01T17:31:36.000",
    "request_status": "Pending",
    "responsible_agency": "Department of Public Works",
    "final_address": "2249 Oretha Castle Haley Blvd",
    "address_councildis": "B",
    "status": "Pending",
    "rowid": "948563",
    "final_x": "3676472.94248",
    "final_y": "524528.558524",
    "longitude": "-90.08418464104686",
    "latitude": "29.936423211276804",
    "geocoded_column": {
      "latitude": "29.936423211276804",
      "longitude": "-90.08418464104686"
    }
  },
  {
    "service_request": "2022-948562",
    "request_type": "Roads/Drainage",
    "request_reason": "Catch Basin - Clogged",
    "date_created": "2022-12-01T17:27:39.000",
    "date_modified": "2022-12-01T17:27:39.000",
    "request_status": "Pending",
    "responsible_agency": "Department of Public Works",
    "final_address": "502 N Solomon St",
    "address_councildis": "A",
    "status": "Pending",
    "rowid": "948562",
    "final_x": "3671579.66772",
    "final_y": "539896.818058",
    "longitude": "-90.09911031720584",
    "latitude": "29.97882659876444",
    "geocoded_column": {
      "latitude": "29.97882659876444",
      "longitude": "-90.09911031720584"
    }
  },
  {
    "service_request": "2022-948561",
    "request_type": "Trash/Recycling",
    "request_reason": "Request a Large Item Pick Up",
    "date_created": "2022-12-01T17:26:56.000",
    "date_modified": "2022-12-01T17:26:57.000",
    "request_status": "Pending",
    "responsible_agency": "Department of Sanitation",
    "final_address": "1231 Seville Dr",
    "address_councildis": "D",
    "status": "Assigned to Contractor",
    "contractor": "IV Waste",
    "rowid": "948561",
    "final_x": "3677036.87752",
    "final_y": "551182.821973",
    "longitude": "-90.08148494118241",
    "latitude": "30.009696392567847",
    "geocoded_column": {
      "latitude": "30.009696392567847",
      "longitude": "-90.08148494118241"
    }
  },
  {
    "service_request": "2022-948560",
    "request_type": "Trash/Recycling",
    "request_reason": "Missed Trash Pick-Up",
    "date_created": "2022-12-01T17:24:53.000",
    "date_modified": "2022-12-01T17:24:54.000",
    "request_status": "Pending",
    "responsible_agency": "Department of Sanitation",
    "final_address": "60 Yosemite Dr",
    "address_councildis": "C",
    "status": "Assigned to Contractor",
    "contractor": "Richards Disposal",
    "rowid": "948560",
    "final_x": "3699738.33597",
    "final_y": "516500.445045",
    "longitude": "-90.01102788677301",
    "latitude": "29.91363075398537",
    "geocoded_column": {
      "latitude": "29.91363075398537",
      "longitude": "-90.01102788677301"
    }
  },
  {
    "service_request": "2022-948559",
    "request_type": "Trash/Recycling",
    "request_reason": "MIssed Recycling Pick-Up",
    "date_created": "2022-12-01T17:23:21.000",
    "date_modified": "2022-12-01T17:23:22.000",
    "request_status": "Pending",
    "responsible_agency": "Department of Sanitation",
    "final_address": "5727 Tchoupitoulas St",
    "address_councildis": "A",
    "status": "Assigned to Contractor",
    "contractor": "Richards Disposal",
    "rowid": "948559",
    "final_x": "3665248.78023",
    "final_y": "517296.372725",
    "longitude": "-90.1198616791742",
    "latitude": "29.916868660597434",
    "geocoded_column": {
      "latitude": "29.916868660597434",
      "longitude": "-90.1198616791742"
    }
  },
  {
    "service_request": "2022-948558",
    "request_type": "Traffic Signals/Signs/Striping/Streetlights",
    "request_reason": "Street Light Outage/Malfunction",
    "date_created": "2022-12-01T17:19:06.000",
    "date_modified": "2022-12-01T17:19:07.000",
    "request_status": "Pending",
    "responsible_agency": "Department of Public Works",
    "final_address": "1230 Treme St",
    "address_councildis": "C",
    "status": "Pending",
    "contractor": "Legacy Professional Services",
    "rowid": "948558",
    "final_x": "3682133.78684",
    "final_y": "535483.755782",
    "longitude": "-90.0659306132949",
    "latitude": "29.96637539824197",
    "geocoded_column": {
      "latitude": "29.96637539824197",
      "longitude": "-90.0659306132949"
    }
  },
  {
    "service_request": "2022-948557",
    "request_type": "Trash/Recycling",
    "request_reason": "Missed Trash Pick-Up",
    "date_created": "2022-12-01T17:18:28.000",
    "date_modified": "2022-12-01T17:18:28.000",
    "request_status": "Pending",
    "responsible_agency": "Department of Sanitation",
    "final_address": "5116 N Miro St",
    "address_councildis": "E",
    "status": "Assigned to Contractor",
    "contractor": "Waste Pro",
    "rowid": "948557",
    "final_x": "3697523.46915",
    "final_y": "538190.484489",
    "longitude": "-90.01723233548113",
    "latitude": "29.97334090167188",
    "geocoded_column": {
      "latitude": "29.97334090167188",
      "longitude": "-90.01723233548113"
    }
  },
  {
    "service_request": "2022-948556",
    "request_type": "Abandoned Vehicles",
    "request_reason": "Vehicle Blocking Your Driveway",
    "date_created": "2022-12-01T17:15:16.000",
    "date_modified": "2022-12-01T17:15:16.000",
    "request_status": "Pending",
    "responsible_agency": "Department of Public Works",
    "final_address": "1440 Marigny St",
    "address_councildis": "C",
    "status": "Pending",
    "rowid": "948556",
    "final_x": "3685268.38121",
    "final_y": "537754.12276",
    "longitude": "-90.05595170360328",
    "latitude": "29.972522411237836",
    "geocoded_column": {
      "latitude": "29.972522411237836",
      "longitude": "-90.05595170360328"
    }
  },
  {
    "service_request": "2022-948555",
    "request_type": "Trash/Recycling",
    "request_reason": "Missed Trash Pick-Up",
    "date_created": "2022-12-01T17:14:51.000",
    "date_modified": "2022-12-01T17:14:51.000",
    "request_status": "Pending",
    "responsible_agency": "Department of Sanitation",
    "final_address": "1618 S Liberty St",
    "address_councildis": "B",
    "status": "Assigned to Contractor",
    "contractor": "Richards Disposal",
    "rowid": "948555",
    "final_x": "3676745.19873",
    "final_y": "526531.537982",
    "longitude": "-90.08325613022687",
    "latitude": "29.941922581934552",
    "geocoded_column": {
      "latitude": "29.941922581934552",
      "longitude": "-90.08325613022687"
    }
  },
  {
    "service_request": "2022-948554",
    "request_type": "Property Maintenance",
    "request_reason": "Property Maintenance",
    "date_created": "2022-12-01T17:14:32.000",
    "date_modified": "2022-12-01T17:14:33.000",
    "request_status": "Pending",
    "responsible_agency": "Department of Code Enforcement",
    "final_address": "1722 Laharpe St",
    "address_councildis": "D",
    "status": "Pending",
    "rowid": "948554",
    "final_x": "3681499.23592",
    "final_y": "537780.364488",
    "longitude": "-90.06785441455803",
    "latitude": "29.97270956466114",
    "geocoded_column": {
      "latitude": "29.97270956466114",
      "longitude": "-90.06785441455803"
    }
  },
  {
    "service_request": "2022-948552",
    "request_type": "Trash/Recycling",
    "request_reason": "MIssed Recycling Pick-Up",
    "date_created": "2022-12-01T17:04:35.000",
    "date_modified": "2022-12-01T17:04:36.000",
    "request_status": "Pending",
    "responsible_agency": "Department of Sanitation",
    "final_address": "6022 Pitt St",
    "address_councildis": "A",
    "status": "Assigned to Contractor",
    "contractor": "Richards Disposal",
    "rowid": "948552",
    "final_x": "3665083.62919",
    "final_y": "521135.197945",
    "longitude": "-90.12025468730062",
    "latitude": "29.927429035267803",
    "geocoded_column": {
      "latitude": "29.927429035267803",
      "longitude": "-90.12025468730062"
    }
  },
  {
    "service_request": "2022-948551",
    "request_type": "Trash/Recycling",
    "request_reason": "Request a Large Item Pick Up",
    "date_created": "2022-12-01T17:03:55.000",
    "date_modified": "2022-12-01T17:03:56.000",
    "request_status": "Pending",
    "responsible_agency": "Department of Sanitation",
    "final_address": "3216 St Ann St",
    "address_councildis": "A",
    "status": "Assigned to Contractor",
    "contractor": "Richards Disposal",
    "rowid": "948551",
    "final_x": "3675061.70952",
    "final_y": "538595.284681",
    "longitude": "-90.08815736924353",
    "latitude": "29.97514423860225",
    "geocoded_column": {
      "latitude": "29.97514423860225",
      "longitude": "-90.08815736924353"
    }
  },
  {
    "service_request": "2022-948550",
    "request_type": "Traffic Signals/Signs/Striping/Streetlights",
    "request_reason": "Street Light Outage/Malfunction",
    "date_created": "2022-12-01T17:00:20.000",
    "date_modified": "2022-12-01T17:00:21.000",
    "request_status": "Pending",
    "responsible_agency": "Department of Public Works",
    "final_address": "279 Fairway Dr",
    "address_councildis": "A",
    "status": "Pending",
    "contractor": "Legacy Professional Services",
    "rowid": "948550",
    "final_x": "3664285.92205",
    "final_y": "541390.052428",
    "longitude": "-90.12209697361362",
    "latitude": "29.983146499244736",
    "geocoded_column": {
      "latitude": "29.983146499244736",
      "longitude": "-90.12209697361362"
    }
  },
  {
    "service_request": "2022-948549",
    "request_type": "Traffic Signals/Signs/Striping/Streetlights",
    "request_reason": "Street Light Outage/Malfunction",
    "date_created": "2022-12-01T16:58:30.000",
    "date_modified": "2022-12-01T16:58:31.000",
    "request_status": "Pending",
    "responsible_agency": "Department of Public Works",
    "final_address": "224 Fairway Dr",
    "address_councildis": "A",
    "status": "Pending",
    "contractor": "Legacy Professional Services",
    "rowid": "948549",
    "final_x": "3664105.12967",
    "final_y": "541185.131148",
    "longitude": "-90.1226748502429",
    "latitude": "29.982588288151128",
    "geocoded_column": {
      "latitude": "29.982588288151128",
      "longitude": "-90.1226748502429"
    }
  },
  {
    "service_request": "2022-948548",
    "request_type": "Traffic Signals/Signs/Striping/Streetlights",
    "request_reason": "Street Light Knocked Down/Leaning",
    "date_created": "2022-12-01T16:57:17.000",
    "date_modified": "2022-12-01T16:57:18.000",
    "request_status": "Pending",
    "responsible_agency": "Department of Public Works",
    "final_address": "6501 N Interstate 10 Service Rd",
    "address_councildis": "E",
    "status": "Pending",
    "contractor": "Legacy Professional Services",
    "rowid": "948548",
    "final_x": "3697653.86858",
    "final_y": "558104.468187",
    "longitude": "-90.01609751200603",
    "latitude": "30.02809284624278",
    "geocoded_column": {
      "latitude": "30.02809284624278",
      "longitude": "-90.01609751200603"
    }
  },
  {
    "service_request": "2022-948547",
    "request_type": "Trash/Recycling",
    "request_reason": "MIssed Recycling Pick-Up",
    "date_created": "2022-12-01T16:51:41.000",
    "date_modified": "2022-12-01T16:51:42.000",
    "request_status": "Pending",
    "responsible_agency": "Department of Sanitation",
    "final_address": "6030 Hurst St",
    "address_councildis": "A",
    "status": "Assigned to Contractor",
    "contractor": "Richards Disposal",
    "rowid": "948547",
    "final_x": "3665256.5074",
    "final_y": "521786.983866",
    "longitude": "-90.11968715854152",
    "latitude": "29.92921620713637",
    "geocoded_column": {
      "latitude": "29.92921620713637",
      "longitude": "-90.11968715854152"
    }
  },
  {
    "service_request": "2022-948546",
    "request_type": "Roads/Drainage",
    "request_reason": "Street Subsidence (Sinking)",
    "date_created": "2022-12-01T16:47:49.000",
    "date_modified": "2022-12-01T16:47:49.000",
    "request_status": "Pending",
    "responsible_agency": "Department of Public Works",
    "final_address": "5828 Mandeville St",
    "address_councildis": "D",
    "status": "Pending",
    "rowid": "948546",
    "final_x": "3684238.69628",
    "final_y": "554543.662488",
    "longitude": "-90.05861374462928",
    "latitude": "30.01871916578631",
    "geocoded_column": {
      "latitude": "30.01871916578631",
      "longitude": "-90.05861374462928"
    }
  },
  {
    "service_request": "2022-948545",
    "request_type": "Traffic Signals/Signs/Striping/Streetlights",
    "request_reason": "Traffic Sign Missing/Damaged",
    "date_created": "2022-12-01T16:44:30.000",
    "date_modified": "2022-12-01T16:46:29.000",
    "request_status": "Pending",
    "responsible_agency": "Department of Public Works",
    "final_address": "BULLARD AVE & LAKE FOREST BLVD",
    "address_councildis": "E",
    "status": "Pending",
    "rowid": "948545",
    "final_x": "3716922.1",
    "final_y": "562171.98",
    "longitude": "-89.95505720688307",
    "latitude": "30.038653738803777",
    "geocoded_column": {
      "latitude": "30.038653738803777",
      "longitude": "-89.95505720688307"
    }
  },
  {
    "service_request": "2022-948544",
    "request_type": "Trash/Recycling",
    "request_reason": "MIssed Recycling Pick-Up",
    "date_created": "2022-12-01T16:43:24.000",
    "date_modified": "2022-12-01T16:43:25.000",
    "request_status": "Pending",
    "responsible_agency": "Department of Sanitation",
    "final_address": "1410 Third St",
    "address_councildis": "B",
    "status": "Assigned to Contractor",
    "contractor": "Richards Disposal",
    "rowid": "948544",
    "final_x": "3676858.08853",
    "final_y": "522138.553466",
    "longitude": "-90.08305105084322",
    "latitude": "29.929839927888427",
    "geocoded_column": {
      "latitude": "29.929839927888427",
      "longitude": "-90.08305105084322"
    }
  },
  {
    "service_request": "2022-948543",
    "request_type": "Trash/Recycling",
    "request_reason": "Missed Trash Pick-Up",
    "date_created": "2022-12-01T16:42:23.000",
    "date_modified": "2022-12-01T16:42:24.000",
    "request_status": "Pending",
    "responsible_agency": "Department of Sanitation",
    "final_address": "714 Ninth St",
    "address_councildis": "B",
    "status": "Assigned to Contractor",
    "contractor": "Richards Disposal",
    "rowid": "948543",
    "final_x": "3676594.24059",
    "final_y": "518880.610103",
    "longitude": "-90.08399611146825",
    "latitude": "29.920889552299325",
    "geocoded_column": {
      "latitude": "29.920889552299325",
      "longitude": "-90.08399611146825"
    }
  },
  {
    "service_request": "2022-948542",
    "request_type": "Traffic Signals/Signs/Striping/Streetlights",
    "request_reason": "Street Light Outage/Malfunction",
    "date_created": "2022-12-01T16:41:19.000",
    "date_modified": "2022-12-01T16:41:19.000",
    "request_status": "Pending",
    "responsible_agency": "Department of Public Works",
    "final_address": "3215 Maurepas St",
    "address_councildis": "A",
    "status": "Pending",
    "contractor": "Legacy Professional Services",
    "rowid": "948542",
    "final_x": "3675977.43451",
    "final_y": "540839.299723",
    "longitude": "-90.08518806767005",
    "latitude": "29.981287115435464",
    "geocoded_column": {
      "latitude": "29.981287115435464",
      "longitude": "-90.08518806767005"
    }
  },
  {
    "service_request": "2022-948541",
    "request_type": "Trash/Recycling",
    "request_reason": "Replace Trash Cart",
    "date_created": "2022-12-01T16:35:39.000",
    "date_modified": "2022-12-01T16:35:40.000",
    "request_status": "Pending",
    "responsible_agency": "Department of Sanitation",
    "final_address": "2319 Easter Ln",
    "address_councildis": "C",
    "status": "Assigned to Contractor",
    "contractor": "Richards Disposal",
    "rowid": "948541",
    "final_x": "3699100.24548",
    "final_y": "522717.387194",
    "longitude": "-90.01281574992692",
    "latitude": "29.930745451761627",
    "geocoded_column": {
      "latitude": "29.930745451761627",
      "longitude": "-90.01281574992692"
    }
  },
  {
    "service_request": "2022-948540",
    "request_type": "Trash/Recycling",
    "request_reason": "Missed Trash Pick-Up",
    "date_created": "2022-12-01T16:35:23.000",
    "date_modified": "2022-12-01T16:35:23.000",
    "request_status": "Pending",
    "responsible_agency": "Department of Sanitation",
    "final_address": "914 Ninth St",
    "address_councildis": "B",
    "status": "Assigned to Contractor",
    "contractor": "Richards Disposal",
    "rowid": "948540",
    "final_x": "3676158.83547",
    "final_y": "519515.706807",
    "longitude": "-90.08534865452376",
    "latitude": "29.922648910036585",
    "geocoded_column": {
      "latitude": "29.922648910036585",
      "longitude": "-90.08534865452376"
    }
  },
  {
    "service_request": "2022-948539",
    "request_type": "Trash/Recycling",
    "request_reason": "MIssed Recycling Pick-Up",
    "date_created": "2022-12-01T16:29:57.000",
    "date_modified": "2022-12-01T16:29:58.000",
    "request_status": "Pending",
    "responsible_agency": "Department of Sanitation",
    "final_address": "1437 St Mary St",
    "address_councildis": "B",
    "status": "Assigned to Contractor",
    "contractor": "Richards Disposal",
    "rowid": "948539",
    "final_x": "3678886.61461",
    "final_y": "523808.468923",
    "longitude": "-90.07658952298718",
    "latitude": "29.93437062963516",
    "geocoded_column": {
      "latitude": "29.93437062963516",
      "longitude": "-90.07658952298718"
    }
  },
  {
    "service_request": "2022-948538",
    "request_type": "Trash/Recycling",
    "request_reason": "Return Trash Cart",
    "date_created": "2022-12-01T16:27:23.000",
    "date_modified": "2022-12-01T16:27:24.000",
    "request_status": "Pending",
    "responsible_agency": "Department of Sanitation",
    "final_address": "4164 Canal St",
    "address_councildis": "A",
    "status": "Assigned to Contractor",
    "contractor": "Richards Disposal",
    "rowid": "948538",
    "final_x": "3670607.78151",
    "final_y": "538574.640969",
    "longitude": "-90.10222477635834",
    "latitude": "29.975219808385457",
    "geocoded_column": {
      "latitude": "29.975219808385457",
      "longitude": "-90.10222477635834"
    }
  },
  {
    "service_request": "2022-948537",
    "request_type": "Trash/Recycling",
    "request_reason": "Order Trash Cart",
    "date_created": "2022-12-01T16:23:49.000",
    "date_modified": "2022-12-01T16:23:50.000",
    "request_status": "Pending",
    "responsible_agency": "Department of Sanitation",
    "final_address": "6251 General Diaz St",
    "address_councildis": "A",
    "status": "Assigned to Contractor",
    "contractor": "IV Waste",
    "rowid": "948537",
    "final_x": "3669754.50567",
    "final_y": "548907.124819",
    "longitude": "-90.10456971097793",
    "latitude": "30.00365577630932",
    "geocoded_column": {
      "latitude": "30.00365577630932",
      "longitude": "-90.10456971097793"
    }
  },
  {
    "service_request": "2022-948536",
    "request_type": "Mosquito, Termite & Rodent Control",
    "request_reason": "Rodent Complaint (Rats)",
    "date_created": "2022-12-01T16:21:51.000",
    "date_modified": "2022-12-01T16:21:52.000",
    "request_status": "Pending",
    "responsible_agency": "Mosquito, Termite & Rodent Control Board",
    "final_address": "3121 Law St",
    "address_councildis": "D",
    "status": "Pending",
    "rowid": "948536",
    "final_x": "3690609.31785",
    "final_y": "541645.422732",
    "longitude": "-90.03894530414611",
    "latitude": "29.983057305500694",
    "geocoded_column": {
      "latitude": "29.983057305500694",
      "longitude": "-90.03894530414611"
    }
  },
  {
    "service_request": "2022-948535",
    "request_type": "Trash/Recycling",
    "request_reason": "Missed Trash Pick-Up",
    "date_created": "2022-12-01T16:20:47.000",
    "date_modified": "2022-12-01T16:20:48.000",
    "request_status": "Pending",
    "responsible_agency": "Department of Sanitation",
    "final_address": "1304 N Rocheblave St",
    "address_councildis": "D",
    "status": "Assigned to Contractor",
    "contractor": "Richards Disposal",
    "rowid": "948535",
    "final_x": "3678923.60437",
    "final_y": "538122.439689",
    "longitude": "-90.07597688052809",
    "latitude": "29.973728117956522",
    "geocoded_column": {
      "latitude": "29.973728117956522",
      "longitude": "-90.07597688052809"
    }
  },
  {
    "service_request": "2022-948534",
    "request_type": "Trash/Recycling",
    "request_reason": "MIssed Recycling Pick-Up",
    "date_created": "2022-12-01T16:20:27.000",
    "date_modified": "2022-12-01T16:20:28.000",
    "request_status": "Pending",
    "responsible_agency": "Department of Sanitation",
    "final_address": "4100 BLK Tchoupitoulas St",
    "address_councildis": "B",
    "status": "Assigned to Contractor",
    "contractor": "Richards Disposal",
    "rowid": "948534",
    "final_x": "3672114.62916",
    "final_y": "517553.196965",
    "longitude": "-90.0981814043589",
    "latitude": "29.917373128699747",
    "geocoded_column": {
      "latitude": "29.917373128699747",
      "longitude": "-90.0981814043589"
    }
  },
  {
    "service_request": "2022-948533",
    "request_type": "Trash/Recycling",
    "request_reason": "Request a Large Item Pick Up",
    "date_created": "2022-12-01T16:17:42.000",
    "date_modified": "2022-12-01T16:17:43.000",
    "request_status": "Pending",
    "responsible_agency": "Department of Sanitation",
    "final_address": "4607 S Saratoga St",
    "address_councildis": "B",
    "status": "Assigned to Contractor",
    "contractor": "Richards Disposal",
    "rowid": "948533",
    "final_x": "3669833.6882",
    "final_y": "522592.672442",
    "longitude": "-90.10521057383217",
    "latitude": "29.9312974940003",
    "geocoded_column": {
      "latitude": "29.9312974940003",
      "longitude": "-90.10521057383217"
    }
  },
  {
    "service_request": "2022-948532",
    "request_type": "Roads/Drainage",
    "request_reason": "Pothole",
    "date_created": "2022-12-01T16:11:58.000",
    "date_modified": "2022-12-01T16:11:58.000",
    "request_status": "Pending",
    "responsible_agency": "Department of Public Works",
    "final_address": "2800 BLK Coliseum St",
    "address_councildis": "B",
    "status": "Pending",
    "rowid": "948532",
    "final_x": "3676264.96928",
    "final_y": "521549.629589",
    "longitude": "-90.08494368334651",
    "latitude": "29.928238360606404",
    "geocoded_column": {
      "latitude": "29.928238360606404",
      "longitude": "-90.08494368334651"
    }
  },
  {
    "service_request": "2022-948531",
    "request_type": "Trash/Recycling",
    "request_reason": "MIssed Recycling Pick-Up",
    "date_created": "2022-12-01T16:11:11.000",
    "date_modified": "2022-12-01T16:11:12.000",
    "request_status": "Pending",
    "responsible_agency": "Department of Sanitation",
    "final_address": "700 Block of Jefferson Ave, New Orleans, Louisiana, 70115",
    "status": "Assigned to Contractor",
    "rowid": "948531",
    "longitude": "0.0",
    "latitude": "0.0",
    "geocoded_column": {
      "latitude": "0.0",
      "longitude": "0.0"
    }
  },
  {
    "service_request": "2022-948530",
    "request_type": "Property Maintenance",
    "request_reason": "Property Maintenance",
    "date_created": "2022-12-01T16:10:51.000",
    "date_modified": "2022-12-01T16:10:51.000",
    "request_status": "Pending",
    "responsible_agency": "Department of Code Enforcement",
    "final_address": "3300 Law St",
    "address_councildis": "D",
    "status": "Pending",
    "rowid": "948530",
    "final_x": "3691274.55945",
    "final_y": "541404.614092",
    "longitude": "-90.03685274410559",
    "latitude": "29.982374488034402",
    "geocoded_column": {
      "latitude": "29.982374488034402",
      "longitude": "-90.03685274410559"
    }
  },
  {
    "service_request": "2022-948529",
    "request_type": "Trash/Recycling",
    "request_reason": "MIssed Recycling Pick-Up",
    "date_created": "2022-12-01T16:10:38.000",
    "date_modified": "2022-12-01T16:10:39.000",
    "request_status": "Pending",
    "responsible_agency": "Department of Sanitation",
    "final_address": "1359 Magazine St",
    "address_councildis": "B",
    "status": "Assigned to Contractor",
    "contractor": "Richards Disposal",
    "rowid": "948529",
    "final_x": "3680379.00667",
    "final_y": "524761.252028",
    "longitude": "-90.07184497036754",
    "latitude": "29.93694537608828",
    "geocoded_column": {
      "latitude": "29.93694537608828",
      "longitude": "-90.07184497036754"
    }
  },
  {
    "service_request": "2022-948528",
    "request_type": "Trash/Recycling",
    "request_reason": "Missed Trash Pick-Up",
    "date_created": "2022-12-01T16:05:24.000",
    "date_modified": "2022-12-01T16:05:25.000",
    "request_status": "Pending",
    "responsible_agency": "Department of Sanitation",
    "final_address": "519 Philip St",
    "address_councildis": "B",
    "status": "Assigned to Contractor",
    "contractor": "Richards Disposal",
    "rowid": "948528",
    "final_x": "3679832.93039",
    "final_y": "520220.232952",
    "longitude": "-90.0737265581521",
    "latitude": "29.9244755846313",
    "geocoded_column": {
      "latitude": "29.9244755846313",
      "longitude": "-90.0737265581521"
    }
  },
  {
    "service_request": "2022-948527",
    "request_type": "Trash/Recycling",
    "request_reason": "Missed Trash Pick-Up",
    "date_created": "2022-12-01T16:05:16.000",
    "date_modified": "2022-12-01T16:05:16.000",
    "request_status": "Pending",
    "responsible_agency": "Department of Sanitation",
    "final_address": "5011 Marais St",
    "address_councildis": "E",
    "status": "Assigned to Contractor",
    "contractor": "Waste Pro",
    "rowid": "948527",
    "final_x": "3696188.65475",
    "final_y": "534671.766598",
    "longitude": "-90.02157514991411",
    "latitude": "29.963707771400877",
    "geocoded_column": {
      "latitude": "29.963707771400877",
      "longitude": "-90.02157514991411"
    }
  },
  {
    "service_request": "2022-948526",
    "request_type": "Trash/Recycling",
    "request_reason": "Order Recycling Cart",
    "date_created": "2022-12-01T16:02:10.000",
    "date_modified": "2022-12-01T16:02:11.000",
    "request_status": "Pending",
    "responsible_agency": "Department of Sanitation",
    "final_address": "4436 Stemway Dr",
    "address_councildis": "D",
    "status": "Pending",
    "rowid": "948526",
    "final_x": "3696991.30858",
    "final_y": "552677.73775",
    "longitude": "-90.01838793794657",
    "latitude": "30.013192321029113",
    "geocoded_column": {
      "latitude": "30.013192321029113",
      "longitude": "-90.01838793794657"
    }
  },
  {
    "service_request": "2022-948525",
    "request_type": "Trash/Recycling",
    "request_reason": "Request a Large Item Pick Up",
    "date_created": "2022-12-01T15:58:20.000",
    "date_modified": "2022-12-01T15:58:21.000",
    "request_status": "Pending",
    "responsible_agency": "Department of Sanitation",
    "final_address": "925 Royal St",
    "address_councildis": "C",
    "status": "Assigned to Contractor",
    "contractor": "Empire Services",
    "rowid": "948525",
    "final_x": "3683107.04764",
    "final_y": "533229.977732",
    "longitude": "-90.06293598548595",
    "latitude": "29.9601486462677",
    "geocoded_column": {
      "latitude": "29.9601486462677",
      "longitude": "-90.06293598548595"
    }
  },
  {
    "service_request": "2022-948524",
    "request_type": "Trash/Recycling",
    "request_reason": "Repair Trash Cart",
    "date_created": "2022-12-01T15:52:20.000",
    "date_modified": "2022-12-01T15:52:21.000",
    "request_status": "Pending",
    "responsible_agency": "Department of Sanitation",
    "final_address": "349 Stafford Pl",
    "address_councildis": "A",
    "status": "Assigned to Contractor",
    "contractor": "IV Waste",
    "rowid": "948524",
    "final_x": "3665080.02272",
    "final_y": "554015.10556",
    "longitude": "-90.11916624109807",
    "latitude": "30.017837950446975",
    "geocoded_column": {
      "latitude": "30.017837950446975",
      "longitude": "-90.11916624109807"
    }
  },
  {
    "service_request": "2022-948523",
    "request_type": "Parks & Parkways",
    "request_reason": "Request Tree Service (Right of Way/Public Property)",
    "date_created": "2022-12-01T15:51:42.000",
    "date_modified": "2022-12-01T15:51:42.000",
    "request_status": "Pending",
    "responsible_agency": "Department of Parks & Parkway",
    "final_address": "4317 Saint Anthony Ave, New Orleans, Louisiana, 70122",
    "status": "Pending",
    "rowid": "948523",
    "longitude": "0.0",
    "latitude": "0.0",
    "geocoded_column": {
      "latitude": "0.0",
      "longitude": "0.0"
    }
  },
  {
    "service_request": "2022-948522",
    "request_type": "Trash/Recycling",
    "request_reason": "Start Trash Service",
    "date_created": "2022-12-01T15:49:00.000",
    "date_modified": "2022-12-01T15:49:01.000",
    "request_status": "Pending",
    "responsible_agency": "Department of Sanitation",
    "final_address": "3101 Tchoupitoulas St",
    "address_councildis": "B",
    "status": "Assigned to Contractor",
    "contractor": "Richards Disposal",
    "rowid": "948522",
    "final_x": "3677259.31682",
    "final_y": "518408.355446",
    "longitude": "-90.08191304746686",
    "latitude": "29.919571048334692",
    "geocoded_column": {
      "latitude": "29.919571048334692",
      "longitude": "-90.08191304746686"
    }
  },
  {
    "service_request": "2022-948521",
    "request_type": "Trash/Recycling",
    "request_reason": "Missed Trash Pick-Up",
    "date_created": "2022-12-01T15:48:43.000",
    "date_modified": "2022-12-01T15:48:44.000",
    "request_status": "Pending",
    "responsible_agency": "Department of Sanitation",
    "final_address": "2632 Coliseum St",
    "address_councildis": "B",
    "status": "Assigned to Contractor",
    "contractor": "Richards Disposal",
    "rowid": "948521",
    "final_x": "3676810.45531",
    "final_y": "521846.733178",
    "longitude": "-90.08321147151409",
    "latitude": "29.929038946133236",
    "geocoded_column": {
      "latitude": "29.929038946133236",
      "longitude": "-90.08321147151409"
    }
  },
  {
    "service_request": "2022-948520",
    "request_type": "Trash/Recycling",
    "request_reason": "Repair Trash Cart",
    "date_created": "2022-12-01T15:45:08.000",
    "date_modified": "2022-12-01T15:45:09.000",
    "request_status": "Pending",
    "responsible_agency": "Department of Sanitation",
    "final_address": "831 N Lopez St",
    "address_councildis": "A",
    "status": "Assigned to Contractor",
    "contractor": "Richards Disposal",
    "rowid": "948520",
    "final_x": "3675627.45781",
    "final_y": "538594.536713",
    "longitude": "-90.0863706118533",
    "latitude": "29.97512526508766",
    "geocoded_column": {
      "latitude": "29.97512526508766",
      "longitude": "-90.0863706118533"
    }
  },
  {
    "service_request": "2022-948519",
    "request_type": "Trash/Recycling",
    "request_reason": "Request a Large Item Pick Up",
    "date_created": "2022-12-01T15:40:39.000",
    "date_modified": "2022-12-01T15:40:40.000",
    "request_status": "Pending",
    "responsible_agency": "Department of Sanitation",
    "final_address": "1730 Joliet St",
    "address_councildis": "A",
    "status": "Assigned to Contractor",
    "contractor": "Richards Disposal",
    "rowid": "948519",
    "final_x": "3662238.74848",
    "final_y": "530845.76621",
    "longitude": "-90.12891310475061",
    "latitude": "29.954212520124766",
    "geocoded_column": {
      "latitude": "29.954212520124766",
      "longitude": "-90.12891310475061"
    }
  },
  {
    "service_request": "2022-948518",
    "request_type": "Property Maintenance",
    "request_reason": "Property Maintenance",
    "date_created": "2022-12-01T15:33:27.000",
    "date_modified": "2022-12-01T15:33:27.000",
    "request_status": "Pending",
    "responsible_agency": "Department of Code Enforcement",
    "final_address": "3134 N Dorgenois St",
    "address_councildis": "D",
    "status": "Pending",
    "rowid": "948518",
    "final_x": "3690546.38915",
    "final_y": "541180.014284",
    "longitude": "-90.03916066743945",
    "latitude": "29.981779553076798",
    "geocoded_column": {
      "latitude": "29.981779553076798",
      "longitude": "-90.03916066743945"
    }
  },
  {
    "service_request": "2022-948517",
    "request_type": "Trash/Recycling",
    "request_reason": "Replace Trash Cart",
    "date_created": "2022-12-01T15:30:41.000",
    "date_modified": "2022-12-01T15:30:41.000",
    "request_status": "Pending",
    "responsible_agency": "Department of Sanitation",
    "final_address": "1730 Joliet St",
    "address_councildis": "A",
    "status": "Assigned to Contractor",
    "contractor": "Richards Disposal",
    "rowid": "948517",
    "final_x": "3662238.74848",
    "final_y": "530845.76621",
    "longitude": "-90.12891310475061",
    "latitude": "29.954212520124766",
    "geocoded_column": {
      "latitude": "29.954212520124766",
      "longitude": "-90.12891310475061"
    }
  },
  {
    "service_request": "2022-948516",
    "request_type": "Trash/Recycling",
    "request_reason": "Request a Large Item Pick Up",
    "date_created": "2022-12-01T15:30:01.000",
    "date_modified": "2022-12-01T15:30:01.000",
    "request_status": "Pending",
    "responsible_agency": "Department of Sanitation",
    "final_address": "1876 Mirabeau Ave",
    "address_councildis": "D",
    "status": "Assigned to Contractor",
    "contractor": "IV Waste",
    "rowid": "948516",
    "final_x": "3681586.66549",
    "final_y": "550434.258196",
    "longitude": "-90.06713668634751",
    "latitude": "30.007500650686914",
    "geocoded_column": {
      "latitude": "30.007500650686914",
      "longitude": "-90.06713668634751"
    }
  },
  {
    "service_request": "2022-948515",
    "request_type": "Trash/Recycling",
    "request_reason": "Missed Trash Pick-Up",
    "date_created": "2022-12-01T15:27:47.000",
    "date_modified": "2022-12-01T15:27:48.000",
    "request_status": "Pending",
    "responsible_agency": "Department of Sanitation",
    "final_address": "2525 St Maurice Ave",
    "address_councildis": "E",
    "status": "Assigned to Contractor",
    "contractor": "Waste Pro",
    "rowid": "948515",
    "final_x": "3701989.95364",
    "final_y": "538371.927561",
    "longitude": "-90.00311971107529",
    "latitude": "29.97369798674025",
    "geocoded_column": {
      "latitude": "29.97369798674025",
      "longitude": "-90.00311971107529"
    }
  },
  {
    "service_request": "2022-948514",
    "request_type": "Trash/Recycling",
    "request_reason": "Missed Trash Pick-Up",
    "date_created": "2022-12-01T15:27:31.000",
    "date_modified": "2022-12-01T15:27:31.000",
    "request_status": "Pending",
    "responsible_agency": "Department of Sanitation",
    "final_address": "2100 BLK Willow St",
    "address_councildis": "B",
    "status": "Assigned to Contractor",
    "contractor": "Richards Disposal",
    "rowid": "948514",
    "final_x": "3674982.1395",
    "final_y": "527445.557101",
    "longitude": "-90.08879114310277",
    "latitude": "29.944488604359695",
    "geocoded_column": {
      "latitude": "29.944488604359695",
      "longitude": "-90.08879114310277"
    }
  },
  {
    "service_request": "2022-948513",
    "request_type": "Abandoned Vehicles",
    "request_reason": "Abandoned/Junk Vehicles",
    "date_created": "2022-12-01T15:26:18.000",
    "date_modified": "2022-12-01T15:26:18.000",
    "request_status": "Pending",
    "responsible_agency": "Department of Public Works",
    "final_address": "3127 Martin Luther King, Jr. Blvd",
    "address_councildis": "B",
    "status": "Pending",
    "rowid": "948513",
    "final_x": "3674610.52782",
    "final_y": "528548.446272",
    "longitude": "-90.08992664475367",
    "latitude": "29.947532278911957",
    "geocoded_column": {
      "latitude": "29.947532278911957",
      "longitude": "-90.08992664475367"
    }
  },
  {
    "service_request": "2022-948512",
    "request_type": "Trash/Recycling",
    "request_reason": "MIssed Recycling Pick-Up",
    "date_created": "2022-12-01T15:26:13.000",
    "date_modified": "2022-12-01T15:26:14.000",
    "request_status": "Pending",
    "responsible_agency": "Department of Sanitation",
    "final_address": "1369 Terry St",
    "address_councildis": "C",
    "status": "Assigned to Contractor",
    "contractor": "Richards Disposal",
    "rowid": "948512",
    "final_x": "3697069.64176",
    "final_y": "526053.35859",
    "longitude": "-90.0191052521731",
    "latitude": "29.939982413133023",
    "geocoded_column": {
      "latitude": "29.939982413133023",
      "longitude": "-90.0191052521731"
    }
  },
  {
    "service_request": "2022-948511",
    "request_type": "Trash/Recycling",
    "request_reason": "Missed Trash Pick-Up",
    "date_created": "2022-12-01T15:26:09.000",
    "date_modified": "2022-12-01T15:26:10.000",
    "request_status": "Pending",
    "responsible_agency": "Department of Sanitation",
    "final_address": "7600 Lehigh St",
    "address_councildis": "E",
    "status": "Assigned to Contractor",
    "contractor": "Waste Pro",
    "rowid": "948511",
    "final_x": "3710613.03819",
    "final_y": "565509.265698",
    "longitude": "-89.97487033168466",
    "latitude": "30.048037090647043",
    "geocoded_column": {
      "latitude": "30.048037090647043",
      "longitude": "-89.97487033168466"
    }
  },
  {
    "service_request": "2022-948510",
    "request_type": "Trash/Recycling",
    "request_reason": "MIssed Recycling Pick-Up",
    "date_created": "2022-12-01T15:25:52.000",
    "date_modified": "2022-12-01T15:25:52.000",
    "request_status": "Pending",
    "responsible_agency": "Department of Sanitation",
    "final_address": "2848 Chippewa St",
    "address_councildis": "B",
    "status": "Assigned to Contractor",
    "contractor": "Richards Disposal",
    "rowid": "948510",
    "final_x": "3677558.62434",
    "final_y": "519312.799607",
    "longitude": "-90.08093707805801",
    "latitude": "29.922048985922313",
    "geocoded_column": {
      "latitude": "29.922048985922313",
      "longitude": "-90.08093707805801"
    }
  },
  {
    "service_request": "2022-948509",
    "request_type": "Abandoned Vehicles",
    "request_reason": "Abandoned/Junk Vehicles",
    "date_created": "2022-12-01T15:25:31.000",
    "date_modified": "2022-12-01T15:25:31.000",
    "request_status": "Pending",
    "responsible_agency": "Department of Public Works",
    "final_address": "633 St Roch Ave",
    "address_councildis": "C",
    "status": "Pending",
    "rowid": "948509",
    "final_x": "3686640.9183",
    "final_y": "534947.592774",
    "longitude": "-90.05171613397144",
    "latitude": "29.964763287977355",
    "geocoded_column": {
      "latitude": "29.964763287977355",
      "longitude": "-90.05171613397144"
    }
  },
  {
    "service_request": "2022-948508",
    "request_type": "Trash/Recycling",
    "request_reason": "Replace Trash Cart",
    "date_created": "2022-12-01T15:24:41.000",
    "date_modified": "2022-12-01T15:24:42.000",
    "request_status": "Pending",
    "responsible_agency": "Department of Sanitation",
    "final_address": "6075 Wales St",
    "address_councildis": "E",
    "status": "Assigned to Contractor",
    "contractor": "Waste Pro",
    "rowid": "948508",
    "final_x": "3695439.34883",
    "final_y": "559609.141917",
    "longitude": "-90.0230408527442",
    "latitude": "30.032299937511972",
    "geocoded_column": {
      "latitude": "30.032299937511972",
      "longitude": "-90.0230408527442"
    }
  },
  {
    "service_request": "2022-948507",
    "request_type": "Abandoned Vehicles",
    "request_reason": "Abandoned/Junk Vehicles",
    "date_created": "2022-12-01T15:21:37.000",
    "date_modified": "2022-12-01T15:21:37.000",
    "request_status": "Pending",
    "responsible_agency": "Department of Public Works",
    "final_address": "633 St Roch Ave",
    "address_councildis": "C",
    "status": "Pending",
    "rowid": "948507",
    "final_x": "3686640.9183",
    "final_y": "534947.592774",
    "longitude": "-90.05171613397144",
    "latitude": "29.964763287977355",
    "geocoded_column": {
      "latitude": "29.964763287977355",
      "longitude": "-90.05171613397144"
    }
  },
  {
    "service_request": "2022-948506",
    "request_type": "Trash/Recycling",
    "request_reason": "Request a Large Item Pick Up",
    "date_created": "2022-12-01T15:21:35.000",
    "date_modified": "2022-12-01T15:21:35.000",
    "request_status": "Pending",
    "responsible_agency": "Department of Sanitation",
    "final_address": "1510 Poland Ave",
    "address_councildis": "D",
    "status": "Assigned to Contractor",
    "contractor": "IV Waste",
    "rowid": "948506",
    "final_x": "3693370.17206",
    "final_y": "536599.004039",
    "longitude": "-90.0304063932214",
    "latitude": "29.969095412616046",
    "geocoded_column": {
      "latitude": "29.969095412616046",
      "longitude": "-90.0304063932214"
    }
  },
  {
    "service_request": "2022-948504",
    "request_type": "Property Maintenance",
    "request_reason": "Property Maintenance",
    "date_created": "2022-12-01T15:18:13.000",
    "date_modified": "2022-12-01T15:18:13.000",
    "request_status": "Pending",
    "responsible_agency": "Department of Code Enforcement",
    "final_address": "5400 St Claude Ave",
    "address_councildis": "E",
    "status": "Pending",
    "rowid": "948504",
    "final_x": "3697202.46218",
    "final_y": "533902.895493",
    "longitude": "-90.01840152863893",
    "latitude": "29.961561697367742",
    "geocoded_column": {
      "latitude": "29.961561697367742",
      "longitude": "-90.01840152863893"
    }
  },
  {
    "service_request": "2022-948505",
    "request_type": "Property Maintenance",
    "request_reason": "Property Maintenance",
    "date_created": "2022-12-01T15:18:13.000",
    "date_modified": "2022-12-01T15:18:14.000",
    "request_status": "Pending",
    "responsible_agency": "Department of Code Enforcement",
    "final_address": "5400 St Claude Ave",
    "address_councildis": "E",
    "status": "Pending",
    "rowid": "948505",
    "final_x": "3697202.46218",
    "final_y": "533902.895493",
    "longitude": "-90.01840152863893",
    "latitude": "29.961561697367742",
    "geocoded_column": {
      "latitude": "29.961561697367742",
      "longitude": "-90.01840152863893"
    }
  },
  {
    "service_request": "2022-948502",
    "request_type": "Property Maintenance",
    "request_reason": "Property Maintenance",
    "date_created": "2022-12-01T15:04:14.000",
    "date_modified": "2022-12-01T15:04:14.000",
    "request_status": "Pending",
    "responsible_agency": "Department of Code Enforcement",
    "final_address": "3142 N Dorgenois St",
    "address_councildis": "D",
    "status": "Pending",
    "rowid": "948502",
    "final_x": "3690703.29692",
    "final_y": "541132.062732",
    "longitude": "-90.03866679167477",
    "latitude": "29.981642829578476",
    "geocoded_column": {
      "latitude": "29.981642829578476",
      "longitude": "-90.03866679167477"
    }
  },
  {
    "service_request": "2022-948501",
    "request_type": "Trash/Recycling",
    "request_reason": "Replace Trash Cart",
    "date_created": "2022-12-01T14:57:31.000",
    "date_modified": "2022-12-01T14:57:32.000",
    "request_status": "Pending",
    "responsible_agency": "Department of Sanitation",
    "final_address": "432 Country Club Dr",
    "address_councildis": "A",
    "status": "Assigned to Contractor",
    "contractor": "IV Waste",
    "rowid": "948501",
    "final_x": "3664160.71687",
    "final_y": "544266.165455",
    "longitude": "-90.12239643435693",
    "latitude": "29.991058478230965",
    "geocoded_column": {
      "latitude": "29.991058478230965",
      "longitude": "-90.12239643435693"
    }
  },
  {
    "service_request": "2022-948500",
    "request_type": "Trash/Recycling",
    "request_reason": "Order Trash Cart",
    "date_created": "2022-12-01T14:56:32.000",
    "date_modified": "2022-12-01T14:56:33.000",
    "request_status": "Pending",
    "responsible_agency": "Department of Sanitation",
    "final_address": "3135 Pauger St",
    "address_councildis": "D",
    "status": "Assigned to Contractor",
    "contractor": "IV Waste",
    "rowid": "948500",
    "final_x": "3683496.69673",
    "final_y": "541303.533132",
    "longitude": "-90.06142256245188",
    "latitude": "29.98233623838426",
    "geocoded_column": {
      "latitude": "29.98233623838426",
      "longitude": "-90.06142256245188"
    }
  },
  {
    "service_request": "2022-948499",
    "request_type": "Trash/Recycling",
    "request_reason": "Request a Large Item Pick Up",
    "date_created": "2022-12-01T14:54:45.000",
    "date_modified": "2022-12-01T14:54:46.000",
    "request_status": "Pending",
    "responsible_agency": "Department of Sanitation",
    "final_address": "3250 River Oaks Dr",
    "address_councildis": "C",
    "status": "Assigned to Contractor",
    "contractor": "Richards Disposal",
    "rowid": "948499",
    "final_x": "3701490.92068",
    "final_y": "519095.132279",
    "longitude": "-90.0054013034023",
    "latitude": "29.920709527947487",
    "geocoded_column": {
      "latitude": "29.920709527947487",
      "longitude": "-90.0054013034023"
    }
  },
  {
    "service_request": "2022-948498",
    "request_type": "Trash/Recycling",
    "request_reason": "Order Recycling Cart",
    "date_created": "2022-12-01T14:52:11.000",
    "date_modified": "2022-12-01T14:52:13.000",
    "request_status": "Pending",
    "responsible_agency": "Department of Sanitation",
    "final_address": "4755 Camelia St",
    "address_councildis": "E",
    "status": "Pending",
    "rowid": "948498",
    "final_x": "3701606.08445",
    "final_y": "554380.400024",
    "longitude": "-90.00374538821616",
    "latitude": "30.017727570617144",
    "geocoded_column": {
      "latitude": "30.017727570617144",
      "longitude": "-90.00374538821616"
    }
  },
  {
    "service_request": "2022-948497",
    "request_type": "Trash/Recycling",
    "request_reason": "Order Recycling Cart",
    "date_created": "2022-12-01T14:49:33.000",
    "date_modified": "2022-12-01T14:49:34.000",
    "request_status": "Pending",
    "responsible_agency": "Department of Sanitation",
    "final_address": "6515 Center St",
    "address_councildis": "A",
    "status": "Pending",
    "contractor": "IV Waste",
    "rowid": "948497",
    "final_x": "3664983.47028",
    "final_y": "551357.386517",
    "longitude": "-90.11956026307583",
    "latitude": "30.01053296468397",
    "geocoded_column": {
      "latitude": "30.01053296468397",
      "longitude": "-90.11956026307583"
    }
  },
  {
    "service_request": "2022-948496",
    "request_type": "Trash/Recycling",
    "request_reason": "Repair Trash Cart",
    "date_created": "2022-12-01T14:49:00.000",
    "date_modified": "2022-12-01T14:49:01.000",
    "request_status": "Pending",
    "responsible_agency": "Department of Sanitation",
    "final_address": "6515 Center St",
    "address_councildis": "A",
    "status": "Assigned to Contractor",
    "contractor": "IV Waste",
    "rowid": "948496",
    "final_x": "3664983.47028",
    "final_y": "551357.386517",
    "longitude": "-90.11956026307583",
    "latitude": "30.01053296468397",
    "geocoded_column": {
      "latitude": "30.01053296468397",
      "longitude": "-90.11956026307583"
    }
  },
  {
    "service_request": "2022-948495",
    "request_type": "Property Maintenance",
    "request_reason": "Property Maintenance",
    "date_created": "2022-12-01T14:48:08.000",
    "date_modified": "2022-12-01T15:31:05.000",
    "case_close_date": "2022-12-01T09:31:05.000",
    "request_status": "Closed",
    "responsible_agency": "Department of Code Enforcement",
    "final_address": "3117 N Dorgenois St",
    "address_councildis": "D",
    "status": "Referred to Code Enforcement",
    "rowid": "948495",
    "final_x": "3690487.70736",
    "final_y": "541278.056652",
    "longitude": "-90.03934251456093",
    "latitude": "29.982050956867518",
    "geocoded_column": {
      "latitude": "29.982050956867518",
      "longitude": "-90.03934251456093"
    }
  },
  {
    "service_request": "2022-948494",
    "request_type": "Roads/Drainage",
    "request_reason": "Street Subsidence (Sinking)",
    "date_created": "2022-12-01T14:44:28.000",
    "date_modified": "2022-12-01T14:51:15.000",
    "case_close_date": "2022-12-01T08:51:15.000",
    "request_status": "Closed",
    "responsible_agency": "Department of Public Works",
    "final_address": "1750 St Charles Ave",
    "address_councildis": "B",
    "status": "Duplicate Request",
    "rowid": "948494",
    "final_x": "3678708.23739",
    "final_y": "524583.7655",
    "longitude": "-90.07712582148702",
    "latitude": "29.93650781826905",
    "geocoded_column": {
      "latitude": "29.93650781826905",
      "longitude": "-90.07712582148702"
    }
  },
  {
    "service_request": "2022-948493",
    "request_type": "Trash/Recycling",
    "request_reason": "Order Trash Cart",
    "date_created": "2022-12-01T14:42:09.000",
    "date_modified": "2022-12-01T14:42:10.000",
    "request_status": "Pending",
    "responsible_agency": "Department of Sanitation",
    "final_address": "3322 Humanity St",
    "address_councildis": "D",
    "status": "Assigned to Contractor",
    "contractor": "IV Waste",
    "rowid": "948493",
    "final_x": "3692195.81949",
    "final_y": "544382.073615",
    "longitude": "-90.03383631086051",
    "latitude": "29.990532734763036",
    "geocoded_column": {
      "latitude": "29.990532734763036",
      "longitude": "-90.03383631086051"
    }
  },
  {
    "service_request": "2022-948492",
    "request_type": "Roads/Drainage",
    "request_reason": "Street Flooding / Drainage",
    "date_created": "2022-12-01T14:32:32.000",
    "date_modified": "2022-12-01T14:51:51.000",
    "case_close_date": "2022-12-01T08:51:51.000",
    "request_status": "Closed",
    "responsible_agency": "Department of Public Works",
    "final_address": "1750 St Charles Ave",
    "address_councildis": "B",
    "status": "Duplicate Request",
    "rowid": "948492",
    "final_x": "3678708.23739",
    "final_y": "524583.7655",
    "longitude": "-90.07712582148702",
    "latitude": "29.93650781826905",
    "geocoded_column": {
      "latitude": "29.93650781826905",
      "longitude": "-90.07712582148702"
    }
  },
  {
    "service_request": "2022-948491",
    "request_type": "Trash/Recycling",
    "request_reason": "Repair Recycling Cart",
    "date_created": "2022-12-01T14:30:56.000",
    "date_modified": "2022-12-01T14:30:57.000",
    "request_status": "Pending",
    "responsible_agency": "Department of Sanitation",
    "final_address": "2830 Allen St",
    "address_councildis": "D",
    "status": "Pending",
    "rowid": "948491",
    "final_x": "3682225.07112",
    "final_y": "542595.556749",
    "longitude": "-90.06539381785353",
    "latitude": "29.98592760082784",
    "geocoded_column": {
      "latitude": "29.98592760082784",
      "longitude": "-90.06539381785353"
    }
  },
  {
    "service_request": "2022-948490",
    "request_type": "Trash/Recycling",
    "request_reason": "Request a Large Item Pick Up",
    "date_created": "2022-12-01T14:29:54.000",
    "date_modified": "2022-12-01T14:29:55.000",
    "request_status": "Pending",
    "responsible_agency": "Department of Sanitation",
    "final_address": "7800 Briarwood Dr",
    "address_councildis": "E",
    "status": "Assigned to Contractor",
    "contractor": "Waste Pro",
    "rowid": "948490",
    "final_x": "3716879.1422",
    "final_y": "571676.94052",
    "longitude": "-89.95483159004776",
    "latitude": "30.064789895814403",
    "geocoded_column": {
      "latitude": "30.064789895814403",
      "longitude": "-89.95483159004776"
    }
  },
  {
    "service_request": "2022-948489",
    "request_type": "Trash/Recycling",
    "request_reason": "Illegal Dumping",
    "date_created": "2022-12-01T14:27:57.000",
    "date_modified": "2022-12-01T14:27:58.000",
    "request_status": "Pending",
    "responsible_agency": "Department of Sanitation",
    "final_address": "HUMANITY ST & ARTS ST",
    "address_councildis": "D",
    "status": "Pending",
    "rowid": "948489",
    "final_x": "3686524.7",
    "final_y": "544957.38",
    "longitude": "-90.05172958769546",
    "latitude": "29.99229024924595",
    "geocoded_column": {
      "latitude": "29.99229024924595",
      "longitude": "-90.05172958769546"
    }
  },
  {
    "service_request": "2022-948488",
    "request_type": "Trash/Recycling",
    "request_reason": "Order Recycling Cart",
    "date_created": "2022-12-01T14:26:13.000",
    "date_modified": "2022-12-01T14:26:13.000",
    "request_status": "Pending",
    "responsible_agency": "Department of Sanitation",
    "final_address": "1937 Columbus St",
    "address_councildis": "D",
    "status": "Pending",
    "rowid": "948488",
    "final_x": "3680653.25531",
    "final_y": "538055.624201",
    "longitude": "-90.07051659569076",
    "latitude": "29.973492097034814",
    "geocoded_column": {
      "latitude": "29.973492097034814",
      "longitude": "-90.07051659569076"
    }
  },
  {
    "service_request": "2022-948487",
    "request_type": "Trash/Recycling",
    "request_reason": "Missed Trash Pick-Up",
    "date_created": "2022-12-01T14:25:53.000",
    "date_modified": "2022-12-01T14:25:53.000",
    "request_status": "Pending",
    "responsible_agency": "Department of Sanitation",
    "final_address": "233 New Orleans-Hammond Hwy",
    "address_councildis": "A",
    "status": "Assigned to Contractor",
    "contractor": "IV Waste",
    "rowid": "948487",
    "final_x": "3666002.21946",
    "final_y": "554728.853272",
    "longitude": "-90.11622848988694",
    "latitude": "30.019773603817935",
    "geocoded_column": {
      "latitude": "30.019773603817935",
      "longitude": "-90.11622848988694"
    }
  },
  {
    "service_request": "2022-948486",
    "request_type": "Property Maintenance",
    "request_reason": "Property Maintenance",
    "date_created": "2022-12-01T14:24:49.000",
    "date_modified": "2022-12-01T14:54:07.000",
    "case_close_date": "2022-12-01T08:54:07.000",
    "request_status": "Closed",
    "responsible_agency": "Department of Code Enforcement",
    "final_address": "2434 Feliciana St",
    "address_councildis": "D",
    "status": "Referred to Code Enforcement",
    "rowid": "948486",
    "final_x": "3690010.12419",
    "final_y": "541280.704268",
    "longitude": "-90.04085085229855",
    "latitude": "29.982073057957194",
    "geocoded_column": {
      "latitude": "29.982073057957194",
      "longitude": "-90.04085085229855"
    }
  },
  {
    "service_request": "2022-948485",
    "request_type": "Traffic Signals/Signs/Striping/Streetlights",
    "request_reason": "Traffic Sign Missing/Damaged",
    "date_created": "2022-12-01T14:22:10.000",
    "date_modified": "2022-12-01T14:22:10.000",
    "request_status": "Pending",
    "responsible_agency": "Department of Public Works",
    "final_address": "LEONIDAS ST & EARHART BLVD",
    "address_councildis": "A",
    "status": "Pending",
    "rowid": "948485",
    "final_x": "3665020.9",
    "final_y": "534387.68",
    "longitude": "-90.12000972182621",
    "latitude": "29.96387092095821",
    "geocoded_column": {
      "latitude": "29.96387092095821",
      "longitude": "-90.12000972182621"
    }
  },
  {
    "service_request": "2022-948484",
    "request_type": "Trash/Recycling",
    "request_reason": "MIssed Recycling Pick-Up",
    "date_created": "2022-12-01T14:17:23.000",
    "date_modified": "2022-12-01T14:17:24.000",
    "request_status": "Pending",
    "responsible_agency": "Department of Sanitation",
    "final_address": "743 Felicity St",
    "address_councildis": "B",
    "status": "Assigned to Contractor",
    "contractor": "Richards Disposal",
    "rowid": "948484",
    "final_x": "3681052.04827",
    "final_y": "522025.25849",
    "longitude": "-90.06981539111247",
    "latitude": "29.929401906320233",
    "geocoded_column": {
      "latitude": "29.929401906320233",
      "longitude": "-90.06981539111247"
    }
  },
  {
    "service_request": "2022-948483",
    "request_type": "Trash/Recycling",
    "request_reason": "Order Recycling Cart",
    "date_created": "2022-12-01T14:13:40.000",
    "date_modified": "2022-12-01T14:13:40.000",
    "request_status": "Pending",
    "responsible_agency": "Department of Sanitation",
    "final_address": "1338 Frenchmen St",
    "address_councildis": "C",
    "status": "Pending",
    "rowid": "948483",
    "final_x": "3684474.11215",
    "final_y": "537329.652872",
    "longitude": "-90.05847505816459",
    "latitude": "29.971379589681494",
    "geocoded_column": {
      "latitude": "29.971379589681494",
      "longitude": "-90.05847505816459"
    }
  },
  {
    "service_request": "2022-948481",
    "request_type": "Property Maintenance",
    "request_reason": "Property Maintenance",
    "date_created": "2022-12-01T14:10:37.000",
    "date_modified": "2022-12-01T14:10:37.000",
    "request_status": "Pending",
    "responsible_agency": "Department of Code Enforcement",
    "final_address": "5181 St Anthony Ave",
    "address_councildis": "D",
    "status": "Pending",
    "rowid": "948481",
    "final_x": "3682317.57109",
    "final_y": "552004.065878",
    "longitude": "-90.06477264219683",
    "latitude": "30.011794825435565",
    "geocoded_column": {
      "latitude": "30.011794825435565",
      "longitude": "-90.06477264219683"
    }
  },
  {
    "service_request": "2022-948480",
    "request_type": "Safety & Permits",
    "request_reason": "Licenses & Permits",
    "date_created": "2022-12-01T14:08:59.000",
    "date_modified": "2022-12-01T14:09:02.000",
    "request_status": "Pending",
    "responsible_agency": "Safety and Permits",
    "final_address": "5181 St Anthony Ave",
    "address_councildis": "D",
    "status": "Pending",
    "rowid": "948480",
    "final_x": "3682317.57109",
    "final_y": "552004.065878",
    "longitude": "-90.06477264219683",
    "latitude": "30.011794825435565",
    "geocoded_column": {
      "latitude": "30.011794825435565",
      "longitude": "-90.06477264219683"
    }
  },
  {
    "service_request": "2022-948479",
    "request_type": "Traffic Signals/Signs/Striping/Streetlights",
    "request_reason": "Street Light Outage/Malfunction",
    "date_created": "2022-12-01T14:08:59.000",
    "date_modified": "2022-12-01T14:09:02.000",
    "request_status": "Pending",
    "responsible_agency": "Department of Public Works",
    "final_address": "700 Decatur St",
    "address_councildis": "C",
    "status": "Pending",
    "contractor": "Legacy Professional Services",
    "rowid": "948479",
    "final_x": "3683339.11113",
    "final_y": "532087.273027",
    "longitude": "-90.06224320776103",
    "latitude": "29.956999522283336",
    "geocoded_column": {
      "latitude": "29.956999522283336",
      "longitude": "-90.06224320776103"
    }
  },
  {
    "service_request": "2022-948478",
    "request_type": "Trash/Recycling",
    "request_reason": "Order Recycling Cart",
    "date_created": "2022-12-01T14:08:23.000",
    "date_modified": "2022-12-01T14:08:23.000",
    "request_status": "Pending",
    "responsible_agency": "Department of Sanitation",
    "final_address": "4757 Mandeville St",
    "address_councildis": "D",
    "status": "Pending",
    "rowid": "948478",
    "final_x": "3684771.56021",
    "final_y": "550578.416596",
    "longitude": "-90.05706963652352",
    "latitude": "30.007799877834394",
    "geocoded_column": {
      "latitude": "30.007799877834394",
      "longitude": "-90.05706963652352"
    }
  },
  {
    "service_request": "2022-948477",
    "request_type": "Trash/Recycling",
    "request_reason": "Order Trash Cart",
    "date_created": "2022-12-01T14:08:08.000",
    "date_modified": "2022-12-01T14:08:09.000",
    "request_status": "Pending",
    "responsible_agency": "Department of Sanitation",
    "final_address": "6650 Coveview Ct",
    "address_councildis": "E",
    "status": "Assigned to Contractor",
    "contractor": "Waste Pro",
    "rowid": "948477",
    "final_x": "3699309.57373",
    "final_y": "555704.055513",
    "longitude": "-90.01095315579961",
    "latitude": "30.0214401910728",
    "geocoded_column": {
      "latitude": "30.0214401910728",
      "longitude": "-90.01095315579961"
    }
  },
  {
    "service_request": "2022-948476",
    "request_type": "Trash/Recycling",
    "request_reason": "Missed Trash Pick-Up",
    "date_created": "2022-12-01T14:06:37.000",
    "date_modified": "2022-12-01T14:06:38.000",
    "request_status": "Pending",
    "responsible_agency": "Department of Sanitation",
    "final_address": "3318 Burgundy St Apt A",
    "address_councildis": "C",
    "status": "Assigned to Contractor",
    "contractor": "IV Waste",
    "rowid": "948476",
    "final_x": "3689783.18684",
    "final_y": "534919.638598",
    "longitude": "-90.04179408712739",
    "latitude": "29.96458940986121",
    "geocoded_column": {
      "latitude": "29.96458940986121",
      "longitude": "-90.04179408712739"
    }
  },
  {
    "service_request": "2022-948475",
    "request_type": "Abandoned Vehicles",
    "request_reason": "Abandoned/Junk Vehicles",
    "date_created": "2022-12-01T14:04:40.000",
    "date_modified": "2022-12-01T14:06:32.000",
    "request_status": "Pending",
    "responsible_agency": "Department of Public Works",
    "final_address": "1800 BLK Mirabeau Ave",
    "address_councildis": "D",
    "status": "Pending",
    "rowid": "948475",
    "final_x": "3681372.93413",
    "final_y": "550535.518467",
    "longitude": "-90.06780839120043",
    "latitude": "30.00778557237076",
    "geocoded_column": {
      "latitude": "30.00778557237076",
      "longitude": "-90.06780839120043"
    }
  },
  {
    "service_request": "2022-948474",
    "request_type": "Trash/Recycling",
    "request_reason": "Return Trash Cart",
    "date_created": "2022-12-01T14:03:34.000",
    "date_modified": "2022-12-01T14:03:34.000",
    "request_status": "Pending",
    "responsible_agency": "Department of Sanitation",
    "final_address": "4751 Bonita Dr",
    "address_councildis": "E",
    "status": "Assigned to Contractor",
    "contractor": "Waste Pro",
    "rowid": "948474",
    "final_x": "3704523.52087",
    "final_y": "555352.095449",
    "longitude": "-89.99449162625267",
    "latitude": "30.02030595368128",
    "geocoded_column": {
      "latitude": "30.02030595368128",
      "longitude": "-89.99449162625267"
    }
  },
  {
    "service_request": "2022-948472",
    "request_type": "Trash/Recycling",
    "request_reason": "Repair Trash Cart",
    "date_created": "2022-12-01T14:03:11.000",
    "date_modified": "2022-12-01T14:03:13.000",
    "request_status": "Pending",
    "responsible_agency": "Department of Sanitation",
    "final_address": "2115 Robert St",
    "address_councildis": "B",
    "status": "Assigned to Contractor",
    "contractor": "Richards Disposal",
    "rowid": "948472",
    "final_x": "3668850.38932",
    "final_y": "523335.793531",
    "longitude": "-90.10828965351729",
    "latitude": "29.93336978162673",
    "geocoded_column": {
      "latitude": "29.93336978162673",
      "longitude": "-90.10828965351729"
    }
  },
  {
    "service_request": "2022-948471",
    "request_type": "Trash/Recycling",
    "request_reason": "Request a Large Item Pick Up",
    "date_created": "2022-12-01T13:59:59.000",
    "date_modified": "2022-12-01T14:00:00.000",
    "request_status": "Pending",
    "responsible_agency": "Department of Sanitation",
    "final_address": "2910 Edith Weston Pl",
    "address_councildis": "D",
    "status": "Assigned to Contractor",
    "contractor": "IV Waste",
    "rowid": "948471",
    "final_x": "3692852.26915",
    "final_y": "542824.258445",
    "longitude": "-90.03181865265307",
    "latitude": "29.986228819757372",
    "geocoded_column": {
      "latitude": "29.986228819757372",
      "longitude": "-90.03181865265307"
    }
  },
  {
    "service_request": "2022-948470",
    "request_type": "Trash/Recycling",
    "request_reason": "Repair Recycling Cart",
    "date_created": "2022-12-01T13:59:00.000",
    "date_modified": "2022-12-01T13:59:01.000",
    "request_status": "Pending",
    "responsible_agency": "Department of Sanitation",
    "final_address": "2118 Palmer Ave",
    "address_councildis": "A",
    "status": "Pending",
    "rowid": "948470",
    "final_x": "3665928.13946",
    "final_y": "524784.308924",
    "longitude": "-90.11746653382637",
    "latitude": "29.937438320207818",
    "geocoded_column": {
      "latitude": "29.937438320207818",
      "longitude": "-90.11746653382637"
    }
  },
  {
    "service_request": "2022-948469",
    "request_type": "Trash/Recycling",
    "request_reason": "Replace Trash Cart",
    "date_created": "2022-12-01T13:58:14.000",
    "date_modified": "2022-12-01T13:58:15.000",
    "request_status": "Pending",
    "responsible_agency": "Department of Sanitation",
    "final_address": "152 Alvin Callender St",
    "address_councildis": "A",
    "status": "Assigned to Contractor",
    "contractor": "Richards Disposal",
    "rowid": "948469",
    "final_x": "3661137.91085",
    "final_y": "523476.209467",
    "longitude": "-90.13263297016715",
    "latitude": "29.933980354925524",
    "geocoded_column": {
      "latitude": "29.933980354925524",
      "longitude": "-90.13263297016715"
    }
  },
  {
    "service_request": "2022-948468",
    "request_type": "Trash/Recycling",
    "request_reason": "Request a Large Item Pick Up",
    "date_created": "2022-12-01T13:57:36.000",
    "date_modified": "2022-12-01T13:57:36.000",
    "request_status": "Pending",
    "responsible_agency": "Department of Sanitation",
    "final_address": "513 Dufossat St",
    "address_councildis": "B",
    "status": "Assigned to Contractor",
    "contractor": "Richards Disposal",
    "rowid": "948468",
    "final_x": "3668041.31642",
    "final_y": "517328.969077",
    "longitude": "-90.11104614032432",
    "latitude": "29.916876677031325",
    "geocoded_column": {
      "latitude": "29.916876677031325",
      "longitude": "-90.11104614032432"
    }
  },
  {
    "service_request": "2022-948467",
    "request_type": "Roads/Drainage",
    "request_reason": "Street Subsidence (Sinking)",
    "date_created": "2022-12-01T13:56:37.000",
    "date_modified": "2022-12-01T13:56:37.000",
    "request_status": "Pending",
    "responsible_agency": "Department of Public Works",
    "final_address": "1501 Dave Dixon Dr",
    "address_councildis": "B",
    "status": "Pending",
    "rowid": "948467",
    "final_x": "3677099.45326",
    "final_y": "529181.056768",
    "longitude": "-90.08204632448965",
    "latitude": "29.94919724817447",
    "geocoded_column": {
      "latitude": "29.94919724817447",
      "longitude": "-90.08204632448965"
    }
  },
  {
    "service_request": "2022-948465",
    "request_type": "Trash/Recycling",
    "request_reason": "Order Recycling Cart",
    "date_created": "2022-12-01T13:56:18.000",
    "date_modified": "2022-12-01T13:56:18.000",
    "request_status": "Pending",
    "responsible_agency": "Department of Sanitation",
    "final_address": "152 Alvin Callender St",
    "address_councildis": "A",
    "status": "Pending",
    "rowid": "948465",
    "final_x": "3661137.91085",
    "final_y": "523476.209467",
    "longitude": "-90.13263297016715",
    "latitude": "29.933980354925524",
    "geocoded_column": {
      "latitude": "29.933980354925524",
      "longitude": "-90.13263297016715"
    }
  },
  {
    "service_request": "2022-948464",
    "request_type": "Trash/Recycling",
    "request_reason": "Missed Trash Pick-Up",
    "date_created": "2022-12-01T13:55:56.000",
    "date_modified": "2022-12-01T13:55:56.000",
    "request_status": "Pending",
    "responsible_agency": "Department of Sanitation",
    "final_address": "826 Clouet St",
    "address_councildis": "C",
    "status": "Assigned to Contractor",
    "contractor": "IV Waste",
    "rowid": "948464",
    "final_x": "3688743.78639",
    "final_y": "535078.032838",
    "longitude": "-90.04507080528191",
    "latitude": "29.96505711184646",
    "geocoded_column": {
      "latitude": "29.96505711184646",
      "longitude": "-90.04507080528191"
    }
  },
  {
    "service_request": "2022-948463",
    "request_type": "Trash/Recycling",
    "request_reason": "Missed Trash Pick-Up",
    "date_created": "2022-12-01T13:53:57.000",
    "date_modified": "2022-12-01T13:53:58.000",
    "request_status": "Pending",
    "responsible_agency": "Department of Sanitation",
    "final_address": "1118 Fourth St",
    "address_councildis": "B",
    "status": "Assigned to Contractor",
    "contractor": "Richards Disposal",
    "rowid": "948463",
    "final_x": "3677169.36782",
    "final_y": "521105.730297",
    "longitude": "-90.08210399821482",
    "latitude": "29.926990657273855",
    "geocoded_column": {
      "latitude": "29.926990657273855",
      "longitude": "-90.08210399821482"
    }
  },
  {
    "service_request": "2022-948462",
    "request_type": "Property Maintenance",
    "request_reason": "Property Maintenance",
    "date_created": "2022-12-01T13:45:37.000",
    "date_modified": "2022-12-01T13:45:38.000",
    "request_status": "Pending",
    "responsible_agency": "Department of Code Enforcement",
    "final_address": "1640 N Claiborne Ave",
    "address_councildis": "C",
    "status": "Pending",
    "rowid": "948462",
    "final_x": "3682552.15477",
    "final_y": "537798.894984",
    "longitude": "-90.06452845774773",
    "latitude": "29.972728500579247",
    "geocoded_column": {
      "latitude": "29.972728500579247",
      "longitude": "-90.06452845774773"
    }
  },
  {
    "service_request": "2022-948460",
    "request_type": "Trash/Recycling",
    "request_reason": "Order Recycling Cart",
    "date_created": "2022-12-01T13:42:10.000",
    "date_modified": "2022-12-01T13:42:10.000",
    "request_status": "Pending",
    "responsible_agency": "Department of Sanitation",
    "final_address": "5189 De Montluzin St",
    "address_councildis": "D",
    "status": "Pending",
    "rowid": "948460",
    "final_x": "3687093.22377",
    "final_y": "551962.938646",
    "longitude": "-90.04968583072566",
    "latitude": "30.011535499158548",
    "geocoded_column": {
      "latitude": "30.011535499158548",
      "longitude": "-90.04968583072566"
    }
  },