[
  {
    "service_request": "2023-1033689",
    "request_type": "Abandoned Vehicles",
    "request_reason": "Abandoned/Junk Vehicles",
    "date_created": "2023-09-10T01:52:30.000",
    "date_modified": "2023-09-10T01:52:30.000",
    "request_status": "Pending",
    "responsible_agency": "Department of Public Works",
    "final_address": "1516 Robert St",
    "address_councildis": "B",
    "status": "Pending",
    "rowid": "1033689",
    "final_x": "3668617.50503",
    "final_y": "520561.9822",
    "longitude": "-90.10911841476718",
    "latitude": "29.925749528965472",
    "geocoded_column": {
      "latitude": "29.925749528965472",
      "longitude": "-90.10911841476718"
    }
  },
  {
    "service_request": "2023-1033688",
    "request_type": "Traffic Signals/Signs/Striping/Streetlights",
    "request_reason": "Street Light Outage/Malfunction",
    "date_created": "2023-09-10T01:44:51.000",
    "date_modified": "2023-09-10T01:44:52.000",
    "request_status": "Pending",
    "responsible_agency": "Department of Public Works",
    "final_address": "11266 Asphodel Dr",
    "address_councildis": "E",
    "status": "Assigned to Contractor",
    "contractor": "Legacy Professional Services",
    "rowid": "1033688",
    "final_x": "3717824.41695",
    "final_y": "559716.868189",
    "longitude": "-89.95229918718786",
    "latitude": "30.031873299617057",
    "geocoded_column": {
      "latitude": "30.031873299617057",
      "longitude": "-89.95229918718786"
    }
  },
  {
    "service_request": "2023-1033687",
    "request_type": "Trash/Recycling",
    "request_reason": "Missed Trash Pick-Up",
    "date_created": "2023-09-10T01:41:01.000",
    "date_modified": "2023-09-10T01:41:02.000",
    "request_status": "Pending",
    "responsible_agency": "Department of Sanitation",
    "final_address": "1515 Robert St",
    "address_councildis": "B",
    "status": "Assigned to Contractor",
    "contractor": "Richards Disposal",
    "rowid": "1033687",
    "final_x": "3668795.80602",
    "final_y": "520564.551928",
    "longitude": "-90.10855548375804",
    "latitude": "29.925751355656217",
    "geocoded_column": {
      "latitude": "29.925751355656217",
      "longitude": "-90.10855548375804"
    }
  },
  {
    "service_request": "2023-1033686",
    "request_type": "Trash/Recycling",
    "request_reason": "Missed Trash Pick-Up",
    "date_created": "2023-09-10T00:32:05.000",
    "date_modified": "2023-09-10T00:32:06.000",
    "request_status": "Pending",
    "responsible_agency": "Department of Sanitation",
    "final_address": "1333 Reynes St",
    "address_councildis": "E",
    "status": "Assigned to Contractor",
    "contractor": "Waste Pro",
    "rowid": "1033686",
    "final_x": "3696336.40547",
    "final_y": "535312.610502",
    "longitude": "-90.02108539425744",
    "latitude": "29.96546521274799",
    "geocoded_column": {
      "latitude": "29.96546521274799",
      "longitude": "-90.02108539425744"
    }
  },
  {
    "service_request": "2023-1033685",
    "request_type": "Traffic Signals/Signs/Striping/Streetlights",
    "request_reason": "Street Light Outage/Malfunction",
    "date_created": "2023-09-09T22:31:38.000",
    "date_modified": "2023-09-09T22:31:39.000",
    "request_status": "Pending",
    "responsible_agency": "Department of Public Works",
    "final_address": "6000 BLK Louis XIV St",
    "address_councildis": "A",
    "status": "Assigned to Contractor",
    "contractor": "Legacy Professional Services",
    "rowid": "1033685",
    "final_x": "3668106.85437",
    "final_y": "547641.853323",
    "longitude": "-90.1098176114321",
    "latitude": "30.000225198773563",
    "geocoded_column": {
      "latitude": "30.000225198773563",
      "longitude": "-90.1098176114321"
    }
  },
  {
    "service_request": "2023-1033684",
    "request_type": "Roads/Drainage",
    "request_reason": "Street Subsidence (Sinking)",
    "date_created": "2023-09-09T21:56:45.000",
    "date_modified": "2023-09-09T21:56:45.000",
    "request_status": "Pending",
    "responsible_agency": "Department of Public Works",
    "final_address": "6100 BLK Camp St",
    "address_councildis": "A",
    "status": "Pending",
    "rowid": "1033684",
    "final_x": "3664076.49071",
    "final_y": "519818.070388",
    "longitude": "-90.123477889478",
    "latitude": "29.923836627424993",
    "geocoded_column": {
      "latitude": "29.923836627424993",
      "longitude": "-90.123477889478"
    }
  },
  {
    "service_request": "2023-1033682",
    "request_type": "Roads/Drainage",
    "request_reason": "Pothole",
    "date_created": "2023-09-09T21:34:37.000",
    "date_modified": "2023-09-09T21:34:37.000",
    "request_status": "Pending",
    "responsible_agency": "Department of Public Works",
    "final_address": "4200 Perrier St",
    "address_councildis": "B",
    "status": "Pending",
    "rowid": "1033682",
    "final_x": "3671579.76411",
    "final_y": "520095.16844",
    "longitude": "-90.09978329705561",
    "latitude": "29.924378584144126",
    "geocoded_column": {
      "latitude": "29.924378584144126",
      "longitude": "-90.09978329705561"
    }
  },
  {
    "service_request": "2023-1033680",
    "request_type": "Roads/Drainage",
    "request_reason": "Road Shoulder Repair",
    "date_created": "2023-09-09T21:26:00.000",
    "date_modified": "2023-09-09T21:26:00.000",
    "request_status": "Pending",
    "responsible_agency": "Department of Public Works",
    "final_address": "3900 BLK Pitt St",
    "address_councildis": "B",
    "status": "Pending",
    "rowid": "1033680",
    "final_x": "3672519.83603",
    "final_y": "520734.901231",
    "longitude": "-90.09679401515201",
    "latitude": "29.926109783282126",
    "geocoded_column": {
      "latitude": "29.926109783282126",
      "longitude": "-90.09679401515201"
    }
  },
  {
    "service_request": "2023-1033679",
    "request_type": "Safety & Permits",
    "request_reason": "Licenses & Permits",
    "date_created": "2023-09-09T21:24:44.000",
    "date_modified": "2023-09-09T21:24:44.000",
    "request_status": "Pending",
    "responsible_agency": "Safety and Permits",
    "status": "Pending",
    "rowid": "1033679",
    "longitude": "0.0",
    "latitude": "0.0",
    "geocoded_column": {
      "latitude": "0.0",
      "longitude": "0.0"
    }
  },
  {
    "service_request": "2023-1033678",
    "request_type": "Trash/Recycling",
    "request_reason": "Replace Trash Cart",
    "date_created": "2023-09-09T20:59:01.000",
    "date_modified": "2023-09-09T20:59:02.000",
    "request_status": "Pending",
    "responsible_agency": "Department of Sanitation",
    "final_address": "526 S Genois St",
    "address_councildis": "B",
    "status": "Assigned to Contractor",
    "contractor": "Richards Disposal",
    "rowid": "1033678",
    "final_x": "3671513.16974",
    "final_y": "535702.096263",
    "longitude": "-90.09946300701559",
    "latitude": "29.96729449968718",
    "geocoded_column": {
      "latitude": "29.96729449968718",
      "longitude": "-90.09946300701559"
    }
  },
  {
    "service_request": "2023-1033677",
    "request_type": "Trash/Recycling",
    "request_reason": "Request a Large Item Pick Up",
    "date_created": "2023-09-09T20:55:20.000",
    "date_modified": "2023-09-09T21:22:28.000",
    "request_status": "Pending",
    "responsible_agency": "Department of Sanitation",
    "final_address": "101 28th St, New Orleans, Louisiana, 70124",
    "address_councildis": "A",
    "status": "Assigned to Contractor",
    "contractor": "IV Waste",
    "rowid": "1033677",
    "final_x": "3666168.93025",
    "final_y": "550227.056468",
    "longitude": "-90.11585287149754",
    "latitude": "30.007390368901522",
    "geocoded_column": {
      "latitude": "30.007390368901522",
      "longitude": "-90.11585287149754"
    }
  },
  {
    "service_request": "2023-1033676",
    "request_type": "Traffic Signals/Signs/Striping/Streetlights",
    "request_reason": "Street Light Outage/Malfunction",
    "date_created": "2023-09-09T20:48:31.000",
    "date_modified": "2023-09-09T20:48:32.000",
    "request_status": "Pending",
    "responsible_agency": "Department of Public Works",
    "final_address": "6900 Louis Xiv St",
    "address_councildis": "A",
    "status": "Assigned to Contractor",
    "contractor": "Legacy Professional Services",
    "rowid": "1033676",
    "final_x": "3668542.55642",
    "final_y": "553433.316951",
    "longitude": "-90.10824559082869",
    "latitude": "30.01613689848198",
    "geocoded_column": {
      "latitude": "30.01613689848198",
      "longitude": "-90.10824559082869"
    }
  },
  {
    "service_request": "2023-1033675",
    "request_type": "Traffic Signals/Signs/Striping/Streetlights",
    "request_reason": "Street Light Outage/Malfunction",
    "date_created": "2023-09-09T20:31:28.000",
    "date_modified": "2023-09-09T20:31:29.000",
    "request_status": "Pending",
    "responsible_agency": "Department of Public Works",
    "final_address": "4524 Bancroft Dr",
    "address_councildis": "D",
    "status": "Assigned to Contractor",
    "contractor": "Legacy Professional Services",
    "rowid": "1033675",
    "final_x": "3676211.06273",
    "final_y": "548833.307795",
    "longitude": "-90.08417490897072",
    "latitude": "30.00326084524604",
    "geocoded_column": {
      "latitude": "30.00326084524604",
      "longitude": "-90.08417490897072"
    }
  },
  {
    "service_request": "2023-1033674",
    "request_type": "Utility Poles",
    "request_reason": "Utility Pole Leaning",
    "date_created": "2023-09-09T20:26:07.000",
    "date_modified": "2023-09-09T20:26:10.000",
    "request_status": "Pending",
    "responsible_agency": "Utility Company Collective",
    "final_address": "7836 Nelson St",
    "address_councildis": "A",
    "status": "Pending",
    "rowid": "1033674",
    "final_x": "3665705.8786",
    "final_y": "531260.180546",
    "longitude": "-90.1179513734152",
    "latitude": "29.95525136067576",
    "geocoded_column": {
      "latitude": "29.95525136067576",
      "longitude": "-90.1179513734152"
    }
  },
  {
    "service_request": "2023-1033673",
    "request_type": "Traffic Signals/Signs/Striping/Streetlights",
    "request_reason": "Street Light Outage/Malfunction",
    "date_created": "2023-09-09T20:23:21.000",
    "date_modified": "2023-09-09T20:23:21.000",
    "request_status": "Pending",
    "responsible_agency": "Department of Public Works",
    "final_address": "205 Norland Ave",
    "address_councildis": "C",
    "status": "Assigned to Contractor",
    "contractor": "Legacy Professional Services",
    "rowid": "1033673",
    "final_x": "3706292.04049",
    "final_y": "520327.67244",
    "longitude": "-89.9902009025948",
    "latitude": "29.923944717172876",
    "geocoded_column": {
      "latitude": "29.923944717172876",
      "longitude": "-89.9902009025948"
    }
  },
  {
    "service_request": "2023-1033672",
    "request_type": "Traffic Signals/Signs/Striping/Streetlights",
    "request_reason": "Street Light Outage/Malfunction",
    "date_created": "2023-09-09T20:19:23.000",
    "date_modified": "2023-09-09T20:19:24.000",
    "request_status": "Pending",
    "responsible_agency": "Department of Public Works",
    "final_address": "8000 Hickman St",
    "address_councildis": "E",
    "status": "Assigned to Contractor",
    "contractor": "Legacy Professional Services",
    "rowid": "1033672",
    "final_x": "3705482.61214",
    "final_y": "564361.447201",
    "longitude": "-89.99112776737601",
    "latitude": "30.0450472921565",
    "geocoded_column": {
      "latitude": "30.0450472921565",
      "longitude": "-89.99112776737601"
    }
  },
  {
    "service_request": "2023-1033671",
    "request_type": "Traffic Signals/Signs/Striping/Streetlights",
    "request_reason": "Street Light Outage/Malfunction",
    "date_created": "2023-09-09T20:13:52.000",
    "date_modified": "2023-09-09T20:13:53.000",
    "request_status": "Pending",
    "responsible_agency": "Department of Public Works",
    "final_address": "2316 Camp St",
    "address_councildis": "B",
    "status": "Assigned to Contractor",
    "contractor": "Legacy Professional Services",
    "rowid": "1033671",
    "final_x": "3678203.65384",
    "final_y": "522012.930362",
    "longitude": "-90.0788076727196",
    "latitude": "29.929454065795714",
    "geocoded_column": {
      "latitude": "29.929454065795714",
      "longitude": "-90.0788076727196"
    }
  },
  {
    "service_request": "2023-1033670",
    "request_type": "Trash/Recycling",
    "request_reason": "Request a Large Item Pick Up",
    "date_created": "2023-09-09T20:09:22.000",
    "date_modified": "2023-09-09T20:09:23.000",
    "request_status": "Pending",
    "responsible_agency": "Department of Sanitation",
    "final_address": "4617 Knight Dr",
    "address_councildis": "E",
    "status": "Assigned to Contractor",
    "contractor": "Waste Pro",
    "rowid": "1033670",
    "final_x": "3708289.81988",
    "final_y": "554738.46364",
    "longitude": "-89.98261424594638",
    "latitude": "30.018497164438",
    "geocoded_column": {
      "latitude": "30.018497164438",
      "longitude": "-89.98261424594638"
    }
  },
  {
    "service_request": "2023-1033669",
    "request_type": "Trash/Recycling",
    "request_reason": "Order Trash Cart",
    "date_created": "2023-09-09T20:09:18.000",
    "date_modified": "2023-09-09T20:09:18.000",
    "request_status": "Pending",
    "responsible_agency": "Department of Sanitation",
    "final_address": "5731 Providence Pl",
    "address_councildis": "D",
    "status": "Assigned to Contractor",
    "contractor": "IV Waste",
    "rowid": "1033669",
    "final_x": "3688343.54742",
    "final_y": "554473.161112",
    "longitude": "-90.04564642567512",
    "latitude": "30.018399110979473",
    "geocoded_column": {
      "latitude": "30.018399110979473",
      "longitude": "-90.04564642567512"
    }
  },
  {
    "service_request": "2023-1033668",
    "request_type": "Property Maintenance",
    "request_reason": "Property Maintenance",
    "date_created": "2023-09-09T19:18:37.000",
    "date_modified": "2023-09-09T19:18:37.000",
    "request_status": "Pending",
    "responsible_agency": "Department of Code Enforcement",
    "final_address": "1617 N Villere St",
    "address_councildis": "C",
    "status": "Pending",
    "rowid": "1033668",
    "final_x": "3682657.42069",
    "final_y": "537362.63572",
    "longitude": "-90.06421126905876",
    "latitude": "29.97152573330115",
    "geocoded_column": {
      "latitude": "29.97152573330115",
      "longitude": "-90.06421126905876"
    }
  },
  {
    "service_request": "2023-1033667",
    "request_type": "Property Maintenance",
    "request_reason": "Property Maintenance",
    "date_created": "2023-09-09T18:54:52.000",
    "date_modified": "2023-09-09T18:54:52.000",
    "request_status": "Pending",
    "responsible_agency": "Department of Code Enforcement",
    "final_address": "4116 Vincennes Pl",
    "address_councildis": "B",
    "status": "Pending",
    "rowid": "1033667",
    "final_x": "3668511.91751",
    "final_y": "530680.10829",
    "longitude": "-90.10911047590277",
    "latitude": "29.953574214522018",
    "geocoded_column": {
      "latitude": "29.953574214522018",
      "longitude": "-90.10911047590277"
    }
  },
  {
    "service_request": "2023-1033666",
    "request_type": "Roads/Drainage",
    "request_reason": "Street Subsidence (Sinking)",
    "date_created": "2023-09-09T18:51:10.000",
    "date_modified": "2023-09-09T18:51:10.000",
    "request_status": "Pending",
    "responsible_agency": "Department of Public Works",
    "final_address": "5722 Garfield St",
    "address_councildis": "A",
    "status": "Pending",
    "rowid": "1033666",
    "final_x": "3666129.88941",
    "final_y": "521281.319289",
    "longitude": "-90.11694699363373",
    "latitude": "29.92780032437766",
    "geocoded_column": {
      "latitude": "29.92780032437766",
      "longitude": "-90.11694699363373"
    }
  },
  {
    "service_request": "2023-1033665",
    "request_type": "Mosquito, Termite & Rodent Control",
    "request_reason": "Mosquito Complaint",
    "date_created": "2023-09-09T18:50:26.000",
    "date_modified": "2023-09-09T18:50:26.000",
    "request_status": "Pending",
    "responsible_agency": "Mosquito, Termite & Rodent Control Board",
    "final_address": "4256 Vendome Pl",
    "address_councildis": "B",
    "status": "Pending",
    "rowid": "1033665",
    "final_x": "3669057.08378",
    "final_y": "531486.060611",
    "longitude": "-90.1073618367837",
    "latitude": "29.955774291700784",
    "geocoded_column": {
      "latitude": "29.955774291700784",
      "longitude": "-90.1073618367837"
    }
  },
  {
    "service_request": "2023-1033663",
    "request_type": "Property Maintenance",
    "request_reason": "Property Maintenance",
    "date_created": "2023-09-09T18:46:29.000",
    "date_modified": "2023-09-09T18:46:29.000",
    "request_status": "Pending",
    "responsible_agency": "Department of Code Enforcement",
    "final_address": "217 S Rendon St",
    "address_councildis": "B",
    "status": "Pending",
    "rowid": "1033663",
    "final_x": "3673171.2914",
    "final_y": "535996.859911",
    "longitude": "-90.09421656086991",
    "latitude": "29.968055800837906",
    "geocoded_column": {
      "latitude": "29.968055800837906",
      "longitude": "-90.09421656086991"
    }
  },
  {
    "service_request": "2023-1033662",
    "request_type": "Property Maintenance",
    "request_reason": "Property Maintenance",
    "date_created": "2023-09-09T18:44:53.000",
    "date_modified": "2023-09-09T18:44:53.000",
    "request_status": "Pending",
    "responsible_agency": "Department of Code Enforcement",
    "final_address": "217 S Rendon St",
    "address_councildis": "B",
    "status": "Pending",
    "rowid": "1033662",
    "final_x": "3673171.2914",
    "final_y": "535996.859911",
    "longitude": "-90.09421656086991",
    "latitude": "29.968055800837906",
    "geocoded_column": {
      "latitude": "29.968055800837906",
      "longitude": "-90.09421656086991"
    }
  },
  {
    "service_request": "2023-1033661",
    "request_type": "Trash/Recycling",
    "request_reason": "Order Recycling Cart",
    "date_created": "2023-09-09T18:01:38.000",
    "date_modified": "2023-09-09T18:01:38.000",
    "request_status": "Pending",
    "responsible_agency": "Department of Sanitation",
    "final_address": "4217 Prytania St",
    "address_councildis": "B",
    "status": "Pending",
    "rowid": "1033661",
    "final_x": "3671473.00379",
    "final_y": "520410.861176",
    "longitude": "-90.10010957809108",
    "latitude": "29.9252497981609",
    "geocoded_column": {
      "latitude": "29.9252497981609",
      "longitude": "-90.10010957809108"
    }
  },
  {
    "service_request": "2023-1033660",
    "request_type": "Traffic Signals/Signs/Striping/Streetlights",
    "request_reason": "Street Name Sign Damaged or Missing",
    "date_created": "2023-09-09T17:58:58.000",
    "date_modified": "2023-09-09T17:58:58.000",
    "request_status": "Pending",
    "responsible_agency": "Department of Public Works",
    "status": "Pending",
    "rowid": "1033660",
    "longitude": "0.0",
    "latitude": "0.0",
    "geocoded_column": {
      "latitude": "0.0",
      "longitude": "0.0"
    }
  },
  {
    "service_request": "2023-1033658",
    "request_type": "Trash/Recycling",
    "request_reason": "Missed Trash Pick-Up",
    "date_created": "2023-09-09T17:54:35.000",
    "date_modified": "2023-09-09T17:54:36.000",
    "request_status": "Pending",
    "responsible_agency": "Department of Sanitation",
    "final_address": "1516 Leontine St, New Orleans, Louisiana, 70115",
    "address_councildis": "B",
    "status": "Assigned to Contractor",
    "contractor": "Richards Disposal",
    "rowid": "1033658",
    "final_x": "3667355.36103",
    "final_y": "520659.132217",
    "longitude": "-90.11309937166665",
    "latitude": "29.926053679092075",
    "geocoded_column": {
      "latitude": "29.926053679092075",
      "longitude": "-90.11309937166665"
    }
  },
  {
    "service_request": "2023-1033657",
    "request_type": "Roads/Drainage",
    "request_reason": "Street Subsidence (Sinking)",
    "date_created": "2023-09-09T17:49:08.000",
    "date_modified": "2023-09-09T17:49:08.000",
    "request_status": "Pending",
    "responsible_agency": "Department of Public Works",
    "final_address": "6235 Calhoun St",
    "address_councildis": "A",
    "status": "Pending",
    "rowid": "1033657",
    "final_x": "3667168.31623",
    "final_y": "528075.312191",
    "longitude": "-90.11344058256222",
    "latitude": "29.946451275787215",
    "geocoded_column": {
      "latitude": "29.946451275787215",
      "longitude": "-90.11344058256222"
    }
  },
  {
    "service_request": "2023-1033656",
    "request_type": "Trash/Recycling",
    "request_reason": "Request a Large Item Pick Up",
    "date_created": "2023-09-09T17:45:34.000",
    "date_modified": "2023-09-09T17:45:35.000",
    "request_status": "Pending",
    "responsible_agency": "Department of Sanitation",
    "final_address": "4758 Read Blvd",
    "address_councildis": "E",
    "status": "Assigned to Contractor",
    "contractor": "Waste Pro",
    "rowid": "1033656",
    "final_x": "3712653.13093",
    "final_y": "556314.855258",
    "longitude": "-89.96876860729782",
    "latitude": "30.02268947370376",
    "geocoded_column": {
      "latitude": "30.02268947370376",
      "longitude": "-89.96876860729782"
    }
  },
  {
    "service_request": "2023-1033655",
    "request_type": "Property Maintenance",
    "request_reason": "Property Maintenance",
    "date_created": "2023-09-09T17:35:57.000",
    "date_modified": "2023-09-09T17:35:57.000",
    "request_status": "Pending",
    "responsible_agency": "Department of Code Enforcement",
    "final_address": "1300 Leonidas St",
    "address_councildis": "A",
    "status": "Pending",
    "rowid": "1033655",
    "final_x": "3660880.45766",
    "final_y": "529887.785409",
    "longitude": "-90.13323374778673",
    "latitude": "29.951617568703586",
    "geocoded_column": {
      "latitude": "29.951617568703586",
      "longitude": "-90.13323374778673"
    }
  },
  {
    "service_request": "2023-1033654",
    "request_type": "Trash/Recycling",
    "request_reason": "Request a Large Item Pick Up",
    "date_created": "2023-09-09T17:00:11.000",
    "date_modified": "2023-09-09T17:01:43.000",
    "request_status": "Pending",
    "responsible_agency": "Department of Sanitation",
    "final_address": "20 Neron Pl",
    "address_councildis": "A",
    "status": "Assigned to Contractor",
    "contractor": "Richards Disposal",
    "rowid": "1033654",
    "final_x": "3665002.91904",
    "final_y": "530773.532482",
    "longitude": "-90.12018733970334",
    "latitude": "29.95393372017727",
    "geocoded_column": {
      "latitude": "29.95393372017727",
      "longitude": "-90.12018733970334"
    }
  },
  {
    "service_request": "2023-1033653",
    "request_type": "Abandoned Vehicles",
    "request_reason": "Abandoned/Junk Vehicles",
    "date_created": "2023-09-09T16:37:03.000",
    "date_modified": "2023-09-09T16:37:03.000",
    "request_status": "Pending",
    "responsible_agency": "Department of Public Works",
    "final_address": "1410 Annunciation St",
    "address_councildis": "B",
    "status": "Pending",
    "rowid": "1033653",
    "final_x": "3681521.02287",
    "final_y": "524479.301436",
    "longitude": "-90.06824939481533",
    "latitude": "29.936135485169117",
    "geocoded_column": {
      "latitude": "29.936135485169117",
      "longitude": "-90.06824939481533"
    }
  },
  {
    "service_request": "2023-1033652",
    "request_type": "Abandoned Vehicles",
    "request_reason": "Abandoned/Junk Vehicles",
    "date_created": "2023-09-09T16:33:49.000",
    "date_modified": "2023-09-09T16:33:49.000",
    "request_status": "Pending",
    "responsible_agency": "Department of Public Works",
    "status": "Pending",
    "rowid": "1033652",
    "longitude": "0.0",
    "latitude": "0.0",
    "geocoded_column": {
      "latitude": "0.0",
      "longitude": "0.0"
    }
  },
  {
    "service_request": "2023-1033651",
    "request_type": "Safety & Permits",
    "request_reason": "Construction permit",
    "date_created": "2023-09-09T16:31:03.000",
    "date_modified": "2023-09-09T16:31:03.000",
    "request_status": "Pending",
    "responsible_agency": "Department of Code Enforcement",
    "final_address": "1605 N Rocheblave St",
    "address_councildis": "D",
    "status": "Pending",
    "rowid": "1033651",
    "final_x": "3679955.78299",
    "final_y": "539581.246986",
    "longitude": "-90.07266634804654",
    "latitude": "29.97770814982995",
    "geocoded_column": {
      "latitude": "29.97770814982995",
      "longitude": "-90.07266634804654"
    }
  },
  {
    "service_request": "2023-1033649",
    "request_type": "Property Maintenance",
    "request_reason": "Property Maintenance",
    "date_created": "2023-09-09T16:23:01.000",
    "date_modified": "2023-09-09T16:23:01.000",
    "request_status": "Pending",
    "responsible_agency": "Department of Code Enforcement",
    "final_address": "1605 N Rocheblave St",
    "address_councildis": "D",
    "status": "Pending",
    "rowid": "1033649",
    "final_x": "3679955.78299",
    "final_y": "539581.246986",
    "longitude": "-90.07266634804654",
    "latitude": "29.97770814982995",
    "geocoded_column": {
      "latitude": "29.97770814982995",
      "longitude": "-90.07266634804654"
    }
  },
  {
    "service_request": "2023-1033648",
    "request_type": "Trash/Recycling",
    "request_reason": "Request a Large Item Pick Up",
    "date_created": "2023-09-09T16:14:11.000",
    "date_modified": "2023-09-09T16:14:25.000",
    "request_status": "Pending",
    "responsible_agency": "Department of Sanitation",
    "final_address": "7929 Freret St",
    "address_councildis": "A",
    "status": "Assigned to Contractor",
    "contractor": "Richards Disposal",
    "rowid": "1033648",
    "final_x": "3661926.85114",
    "final_y": "527522.518655",
    "longitude": "-90.13000815603785",
    "latitude": "29.9450836666227",
    "geocoded_column": {
      "latitude": "29.9450836666227",
      "longitude": "-90.13000815603785"
    }
  },
  {
    "service_request": "2023-1033647",
    "request_type": "Abandoned Vehicles",
    "request_reason": "Abandoned/Junk Vehicles",
    "date_created": "2023-09-09T16:11:03.000",
    "date_modified": "2023-09-09T16:11:03.000",
    "request_status": "Pending",
    "responsible_agency": "Department of Public Works",
    "final_address": "1200 BLK Short St",
    "address_councildis": "A",
    "status": "Pending",
    "rowid": "1033647",
    "final_x": "3662414.23255",
    "final_y": "528198.967668",
    "longitude": "-90.12844687574682",
    "latitude": "29.946929602308334",
    "geocoded_column": {
      "latitude": "29.946929602308334",
      "longitude": "-90.12844687574682"
    }
  },
  {
    "service_request": "2023-1033646",
    "request_type": "Safety & Permits",
    "request_reason": "Licenses & Permits",
    "date_created": "2023-09-09T15:58:36.000",
    "date_modified": "2023-09-09T15:58:36.000",
    "request_status": "Pending",
    "responsible_agency": "Safety and Permits",
    "final_address": "1605 N Rocheblave St",
    "address_councildis": "D",
    "status": "Pending",
    "rowid": "1033646",
    "final_x": "3679955.78299",
    "final_y": "539581.246986",
    "longitude": "-90.07266634804654",
    "latitude": "29.97770814982995",
    "geocoded_column": {
      "latitude": "29.97770814982995",
      "longitude": "-90.07266634804654"
    }
  },
  {
    "service_request": "2023-1033645",
    "request_type": "Property Maintenance",
    "request_reason": "Property Maintenance",
    "date_created": "2023-09-09T15:52:08.000",
    "date_modified": "2023-09-09T15:52:08.000",
    "request_status": "Pending",
    "responsible_agency": "Department of Code Enforcement",
    "final_address": "1605 N Rocheblave St",
    "address_councildis": "D",
    "status": "Pending",
    "rowid": "1033645",
    "final_x": "3679955.78299",
    "final_y": "539581.246986",
    "longitude": "-90.07266634804654",
    "latitude": "29.97770814982995",
    "geocoded_column": {
      "latitude": "29.97770814982995",
      "longitude": "-90.07266634804654"
    }
  },
  {
    "service_request": "2023-1033644",
    "request_type": "Trash/Recycling",
    "request_reason": "Request a Large Item Pick Up",
    "date_created": "2023-09-09T15:43:10.000",
    "date_modified": "2023-09-09T15:43:11.000",
    "request_status": "Pending",
    "responsible_agency": "Department of Sanitation",
    "final_address": "7506 Oak St",
    "address_councildis": "A",
    "status": "Assigned to Contractor",
    "contractor": "Richards Disposal",
    "rowid": "1033644",
    "final_x": "3663456.84109",
    "final_y": "526973.146814",
    "longitude": "-90.12519576859052",
    "latitude": "29.94352880097209",
    "geocoded_column": {
      "latitude": "29.94352880097209",
      "longitude": "-90.12519576859052"
    }
  },
  {
    "service_request": "2023-1033642",
    "request_type": "Trash/Recycling",
    "request_reason": "Request a Large Item Pick Up",
    "date_created": "2023-09-09T15:32:11.000",
    "date_modified": "2023-09-09T15:32:11.000",
    "request_status": "Pending",
    "responsible_agency": "Department of Sanitation",
    "final_address": "2829 Grand-Route St John St",
    "address_councildis": "A",
    "status": "Assigned to Contractor",
    "contractor": "IV Waste",
    "rowid": "1033642",
    "final_x": "3678070.21742",
    "final_y": "540329.701003",
    "longitude": "-90.07859572738079",
    "latitude": "29.979823047302485",
    "geocoded_column": {
      "latitude": "29.979823047302485",
      "longitude": "-90.07859572738079"
    }
  },
  {
    "service_request": "2023-1033640",
    "request_type": "Roads/Drainage",
    "request_reason": "Street Subsidence (Sinking)",
    "date_created": "2023-09-09T15:23:32.000",
    "date_modified": "2023-09-09T15:23:32.000",
    "request_status": "Pending",
    "responsible_agency": "Department of Public Works",
    "final_address": "2331 Chestnut St",
    "address_councildis": "B",
    "status": "Pending",
    "rowid": "1033640",
    "final_x": "3677885.63118",
    "final_y": "522301.934842",
    "longitude": "-90.07980163138839",
    "latitude": "29.930258303941056",
    "geocoded_column": {
      "latitude": "29.930258303941056",
      "longitude": "-90.07980163138839"
    }
  },
  {
    "service_request": "2023-1033639",
    "request_type": "Trash/Recycling",
    "request_reason": "Request a Large Item Pick Up",
    "date_created": "2023-09-09T15:22:59.000",
    "date_modified": "2023-09-09T15:23:00.000",
    "request_status": "Pending",
    "responsible_agency": "Department of Sanitation",
    "final_address": "2907 Hollygrove St",
    "address_councildis": "A",
    "status": "Assigned to Contractor",
    "contractor": "Richards Disposal",
    "rowid": "1033639",
    "final_x": "3663798.26554",
    "final_y": "535061.486918",
    "longitude": "-90.12384824276344",
    "latitude": "29.965759210447615",
    "geocoded_column": {
      "latitude": "29.965759210447615",
      "longitude": "-90.12384824276344"
    }
  },
  {
    "service_request": "2023-1033637",
    "request_type": "Trash/Recycling",
    "request_reason": "Order Trash Cart",
    "date_created": "2023-09-09T15:02:45.000",
    "date_modified": "2023-09-09T15:02:46.000",
    "request_status": "Pending",
    "responsible_agency": "Department of Sanitation",
    "final_address": "227 Audubon Blvd",
    "address_councildis": "A",
    "status": "Assigned to Contractor",
    "contractor": "Richards Disposal",
    "rowid": "1033637",
    "final_x": "3666554.99489",
    "final_y": "528727.901568",
    "longitude": "-90.11535516051975",
    "latitude": "29.948263625266108",
    "geocoded_column": {
      "latitude": "29.948263625266108",
      "longitude": "-90.11535516051975"
    }
  },
  {
    "service_request": "2023-1033636",
    "request_type": "Trash/Recycling",
    "request_reason": "Order Recycling Cart",
    "date_created": "2023-09-09T15:01:09.000",
    "date_modified": "2023-09-09T15:01:09.000",
    "request_status": "Pending",
    "responsible_agency": "Department of Sanitation",
    "final_address": "227 Audubon Blvd",
    "address_councildis": "A",
    "status": "Pending",
    "rowid": "1033636",
    "final_x": "3666554.99489",
    "final_y": "528727.901568",
    "longitude": "-90.11535516051975",
    "latitude": "29.948263625266108",
    "geocoded_column": {
      "latitude": "29.948263625266108",
      "longitude": "-90.11535516051975"
    }
  },
  {
    "service_request": "2023-1033635",
    "request_type": "Trash/Recycling",
    "request_reason": "Request a Large Item Pick Up",
    "date_created": "2023-09-09T14:58:36.000",
    "date_modified": "2023-09-09T14:58:37.000",
    "request_status": "Pending",
    "responsible_agency": "Department of Sanitation",
    "final_address": "20 Fontainebleau Dr",
    "address_councildis": "A",
    "status": "Assigned to Contractor",
    "contractor": "Richards Disposal",
    "rowid": "1033635",
    "final_x": "3665772.952",
    "final_y": "531642.683075",
    "longitude": "-90.11772676601629",
    "latitude": "29.956301161428733",
    "geocoded_column": {
      "latitude": "29.956301161428733",
      "longitude": "-90.11772676601629"
    }
  },
  {
    "service_request": "2023-1033634",
    "request_type": "Roads/Drainage",
    "request_reason": "Pothole",
    "date_created": "2023-09-09T14:56:30.000",
    "date_modified": "2023-09-09T14:56:30.000",
    "request_status": "Pending",
    "responsible_agency": "Department of Public Works",
    "final_address": "1315 Peniston St",
    "address_councildis": "B",
    "status": "Pending",
    "rowid": "1033634",
    "final_x": "3673101.31451",
    "final_y": "520423.11276",
    "longitude": "-90.09496908964098",
    "latitude": "29.925235197927364",
    "geocoded_column": {
      "latitude": "29.925235197927364",
      "longitude": "-90.09496908964098"
    }
  },
  {
    "service_request": "2023-1033633",
    "request_type": "Roads/Drainage",
    "request_reason": "Service Cut",
    "date_created": "2023-09-09T14:54:59.000",
    "date_modified": "2023-09-09T14:54:59.000",
    "request_status": "Pending",
    "responsible_agency": "Department of Public Works",
    "final_address": "S SALCEDO ST & CANAL ST",
    "address_councildis": "B",
    "status": "Pending",
    "rowid": "1033633",
    "final_x": "3674056.8",
    "final_y": "536057.38",
    "longitude": "-90.09141801579281",
    "latitude": "29.968195850385484",
    "geocoded_column": {
      "latitude": "29.968195850385484",
      "longitude": "-90.09141801579281"
    }
  },
  {
    "service_request": "2023-1033632",
    "request_type": "Trash/Recycling",
    "request_reason": "Replace Trash Cart",
    "date_created": "2023-09-09T14:51:09.000",
    "date_modified": "2023-09-09T14:51:09.000",
    "request_status": "Pending",
    "responsible_agency": "Department of Sanitation",
    "final_address": "4979 Desire Dr",
    "address_councildis": "D",
    "status": "Assigned to Contractor",
    "contractor": "IV Waste",
    "rowid": "1033632",
    "final_x": "3691575.92528",
    "final_y": "552505.242198",
    "longitude": "-90.0355037681355",
    "latitude": "30.01288778922842",
    "geocoded_column": {
      "latitude": "30.01288778922842",
      "longitude": "-90.0355037681355"
    }
  },
  {
    "service_request": "2023-1033631",
    "request_type": "Parks & Parkways",
    "request_reason": "Request Tree Service (Right of Way/Public Property)",
    "date_created": "2023-09-09T14:49:38.000",
    "date_modified": "2023-09-09T14:49:38.000",
    "request_status": "Pending",
    "responsible_agency": "Department of Parks & Parkway",
    "final_address": "6543 Milne Blvd",
    "address_councildis": "A",
    "status": "Pending",
    "rowid": "1033631",
    "final_x": "3667509.50196",
    "final_y": "551180.698837",
    "longitude": "-90.11158548744875",
    "latitude": "30.009973318765645",
    "geocoded_column": {
      "latitude": "30.009973318765645",
      "longitude": "-90.11158548744875"
    }
  },
  {
    "service_request": "2023-1033629",
    "request_type": "Trash/Recycling",
    "request_reason": "Replace Trash Cart",
    "date_created": "2023-09-09T14:48:48.000",
    "date_modified": "2023-09-09T14:48:49.000",
    "request_status": "Pending",
    "responsible_agency": "Department of Sanitation",
    "final_address": "8936 Forshey St",
    "address_councildis": "A",
    "status": "Assigned to Contractor",
    "contractor": "Richards Disposal",
    "rowid": "1033629",
    "final_x": "3664684.71226",
    "final_y": "535985.869063",
    "longitude": "-90.12101797802336",
    "latitude": "29.968275198595034",
    "geocoded_column": {
      "latitude": "29.968275198595034",
      "longitude": "-90.12101797802336"
    }
  },
  {
    "service_request": "2023-1033628",
    "request_type": "Traffic Signals/Signs/Striping/Streetlights",
    "request_reason": "Traffic Sign Missing/Damaged",
    "date_created": "2023-09-09T14:43:24.000",
    "date_modified": "2023-09-09T14:43:24.000",
    "request_status": "Pending",
    "responsible_agency": "Department of Public Works",
    "final_address": "1715 Burdette St",
    "address_councildis": "A",
    "status": "Pending",
    "rowid": "1033628",
    "final_x": "3664100.68583",
    "final_y": "528981.02784",
    "longitude": "-90.1230960164797",
    "latitude": "29.9490311467467",
    "geocoded_column": {
      "latitude": "29.9490311467467",
      "longitude": "-90.1230960164797"
    }
  },
  {
    "service_request": "2023-1033626",
    "request_type": "Parks & Parkways",
    "request_reason": "Request Tree Service (Right of Way/Public Property)",
    "date_created": "2023-09-09T14:35:06.000",
    "date_modified": "2023-09-09T14:35:06.000",
    "request_status": "Pending",
    "responsible_agency": "Department of Parks & Parkway",
    "final_address": "5501 Annunciation St",
    "address_councildis": "A",
    "status": "Pending",
    "rowid": "1033626",
    "final_x": "3666105.20327",
    "final_y": "517579.480758",
    "longitude": "-90.11714895471962",
    "latitude": "29.917622152634955",
    "geocoded_column": {
      "latitude": "29.917622152634955",
      "longitude": "-90.11714895471962"
    }
  },
  {
    "service_request": "2023-1033625",
    "request_type": "Abandoned Vehicles",
    "request_reason": "Abandoned/Junk Vehicles",
    "date_created": "2023-09-09T14:33:52.000",
    "date_modified": "2023-09-09T14:33:52.000",
    "request_status": "Pending",
    "responsible_agency": "Department of Public Works",
    "final_address": "6101 Duplessis St",
    "address_councildis": "D",
    "status": "Pending",
    "rowid": "1033625",
    "final_x": "3678064.38613",
    "final_y": "554926.71004",
    "longitude": "-90.07810910057908",
    "latitude": "30.019959828689228",
    "geocoded_column": {
      "latitude": "30.019959828689228",
      "longitude": "-90.07810910057908"
    }
  },
  {
    "service_request": "2023-1033624",
    "request_type": "Trash/Recycling",
    "request_reason": "Replace Trash Cart",
    "date_created": "2023-09-09T14:31:44.000",
    "date_modified": "2023-09-09T14:31:45.000",
    "request_status": "Pending",
    "responsible_agency": "Department of Sanitation",
    "final_address": "850 Pontalba St",
    "address_councildis": "A",
    "status": "Assigned to Contractor",
    "contractor": "IV Waste",
    "rowid": "1033624",
    "final_x": "3669183.20097",
    "final_y": "544311.890447",
    "longitude": "-90.10652999060709",
    "latitude": "29.99103730372288",
    "geocoded_column": {
      "latitude": "29.99103730372288",
      "longitude": "-90.10652999060709"
    }
  },
  {
    "service_request": "2023-1033623",
    "request_type": "Roads/Drainage",
    "request_reason": "Damaged Sidewalk",
    "date_created": "2023-09-09T14:05:48.000",
    "date_modified": "2023-09-09T14:05:48.000",
    "request_status": "Pending",
    "responsible_agency": "Department of Public Works",
    "final_address": "1401 Henry Clay Ave",
    "address_councildis": "A",
    "status": "Pending",
    "rowid": "1033623",
    "final_x": "3664609.97485",
    "final_y": "521479.125625",
    "longitude": "-90.12173842311657",
    "latitude": "29.928388507765806",
    "geocoded_column": {
      "latitude": "29.928388507765806",
      "longitude": "-90.12173842311657"
    }
  },
  {
    "service_request": "2023-1033622",
    "request_type": "Roads/Drainage",
    "request_reason": "Man hole cover issue",
    "date_created": "2023-09-09T13:55:09.000",
    "date_modified": "2023-09-09T13:55:09.000",
    "request_status": "Pending",
    "responsible_agency": "Department of Public Works",
    "status": "Pending",
    "rowid": "1033622",
    "longitude": "0.0",
    "latitude": "0.0",
    "geocoded_column": {
      "latitude": "0.0",
      "longitude": "0.0"
    }
  },
  {
    "service_request": "2023-1033621",
    "request_type": "Roads/Drainage",
    "request_reason": "Street Subsidence (Sinking)",
    "date_created": "2023-09-09T13:45:54.000",
    "date_modified": "2023-09-09T13:45:54.000",
    "request_status": "Pending",
    "responsible_agency": "Department of Public Works",
    "final_address": "6254 Vicksburg St",
    "address_councildis": "A",
    "status": "Pending",
    "rowid": "1033621",
    "final_x": "3668958.89498",
    "final_y": "549008.874963",
    "longitude": "-90.10707974366686",
    "latitude": "30.003958989432427",
    "geocoded_column": {
      "latitude": "30.003958989432427",
      "longitude": "-90.10707974366686"
    }
  },
  {
    "service_request": "2023-1033620",
    "request_type": "Trash/Recycling",
    "request_reason": "Missed Trash Pick-Up",
    "date_created": "2023-09-09T13:38:55.000",
    "date_modified": "2023-09-09T13:38:56.000",
    "request_status": "Pending",
    "responsible_agency": "Department of Sanitation",
    "final_address": "TOULOUSE ST & N MURAT ST",
    "address_councildis": "A",
    "status": "Assigned to Contractor",
    "contractor": "Richards Disposal",
    "rowid": "1033620",
    "final_x": "3670786.3",
    "final_y": "540822.28",
    "longitude": "-90.1015846578268",
    "latitude": "29.981394778202276",
    "geocoded_column": {
      "latitude": "29.981394778202276",
      "longitude": "-90.1015846578268"
    }
  },
  {
    "service_request": "2023-1033619",
    "request_type": "Roads/Drainage",
    "request_reason": "Man hole cover issue",
    "date_created": "2023-09-09T13:38:41.000",
    "date_modified": "2023-09-09T13:38:41.000",
    "request_status": "Pending",
    "responsible_agency": "Department of Public Works",
    "final_address": "6254 Vicksburg St",
    "address_councildis": "A",
    "status": "Pending",
    "rowid": "1033619",
    "final_x": "3668958.89498",
    "final_y": "549008.874963",
    "longitude": "-90.10707974366686",
    "latitude": "30.003958989432427",
    "geocoded_column": {
      "latitude": "30.003958989432427",
      "longitude": "-90.10707974366686"
    }
  },
  {
    "service_request": "2023-1033618",
    "request_type": "Trash/Recycling",
    "request_reason": "Missed Trash Pick-Up",
    "date_created": "2023-09-09T13:22:33.000",
    "date_modified": "2023-09-09T13:22:34.000",
    "request_status": "Pending",
    "responsible_agency": "Department of Sanitation",
    "final_address": "825 Eighth St",
    "address_councildis": "B",
    "status": "Assigned to Contractor",
    "contractor": "Richards Disposal",
    "rowid": "1033618",
    "final_x": "3676646.89064",
    "final_y": "519492.316087",
    "longitude": "-90.083808863092",
    "latitude": "29.92256996785382",
    "geocoded_column": {
      "latitude": "29.92256996785382",
      "longitude": "-90.083808863092"
    }
  },
  {
    "service_request": "2023-1033617",
    "request_type": "Traffic Signals/Signs/Striping/Streetlights",
    "request_reason": "Street Light Outage/Malfunction",
    "date_created": "2023-09-09T13:15:16.000",
    "date_modified": "2023-09-09T13:15:17.000",
    "request_status": "Pending",
    "responsible_agency": "Department of Public Works",
    "final_address": "79 Versailles Blvd",
    "address_councildis": "B",
    "status": "Assigned to Contractor",
    "contractor": "Legacy Professional Services",
    "rowid": "1033617",
    "final_x": "3667937.87425",
    "final_y": "530679.34509",
    "longitude": "-90.11092309470695",
    "latitude": "29.953588967502302",
    "geocoded_column": {
      "latitude": "29.953588967502302",
      "longitude": "-90.11092309470695"
    }
  },
  {
    "service_request": "2023-1033616",
    "request_type": "Property Maintenance",
    "request_reason": "Property Maintenance",
    "date_created": "2023-09-09T13:15:10.000",
    "date_modified": "2023-09-09T13:15:10.000",
    "request_status": "Pending",
    "responsible_agency": "Department of Code Enforcement",
    "final_address": "1329 Music St",
    "address_councildis": "C",
    "status": "Pending",
    "rowid": "1033616",
    "final_x": "3686856.351",
    "final_y": "537433.051656",
    "longitude": "-90.05094797122413",
    "latitude": "29.971590806319256",
    "geocoded_column": {
      "latitude": "29.971590806319256",
      "longitude": "-90.05094797122413"
    }
  },
  {
    "service_request": "2023-1033615",
    "request_type": "Roads/Drainage",
    "request_reason": "Pothole",
    "date_created": "2023-09-09T13:11:24.000",
    "date_modified": "2023-09-09T13:11:24.000",
    "request_status": "Pending",
    "responsible_agency": "Department of Public Works",
    "final_address": "6030 Chestnut St",
    "address_councildis": "A",
    "status": "Pending",
    "rowid": "1033615",
    "final_x": "3664661.37773",
    "final_y": "519852.51884",
    "longitude": "-90.1216304547064",
    "latitude": "29.923914355909606",
    "geocoded_column": {
      "latitude": "29.923914355909606",
      "longitude": "-90.1216304547064"
    }
  },
  {
    "service_request": "2023-1033614",
    "request_type": "Property Maintenance",
    "request_reason": "Property Maintenance",
    "date_created": "2023-09-09T13:06:04.000",
    "date_modified": "2023-09-09T13:06:04.000",
    "request_status": "Pending",
    "responsible_agency": "Department of Code Enforcement",
    "final_address": "2460 N Villere St",
    "address_councildis": "C",
    "status": "Pending",
    "rowid": "1033614",
    "final_x": "3686952.18108",
    "final_y": "537535.41812",
    "longitude": "-90.05064170724923",
    "latitude": "29.971869328920974",
    "geocoded_column": {
      "latitude": "29.971869328920974",
      "longitude": "-90.05064170724923"
    }
  },
  {
    "service_request": "2023-1033613",
    "request_type": "Trash/Recycling",
    "request_reason": "Repair Trash Cart",
    "date_created": "2023-09-09T12:55:59.000",
    "date_modified": "2023-09-09T12:55:59.000",
    "request_status": "Pending",
    "responsible_agency": "Department of Sanitation",
    "final_address": "2611 Carondelet St",
    "address_councildis": "B",
    "status": "Assigned to Contractor",
    "contractor": "Richards Disposal",
    "rowid": "1033613",
    "final_x": "3676106.88769",
    "final_y": "523164.966587",
    "longitude": "-90.0853871756883",
    "latitude": "29.93268474672682",
    "geocoded_column": {
      "latitude": "29.93268474672682",
      "longitude": "-90.0853871756883"
    }
  },
  {
    "service_request": "2023-1033612",
    "request_type": "Trash/Recycling",
    "request_reason": "Repair Trash Cart",
    "date_created": "2023-09-09T12:47:16.000",
    "date_modified": "2023-09-09T12:47:17.000",
    "request_status": "Pending",
    "responsible_agency": "Department of Sanitation",
    "final_address": "7072 Barrington Ct",
    "address_councildis": "E",
    "status": "Assigned to Contractor",
    "contractor": "Waste Pro",
    "rowid": "1033612",
    "final_x": "3713969.16485",
    "final_y": "565168.714082",
    "longitude": "-89.96427603265198",
    "latitude": "30.046990880762134",
    "geocoded_column": {
      "latitude": "30.046990880762134",
      "longitude": "-89.96427603265198"
    }
  },
  {
    "service_request": "2023-1033611",
    "request_type": "Trash/Recycling",
    "request_reason": "MIssed Recycling Pick-Up",
    "date_created": "2023-09-09T12:40:28.000",
    "date_modified": "2023-09-09T12:40:28.000",
    "request_status": "Pending",
    "responsible_agency": "Department of Sanitation",
    "final_address": "2121 Burdette St",
    "address_councildis": "A",
    "status": "Assigned to Contractor",
    "contractor": "Richards Disposal",
    "rowid": "1033611",
    "final_x": "3665113.62298",
    "final_y": "530034.530497",
    "longitude": "-90.11986249249206",
    "latitude": "29.951898481390913",
    "geocoded_column": {
      "latitude": "29.951898481390913",
      "longitude": "-90.11986249249206"
    }
  },
  {
    "service_request": "2023-1033610",
    "request_type": "Trash/Recycling",
    "request_reason": "MIssed Recycling Pick-Up",
    "date_created": "2023-09-09T12:33:05.000",
    "date_modified": "2023-09-09T12:33:06.000",
    "request_status": "Pending",
    "responsible_agency": "Department of Sanitation",
    "final_address": "32 Curtis Dr",
    "address_councildis": "E",
    "status": "Assigned to Contractor",
    "contractor": "Waste Pro",
    "rowid": "1033610",
    "final_x": "3697715.11165",
    "final_y": "560971.142686",
    "longitude": "-90.01579983051062",
    "latitude": "30.03597316219121",
    "geocoded_column": {
      "latitude": "30.03597316219121",
      "longitude": "-90.01579983051062"
    }
  },
  {
    "service_request": "2023-1033609",
    "request_type": "Trash/Recycling",
    "request_reason": "Request a Large Item Pick Up",
    "date_created": "2023-09-09T12:30:52.000",
    "date_modified": "2023-09-09T12:30:53.000",
    "request_status": "Pending",
    "responsible_agency": "Department of Sanitation",
    "final_address": "3210 Desaix Blvd",
    "address_councildis": "A",
    "status": "Assigned to Contractor",
    "contractor": "IV Waste",
    "rowid": "1033609",
    "final_x": "3678174.96936",
    "final_y": "543505.97115",
    "longitude": "-90.07815498542699",
    "latitude": "29.9885535314973",
    "geocoded_column": {
      "latitude": "29.9885535314973",
      "longitude": "-90.07815498542699"
    }
  },
  {
    "service_request": "2023-1033608",
    "request_type": "Parks & Parkways",
    "request_reason": "Request Tree Service (Right of Way/Public Property)",
    "date_created": "2023-09-09T12:29:46.000",
    "date_modified": "2023-09-09T12:29:47.000",
    "request_status": "Pending",
    "responsible_agency": "Department of Parks & Parkway",
    "final_address": "2247 Lark St",
    "address_councildis": "D",
    "status": "Pending",
    "rowid": "1033608",
    "final_x": "3683898.68629",
    "final_y": "557872.686811",
    "longitude": "-90.05957112472454",
    "latitude": "30.027883150379413",
    "geocoded_column": {
      "latitude": "30.027883150379413",
      "longitude": "-90.05957112472454"
    }
  },
  {
    "service_request": "2023-1033607",
    "request_type": "Parks & Parkways",
    "request_reason": "Request Tree Service (Right of Way/Public Property)",
    "date_created": "2023-09-09T12:28:07.000",
    "date_modified": "2023-09-09T12:28:07.000",
    "request_status": "Pending",
    "responsible_agency": "Department of Parks & Parkway",
    "final_address": "406 State St",
    "address_councildis": "A",
    "status": "Pending",
    "rowid": "1033607",
    "final_x": "3664225.37504",
    "final_y": "517939.407926",
    "longitude": "-90.12307055020788",
    "latitude": "29.91866656900172",
    "geocoded_column": {
      "latitude": "29.91866656900172",
      "longitude": "-90.12307055020788"
    }
  },
  {
    "service_request": "2023-1033606",
    "request_type": "Trash/Recycling",
    "request_reason": "Request a Large Item Pick Up",
    "date_created": "2023-09-09T12:24:47.000",
    "date_modified": "2023-09-09T12:24:48.000",
    "request_status": "Pending",
    "responsible_agency": "Department of Sanitation",
    "final_address": "4925 Iberville St",
    "address_councildis": "A",
    "status": "Assigned to Contractor",
    "contractor": "Richards Disposal",
    "rowid": "1033606",
    "final_x": "3668663.34439",
    "final_y": "540846.119755",
    "longitude": "-90.1082891434377",
    "latitude": "29.981522909143038",
    "geocoded_column": {
      "latitude": "29.981522909143038",
      "longitude": "-90.1082891434377"
    }
  },
  {
    "service_request": "2023-1033605",
    "request_type": "Roads/Drainage",
    "request_reason": "Catch Basin - Clogged",
    "date_created": "2023-09-09T12:23:05.000",
    "date_modified": "2023-09-09T12:23:06.000",
    "request_status": "Pending",
    "responsible_agency": "Department of Public Works",
    "final_address": "2246 Lark St",
    "address_councildis": "D",
    "status": "Pending",
    "rowid": "1033605",
    "final_x": "3683919.28009",
    "final_y": "557710.647643",
    "longitude": "-90.05951174203479",
    "latitude": "30.027436973291554",
    "geocoded_column": {
      "latitude": "30.027436973291554",
      "longitude": "-90.05951174203479"
    }
  },
  {
    "service_request": "2023-1033603",
    "request_type": "Trash/Recycling",
    "request_reason": "Dead Animal Pick Up",
    "date_created": "2023-09-09T11:58:34.000",
    "date_modified": "2023-09-09T11:58:34.000",
    "request_status": "Pending",
    "responsible_agency": "Department of Sanitation",
    "final_address": "3153 State Street Dr",
    "address_councildis": "A",
    "status": "Assigned to Contractor",
    "contractor": "Richards Disposal",
    "rowid": "1033603",
    "final_x": "3667591.66381",
    "final_y": "527971.220607",
    "longitude": "-90.1121074226305",
    "latitude": "29.94615265792306",
    "geocoded_column": {
      "latitude": "29.94615265792306",
      "longitude": "-90.1121074226305"
    }
  },
  {
    "service_request": "2023-1033602",
    "request_type": "Trash/Recycling",
    "request_reason": "Illegal Dumping",
    "date_created": "2023-09-09T11:56:45.000",
    "date_modified": "2023-09-09T11:56:45.000",
    "request_status": "Pending",
    "responsible_agency": "Department of Sanitation",
    "final_address": "3319 Hollygrove St",
    "address_councildis": "A",
    "status": "Pending",
    "rowid": "1033602",
    "final_x": "3664793.64948",
    "final_y": "536149.647495",
    "longitude": "-90.12066847414106",
    "latitude": "29.968722365532972",
    "geocoded_column": {
      "latitude": "29.968722365532972",
      "longitude": "-90.12066847414106"
    }
  },
  {
    "service_request": "2023-1033601",
    "request_type": "Trash/Recycling",
    "request_reason": "Start Trash Service",
    "date_created": "2023-09-09T11:53:23.000",
    "date_modified": "2023-09-09T11:53:24.000",
    "request_status": "Pending",
    "responsible_agency": "Department of Sanitation",
    "final_address": "2705 S Johnson St",
    "address_councildis": "B",
    "status": "Assigned to Contractor",
    "contractor": "Richards Disposal",
    "rowid": "1033601",
    "final_x": "3672593.20878",
    "final_y": "528036.475711",
    "longitude": "-90.09631356744788",
    "latitude": "29.946184566547135",
    "geocoded_column": {
      "latitude": "29.946184566547135",
      "longitude": "-90.09631356744788"
    }
  },
  {
    "service_request": "2023-1033600",
    "request_type": "Roads/Drainage",
    "request_reason": "Accessibility Ramps, Curbs and Sidewalk Repair",
    "date_created": "2023-09-09T11:52:18.000",
    "date_modified": "2023-09-09T11:52:18.000",
    "request_status": "Pending",
    "responsible_agency": "Department of Public Works",
    "final_address": "LADY GRAY ST & ZENITH ST",
    "address_councildis": "E",
    "status": "Pending",
    "rowid": "1033600",
    "final_x": "3710073.0",
    "final_y": "565113.08",
    "longitude": "-89.97659197041028",
    "latitude": "30.046965332819294",
    "geocoded_column": {
      "latitude": "30.046965332819294",
      "longitude": "-89.97659197041028"
    }
  },
  {
    "service_request": "2023-1033599",
    "request_type": "Trash/Recycling",
    "request_reason": "Start Trash Service",
    "date_created": "2023-09-09T11:51:38.000",
    "date_modified": "2023-09-09T11:51:39.000",
    "request_status": "Pending",
    "responsible_agency": "Department of Sanitation",
    "final_address": "2540 Congress St",
    "address_councildis": "D",
    "status": "Assigned to Contractor",
    "contractor": "IV Waste",
    "rowid": "1033599",
    "final_x": "3692078.56272",
    "final_y": "541203.422348",
    "longitude": "-90.0343205214625",
    "latitude": "29.9817962447357",
    "geocoded_column": {
      "latitude": "29.9817962447357",
      "longitude": "-90.0343205214625"
    }
  },
  {
    "service_request": "2023-1033598",
    "request_type": "Trash/Recycling",
    "request_reason": "Order Recycling Cart",
    "date_created": "2023-09-09T11:48:06.000",
    "date_modified": "2023-09-09T11:48:06.000",
    "request_status": "Pending",
    "responsible_agency": "Department of Sanitation",
    "final_address": "3225 Louisiana Avenue Prkwy",
    "address_councildis": "B",
    "status": "Pending",
    "rowid": "1033598",
    "final_x": "3671969.47252",
    "final_y": "527135.741183",
    "longitude": "-90.09831357519892",
    "latitude": "29.94372634201822",
    "geocoded_column": {
      "latitude": "29.94372634201822",
      "longitude": "-90.09831357519892"
    }
  },
  {
    "service_request": "2023-1033597",
    "request_type": "Trash/Recycling",
    "request_reason": "Order Recycling Cart",
    "date_created": "2023-09-09T11:47:39.000",
    "date_modified": "2023-09-09T11:47:39.000",
    "request_status": "Pending",
    "responsible_agency": "Department of Sanitation",
    "final_address": "3225 Louisiana Avenue Prkwy",
    "address_councildis": "B",
    "status": "Pending",
    "rowid": "1033597",
    "final_x": "3671969.47252",
    "final_y": "527135.741183",
    "longitude": "-90.09831357519892",
    "latitude": "29.94372634201822",
    "geocoded_column": {
      "latitude": "29.94372634201822",
      "longitude": "-90.09831357519892"
    }
  },
  {
    "service_request": "2023-1033596",
    "request_type": "Roads/Drainage",
    "request_reason": "Accessibility Ramps, Curbs and Sidewalk Repair",
    "date_created": "2023-09-09T11:47:19.000",
    "date_modified": "2023-09-09T11:47:19.000",
    "request_status": "Pending",
    "responsible_agency": "Department of Public Works",
    "final_address": "LADY GRAY ST & ZENITH ST",
    "address_councildis": "E",
    "status": "Pending",
    "rowid": "1033596",
    "final_x": "3710073.0",
    "final_y": "565113.08",
    "longitude": "-89.97659197041028",
    "latitude": "30.046965332819294",
    "geocoded_column": {
      "latitude": "30.046965332819294",
      "longitude": "-89.97659197041028"
    }
  },
  {
    "service_request": "2023-1033595",
    "request_type": "Trash/Recycling",
    "request_reason": "Request a Large Item Pick Up",
    "date_created": "2023-09-09T11:45:44.000",
    "date_modified": "2023-09-09T11:45:45.000",
    "request_status": "Pending",
    "responsible_agency": "Department of Sanitation",
    "final_address": "2635 Milan St",
    "address_councildis": "B",
    "status": "Assigned to Contractor",
    "contractor": "Richards Disposal",
    "rowid": "1033595",
    "final_x": "3671266.26036",
    "final_y": "524719.861052",
    "longitude": "-90.1006158684819",
    "latitude": "29.93710427887458",
    "geocoded_column": {
      "latitude": "29.93710427887458",
      "longitude": "-90.1006158684819"
    }
  },
  {
    "service_request": "2023-1033594",
    "request_type": "Trash/Recycling",
    "request_reason": "MIssed Recycling Pick-Up",
    "date_created": "2023-09-09T11:38:59.000",
    "date_modified": "2023-09-09T11:39:00.000",
    "request_status": "Pending",
    "responsible_agency": "Department of Sanitation",
    "final_address": "3621 State Street Dr",
    "address_councildis": "A",
    "status": "Assigned to Contractor",
    "contractor": "Richards Disposal",
    "rowid": "1033594",
    "final_x": "3667973.21268",
    "final_y": "529168.49248",
    "longitude": "-90.11086240732065",
    "latitude": "29.949433579350597",
    "geocoded_column": {
      "latitude": "29.949433579350597",
      "longitude": "-90.11086240732065"
    }
  },
  {
    "service_request": "2023-1033593",
    "request_type": "Trash/Recycling",
    "request_reason": "Missed Trash Pick-Up",
    "date_created": "2023-09-09T11:38:43.000",
    "date_modified": "2023-09-09T11:38:44.000",
    "request_status": "Pending",
    "responsible_agency": "Department of Sanitation",
    "final_address": "3621 State Street Dr",
    "address_councildis": "A",
    "status": "Assigned to Contractor",
    "contractor": "Richards Disposal",
    "rowid": "1033593",
    "final_x": "3667973.21268",
    "final_y": "529168.49248",
    "longitude": "-90.11086240732065",
    "latitude": "29.949433579350597",
    "geocoded_column": {
      "latitude": "29.949433579350597",
      "longitude": "-90.11086240732065"
    }
  },
  {
    "service_request": "2023-1033592",
    "request_type": "Parks & Parkways",
    "request_reason": "Request Tree Service (Right of Way/Public Property)",
    "date_created": "2023-09-09T11:34:46.000",
    "date_modified": "2023-09-09T11:34:46.000",
    "request_status": "Pending",
    "responsible_agency": "Department of Parks & Parkway",
    "final_address": "1325 Mandeville St",
    "address_councildis": "C",
    "status": "Pending",
    "rowid": "1033592",
    "final_x": "3685737.29474",
    "final_y": "537318.717064",
    "longitude": "-90.05448614086647",
    "latitude": "29.971310815559708",
    "geocoded_column": {
      "latitude": "29.971310815559708",
      "longitude": "-90.05448614086647"
    }
  },
  {
    "service_request": "2023-1033591",
    "request_type": "Abandoned Vehicles",
    "request_reason": "Abandoned/Junk Vehicles",
    "date_created": "2023-09-09T11:29:33.000",
    "date_modified": "2023-09-09T11:29:33.000",
    "request_status": "Pending",
    "responsible_agency": "Department of Public Works",
    "final_address": "1325 Mandeville St",
    "address_councildis": "C",
    "status": "Pending",
    "rowid": "1033591",
    "final_x": "3685737.29474",
    "final_y": "537318.717064",
    "longitude": "-90.05448614086647",
    "latitude": "29.971310815559708",
    "geocoded_column": {
      "latitude": "29.971310815559708",
      "longitude": "-90.05448614086647"
    }
  },
  {
    "service_request": "2023-1033590",
    "request_type": "Trash/Recycling",
    "request_reason": "Request a Large Item Pick Up",
    "date_created": "2023-09-09T11:29:23.000",
    "date_modified": "2023-09-09T11:29:24.000",
    "request_status": "Pending",
    "responsible_agency": "Department of Sanitation",
    "final_address": "5419 Paris Ave",
    "address_councildis": "D",
    "status": "Assigned to Contractor",
    "contractor": "IV Waste",
    "rowid": "1033590",
    "final_x": "3679250.22978",
    "final_y": "552415.08079",
    "longitude": "-90.07444940173463",
    "latitude": "30.013017985442477",
    "geocoded_column": {
      "latitude": "30.013017985442477",
      "longitude": "-90.07444940173463"
    }
  },
  {
    "service_request": "2023-1033589",
    "request_type": "Roads/Drainage",
    "request_reason": "Street Flooding / Drainage",
    "date_created": "2023-09-09T11:17:57.000",
    "date_modified": "2023-09-09T11:17:57.000",
    "request_status": "Pending",
    "responsible_agency": "Department of Public Works",
    "final_address": "4516 S Miro St",
    "address_councildis": "B",
    "status": "Pending",
    "rowid": "1033589",
    "final_x": "3669595.28154",
    "final_y": "527722.034239",
    "longitude": "-90.1057897220994",
    "latitude": "29.94540860700847",
    "geocoded_column": {
      "latitude": "29.94540860700847",
      "longitude": "-90.1057897220994"
    }
  },
  {
    "service_request": "2023-1033588",
    "request_type": "Trash/Recycling",
    "request_reason": "Missed Trash Pick-Up",
    "date_created": "2023-09-09T11:12:12.000",
    "date_modified": "2023-09-09T11:12:12.000",
    "request_status": "Pending",
    "responsible_agency": "Department of Sanitation",
    "final_address": "5920 Jamison St",
    "address_councildis": "D",
    "status": "Assigned to Contractor",
    "contractor": "Waste Pro",
    "rowid": "1033588",
    "final_x": "3696242.18851",
    "final_y": "553494.894103",
    "longitude": "-90.02072516996958",
    "latitude": "30.015462810705714",
    "geocoded_column": {
      "latitude": "30.015462810705714",
      "longitude": "-90.02072516996958"
    }
  },
  {
    "service_request": "2023-1033587",
    "request_type": "Trash/Recycling",
    "request_reason": "Request a Large Item Pick Up",
    "date_created": "2023-09-09T11:11:42.000",
    "date_modified": "2023-09-09T11:11:43.000",
    "request_status": "Pending",
    "responsible_agency": "Department of Sanitation",
    "final_address": "158 Country Club Dr",
    "address_councildis": "A",
    "status": "Assigned to Contractor",
    "contractor": "IV Waste",
    "rowid": "1033587",
    "final_x": "3665374.36762",
    "final_y": "544244.65179",
    "longitude": "-90.11856350084605",
    "latitude": "29.99096400010815",
    "geocoded_column": {
      "latitude": "29.99096400010815",
      "longitude": "-90.11856350084605"
    }
  },
  {
    "service_request": "2023-1033586",
    "request_type": "Property Maintenance",
    "request_reason": "Property Maintenance",
    "date_created": "2023-09-09T11:01:52.000",
    "date_modified": "2023-09-09T11:01:52.000",
    "request_status": "Pending",
    "responsible_agency": "Department of Code Enforcement",
    "final_address": "2117 Piety St",
    "address_councildis": "D",
    "status": "Pending",
    "rowid": "1033586",
    "final_x": "3690844.19446",
    "final_y": "539700.951882",
    "longitude": "-90.0382728605188",
    "latitude": "29.977703406806896",
    "geocoded_column": {
      "latitude": "29.977703406806896",
      "longitude": "-90.0382728605188"
    }
  },
  {
    "service_request": "2023-1033585",
    "request_type": "Property Maintenance",
    "request_reason": "Property Maintenance",
    "date_created": "2023-09-09T10:59:10.000",
    "date_modified": "2023-09-09T10:59:10.000",
    "request_status": "Pending",
    "responsible_agency": "Department of Code Enforcement",
    "final_address": "14111 Knightway Dr",
    "address_councildis": "E",
    "status": "Pending",
    "rowid": "1033585",
    "final_x": "3718564.42655",
    "final_y": "570485.851367",
    "longitude": "-89.94954977116944",
    "latitude": "30.061459042793505",
    "geocoded_column": {
      "latitude": "30.061459042793505",
      "longitude": "-89.94954977116944"
    }
  },
  {
    "service_request": "2023-1033584",
    "request_type": "Traffic Signals/Signs/Striping/Streetlights",
    "request_reason": "Traffic Signal Malfunctioning/Damaged",
    "date_created": "2023-09-09T10:59:08.000",
    "date_modified": "2023-09-09T10:59:08.000",
    "request_status": "Pending",
    "responsible_agency": "Department of Public Works",
    "final_address": "GENERAL MEYER AVE & HOLIDAY DR",
    "address_councildis": "C",
    "status": "Pending",
    "rowid": "1033584",
    "final_x": "3699023.1",
    "final_y": "524730.48",
    "longitude": "-90.01298605689196",
    "latitude": "29.93628320516194",
    "geocoded_column": {
      "latitude": "29.93628320516194",
      "longitude": "-90.01298605689196"
    }
  },
  {
    "service_request": "2023-1033582",
    "request_type": "Roads/Drainage",
    "request_reason": "Road Shoulder Repair",
    "date_created": "2023-09-09T10:56:42.000",
    "date_modified": "2023-09-09T10:56:42.000",
    "request_status": "Pending",
    "responsible_agency": "Department of Public Works",
    "final_address": "6100 BLK Chestnut St",
    "address_councildis": "A",
    "status": "Pending",
    "rowid": "1033582",
    "final_x": "3664196.23456",
    "final_y": "520137.28366",
    "longitude": "-90.1230892569654",
    "latitude": "29.924710886830965",
    "geocoded_column": {
      "latitude": "29.924710886830965",
      "longitude": "-90.1230892569654"
    }
  },
  {
    "service_request": "2023-1033581",
    "request_type": "Roads/Drainage",
    "request_reason": "Street Subsidence (Sinking)",
    "date_created": "2023-09-09T10:32:38.000",
    "date_modified": "2023-09-09T10:32:38.000",
    "request_status": "Pending",
    "responsible_agency": "Department of Public Works",
    "final_address": "6335 General Diaz St",
    "address_councildis": "A",
    "status": "Pending",
    "rowid": "1033581",
    "final_x": "3669763.90689",
    "final_y": "549512.705555",
    "longitude": "-90.10451949423422",
    "latitude": "30.005320634664823",
    "geocoded_column": {
      "latitude": "30.005320634664823",
      "longitude": "-90.10451949423422"
    }
  },
  {
    "service_request": "2023-1033580",
    "request_type": "Property Maintenance",
    "request_reason": "Property Maintenance",
    "date_created": "2023-09-09T10:12:07.000",
    "date_modified": "2023-09-09T10:12:07.000",
    "request_status": "Pending",
    "responsible_agency": "Department of Code Enforcement",
    "final_address": "4300 Bienville Ave",
    "address_councildis": "A",
    "status": "Pending",
    "rowid": "1033580",
    "final_x": "3670695.87495",
    "final_y": "539547.552202",
    "longitude": "-90.10191353125076",
    "latitude": "29.97789238221124",
    "geocoded_column": {
      "latitude": "29.97789238221124",
      "longitude": "-90.10191353125076"
    }
  },
  {
    "service_request": "2023-1033579",
    "request_type": "Property Maintenance",
    "request_reason": "Property Maintenance",
    "date_created": "2023-09-09T10:11:23.000",
    "date_modified": "2023-09-09T10:11:23.000",
    "request_status": "Pending",
    "responsible_agency": "Department of Code Enforcement",
    "final_address": "7201 Pinebrook Dr",
    "address_councildis": "E",
    "status": "Pending",
    "rowid": "1033579",
    "final_x": "3719135.63436",
    "final_y": "570525.590055",
    "longitude": "-89.94774268939788",
    "latitude": "30.06154932778461",
    "geocoded_column": {
      "latitude": "30.06154932778461",
      "longitude": "-89.94774268939788"
    }
  },
  {
    "service_request": "2023-1033578",
    "request_type": "Trash/Recycling",
    "request_reason": "Missed Trash Pick-Up",
    "date_created": "2023-09-09T09:55:37.000",
    "date_modified": "2023-09-09T13:16:28.000",
    "case_close_date": "2023-09-09T08:16:28.000",
    "request_status": "Closed",
    "responsible_agency": "Department of Sanitation",
    "final_address": "5914 Boeing St",
    "address_councildis": "D",
    "status": "Invalid Request",
    "contractor": "Waste Pro",
    "contractor_action": "Invalid Pick-Up",
    "rowid": "1033578",
    "final_x": "3696396.55658",
    "final_y": "553012.729879",
    "longitude": "-90.02025489830102",
    "latitude": "30.014132177162907",
    "geocoded_column": {
      "latitude": "30.014132177162907",
      "longitude": "-90.02025489830102"
    }
  },
  {
    "service_request": "2023-1033577",
    "request_type": "Roads/Drainage",
    "request_reason": "Catch Basin - Clogged",
    "date_created": "2023-09-09T09:51:43.000",
    "date_modified": "2023-09-09T09:51:43.000",
    "request_status": "Pending",
    "responsible_agency": "Department of Public Works",
    "final_address": "200 Henry Clay Ave",
    "address_councildis": "A",
    "status": "Pending",
    "rowid": "1033577",
    "final_x": "3662713.03642",
    "final_y": "517407.919029",
    "longitude": "-90.12786188200616",
    "latitude": "29.91724897512564",
    "geocoded_column": {
      "latitude": "29.91724897512564",
      "longitude": "-90.12786188200616"
    }
  },
  {
    "service_request": "2023-1033576",
    "request_type": "Roads/Drainage",
    "request_reason": "Catch Basin - Clogged",
    "date_created": "2023-09-09T09:50:35.000",
    "date_modified": "2023-09-09T09:50:35.000",
    "request_status": "Pending",
    "responsible_agency": "Department of Public Works",
    "final_address": "200 Henry Clay Ave",
    "address_councildis": "A",
    "status": "Pending",
    "rowid": "1033576",
    "final_x": "3662713.03642",
    "final_y": "517407.919029",
    "longitude": "-90.12786188200616",
    "latitude": "29.91724897512564",
    "geocoded_column": {
      "latitude": "29.91724897512564",
      "longitude": "-90.12786188200616"
    }
  },
  {
    "service_request": "2023-1033575",
    "request_type": "Trash/Recycling",
    "request_reason": "MIssed Recycling Pick-Up",
    "date_created": "2023-09-09T09:50:09.000",
    "date_modified": "2023-09-09T09:50:10.000",
    "request_status": "Pending",
    "responsible_agency": "Department of Sanitation",
    "final_address": "4528 Bonita Dr",
    "address_councildis": "E",
    "status": "Assigned to Contractor",
    "contractor": "Waste Pro",
    "rowid": "1033575",
    "final_x": "3704565.24158",
    "final_y": "553909.635287",
    "longitude": "-89.9944130598669",
    "latitude": "30.016338402697038",
    "geocoded_column": {
      "latitude": "30.016338402697038",
      "longitude": "-89.9944130598669"
    }
  },
  {
    "service_request": "2023-1033574",
    "request_type": "Trash/Recycling",
    "request_reason": "Request a Large Item Pick Up",
    "date_created": "2023-09-09T09:41:21.000",
    "date_modified": "2023-09-09T09:41:22.000",
    "request_status": "Pending",
    "responsible_agency": "Department of Sanitation",
    "final_address": "3421 Paris Ave",
    "address_councildis": "D",
    "status": "Assigned to Contractor",
    "contractor": "IV Waste",
    "rowid": "1033574",
    "final_x": "3679801.858",
    "final_y": "544940.183503",
    "longitude": "-90.07296632540172",
    "latitude": "29.99244800860788",
    "geocoded_column": {
      "latitude": "29.99244800860788",
      "longitude": "-90.07296632540172"
    }
  },
  {
    "service_request": "2023-1033573",
    "request_type": "Roads/Drainage",
    "request_reason": "Pothole",
    "date_created": "2023-09-09T09:39:40.000",
    "date_modified": "2023-09-09T09:39:40.000",
    "request_status": "Pending",
    "responsible_agency": "Department of Public Works",
    "final_address": "4761 Press Dr",
    "address_councildis": "D",
    "status": "Pending",
    "rowid": "1033573",
    "final_x": "3689682.5039",
    "final_y": "551043.423061",
    "longitude": "-90.04153800069814",
    "latitude": "30.008927157400688",
    "geocoded_column": {
      "latitude": "30.008927157400688",
      "longitude": "-90.04153800069814"
    }
  },
  {
    "service_request": "2023-1033571",
    "request_type": "Utility Poles",
    "request_reason": "Utility Pole Leaning",
    "date_created": "2023-09-09T09:35:41.000",
    "date_modified": "2023-09-09T09:35:46.000",
    "request_status": "Pending",
    "responsible_agency": "Utility Company Collective",
    "final_address": "3028 Broadway St",
    "address_councildis": "B",
    "status": "Pending",
    "rowid": "1033571",
    "final_x": "3667824.17825",
    "final_y": "532088.827523",
    "longitude": "-90.11123463256611",
    "latitude": "29.957467916779674",
    "geocoded_column": {
      "latitude": "29.957467916779674",
      "longitude": "-90.11123463256611"
    }
  },
  {
    "service_request": "2023-1033570",
    "request_type": "Trash/Recycling",
    "request_reason": "Repair Trash Cart",
    "date_created": "2023-09-09T09:29:45.000",
    "date_modified": "2023-09-09T09:29:45.000",
    "request_status": "Pending",
    "responsible_agency": "Department of Sanitation",
    "final_address": "4869 Rosemont Pl",
    "address_councildis": "E",
    "status": "Assigned to Contractor",
    "contractor": "Waste Pro",
    "rowid": "1033570",
    "final_x": "3702707.2481",
    "final_y": "555677.081369",
    "longitude": "-90.00021849976036",
    "latitude": "30.021257767670036",
    "geocoded_column": {
      "latitude": "30.021257767670036",
      "longitude": "-90.00021849976036"
    }
  },
  {
    "service_request": "2023-1033569",
    "request_type": "Property Maintenance",
    "request_reason": "Property Maintenance",
    "date_created": "2023-09-09T09:28:18.000",
    "date_modified": "2023-09-09T09:28:18.000",
    "request_status": "Pending",
    "responsible_agency": "Department of Code Enforcement",
    "final_address": "4613 Haydel St",
    "address_councildis": "E",
    "status": "Pending",
    "rowid": "1033569",
    "final_x": "3699157.19338",
    "final_y": "553776.853463",
    "longitude": "-90.01150488012743",
    "latitude": "30.01614595260955",
    "geocoded_column": {
      "latitude": "30.01614595260955",
      "longitude": "-90.01150488012743"
    }
  },
  {
    "service_request": "2023-1033568",
    "request_type": "Property Maintenance",
    "request_reason": "Property Maintenance",
    "date_created": "2023-09-09T09:20:55.000",
    "date_modified": "2023-09-09T09:20:55.000",
    "request_status": "Pending",
    "responsible_agency": "Department of Code Enforcement",
    "final_address": "4911 Perrault Walk",
    "address_councildis": "E",
    "status": "Pending",
    "rowid": "1033568",
    "final_x": "3709762.60197",
    "final_y": "556689.224154",
    "longitude": "-89.97788792573616",
    "latitude": "30.023813174910792",
    "geocoded_column": {
      "latitude": "30.023813174910792",
      "longitude": "-89.97788792573616"
    }
  },
  {
    "service_request": "2023-1033567",
    "request_type": "Traffic Signals/Signs/Striping/Streetlights",
    "request_reason": "Street Light Knocked Down/Leaning",
    "date_created": "2023-09-09T09:19:36.000",
    "date_modified": "2023-09-09T09:19:36.000",
    "request_status": "Pending",
    "responsible_agency": "Department of Public Works",
    "final_address": "4911 Perrault Walk",
    "address_councildis": "E",
    "status": "Pending",
    "contractor": "Legacy Professional Services",
    "rowid": "1033567",
    "final_x": "3709762.60197",
    "final_y": "556689.224154",
    "longitude": "-89.97788792573616",
    "latitude": "30.023813174910792",
    "geocoded_column": {
      "latitude": "30.023813174910792",
      "longitude": "-89.97788792573616"
    }
  },
  {
    "service_request": "2023-1033566",
    "request_type": "Trash/Recycling",
    "request_reason": "Request a Large Item Pick Up",
    "date_created": "2023-09-09T09:07:40.000",
    "date_modified": "2023-09-09T09:07:41.000",
    "request_status": "Pending",
    "responsible_agency": "Department of Sanitation",
    "final_address": "7505 Freret St",
    "address_councildis": "A",
    "status": "Assigned to Contractor",
    "contractor": "Richards Disposal",
    "rowid": "1033566",
    "final_x": "3663041.08858",
    "final_y": "526495.669054",
    "longitude": "-90.12652429156864",
    "latitude": "29.942227936363768",
    "geocoded_column": {
      "latitude": "29.942227936363768",
      "longitude": "-90.12652429156864"
    }
  },
  {
    "service_request": "2023-1033565",
    "request_type": "Trash/Recycling",
    "request_reason": "Replace Trash Cart",
    "date_created": "2023-09-09T09:01:13.000",
    "date_modified": "2023-09-09T09:01:14.000",
    "request_status": "Pending",
    "responsible_agency": "Department of Sanitation",
    "final_address": "1503 Valence St",
    "address_councildis": "B",
    "status": "Assigned to Contractor",
    "contractor": "Richards Disposal",
    "rowid": "1033565",
    "final_x": "3669815.40481",
    "final_y": "520519.79692",
    "longitude": "-90.10533842228018",
    "latitude": "29.92559828720276",
    "geocoded_column": {
      "latitude": "29.92559828720276",
      "longitude": "-90.10533842228018"
    }
  },
  {
    "service_request": "2023-1033564",
    "request_type": "Roads/Drainage",
    "request_reason": "Catch Basin - Clogged",
    "date_created": "2023-09-09T08:49:21.000",
    "date_modified": "2023-09-09T08:49:21.000",
    "request_status": "Pending",
    "responsible_agency": "Department of Public Works",
    "final_address": "6028 Colbert St",
    "address_councildis": "A",
    "status": "Pending",
    "rowid": "1033564",
    "final_x": "3667372.61978",
    "final_y": "547669.451922",
    "longitude": "-90.11213617848996",
    "latitude": "30.000322622400677",
    "geocoded_column": {
      "latitude": "30.000322622400677",
      "longitude": "-90.11213617848996"
    }
  },
  {
    "service_request": "2023-1033563",
    "request_type": "Roads/Drainage",
    "request_reason": "Street Subsidence (Sinking)",
    "date_created": "2023-09-09T08:47:52.000",
    "date_modified": "2023-09-09T08:47:52.000",
    "request_status": "Pending",
    "responsible_agency": "Department of Public Works",
    "final_address": "2028 Camp St",
    "address_councildis": "B",
    "status": "Pending",
    "rowid": "1033563",
    "final_x": "3679094.39887",
    "final_y": "522698.36985",
    "longitude": "-90.0759720103262",
    "latitude": "29.931311953968205",
    "geocoded_column": {
      "latitude": "29.931311953968205",
      "longitude": "-90.0759720103262"
    }
  },
  {
    "service_request": "2023-1033562",
    "request_type": "Roads/Drainage",
    "request_reason": "Leaking Hydrant",
    "date_created": "2023-09-09T08:40:58.000",
    "date_modified": "2023-09-09T08:40:58.000",
    "request_status": "Pending",
    "responsible_agency": "Department of Public Works",
    "final_address": "my street. The cross street is Hathaway place and Desaix Boulevard.",
    "status": "Pending",
    "rowid": "1033562",
    "longitude": "0.0",
    "latitude": "0.0",
    "geocoded_column": {
      "latitude": "0.0",
      "longitude": "0.0"
    }
  },
  {
    "service_request": "2023-1033561",
    "request_type": "Trash/Recycling",
    "request_reason": "Dead Animal Pick Up",
    "date_created": "2023-09-09T08:38:22.000",
    "date_modified": "2023-09-09T08:38:23.000",
    "request_status": "Pending",
    "responsible_agency": "Department of Sanitation",
    "final_address": "126 Lakewood Estates Dr",
    "address_councildis": "C",
    "status": "Assigned to Contractor",
    "contractor": "Richards Disposal",
    "rowid": "1033561",
    "final_x": "3701624.81885",
    "final_y": "512206.791793",
    "longitude": "-90.00523066990161",
    "latitude": "29.901764667523903",
    "geocoded_column": {
      "latitude": "29.901764667523903",
      "longitude": "-90.00523066990161"
    }
  },
  {
    "service_request": "2023-1033560",
    "request_type": "Trash/Recycling",
    "request_reason": "Replace Trash Cart",
    "date_created": "2023-09-09T08:32:35.000",
    "date_modified": "2023-09-09T08:32:36.000",
    "request_status": "Pending",
    "responsible_agency": "Department of Sanitation",
    "final_address": "3370 State Street Dr",
    "address_councildis": "A",
    "status": "Assigned to Contractor",
    "contractor": "Richards Disposal",
    "rowid": "1033560",
    "final_x": "3667781.38625",
    "final_y": "528859.044864",
    "longitude": "-90.11147851022017",
    "latitude": "29.948588325025728",
    "geocoded_column": {
      "latitude": "29.948588325025728",
      "longitude": "-90.11147851022017"
    }
  },
  {
    "service_request": "2023-1033559",
    "request_type": "Trash/Recycling",
    "request_reason": "MIssed Recycling Pick-Up",
    "date_created": "2023-09-09T08:27:44.000",
    "date_modified": "2023-09-09T08:27:45.000",
    "request_status": "Pending",
    "responsible_agency": "Department of Sanitation",
    "final_address": "7331 Malvern Dr",
    "address_councildis": "E",
    "status": "Assigned to Contractor",
    "contractor": "Waste Pro",
    "rowid": "1033559",
    "final_x": "3702844.03844",
    "final_y": "560866.360286",
    "longitude": "-89.99959542953516",
    "latitude": "30.035521896545593",
    "geocoded_column": {
      "latitude": "30.035521896545593",
      "longitude": "-89.99959542953516"
    }
  },
  {
    "service_request": "2023-1033558",
    "request_type": "Graffiti Removal",
    "request_reason": "Graffiti Removal",
    "date_created": "2023-09-09T08:20:14.000",
    "date_modified": "2023-09-09T08:20:14.000",
    "request_status": "Pending",
    "responsible_agency": "Department of Code Enforcement",
    "final_address": "1561 Tulane Ave",
    "address_councildis": "B",
    "status": "Pending",
    "rowid": "1033558",
    "final_x": "3678228.50818",
    "final_y": "531830.083011",
    "longitude": "-90.07838979410212",
    "latitude": "29.95644723156525",
    "geocoded_column": {
      "latitude": "29.95644723156525",
      "longitude": "-90.07838979410212"
    }
  },
  {
    "service_request": "2023-1033557",
    "request_type": "Property Maintenance",
    "request_reason": "Property Maintenance",
    "date_created": "2023-09-09T07:48:45.000",
    "date_modified": "2023-09-09T11:53:41.000",
    "request_status": "Pending",
    "responsible_agency": "Department of Code Enforcement",
    "final_address": "New Orleans,LA",
    "address_councildis": "D",
    "rowid": "1033557",
    "final_x": "3680112.30786",
    "final_y": "545832.994832",
    "longitude": "-90.071954627778",
    "latitude": "29.994893531324166",
    "geocoded_column": {
      "latitude": "29.994893531324166",
      "longitude": "-90.071954627778"
    }
  },
  {
    "service_request": "2023-1033556",
    "request_type": "Trash/Recycling",
    "request_reason": "Request a Large Item Pick Up",
    "date_created": "2023-09-09T07:47:59.000",
    "date_modified": "2023-09-09T07:47:59.000",
    "request_status": "Pending",
    "responsible_agency": "Department of Sanitation",
    "final_address": "4627 Cerise Ave",
    "address_councildis": "E",
    "status": "Assigned to Contractor",
    "contractor": "Waste Pro",
    "rowid": "1033556",
    "final_x": "3708752.84184",
    "final_y": "554952.686872",
    "longitude": "-89.98114329173242",
    "latitude": "30.019071179162854",
    "geocoded_column": {
      "latitude": "30.019071179162854",
      "longitude": "-89.98114329173242"
    }
  },
  {
    "service_request": "2023-1033555",
    "request_type": "Property Maintenance",
    "request_reason": "Property Maintenance",
    "date_created": "2023-09-09T07:47:33.000",
    "date_modified": "2023-09-09T07:47:33.000",
    "request_status": "Pending",
    "responsible_agency": "Department of Code Enforcement",
    "final_address": "3637 Bruxelles St, New Orleans, Louisiana, 70122",
    "address_councildis": "D",
    "status": "Pending",
    "rowid": "1033555",
    "final_x": "3680112.30786",
    "final_y": "545832.994832",
    "longitude": "-90.071954627778",
    "latitude": "29.994893531324166",
    "geocoded_column": {
      "latitude": "29.994893531324166",
      "longitude": "-90.071954627778"
    }
  },
  {
    "service_request": "2023-1033554",
    "request_type": "Trash/Recycling",
    "request_reason": "Replace Trash Cart",
    "date_created": "2023-09-09T07:46:57.000",
    "date_modified": "2023-09-09T07:46:58.000",
    "request_status": "Pending",
    "responsible_agency": "Department of Sanitation",
    "final_address": "4909 St Charles Ave",
    "address_councildis": "B",
    "status": "Assigned to Contractor",
    "contractor": "Richards Disposal",
    "rowid": "1033554",
    "final_x": "3668946.29537",
    "final_y": "520891.985657",
    "longitude": "-90.1080693801662",
    "latitude": "29.926647270431733",
    "geocoded_column": {
      "latitude": "29.926647270431733",
      "longitude": "-90.1080693801662"
    }
  },
  {
    "service_request": "2023-1033553",
    "request_type": "Trash/Recycling",
    "request_reason": "MIssed Recycling Pick-Up",
    "date_created": "2023-09-09T07:46:48.000",
    "date_modified": "2023-09-09T07:46:48.000",
    "request_status": "Pending",
    "responsible_agency": "Department of Sanitation",
    "status": "Assigned to Contractor",
    "rowid": "1033553",
    "longitude": "0.0",
    "latitude": "0.0",
    "geocoded_column": {
      "latitude": "0.0",
      "longitude": "0.0"
    }
  },
  {
    "service_request": "2023-1033552",
    "request_type": "Trash/Recycling",
    "request_reason": "Request a Large Item Pick Up",
    "date_created": "2023-09-09T07:45:50.000",
    "date_modified": "2023-09-09T09:58:19.000",
    "case_close_date": "2023-09-09T04:58:19.000",
    "request_status": "Closed",
    "responsible_agency": "Department of Sanitation",
    "final_address": "4627 Cerise Ave, New Orleans, Louisiana, 70127",
    "address_councildis": "E",
    "status": "Duplicate Request",
    "contractor": "Waste Pro",
    "contractor_action": "duplicate",
    "rowid": "1033552",
    "final_x": "3708752.84184",
    "final_y": "554952.686872",
    "longitude": "-89.98114329173242",
    "latitude": "30.019071179162854",
    "geocoded_column": {
      "latitude": "30.019071179162854",
      "longitude": "-89.98114329173242"
    }
  },
  {
    "service_request": "2023-1033551",
    "request_type": "Trash/Recycling",
    "request_reason": "Request a Large Item Pick Up",
    "date_created": "2023-09-09T07:41:05.000",
    "date_modified": "2023-09-09T07:41:49.000",
    "request_status": "Pending",
    "responsible_agency": "Department of Sanitation",
    "final_address": "7021 Wayside Dr",
    "address_councildis": "E",
    "status": "Assigned to Contractor",
    "contractor": "Waste Pro",
    "rowid": "1033551",
    "final_x": "3717762.22629",
    "final_y": "567773.500324",
    "longitude": "-89.95218883564827",
    "latitude": "30.05402781490846",
    "geocoded_column": {
      "latitude": "30.05402781490846",
      "longitude": "-89.95218883564827"
    }
  },
  {
    "service_request": "2023-1033550",
    "request_type": "Trash/Recycling",
    "request_reason": "Request a Large Item Pick Up",
    "date_created": "2023-09-09T07:38:00.000",
    "date_modified": "2023-09-09T09:59:07.000",
    "case_close_date": "2023-09-09T04:59:07.000",
    "request_status": "Closed",
    "responsible_agency": "Department of Sanitation",
    "final_address": "4627 Cerise Ave",
    "address_councildis": "E",
    "status": "Duplicate Request",
    "contractor": "Waste Pro",
    "contractor_action": "duplicate",
    "rowid": "1033550",
    "final_x": "3708752.84184",
    "final_y": "554952.686872",
    "longitude": "-89.98114329173242",
    "latitude": "30.019071179162854",
    "geocoded_column": {
      "latitude": "30.019071179162854",
      "longitude": "-89.98114329173242"
    }
  },
  {
    "service_request": "2023-1033549",
    "request_type": "Trash/Recycling",
    "request_reason": "Request a Large Item Pick Up",
    "date_created": "2023-09-09T07:34:05.000",
    "date_modified": "2023-09-09T07:34:49.000",
    "request_status": "Pending",
    "responsible_agency": "Department of Sanitation",
    "final_address": "13051 Ashland Dr",
    "address_councildis": "E",
    "status": "Assigned to Contractor",
    "contractor": "Waste Pro",
    "rowid": "1033549",
    "final_x": "3717786.62258",
    "final_y": "567540.085412",
    "longitude": "-89.95212061889477",
    "latitude": "30.05338521162476",
    "geocoded_column": {
      "latitude": "30.05338521162476",
      "longitude": "-89.95212061889477"
    }
  },
  {
    "service_request": "2023-1033548",
    "request_type": "Roads/Drainage",
    "request_reason": "Debris in Roadway",
    "date_created": "2023-09-09T07:22:51.000",
    "date_modified": "2023-09-09T07:22:51.000",
    "request_status": "Pending",
    "responsible_agency": "Department of Public Works",
    "final_address": "BIRCH ST & ADAMS ST",
    "address_councildis": "A",
    "status": "Pending",
    "rowid": "1033548",
    "final_x": "3663999.7",
    "final_y": "528415.78",
    "longitude": "-90.12343371928381",
    "latitude": "29.94747982964708",
    "geocoded_column": {
      "latitude": "29.94747982964708",
      "longitude": "-90.12343371928381"
    }
  },
  {
    "service_request": "2023-1033547",
    "request_type": "Roads/Drainage",
    "request_reason": "Pothole",
    "date_created": "2023-09-09T06:53:08.000",
    "date_modified": "2023-09-09T06:53:08.000",
    "request_status": "Pending",
    "responsible_agency": "Department of Public Works",
    "final_address": "1820 Bordeaux St",
    "address_councildis": "B",
    "status": "Pending",
    "rowid": "1033547",
    "final_x": "3669246.21031",
    "final_y": "521623.648505",
    "longitude": "-90.10709791051376",
    "latitude": "29.92865028841181",
    "geocoded_column": {
      "latitude": "29.92865028841181",
      "longitude": "-90.10709791051376"
    }
  },
  {
    "service_request": "2023-1033546",
    "request_type": "Roads/Drainage",
    "request_reason": "Pothole",
    "date_created": "2023-09-09T06:44:03.000",
    "date_modified": "2023-09-09T06:44:03.000",
    "request_status": "Pending",
    "responsible_agency": "Department of Public Works",
    "final_address": "5240 Pitt St",
    "address_councildis": "B",
    "status": "Pending",
    "rowid": "1033546",
    "final_x": "3667761.03527",
    "final_y": "520360.621496",
    "longitude": "-90.11182881730261",
    "latitude": "29.925220983970277",
    "geocoded_column": {
      "latitude": "29.925220983970277",
      "longitude": "-90.11182881730261"
    }
  },
  {
    "service_request": "2023-1033545",
    "request_type": "Trash/Recycling",
    "request_reason": "Repair Trash Cart",
    "date_created": "2023-09-09T04:24:20.000",
    "date_modified": "2023-09-09T04:24:21.000",
    "request_status": "Pending",
    "responsible_agency": "Department of Sanitation",
    "final_address": "1311 Flood St",
    "address_councildis": "E",
    "status": "Assigned to Contractor",
    "contractor": "Waste Pro",
    "rowid": "1033545",
    "final_x": "3697959.71408",
    "final_y": "534656.944262",
    "longitude": "-90.01598289269872",
    "latitude": "29.963611146923697",
    "geocoded_column": {
      "latitude": "29.963611146923697",
      "longitude": "-90.01598289269872"
    }
  },
  {
    "service_request": "2023-1033544",
    "request_type": "Trash/Recycling",
    "request_reason": "Replace Trash Cart",
    "date_created": "2023-09-09T01:40:26.000",
    "date_modified": "2023-09-09T01:40:27.000",
    "request_status": "Pending",
    "responsible_agency": "Department of Sanitation",
    "final_address": "366 Millaudon St",
    "address_councildis": "A",
    "status": "Assigned to Contractor",
    "contractor": "Richards Disposal",
    "rowid": "1033544",
    "final_x": "3661789.00698",
    "final_y": "524568.659772",
    "longitude": "-90.13054127317676",
    "latitude": "29.9369654723645",
    "geocoded_column": {
      "latitude": "29.9369654723645",
      "longitude": "-90.13054127317676"
    }
  },
  {
    "service_request": "2023-1033543",
    "request_type": "Roads/Drainage",
    "request_reason": "Pothole",
    "date_created": "2023-09-09T00:58:41.000",
    "date_modified": "2023-09-09T00:58:41.000",
    "request_status": "Pending",
    "responsible_agency": "Department of Public Works",
    "final_address": "1501 General Taylor St",
    "address_councildis": "B",
    "status": "Pending",
    "rowid": "1033543",
    "final_x": "3672757.23963",
    "final_y": "520814.498105",
    "longitude": "-90.09604188611411",
    "latitude": "29.926321602463354",
    "geocoded_column": {
      "latitude": "29.926321602463354",
      "longitude": "-90.09604188611411"
    }
  },
  {
    "service_request": "2023-1033542",
    "request_type": "Traffic Signals/Signs/Striping/Streetlights",
    "request_reason": "Traffic Sign Missing/Damaged",
    "date_created": "2023-09-09T00:35:35.000",
    "date_modified": "2023-09-09T00:35:35.000",
    "request_status": "Pending",
    "responsible_agency": "Department of Public Works",
    "final_address": "1137 Delachaise St",
    "address_councildis": "B",
    "status": "Pending",
    "rowid": "1033542",
    "final_x": "3674592.15515",
    "final_y": "519776.690168",
    "longitude": "-90.09028510884738",
    "latitude": "29.923413356256976",
    "geocoded_column": {
      "latitude": "29.923413356256976",
      "longitude": "-90.09028510884738"
    }
  },
  {
    "service_request": "2023-1033541",
    "request_type": "Roads/Drainage",
    "request_reason": "Pothole",
    "date_created": "2023-09-09T00:29:45.000",
    "date_modified": "2023-09-09T00:29:45.000",
    "request_status": "Pending",
    "responsible_agency": "Department of Public Works",
    "final_address": "1119 Delachaise St",
    "address_councildis": "B",
    "status": "Pending",
    "rowid": "1033541",
    "final_x": "3674636.36148",
    "final_y": "519640.741432",
    "longitude": "-90.09015022180516",
    "latitude": "29.923038222210483",
    "geocoded_column": {
      "latitude": "29.923038222210483",
      "longitude": "-90.09015022180516"
    }
  },
  {
    "service_request": "2023-1033540",
    "request_type": "Property Maintenance",
    "request_reason": "Property Maintenance",
    "date_created": "2023-09-09T00:22:11.000",
    "date_modified": "2023-09-09T00:22:11.000",
    "request_status": "Pending",
    "responsible_agency": "Department of Code Enforcement",
    "final_address": "Morrison Road & Paris Road",
    "address_councildis": "E",
    "status": "Pending",
    "rowid": "1033540",
    "final_x": "3721511.81074",
    "final_y": "572974.860073",
    "longitude": "-89.94013756528196",
    "latitude": "30.068204568480486",
    "geocoded_column": {
      "latitude": "30.068204568480486",
      "longitude": "-89.94013756528196"
    }
  },
  {
    "service_request": "2023-1033539",
    "request_type": "Roads/Drainage",
    "request_reason": "Pothole",
    "date_created": "2023-09-09T00:21:58.000",
    "date_modified": "2023-09-09T00:21:58.000",
    "request_status": "Pending",
    "responsible_agency": "Department of Public Works",
    "final_address": "5904 Garfield St",
    "address_councildis": "A",
    "status": "Pending",
    "rowid": "1033539",
    "final_x": "3665673.28845",
    "final_y": "521351.443001",
    "longitude": "-90.11838603367873",
    "latitude": "29.92800646256598",
    "geocoded_column": {
      "latitude": "29.92800646256598",
      "longitude": "-90.11838603367873"
    }
  },
  {
    "service_request": "2023-1033538",
    "request_type": "Property Maintenance",
    "request_reason": "Property Maintenance",
    "date_created": "2023-09-09T00:17:18.000",
    "date_modified": "2023-09-09T00:17:18.000",
    "request_status": "Pending",
    "responsible_agency": "Department of Code Enforcement",
    "final_address": "Morrison Road & Paris Road",
    "address_councildis": "E",
    "status": "Pending",
    "rowid": "1033538",
    "final_x": "3721511.81074",
    "final_y": "572974.860073",
    "longitude": "-89.94013756528196",
    "latitude": "30.068204568480486",
    "geocoded_column": {
      "latitude": "30.068204568480486",
      "longitude": "-89.94013756528196"
    }
  },
  {
    "service_request": "2023-1033537",
    "request_type": "Property Maintenance",
    "request_reason": "Property Maintenance",
    "date_created": "2023-09-09T00:14:16.000",
    "date_modified": "2023-09-09T00:14:16.000",
    "request_status": "Pending",
    "responsible_agency": "Department of Code Enforcement",
    "final_address": "Morrison Road & Paris Road",
    "address_councildis": "E",
    "status": "Pending",
    "rowid": "1033537",
    "final_x": "3721511.81074",
    "final_y": "572974.860073",
    "longitude": "-89.94013756528196",
    "latitude": "30.068204568480486",
    "geocoded_column": {
      "latitude": "30.068204568480486",
      "longitude": "-89.94013756528196"
    }
  },