[
  {
    "service_request": "2026-1288164",
    "request_type": "Property Maintenance",
    "request_reason": "Property Maintenance",
    "date_created": "2026-06-05T23:03:07.000",
    "date_modified": "2026-06-05T23:03:08.000",
    "request_status": "Pending",
    "responsible_agency": "Department of Code Enforcement",
    "final_address": "3316 Jena St",
    "address_councildis": "B",
    "status": "Pending",
    "rowid": "1288164",
    "final_x": "3669748.90324",
    "final_y": "527009.395902",
    "longitude": "-90.10532880145755",
    "latitude": "29.94344455715648",
    "geocoded_column": {
      "latitude": "29.94344455715648",
      "longitude": "-90.10532880145755"
    }
  },
  {
    "service_request": "2026-1288163",
    "request_type": "Abandoned Vehicles",
    "request_reason": "Abandoned/Junk Vehicles",
    "date_created": "2026-06-05T22:04:28.000",
    "date_modified": "2026-06-05T22:04:30.000",
    "request_status": "Pending",
    "responsible_agency": "Department of Public Works",
    "final_address": "2500 BLK Saint Philip St",
    "address_councildis": "C",
    "status": "Pending",
    "rowid": "1288163",
    "final_x": "3678020.6951",
    "final_y": "537368.660943",
    "longitude": "-90.07885452791382",
    "latitude": "29.971682697101155",
    "geocoded_column": {
      "latitude": "29.971682697101155",
      "longitude": "-90.07885452791382"
    }
  },
  {
    "service_request": "2026-1288162",
    "request_type": "Streetlights",
    "request_reason": "Streetlight Outage/Malfunction",
    "date_created": "2026-06-05T21:53:13.000",
    "date_modified": "2026-06-05T21:53:17.000",
    "request_status": "Pending",
    "responsible_agency": "Department of Public Works",
    "final_address": "5661 Bullard Ave",
    "address_councildis": "E",
    "status": "Pending",
    "rowid": "1288162",
    "final_x": "3717217.88274",
    "final_y": "562232.219551",
    "longitude": "-89.95412017240513",
    "latitude": "30.038809587180545",
    "geocoded_column": {
      "latitude": "30.038809587180545",
      "longitude": "-89.95412017240513"
    }
  },
  {
    "service_request": "2026-1288161",
    "request_type": "Trash/Recycling",
    "request_reason": "Replace Trash Cart",
    "date_created": "2026-06-05T21:51:45.000",
    "date_modified": "2026-06-05T21:51:47.000",
    "request_status": "Pending",
    "responsible_agency": "Department of Sanitation",
    "final_address": "4444 Wilson Ave",
    "address_councildis": "E",
    "status": "Assigned to Contractor",
    "contractor": "Waste Pro",
    "rowid": "1288161",
    "final_x": "3703112.81009",
    "final_y": "553249.022743",
    "longitude": "-89.99902638462497",
    "latitude": "30.01456855670745",
    "geocoded_column": {
      "latitude": "30.01456855670745",
      "longitude": "-89.99902638462497"
    }
  },
  {
    "service_request": "2026-1288160",
    "request_type": "Streetlights",
    "request_reason": "Streetlight Outage/Malfunction",
    "date_created": "2026-06-05T21:50:05.000",
    "date_modified": "2026-06-05T21:50:07.000",
    "request_status": "Pending",
    "responsible_agency": "Department of Public Works",
    "final_address": "4547 Desire Dr",
    "address_councildis": "D",
    "status": "Pending",
    "rowid": "1288160",
    "final_x": "3692008.52617",
    "final_y": "551220.194325",
    "longitude": "-90.03418302234562",
    "latitude": "30.009340903994733",
    "geocoded_column": {
      "latitude": "30.009340903994733",
      "longitude": "-90.03418302234562"
    }
  },
  {
    "service_request": "2026-1288159",
    "request_type": "Trash/Recycling",
    "request_reason": "Order Trash Cart",
    "date_created": "2026-06-05T21:34:15.000",
    "date_modified": "2026-06-05T21:34:16.000",
    "request_status": "Pending",
    "responsible_agency": "Department of Sanitation",
    "final_address": "1248 Sumner St",
    "address_councildis": "C",
    "status": "Assigned to Contractor",
    "contractor": "Richards Disposal",
    "rowid": "1288159",
    "final_x": "3691112.05974",
    "final_y": "526673.055102",
    "longitude": "-90.0378920392072",
    "latitude": "29.941872909075748",
    "geocoded_column": {
      "latitude": "29.941872909075748",
      "longitude": "-90.0378920392072"
    }
  },
  {
    "service_request": "2026-1288158",
    "request_type": "Health Related Request",
    "request_reason": "Noise Ordinance Complaint",
    "date_created": "2026-06-05T21:31:11.000",
    "date_modified": "2026-06-05T21:31:13.000",
    "request_status": "Pending",
    "responsible_agency": "Health Department",
    "final_address": "800 Bourbon St, New Orleans, Louisiana, 70116",
    "address_councildis": "C",
    "status": "Pending",
    "rowid": "1288158",
    "final_x": "3682553.51528",
    "final_y": "533013.631428",
    "longitude": "-90.06469148499534",
    "latitude": "29.95957063099051",
    "geocoded_column": {
      "latitude": "29.95957063099051",
      "longitude": "-90.06469148499534"
    }
  },
  {
    "service_request": "2026-1288157",
    "request_type": "General Services",
    "request_reason": "General Service Request",
    "date_created": "2026-06-05T20:48:12.000",
    "date_modified": "2026-06-05T20:48:15.000",
    "request_status": "Pending",
    "responsible_agency": "Orleans Parish Communication District",
    "final_address": "2519 General Pershing St",
    "address_councildis": "B",
    "status": "Pending",
    "rowid": "1288157",
    "final_x": "3670961.8331",
    "final_y": "524280.44838",
    "longitude": "-90.10159187791244",
    "latitude": "29.935905037976166",
    "geocoded_column": {
      "latitude": "29.935905037976166",
      "longitude": "-90.10159187791244"
    }
  },
  {
    "service_request": "2026-1288156",
    "request_type": "Health Related Request",
    "request_reason": "Noise Ordinance Complaint",
    "date_created": "2026-06-05T20:28:08.000",
    "date_modified": "2026-06-05T20:28:09.000",
    "request_status": "Pending",
    "responsible_agency": "Health Department",
    "final_address": "800 Bourbon St, New Orleans, Louisiana, 70116",
    "address_councildis": "C",
    "status": "Pending",
    "rowid": "1288156",
    "final_x": "3682553.51528",
    "final_y": "533013.631428",
    "longitude": "-90.06469148499534",
    "latitude": "29.95957063099051",
    "geocoded_column": {
      "latitude": "29.95957063099051",
      "longitude": "-90.06469148499534"
    }
  },
  {
    "service_request": "2026-1288155",
    "request_type": "Tree Service",
    "request_reason": "Street or Sidewalk Blocked",
    "date_created": "2026-06-05T20:25:20.000",
    "date_modified": "2026-06-05T20:25:22.000",
    "request_status": "Pending",
    "responsible_agency": "Department of Parks & Parkways",
    "final_address": "341 N Murat St",
    "address_councildis": "A",
    "status": "Pending",
    "rowid": "1288155",
    "final_x": "3670362.38855",
    "final_y": "540321.197835",
    "longitude": "-90.10294056289774",
    "latitude": "29.980029495723407",
    "geocoded_column": {
      "latitude": "29.980029495723407",
      "longitude": "-90.10294056289774"
    }
  },
  {
    "service_request": "2026-1288154",
    "request_type": "Trash/Recycling",
    "request_reason": "Request a Large Item Pick Up",
    "date_created": "2026-06-05T19:54:09.000",
    "date_modified": "2026-06-05T19:54:11.000",
    "request_status": "Pending",
    "responsible_agency": "Department of Sanitation",
    "final_address": "8630 Apple St",
    "address_councildis": "A",
    "status": "Assigned to Contractor",
    "contractor": "IV Waste",
    "rowid": "1288154",
    "final_x": "3663833.5312",
    "final_y": "533436.029188",
    "longitude": "-90.12379105972441",
    "latitude": "29.961288710801323",
    "geocoded_column": {
      "latitude": "29.961288710801323",
      "longitude": "-90.12379105972441"
    }
  },
  {
    "service_request": "2026-1288153",
    "request_type": "Trash/Recycling",
    "request_reason": "Replace Trash Cart",
    "date_created": "2026-06-05T19:39:25.000",
    "date_modified": "2026-06-05T19:39:28.000",
    "request_status": "Pending",
    "responsible_agency": "Department of Sanitation",
    "final_address": "2361 Abundance St",
    "address_councildis": "D",
    "status": "Assigned to Contractor",
    "contractor": "IV Waste",
    "rowid": "1288153",
    "final_x": "3685705.36783",
    "final_y": "543829.077134",
    "longitude": "-90.05435747473769",
    "latitude": "29.989212991365694",
    "geocoded_column": {
      "latitude": "29.989212991365694",
      "longitude": "-90.05435747473769"
    }
  },
  {
    "service_request": "2026-1288152",
    "request_type": "Trash/Recycling",
    "request_reason": "Repair Trash Cart",
    "date_created": "2026-06-05T19:34:23.000",
    "date_modified": "2026-06-05T19:34:25.000",
    "request_status": "Pending",
    "responsible_agency": "Department of Sanitation",
    "final_address": "1326 Lowerline St",
    "address_councildis": "A",
    "status": "Assigned to Contractor",
    "contractor": "IV Waste",
    "rowid": "1288152",
    "final_x": "3663974.06407",
    "final_y": "527325.267775",
    "longitude": "-90.12355101532853",
    "latitude": "29.944482015513074",
    "geocoded_column": {
      "latitude": "29.944482015513074",
      "longitude": "-90.12355101532853"
    }
  },
  {
    "service_request": "2026-1288151",
    "request_type": "Abandoned Vehicles",
    "request_reason": "Abandoned/Junk Vehicles",
    "date_created": "2026-06-05T19:26:13.000",
    "date_modified": "2026-06-05T19:26:14.000",
    "request_status": "Pending",
    "responsible_agency": "Department of Public Works",
    "final_address": "300 BLK Saint Joseph St",
    "address_councildis": "B",
    "status": "Pending",
    "rowid": "1288151",
    "final_x": "3682125.12423",
    "final_y": "527001.49631",
    "longitude": "-90.0662541805133",
    "latitude": "29.94305232639205",
    "geocoded_column": {
      "latitude": "29.94305232639205",
      "longitude": "-90.0662541805133"
    }
  },
  {
    "service_request": "2026-1288150",
    "request_type": "Trash/Recycling",
    "request_reason": "Illegal Dumping",
    "date_created": "2026-06-05T19:24:35.000",
    "date_modified": "2026-06-05T19:24:38.000",
    "request_status": "Pending",
    "responsible_agency": "Department of Sanitation",
    "final_address": "4917 Crowder Blvd",
    "address_councildis": "E",
    "status": "Pending",
    "rowid": "1288150",
    "final_x": "3706424.05214",
    "final_y": "556524.841498",
    "longitude": "-89.98844309212403",
    "latitude": "30.02346935384291",
    "geocoded_column": {
      "latitude": "30.02346935384291",
      "longitude": "-89.98844309212403"
    }
  },
  {
    "service_request": "2026-1288149",
    "request_type": "Trash/Recycling",
    "request_reason": "Replace Trash Cart",
    "date_created": "2026-06-05T19:12:28.000",
    "date_modified": "2026-06-05T19:12:30.000",
    "request_status": "Pending",
    "responsible_agency": "Department of Sanitation",
    "final_address": "7611 Fieldston Rd",
    "address_councildis": "E",
    "status": "Assigned to Contractor",
    "contractor": "Waste Pro",
    "rowid": "1288149",
    "final_x": "3700586.64465",
    "final_y": "560649.62883",
    "longitude": "-90.00673706890711",
    "latitude": "30.03499802424367",
    "geocoded_column": {
      "latitude": "30.03499802424367",
      "longitude": "-90.00673706890711"
    }
  },
  {
    "service_request": "2026-1288148",
    "request_type": "Roads and Streets",
    "request_reason": "Street Subsidence (Sinking)",
    "date_created": "2026-06-05T19:12:27.000",
    "date_modified": "2026-06-05T19:12:28.000",
    "request_status": "Pending",
    "responsible_agency": "Sewerage & Water Board",
    "final_address": "4123 Toulouse St",
    "address_councildis": "A",
    "status": "Pending",
    "rowid": "1288148",
    "final_x": "3672118.12711",
    "final_y": "539866.004042",
    "longitude": "-90.09741070487682",
    "latitude": "29.978725911924887",
    "geocoded_column": {
      "latitude": "29.978725911924887",
      "longitude": "-90.09741070487682"
    }
  },
  {
    "service_request": "2026-1288147",
    "request_type": "Healthy Homes",
    "request_reason": "Healthy Homes",
    "date_created": "2026-06-05T19:11:20.000",
    "date_modified": "2026-06-05T19:11:23.000",
    "request_status": "Pending",
    "responsible_agency": "Department of Code Enforcement",
    "final_address": "920 Vallette St",
    "address_councildis": "C",
    "status": "Pending",
    "rowid": "1288147",
    "final_x": "3687492.82799",
    "final_y": "528156.678272",
    "longitude": "-90.04926618934996",
    "latitude": "29.946064382115164",
    "geocoded_column": {
      "latitude": "29.946064382115164",
      "longitude": "-90.04926618934996"
    }
  },
  {
    "service_request": "2026-1288146",
    "request_type": "Trash/Recycling",
    "request_reason": "Replace Trash Cart",
    "date_created": "2026-06-05T18:54:55.000",
    "date_modified": "2026-06-05T18:54:57.000",
    "request_status": "Pending",
    "responsible_agency": "Department of Sanitation",
    "final_address": "0 BLK Cypress Grove Ct",
    "address_councildis": "C",
    "status": "Assigned to Contractor",
    "contractor": "Richards Disposal",
    "rowid": "1288146",
    "final_x": "3705067.07146",
    "final_y": "512009.546635",
    "longitude": "-89.99437448645769",
    "latitude": "29.901112155377316",
    "geocoded_column": {
      "latitude": "29.901112155377316",
      "longitude": "-89.99437448645769"
    }
  },
  {
    "service_request": "2026-1288145",
    "request_type": "Street and Traffic Signs",
    "request_reason": "Stop Sign Missing or Damaged",
    "date_created": "2026-06-05T18:42:03.000",
    "date_modified": "2026-06-05T18:42:05.000",
    "request_status": "Pending",
    "responsible_agency": "Department of Public Works",
    "final_address": "5925 Oxford Pl",
    "address_councildis": "C",
    "status": "Pending",
    "rowid": "1288145",
    "final_x": "3705805.37681",
    "final_y": "519681.056696",
    "longitude": "-89.99176101072977",
    "latitude": "29.922182425645808",
    "geocoded_column": {
      "latitude": "29.922182425645808",
      "longitude": "-89.99176101072977"
    }
  },
  {
    "service_request": "2026-1288144",
    "request_type": "Property Maintenance",
    "request_reason": "Property Maintenance",
    "date_created": "2026-06-05T18:34:02.000",
    "date_modified": "2026-06-05T18:34:04.000",
    "request_status": "Pending",
    "responsible_agency": "Department of Code Enforcement",
    "final_address": "2623 Hudson Pl",
    "address_councildis": "C",
    "status": "Pending",
    "rowid": "1288144",
    "final_x": "3703343.58506",
    "final_y": "521326.709625",
    "longitude": "-89.99947133986437",
    "latitude": "29.926786425697088",
    "geocoded_column": {
      "latitude": "29.926786425697088",
      "longitude": "-89.99947133986437"
    }
  },
  {
    "service_request": "2026-1288143",
    "request_type": "Abandoned Vehicles",
    "request_reason": "Abandoned/Junk Vehicles",
    "date_created": "2026-06-05T18:23:30.000",
    "date_modified": "2026-06-05T18:23:33.000",
    "request_status": "Pending",
    "responsible_agency": "Department of Public Works",
    "final_address": "4920 LaSalle St",
    "address_councildis": "B",
    "status": "Pending",
    "rowid": "1288143",
    "final_x": "3668969.52289",
    "final_y": "523513.924987",
    "longitude": "-90.10790754074502",
    "latitude": "29.93385608327327",
    "geocoded_column": {
      "latitude": "29.93385608327327",
      "longitude": "-90.10790754074502"
    }
  },
  {
    "service_request": "2026-1288142",
    "request_type": "Trash/Recycling",
    "request_reason": "Replace Trash Cart",
    "date_created": "2026-06-05T18:08:06.000",
    "date_modified": "2026-06-05T18:08:07.000",
    "request_status": "Pending",
    "responsible_agency": "Department of Sanitation",
    "final_address": "6536 Memphis St",
    "address_councildis": "A",
    "status": "Assigned to Contractor",
    "contractor": "IV Waste",
    "rowid": "1288142",
    "final_x": "3669433.31086",
    "final_y": "550951.853781",
    "longitude": "-90.1055152032904",
    "latitude": "30.009287532744228",
    "geocoded_column": {
      "latitude": "30.009287532744228",
      "longitude": "-90.1055152032904"
    }
  },
  {
    "service_request": "2026-1288141",
    "request_type": "Property Maintenance",
    "request_reason": "Property Maintenance",
    "date_created": "2026-06-05T17:53:57.000",
    "date_modified": "2026-06-05T17:53:58.000",
    "request_status": "Pending",
    "responsible_agency": "Department of Code Enforcement",
    "final_address": "1512 Louisa St",
    "address_councildis": "D",
    "status": "Pending",
    "rowid": "1288141",
    "final_x": "3689931.10697",
    "final_y": "537480.02292",
    "longitude": "-90.0412357921289",
    "latitude": "29.971624982462505",
    "geocoded_column": {
      "latitude": "29.971624982462505",
      "longitude": "-90.0412357921289"
    }
  },
  {
    "service_request": "2026-1288140",
    "request_type": "Trash/Recycling",
    "request_reason": "Request a Large Item Pick Up",
    "date_created": "2026-06-05T17:52:47.000",
    "date_modified": "2026-06-05T17:52:48.000",
    "request_status": "Pending",
    "responsible_agency": "Department of Sanitation",
    "final_address": "300 Leslie Ln",
    "address_councildis": "A",
    "status": "Assigned to Contractor",
    "contractor": "IV Waste",
    "rowid": "1288140",
    "final_x": "3665045.83239",
    "final_y": "547316.106001",
    "longitude": "-90.11949849271788",
    "latitude": "29.99941902330447",
    "geocoded_column": {
      "latitude": "29.99941902330447",
      "longitude": "-90.11949849271788"
    }
  },
  {
    "service_request": "2026-1288139",
    "request_type": "Trash/Recycling",
    "request_reason": "Request a Large Item Pick Up",
    "date_created": "2026-06-05T17:46:10.000",
    "date_modified": "2026-06-05T17:46:12.000",
    "request_status": "Pending",
    "responsible_agency": "Department of Sanitation",
    "final_address": "35 Honeysuckle Ln",
    "address_councildis": "E",
    "status": "Assigned to Contractor",
    "contractor": "Waste Pro",
    "rowid": "1288139",
    "final_x": "3713024.20478",
    "final_y": "568411.211237",
    "longitude": "-89.96714039497594",
    "latitude": "30.05593743804322",
    "geocoded_column": {
      "latitude": "30.05593743804322",
      "longitude": "-89.96714039497594"
    }
  },
  {
    "service_request": "2026-1288138",
    "request_type": "Property Maintenance",
    "request_reason": "Property Maintenance",
    "date_created": "2026-06-05T17:14:53.000",
    "date_modified": "2026-06-05T17:14:55.000",
    "request_status": "Pending",
    "responsible_agency": "Department of Code Enforcement",
    "final_address": "3740 Rue Nichole",
    "address_councildis": "C",
    "status": "Pending",
    "rowid": "1288138",
    "final_x": "3704034.46705",
    "final_y": "516679.524853",
    "longitude": "-89.99746145555483",
    "latitude": "29.913986141019137",
    "geocoded_column": {
      "latitude": "29.913986141019137",
      "longitude": "-89.99746145555483"
    }
  },
  {
    "service_request": "2026-1288137",
    "request_type": "Abandoned Vehicles",
    "request_reason": "Abandoned/Junk Vehicles",
    "date_created": "2026-06-05T17:11:00.000",
    "date_modified": "2026-06-05T17:11:02.000",
    "request_status": "Pending",
    "responsible_agency": "Department of Public Works",
    "final_address": "2132 N Robertson St",
    "address_councildis": "C",
    "status": "Pending",
    "rowid": "1288137",
    "final_x": "3684761.80015",
    "final_y": "537734.571272",
    "longitude": "-90.05755226191992",
    "latitude": "29.9724841700234",
    "geocoded_column": {
      "latitude": "29.9724841700234",
      "longitude": "-90.05755226191992"
    }
  },
  {
    "service_request": "2026-1288136",
    "request_type": "Trash/Recycling",
    "request_reason": "Damaged Caused By Contractor",
    "date_created": "2026-06-05T17:09:15.000",
    "date_modified": "2026-06-05T17:09:17.000",
    "request_status": "Pending",
    "responsible_agency": "Department of Sanitation",
    "final_address": "4850 Ken Ct",
    "address_councildis": "C",
    "status": "Assigned to Contractor",
    "contractor": "Richards Disposal",
    "rowid": "1288136",
    "final_x": "3702149.92439",
    "final_y": "518552.471799",
    "longitude": "-90.00334102907924",
    "latitude": "29.91919638165848",
    "geocoded_column": {
      "latitude": "29.91919638165848",
      "longitude": "-90.00334102907924"
    }
  },
  {
    "service_request": "2026-1288135",
    "request_type": "Trash/Recycling",
    "request_reason": "Request a Large Item Pick Up",
    "date_created": "2026-06-05T17:07:00.000",
    "date_modified": "2026-06-05T17:07:02.000",
    "request_status": "Pending",
    "responsible_agency": "Department of Sanitation",
    "final_address": "2024 Seventh St",
    "address_councildis": "B",
    "status": "Assigned to Contractor",
    "contractor": "IV Waste",
    "rowid": "1288135",
    "final_x": "3674316.24276",
    "final_y": "523439.668795",
    "longitude": "-90.09103070155928",
    "latitude": "29.933493591493",
    "geocoded_column": {
      "latitude": "29.933493591493",
      "longitude": "-90.09103070155928"
    }
  },
  {
    "service_request": "2026-1288134",
    "request_type": "Trash/Recycling",
    "request_reason": "Replace Trash Cart",
    "date_created": "2026-06-05T17:06:08.000",
    "date_modified": "2026-06-05T17:06:10.000",
    "request_status": "Pending",
    "responsible_agency": "Department of Sanitation",
    "final_address": "2950 St Bernard Ave",
    "address_councildis": "D",
    "status": "Assigned to Contractor",
    "contractor": "IV Waste",
    "rowid": "1288134",
    "final_x": "3679297.04482",
    "final_y": "543087.833613",
    "longitude": "-90.07462520984106",
    "latitude": "29.98736995474998",
    "geocoded_column": {
      "latitude": "29.98736995474998",
      "longitude": "-90.07462520984106"
    }
  },
  {
    "service_request": "2026-1288133",
    "request_type": "Trash/Recycling",
    "request_reason": "Illegal Dumping",
    "date_created": "2026-06-05T17:03:12.000",
    "date_modified": "2026-06-05T17:03:13.000",
    "request_status": "Pending",
    "responsible_agency": "Department of Sanitation",
    "final_address": "4901 Eastern St",
    "address_councildis": "D",
    "status": "Pending",
    "rowid": "1288133",
    "final_x": "3688023.61961",
    "final_y": "551106.809237",
    "longitude": "-90.04677670333888",
    "latitude": "30.009152765304822",
    "geocoded_column": {
      "latitude": "30.009152765304822",
      "longitude": "-90.04677670333888"
    }
  },
  {
    "service_request": "2026-1288132",
    "request_type": "Trash/Recycling",
    "request_reason": "Request a Large Item Pick Up",
    "date_created": "2026-06-05T17:03:01.000",
    "date_modified": "2026-06-05T17:03:04.000",
    "request_status": "Pending",
    "responsible_agency": "Department of Sanitation",
    "final_address": "3851 Tall Pines Dr",
    "address_councildis": "C",
    "status": "Assigned to Contractor",
    "contractor": "Richards Disposal",
    "rowid": "1288132",
    "final_x": "3704507.7523",
    "final_y": "513134.49541",
    "longitude": "-89.99609820658947",
    "latitude": "29.904223341900014",
    "geocoded_column": {
      "latitude": "29.904223341900014",
      "longitude": "-89.99609820658947"
    }
  },
  {
    "service_request": "2026-1288131",
    "request_type": "City-Owned Cemeteries",
    "request_reason": "Alley Way Issues",
    "date_created": "2026-06-05T16:56:24.000",
    "date_modified": "2026-06-05T16:56:25.000",
    "request_status": "Pending",
    "responsible_agency": "Department of Public Works",
    "final_address": "3104 General Taylor St",
    "address_councildis": "B",
    "status": "Pending",
    "rowid": "1288131",
    "final_x": "3671306.80411",
    "final_y": "526411.996542",
    "longitude": "-90.10043038841003",
    "latitude": "29.94175590277173",
    "geocoded_column": {
      "latitude": "29.94175590277173",
      "longitude": "-90.10043038841003"
    }
  },
  {
    "service_request": "2026-1288130",
    "request_type": "Abandoned Vehicles",
    "request_reason": "Abandoned/Junk Vehicles",
    "date_created": "2026-06-05T16:55:07.000",
    "date_modified": "2026-06-05T16:55:11.000",
    "request_status": "Pending",
    "responsible_agency": "Department of Public Works",
    "final_address": "3918 N Prieur St",
    "address_councildis": "D",
    "status": "Pending",
    "rowid": "1288130",
    "final_x": "3692377.54934",
    "final_y": "538289.451273",
    "longitude": "-90.03348059183104",
    "latitude": "29.97377454131203",
    "geocoded_column": {
      "latitude": "29.97377454131203",
      "longitude": "-90.03348059183104"
    }
  },
  {
    "service_request": "2026-1288129",
    "request_type": "Tree Service",
    "request_reason": "Tree Trim",
    "date_created": "2026-06-05T16:50:40.000",
    "date_modified": "2026-06-05T16:50:42.000",
    "request_status": "Pending",
    "responsible_agency": "Department of Parks & Parkways",
    "final_address": "2950 St Bernard Ave",
    "address_councildis": "D",
    "status": "Pending",
    "rowid": "1288129",
    "final_x": "3679297.04482",
    "final_y": "543087.833613",
    "longitude": "-90.07462520984106",
    "latitude": "29.98736995474998",
    "geocoded_column": {
      "latitude": "29.98736995474998",
      "longitude": "-90.07462520984106"
    }
  },
  {
    "service_request": "2026-1288128",
    "request_type": "Trash/Recycling",
    "request_reason": "Request a Large Item Pick Up",
    "date_created": "2026-06-05T16:48:37.000",
    "date_modified": "2026-06-05T16:48:39.000",
    "request_status": "Pending",
    "responsible_agency": "Department of Sanitation",
    "final_address": "7400 Alabama St",
    "address_councildis": "D",
    "status": "Assigned to Contractor",
    "contractor": "Waste Pro",
    "rowid": "1288128",
    "final_x": "3695063.5224",
    "final_y": "557863.308507",
    "longitude": "-90.02429151275742",
    "latitude": "30.027511373241037",
    "geocoded_column": {
      "latitude": "30.027511373241037",
      "longitude": "-90.02429151275742"
    }
  },
  {
    "service_request": "2026-1288127",
    "request_type": "Abandoned Vehicles",
    "request_reason": "Abandoned/Junk Vehicles",
    "date_created": "2026-06-05T16:40:11.000",
    "date_modified": "2026-06-05T16:43:50.000",
    "request_status": "Pending",
    "responsible_agency": "Department of Public Works",
    "final_address": "1900 BLK Dublin St",
    "address_councildis": "A",
    "status": "Pending",
    "rowid": "1288127",
    "final_x": "3663474.81015",
    "final_y": "530558.450482",
    "longitude": "-90.12501966600193",
    "latitude": "29.95338671182171",
    "geocoded_column": {
      "latitude": "29.95338671182171",
      "longitude": "-90.12501966600193"
    }
  },
  {
    "service_request": "2026-1288126",
    "request_type": "Trash/Recycling",
    "request_reason": "Order Trash Cart",
    "date_created": "2026-06-05T16:38:43.000",
    "date_modified": "2026-06-05T16:38:49.000",
    "request_status": "Pending",
    "responsible_agency": "Department of Sanitation",
    "final_address": "2941 Kent Dr",
    "address_councildis": "C",
    "status": "Assigned to Contractor",
    "contractor": "Richards Disposal",
    "rowid": "1288126",
    "final_x": "3708843.37803",
    "final_y": "518915.717047",
    "longitude": "-89.98219987400282",
    "latitude": "29.91997985563207",
    "geocoded_column": {
      "latitude": "29.91997985563207",
      "longitude": "-89.98219987400282"
    }
  },
  {
    "service_request": "2026-1288125",
    "request_type": "Streetlights",
    "request_reason": "Streetlight Outage/Malfunction",
    "date_created": "2026-06-05T16:36:46.000",
    "date_modified": "2026-06-05T16:36:48.000",
    "request_status": "Pending",
    "responsible_agency": "Department of Public Works",
    "final_address": "3908 Downman Rd",
    "address_councildis": "D",
    "status": "Pending",
    "rowid": "1288125",
    "final_x": "3696108.33117",
    "final_y": "551785.532758",
    "longitude": "-90.02120994056399",
    "latitude": "30.010766923643708",
    "geocoded_column": {
      "latitude": "30.010766923643708",
      "longitude": "-90.02120994056399"
    }
  },
  {
    "service_request": "2026-1288124",
    "request_type": "Trash/Recycling",
    "request_reason": "Request a Large Item Pick Up",
    "date_created": "2026-06-05T16:30:48.000",
    "date_modified": "2026-06-05T16:30:51.000",
    "request_status": "Pending",
    "responsible_agency": "Department of Sanitation",
    "final_address": "2434 Aubry St",
    "address_councildis": "D",
    "status": "Assigned to Contractor",
    "contractor": "IV Waste",
    "rowid": "1288124",
    "final_x": "3680364.81378",
    "final_y": "540525.256139",
    "longitude": "-90.0713416516937",
    "latitude": "29.9802914667358",
    "geocoded_column": {
      "latitude": "29.9802914667358",
      "longitude": "-90.0713416516937"
    }
  },
  {
    "service_request": "2026-1288123",
    "request_type": "Trash/Recycling",
    "request_reason": "Repair Trash Cart",
    "date_created": "2026-06-05T16:24:31.000",
    "date_modified": "2026-06-05T16:24:34.000",
    "request_status": "Pending",
    "responsible_agency": "Department of Sanitation",
    "final_address": "1519 Camp St",
    "address_councildis": "B",
    "status": "Assigned to Contractor",
    "contractor": "IV Waste",
    "rowid": "1288123",
    "final_x": "3679660.43202",
    "final_y": "523827.485051",
    "longitude": "-90.07414594399957",
    "latitude": "29.934399558211695",
    "geocoded_column": {
      "latitude": "29.934399558211695",
      "longitude": "-90.07414594399957"
    }
  },
  {
    "service_request": "2026-1288122",
    "request_type": "Trash/Recycling",
    "request_reason": "Request a Large Item Pick Up",
    "date_created": "2026-06-05T16:21:46.000",
    "date_modified": "2026-06-05T16:21:48.000",
    "request_status": "Pending",
    "responsible_agency": "Department of Sanitation",
    "final_address": "2801 Sabine St",
    "address_councildis": "C",
    "status": "Assigned to Contractor",
    "contractor": "Richards Disposal",
    "rowid": "1288122",
    "final_x": "3692784.65609",
    "final_y": "519814.758456",
    "longitude": "-90.03285707712871",
    "latitude": "29.922962824047577",
    "geocoded_column": {
      "latitude": "29.922962824047577",
      "longitude": "-90.03285707712871"
    }
  },
  {
    "service_request": "2026-1288121",
    "request_type": "Property Maintenance",
    "request_reason": "Property Maintenance",
    "date_created": "2026-06-05T16:16:24.000",
    "date_modified": "2026-06-05T16:16:26.000",
    "request_status": "Pending",
    "responsible_agency": "Department of Code Enforcement",
    "final_address": "13120 Maple Wood Dr",
    "address_councildis": "E",
    "status": "Pending",
    "rowid": "1288121",
    "final_x": "3724020.04761",
    "final_y": "563664.832353",
    "longitude": "-89.93256840012371",
    "latitude": "30.04252180095735",
    "geocoded_column": {
      "latitude": "30.04252180095735",
      "longitude": "-89.93256840012371"
    }
  },
  {
    "service_request": "2026-1288120",
    "request_type": "Abandoned Vehicles",
    "request_reason": "Abandoned/Junk Vehicles",
    "date_created": "2026-06-05T16:05:00.000",
    "date_modified": "2026-06-05T16:05:02.000",
    "request_status": "Pending",
    "responsible_agency": "Department of Public Works",
    "final_address": "2000 Burdette St",
    "address_councildis": "A",
    "status": "Pending",
    "rowid": "1288120",
    "final_x": "3664706.80295",
    "final_y": "529762.108545",
    "longitude": "-90.1211561426776",
    "latitude": "29.95116124940479",
    "geocoded_column": {
      "latitude": "29.95116124940479",
      "longitude": "-90.1211561426776"
    }
  },
  {
    "service_request": "2026-1288119",
    "request_type": "Property Maintenance",
    "request_reason": "Property Maintenance",
    "date_created": "2026-06-05T16:04:45.000",
    "date_modified": "2026-06-05T16:04:46.000",
    "request_status": "Pending",
    "responsible_agency": "Department of Code Enforcement",
    "final_address": "3209 N Robertson St",
    "address_councildis": "D",
    "status": "Pending",
    "rowid": "1288119",
    "final_x": "3690066.42697",
    "final_y": "537353.898312",
    "longitude": "-90.04081292574263",
    "latitude": "29.971273987797172",
    "geocoded_column": {
      "latitude": "29.971273987797172",
      "longitude": "-90.04081292574263"
    }
  },
  {
    "service_request": "2026-1288118",
    "request_type": "Trash/Recycling",
    "request_reason": "Request a Large Item Pick Up",
    "date_created": "2026-06-05T16:00:31.000",
    "date_modified": "2026-06-05T16:00:33.000",
    "request_status": "Pending",
    "responsible_agency": "Department of Sanitation",
    "final_address": "1031 Sixth St",
    "address_councildis": "B",
    "status": "Assigned to Contractor",
    "contractor": "IV Waste",
    "rowid": "1288118",
    "final_x": "3676713.55835",
    "final_y": "520468.180728",
    "longitude": "-90.0835648216669",
    "latitude": "29.9252512808144",
    "geocoded_column": {
      "latitude": "29.9252512808144",
      "longitude": "-90.0835648216669"
    }
  },
  {
    "service_request": "2026-1288117",
    "request_type": "Trash/Recycling",
    "request_reason": "Replace Trash Cart",
    "date_created": "2026-06-05T16:00:02.000",
    "date_modified": "2026-06-05T16:00:05.000",
    "request_status": "Pending",
    "responsible_agency": "Department of Sanitation",
    "final_address": "3311 Coliseum St",
    "address_councildis": "B",
    "status": "Assigned to Contractor",
    "contractor": "IV Waste",
    "rowid": "1288117",
    "final_x": "3674857.63893",
    "final_y": "520743.865017",
    "longitude": "-90.08941393164899",
    "latitude": "29.926064853579167",
    "geocoded_column": {
      "latitude": "29.926064853579167",
      "longitude": "-90.08941393164899"
    }
  },
  {
    "service_request": "2026-1288116",
    "request_type": "Trash/Recycling",
    "request_reason": "Repair Trash Cart",
    "date_created": "2026-06-05T15:58:48.000",
    "date_modified": "2026-06-05T15:58:49.000",
    "request_status": "Pending",
    "responsible_agency": "Department of Sanitation",
    "final_address": "4704 Marjorie Ln",
    "address_councildis": "D",
    "status": "Assigned to Contractor",
    "contractor": "IV Waste",
    "rowid": "1288116",
    "final_x": "3678358.48456",
    "final_y": "549843.120724",
    "longitude": "-90.07735590746971",
    "latitude": "30.00597292567083",
    "geocoded_column": {
      "latitude": "30.00597292567083",
      "longitude": "-90.07735590746971"
    }
  },
  {
    "service_request": "2026-1288115",
    "request_type": "Utility Poles",
    "request_reason": "Utility Pole Leaning",
    "date_created": "2026-06-05T15:55:27.000",
    "date_modified": "2026-06-05T15:55:29.000",
    "request_status": "Pending",
    "responsible_agency": "Utility Company Collective",
    "final_address": "2505 Marengo St",
    "address_councildis": "B",
    "status": "Pending",
    "rowid": "1288115",
    "final_x": "3671685.17172",
    "final_y": "524225.939068",
    "longitude": "-90.09931013147315",
    "latitude": "29.935733754680875",
    "geocoded_column": {
      "latitude": "29.935733754680875",
      "longitude": "-90.09931013147315"
    }
  },
  {
    "service_request": "2026-1288114",
    "request_type": "Trash/Recycling",
    "request_reason": "Request a Large Item Pick Up",
    "date_created": "2026-06-05T15:47:43.000",
    "date_modified": "2026-06-05T15:47:45.000",
    "request_status": "Pending",
    "responsible_agency": "Department of Sanitation",
    "final_address": "3806 N Johnson St",
    "address_councildis": "D",
    "status": "Assigned to Contractor",
    "contractor": "IV Waste",
    "rowid": "1288114",
    "final_x": "3692120.57769",
    "final_y": "538760.470217",
    "longitude": "-90.03427529626873",
    "latitude": "29.975077689002994",
    "geocoded_column": {
      "latitude": "29.975077689002994",
      "longitude": "-90.03427529626873"
    }
  },
  {
    "service_request": "2026-1288113",
    "request_type": "Trash/Recycling",
    "request_reason": "Order Recycling Cart",
    "date_created": "2026-06-05T15:47:01.000",
    "date_modified": "2026-06-05T15:47:02.000",
    "request_status": "Pending",
    "responsible_agency": "Department of Sanitation",
    "final_address": "2260 Pleasure St",
    "address_councildis": "D",
    "status": "Pending",
    "rowid": "1288113",
    "final_x": "3684868.78837",
    "final_y": "545146.995855",
    "longitude": "-90.05695360790695",
    "latitude": "29.992862447758956",
    "geocoded_column": {
      "latitude": "29.992862447758956",
      "longitude": "-90.05695360790695"
    }
  },
  {
    "service_request": "2026-1288112",
    "request_type": "Trash/Recycling",
    "request_reason": "Missed Trash Pick-Up",
    "date_created": "2026-06-05T15:46:56.000",
    "date_modified": "2026-06-05T15:46:58.000",
    "request_status": "Pending",
    "responsible_agency": "Department of Sanitation",
    "final_address": "6911 Downman Rd",
    "address_councildis": "D",
    "status": "Assigned to Contractor",
    "contractor": "Waste Pro",
    "rowid": "1288112",
    "final_x": "3695552.84938",
    "final_y": "556050.317529",
    "longitude": "-90.02281080898757",
    "latitude": "30.022510956414845",
    "geocoded_column": {
      "latitude": "30.022510956414845",
      "longitude": "-90.02281080898757"
    }
  },
  {
    "service_request": "2026-1288111",
    "request_type": "Roads and Streets",
    "request_reason": "Sidewalk Damaged or Missing",
    "date_created": "2026-06-05T15:43:38.000",
    "date_modified": "2026-06-05T15:43:39.000",
    "request_status": "Pending",
    "responsible_agency": "Department of Public Works",
    "final_address": "2900 BLK Martin Luther King, Jr. Blvd",
    "address_councildis": "B",
    "status": "Pending",
    "rowid": "1288111",
    "final_x": "3675276.83412",
    "final_y": "528050.195656",
    "longitude": "-90.08783995466563",
    "latitude": "29.94614235641131",
    "geocoded_column": {
      "latitude": "29.94614235641131",
      "longitude": "-90.08783995466563"
    }
  },
  {
    "service_request": "2026-1288110",
    "request_type": "Trash/Recycling",
    "request_reason": "Replace Trash Cart",
    "date_created": "2026-06-05T15:35:59.000",
    "date_modified": "2026-06-05T15:36:01.000",
    "request_status": "Pending",
    "responsible_agency": "Department of Sanitation",
    "final_address": "1303 Delachaise St",
    "address_councildis": "B",
    "status": "Assigned to Contractor",
    "contractor": "IV Waste",
    "rowid": "1288110",
    "final_x": "3674374.55137",
    "final_y": "520235.771",
    "longitude": "-90.090956291032",
    "latitude": "29.924682170140652",
    "geocoded_column": {
      "latitude": "29.924682170140652",
      "longitude": "-90.090956291032"
    }
  },
  {
    "service_request": "2026-1288109",
    "request_type": "Streetlights",
    "request_reason": "Streetlight Knocked Down/Leaning",
    "date_created": "2026-06-05T15:35:38.000",
    "date_modified": "2026-06-05T15:35:40.000",
    "request_status": "Pending",
    "responsible_agency": "Department of Public Works",
    "final_address": "1541 St Roch Ave",
    "address_councildis": "C",
    "status": "Pending",
    "rowid": "1288109",
    "final_x": "3686470.14076",
    "final_y": "538237.511561",
    "longitude": "-90.05213927095564",
    "latitude": "29.973814668775066",
    "geocoded_column": {
      "latitude": "29.973814668775066",
      "longitude": "-90.05213927095564"
    }
  },
  {
    "service_request": "2026-1288108",
    "request_type": "Trash/Recycling",
    "request_reason": "Request a Large Item Pick Up",
    "date_created": "2026-06-05T15:34:05.000",
    "date_modified": "2026-06-05T15:34:07.000",
    "request_status": "Pending",
    "responsible_agency": "Department of Sanitation",
    "final_address": "509 S Dupre St",
    "address_councildis": "B",
    "status": "Assigned to Contractor",
    "contractor": "IV Waste",
    "rowid": "1288108",
    "final_x": "3673543.33537",
    "final_y": "534323.830917",
    "longitude": "-90.09309881754265",
    "latitude": "29.963444466064715",
    "geocoded_column": {
      "latitude": "29.963444466064715",
      "longitude": "-90.09309881754265"
    }
  },
  {
    "service_request": "2026-1288107",
    "request_type": "Drainage",
    "request_reason": "Catch Basin Not Draining",
    "date_created": "2026-06-05T15:33:20.000",
    "date_modified": "2026-06-05T15:33:22.000",
    "request_status": "Pending",
    "responsible_agency": "Sewerage & Water Board",
    "final_address": "2532 Valence St",
    "address_councildis": "B",
    "status": "Pending",
    "rowid": "1288107",
    "final_x": "3669340.7963",
    "final_y": "524222.771324",
    "longitude": "-90.10671148809175",
    "latitude": "29.93579425984271",
    "geocoded_column": {
      "latitude": "29.93579425984271",
      "longitude": "-90.10671148809175"
    }
  },
  {
    "service_request": "2026-1288106",
    "request_type": "Tree Service",
    "request_reason": "Tree Trim",
    "date_created": "2026-06-05T15:31:58.000",
    "date_modified": "2026-06-05T15:32:00.000",
    "request_status": "Pending",
    "responsible_agency": "Department of Parks & Parkways",
    "final_address": "4939 Dryades St",
    "address_councildis": "B",
    "status": "Pending",
    "rowid": "1288106",
    "final_x": "3668804.29556",
    "final_y": "521871.44889",
    "longitude": "-90.10848458529235",
    "latitude": "29.9293446568623",
    "geocoded_column": {
      "latitude": "29.9293446568623",
      "longitude": "-90.10848458529235"
    }
  },
  {
    "service_request": "2026-1288105",
    "request_type": "Trash/Recycling",
    "request_reason": "Repair Trash Cart",
    "date_created": "2026-06-05T15:28:11.000",
    "date_modified": "2026-06-05T15:28:13.000",
    "request_status": "Pending",
    "responsible_agency": "Department of Sanitation",
    "final_address": "5834 Mandeville St",
    "address_councildis": "D",
    "status": "Assigned to Contractor",
    "contractor": "IV Waste",
    "rowid": "1288105",
    "final_x": "3684234.375",
    "final_y": "554599.020824",
    "longitude": "-90.05862545246438",
    "latitude": "30.01887151305883",
    "geocoded_column": {
      "latitude": "30.01887151305883",
      "longitude": "-90.05862545246438"
    }
  },
  {
    "service_request": "2026-1288104",
    "request_type": "Trash/Recycling",
    "request_reason": "Request a Large Item Pick Up",
    "date_created": "2026-06-05T15:27:42.000",
    "date_modified": "2026-06-05T15:27:44.000",
    "request_status": "Pending",
    "responsible_agency": "Department of Sanitation",
    "final_address": "13047 Biscay St",
    "address_councildis": "E",
    "status": "Assigned to Contractor",
    "contractor": "Waste Pro",
    "rowid": "1288104",
    "final_x": "3724089.179",
    "final_y": "561675.040543",
    "longitude": "-89.93242680401077",
    "latitude": "30.037048369290865",
    "geocoded_column": {
      "latitude": "30.037048369290865",
      "longitude": "-89.93242680401077"
    }
  },
  {
    "service_request": "2026-1288103",
    "request_type": "Roads and Streets",
    "request_reason": "Sidewalk Damaged or Missing",
    "date_created": "2026-06-05T15:27:19.000",
    "date_modified": "2026-06-05T15:35:06.000",
    "request_status": "Pending",
    "responsible_agency": "Department of Public Works",
    "final_address": "4500 BLK Urquhart St",
    "address_councildis": "D",
    "status": "Pending",
    "rowid": "1288103",
    "final_x": "3693687.05649",
    "final_y": "535611.510586",
    "longitude": "-90.02944114168152",
    "latitude": "29.96637024382948",
    "geocoded_column": {
      "latitude": "29.96637024382948",
      "longitude": "-90.02944114168152"
    }
  },
  {
    "service_request": "2026-1288102",
    "request_type": "Trash/Recycling",
    "request_reason": "Repair Trash Cart",
    "date_created": "2026-06-05T15:26:55.000",
    "date_modified": "2026-06-05T15:27:41.000",
    "request_status": "Pending",
    "responsible_agency": "Department of Sanitation",
    "final_address": "1906 Napoleon Ave",
    "address_councildis": "B",
    "status": "Assigned to Contractor",
    "contractor": "IV Waste",
    "rowid": "1288102",
    "final_x": "3670597.63636",
    "final_y": "522003.563962",
    "longitude": "-90.10281885092698",
    "latitude": "29.92965509801179",
    "geocoded_column": {
      "latitude": "29.92965509801179",
      "longitude": "-90.10281885092698"
    }
  },
  {
    "service_request": "2026-1288101",
    "request_type": "Trash/Recycling",
    "request_reason": "Replace Trash Cart",
    "date_created": "2026-06-05T15:25:09.000",
    "date_modified": "2026-06-05T15:25:10.000",
    "request_status": "Pending",
    "responsible_agency": "Department of Sanitation",
    "final_address": "3920 Metropolitan St",
    "address_councildis": "D",
    "status": "Assigned to Contractor",
    "contractor": "IV Waste",
    "rowid": "1288101",
    "final_x": "3691450.04016",
    "final_y": "547724.89173",
    "longitude": "-90.03607248686677",
    "latitude": "29.99974750495552",
    "geocoded_column": {
      "latitude": "29.99974750495552",
      "longitude": "-90.03607248686677"
    }
  },
  {
    "service_request": "2026-1288100",
    "request_type": "Trash/Recycling",
    "request_reason": "Request a Large Item Pick Up",
    "date_created": "2026-06-05T15:25:02.000",
    "date_modified": "2026-06-05T15:25:03.000",
    "request_status": "Pending",
    "responsible_agency": "Department of Sanitation",
    "final_address": "3842 Mimosa Dr",
    "address_councildis": "C",
    "status": "Assigned to Contractor",
    "contractor": "Richards Disposal",
    "rowid": "1288100",
    "final_x": "3704218.54231",
    "final_y": "513146.916658",
    "longitude": "-89.99701049434523",
    "latitude": "29.904266773584823",
    "geocoded_column": {
      "latitude": "29.904266773584823",
      "longitude": "-89.99701049434523"
    }
  },
  {
    "service_request": "2026-1288099",
    "request_type": "Property Maintenance",
    "request_reason": "Property Maintenance",
    "date_created": "2026-06-05T15:23:26.000",
    "date_modified": "2026-06-05T15:23:30.000",
    "request_status": "Pending",
    "responsible_agency": "Department of Code Enforcement",
    "final_address": "1723 St Ann St",
    "address_councildis": "C",
    "status": "Pending",
    "rowid": "1288099",
    "final_x": "3679813.87944",
    "final_y": "535105.96679",
    "longitude": "-90.07326996264614",
    "latitude": "29.96540696063804",
    "geocoded_column": {
      "latitude": "29.96540696063804",
      "longitude": "-90.07326996264614"
    }
  },
  {
    "service_request": "2026-1288098",
    "request_type": "Abandoned Vehicles",
    "request_reason": "Abandoned/Junk Vehicles",
    "date_created": "2026-06-05T15:23:03.000",
    "date_modified": "2026-06-05T15:23:05.000",
    "request_status": "Pending",
    "responsible_agency": "Department of Public Works",
    "final_address": "FELICITY ST & BARONNE ST",
    "address_councildis": "B",
    "status": "Pending",
    "rowid": "1288098",
    "final_x": "3677890.4",
    "final_y": "525168.98",
    "longitude": "-90.07968755352348",
    "latitude": "29.938141593975352",
    "geocoded_column": {
      "latitude": "29.938141593975352",
      "longitude": "-90.07968755352348"
    }
  },
  {
    "service_request": "2026-1288097",
    "request_type": "Trash/Recycling",
    "request_reason": "Repair Trash Cart",
    "date_created": "2026-06-05T15:22:10.000",
    "date_modified": "2026-06-05T15:22:12.000",
    "request_status": "Pending",
    "responsible_agency": "Department of Sanitation",
    "final_address": "1411 Eleonore St",
    "address_councildis": "A",
    "status": "Assigned to Contractor",
    "contractor": "IV Waste",
    "rowid": "1288097",
    "final_x": "3665779.91962",
    "final_y": "521150.915193",
    "longitude": "-90.11805613603356",
    "latitude": "29.927451965159907",
    "geocoded_column": {
      "latitude": "29.927451965159907",
      "longitude": "-90.11805613603356"
    }
  },
  {
    "service_request": "2026-1288096",
    "request_type": "Property Maintenance",
    "request_reason": "Property Maintenance",
    "date_created": "2026-06-05T15:21:03.000",
    "date_modified": "2026-06-05T15:21:35.000",
    "request_status": "Pending",
    "responsible_agency": "Department of Code Enforcement",
    "final_address": "3220 Thalia St",
    "address_councildis": "B",
    "status": "Pending",
    "rowid": "1288096",
    "final_x": "3674451.04161",
    "final_y": "528855.195712",
    "longitude": "-90.09041969952062",
    "latitude": "29.948380496310737",
    "geocoded_column": {
      "latitude": "29.948380496310737",
      "longitude": "-90.09041969952062"
    }
  },
  {
    "service_request": "2026-1288095",
    "request_type": "Property Maintenance",
    "request_reason": "Property Maintenance",
    "date_created": "2026-06-05T15:20:27.000",
    "date_modified": "2026-06-05T15:20:28.000",
    "request_status": "Pending",
    "responsible_agency": "Department of Code Enforcement",
    "final_address": "3217 Martin Luther King, Jr. Blvd",
    "address_councildis": "B",
    "status": "Pending",
    "rowid": "1288095",
    "final_x": "3674345.57262",
    "final_y": "528684.609472",
    "longitude": "-90.09075855018118",
    "latitude": "29.9479145858151",
    "geocoded_column": {
      "latitude": "29.9479145858151",
      "longitude": "-90.09075855018118"
    }
  },
  {
    "service_request": "2026-1288094",
    "request_type": "Trash/Recycling",
    "request_reason": "Return Recycling Cart",
    "date_created": "2026-06-05T15:18:53.000",
    "date_modified": "2026-06-05T15:19:01.000",
    "request_status": "Pending",
    "responsible_agency": "Department of Sanitation",
    "final_address": "1411 Eleonore St",
    "address_councildis": "A",
    "status": "Pending",
    "rowid": "1288094",
    "final_x": "3665779.91962",
    "final_y": "521150.915193",
    "longitude": "-90.11805613603356",
    "latitude": "29.927451965159907",
    "geocoded_column": {
      "latitude": "29.927451965159907",
      "longitude": "-90.11805613603356"
    }
  },
  {
    "service_request": "2026-1288092",
    "request_type": "Streetlights",
    "request_reason": "Streetlight Outage/Malfunction",
    "date_created": "2026-06-05T15:18:32.000",
    "date_modified": "2026-06-05T15:18:34.000",
    "request_status": "Pending",
    "responsible_agency": "Department of Public Works",
    "final_address": "2801 Mansfield Ave",
    "address_councildis": "C",
    "status": "Pending",
    "rowid": "1288092",
    "final_x": "3709157.69214",
    "final_y": "519650.444088",
    "longitude": "-89.98118037818743",
    "latitude": "29.921989902861856",
    "geocoded_column": {
      "latitude": "29.921989902861856",
      "longitude": "-89.98118037818743"
    }
  },
  {
    "service_request": "2026-1288093",
    "request_type": "Abandoned Vehicles",
    "request_reason": "Abandoned/Junk Vehicles",
    "date_created": "2026-06-05T15:18:32.000",
    "date_modified": "2026-06-05T15:18:34.000",
    "request_status": "Pending",
    "responsible_agency": "Department of Public Works",
    "final_address": "7724 Plum St",
    "address_councildis": "A",
    "status": "Pending",
    "rowid": "1288093",
    "final_x": "3663107.10266",
    "final_y": "527756.711935",
    "longitude": "-90.126273928484",
    "latitude": "29.945693489234344",
    "geocoded_column": {
      "latitude": "29.945693489234344",
      "longitude": "-90.126273928484"
    }
  },
  {
    "service_request": "2026-1288091",
    "request_type": "Streetlights",
    "request_reason": "Streetlight Outage/Malfunction",
    "date_created": "2026-06-05T15:16:36.000",
    "date_modified": "2026-06-05T15:16:38.000",
    "request_status": "Pending",
    "responsible_agency": "Department of Public Works",
    "final_address": "2910 Mansfield Ave",
    "address_councildis": "C",
    "status": "Pending",
    "rowid": "1288091",
    "final_x": "3709223.47243",
    "final_y": "519162.741239",
    "longitude": "-89.98099090848139",
    "latitude": "29.920646756374943",
    "geocoded_column": {
      "latitude": "29.920646756374943",
      "longitude": "-89.98099090848139"
    }
  },
  {
    "service_request": "2026-1288090",
    "request_type": "Trash/Recycling",
    "request_reason": "Request a Large Item Pick Up",
    "date_created": "2026-06-05T15:15:14.000",
    "date_modified": "2026-06-05T15:15:17.000",
    "request_status": "Pending",
    "responsible_agency": "Department of Sanitation",
    "final_address": "4558 Good Dr",
    "address_councildis": "E",
    "status": "Assigned to Contractor",
    "contractor": "Waste Pro",
    "rowid": "1288090",
    "final_x": "3714798.86277",
    "final_y": "555966.710873",
    "longitude": "-89.96200183539906",
    "latitude": "30.021661778055638",
    "geocoded_column": {
      "latitude": "30.021661778055638",
      "longitude": "-89.96200183539906"
    }
  },
  {
    "service_request": "2026-1288089",
    "request_type": "Roads and Streets",
    "request_reason": "Pothole",
    "date_created": "2026-06-05T15:14:34.000",
    "date_modified": "2026-06-05T15:14:35.000",
    "request_status": "Pending",
    "responsible_agency": "Department of Public Works",
    "final_address": "6601 Colbert St",
    "address_councildis": "A",
    "status": "Pending",
    "rowid": "1288089",
    "final_x": "3667840.04346",
    "final_y": "551510.573525",
    "longitude": "-90.1105300608287",
    "latitude": "30.010870663704292",
    "geocoded_column": {
      "latitude": "30.010870663704292",
      "longitude": "-90.1105300608287"
    }
  },
  {
    "service_request": "2026-1288088",
    "request_type": "Streetlights",
    "request_reason": "Streetlight Outage/Malfunction",
    "date_created": "2026-06-05T15:14:11.000",
    "date_modified": "2026-06-05T15:14:12.000",
    "request_status": "Pending",
    "responsible_agency": "Department of Public Works",
    "final_address": "2850 Mansfield Ave",
    "address_councildis": "C",
    "status": "Pending",
    "rowid": "1288088",
    "final_x": "3709244.17285",
    "final_y": "519320.216311",
    "longitude": "-89.98091970056818",
    "latitude": "29.921079085868833",
    "geocoded_column": {
      "latitude": "29.921079085868833",
      "longitude": "-89.98091970056818"
    }
  },
  {
    "service_request": "2026-1288087",
    "request_type": "Trash/Recycling",
    "request_reason": "Request a Large Item Pick Up",
    "date_created": "2026-06-05T15:13:52.000",
    "date_modified": "2026-06-05T15:13:54.000",
    "request_status": "Pending",
    "responsible_agency": "Department of Sanitation",
    "final_address": "3512 Loyola Ave",
    "address_councildis": "B",
    "status": "Assigned to Contractor",
    "contractor": "IV Waste",
    "rowid": "1288087",
    "final_x": "3672885.19457",
    "final_y": "523283.405179",
    "longitude": "-90.09555377794274",
    "latitude": "29.933106501286066",
    "geocoded_column": {
      "latitude": "29.933106501286066",
      "longitude": "-90.09555377794274"
    }
  },
  {
    "service_request": "2026-1288086",
    "request_type": "Roads and Streets",
    "request_reason": "Pothole",
    "date_created": "2026-06-05T15:13:30.000",
    "date_modified": "2026-06-05T15:14:46.000",
    "request_status": "Pending",
    "responsible_agency": "Department of Public Works",
    "final_address": "619 Royal St",
    "address_councildis": "C",
    "status": "Pending",
    "rowid": "1288086",
    "final_x": "3682401.7773",
    "final_y": "532307.353219",
    "longitude": "-90.06519532102068",
    "latitude": "29.957633225335364",
    "geocoded_column": {
      "latitude": "29.957633225335364",
      "longitude": "-90.06519532102068"
    }
  },
  {
    "service_request": "2026-1288085",
    "request_type": "Abandoned Vehicles",
    "request_reason": "Abandoned/Junk Vehicles",
    "date_created": "2026-06-05T15:12:22.000",
    "date_modified": "2026-06-05T15:12:24.000",
    "request_status": "Pending",
    "responsible_agency": "Department of Public Works",
    "final_address": "4588 Marque Dr",
    "address_councildis": "E",
    "status": "Pending",
    "rowid": "1288085",
    "final_x": "3710133.60485",
    "final_y": "554816.965976",
    "longitude": "-89.97678567935971",
    "latitude": "30.018653124381082",
    "geocoded_column": {
      "latitude": "30.018653124381082",
      "longitude": "-89.97678567935971"
    }
  },
  {
    "service_request": "2026-1288084",
    "request_type": "Trash/Recycling",
    "request_reason": "Replace Trash Cart",
    "date_created": "2026-06-05T15:11:55.000",
    "date_modified": "2026-06-05T15:11:57.000",
    "request_status": "Pending",
    "responsible_agency": "Department of Sanitation",
    "final_address": "3219 Chestnut St",
    "address_councildis": "B",
    "status": "Assigned to Contractor",
    "contractor": "IV Waste",
    "rowid": "1288084",
    "final_x": "3675301.51272",
    "final_y": "520609.017464",
    "longitude": "-90.08801737592867",
    "latitude": "29.92568080910745",
    "geocoded_column": {
      "latitude": "29.92568080910745",
      "longitude": "-90.08801737592867"
    }
  },
  {
    "service_request": "2026-1288083",
    "request_type": "Streetlights",
    "request_reason": "Streetlight Outage/Malfunction",
    "date_created": "2026-06-05T15:09:33.000",
    "date_modified": "2026-06-05T15:09:34.000",
    "request_status": "Pending",
    "responsible_agency": "Department of Public Works",
    "final_address": "2810 Mansfield Ave",
    "address_councildis": "C",
    "status": "Pending",
    "rowid": "1288083",
    "final_x": "3709260.97278",
    "final_y": "519544.928759",
    "longitude": "-89.98085829894822",
    "latitude": "29.921696421103096",
    "geocoded_column": {
      "latitude": "29.921696421103096",
      "longitude": "-89.98085829894822"
    }
  },
  {
    "service_request": "2026-1288082",
    "request_type": "Abandoned Vehicles",
    "request_reason": "Abandoned/Junk Vehicles",
    "date_created": "2026-06-05T15:09:20.000",
    "date_modified": "2026-06-05T15:09:22.000",
    "request_status": "Pending",
    "responsible_agency": "Department of Public Works",
    "final_address": "1021 Moss St",
    "address_councildis": "A",
    "status": "Pending",
    "rowid": "1288082",
    "final_x": "3674816.06011",
    "final_y": "539961.676042",
    "longitude": "-90.08888632747582",
    "latitude": "29.97890868535699",
    "geocoded_column": {
      "latitude": "29.97890868535699",
      "longitude": "-90.08888632747582"
    }
  },
  {
    "service_request": "2026-1288081",
    "request_type": "Trash/Recycling",
    "request_reason": "Request a Large Item Pick Up",
    "date_created": "2026-06-05T15:08:04.000",
    "date_modified": "2026-06-05T15:08:05.000",
    "request_status": "Pending",
    "responsible_agency": "Department of Sanitation",
    "final_address": "5668 Bellaire Dr",
    "address_councildis": "A",
    "status": "Assigned to Contractor",
    "contractor": "IV Waste",
    "rowid": "1288081",
    "final_x": "3664072.42791",
    "final_y": "545568.111888",
    "longitude": "-90.12263186630288",
    "latitude": "29.994640953900543",
    "geocoded_column": {
      "latitude": "29.994640953900543",
      "longitude": "-90.12263186630288"
    }
  },
  {
    "service_request": "2026-1288080",
    "request_type": "Trash/Recycling",
    "request_reason": "Order Trash Cart",
    "date_created": "2026-06-05T15:06:21.000",
    "date_modified": "2026-06-05T15:06:24.000",
    "request_status": "Pending",
    "responsible_agency": "Department of Sanitation",
    "final_address": "9119 Edinburgh St",
    "address_councildis": "A",
    "status": "Assigned to Contractor",
    "contractor": "IV Waste",
    "rowid": "1288080",
    "final_x": "3664781.18765",
    "final_y": "536945.81588",
    "longitude": "-90.12068121993148",
    "latitude": "29.970911927731994",
    "geocoded_column": {
      "latitude": "29.970911927731994",
      "longitude": "-90.12068121993148"
    }
  },
  {
    "service_request": "2026-1288079",
    "request_type": "Property Maintenance",
    "request_reason": "Property Maintenance",
    "date_created": "2026-06-05T15:05:48.000",
    "date_modified": "2026-06-05T15:05:50.000",
    "request_status": "Pending",
    "responsible_agency": "Department of Code Enforcement",
    "final_address": "3151 Mansfield Ave",
    "address_councildis": "C",
    "status": "Pending",
    "rowid": "1288079",
    "final_x": "3709052.01278",
    "final_y": "518604.194103",
    "longitude": "-89.98155292168204",
    "latitude": "29.91911651023944",
    "geocoded_column": {
      "latitude": "29.91911651023944",
      "longitude": "-89.98155292168204"
    }
  },
  {
    "service_request": "2026-1288078",
    "request_type": "Trash/Recycling",
    "request_reason": "Return Trash Cart",
    "date_created": "2026-06-05T15:01:45.000",
    "date_modified": "2026-06-05T15:01:47.000",
    "request_status": "Pending",
    "responsible_agency": "Department of Sanitation",
    "final_address": "2474 Hyman Pl",
    "address_councildis": "C",
    "status": "Assigned to Contractor",
    "contractor": "Richards Disposal",
    "rowid": "1288078",
    "final_x": "3701123.01495",
    "final_y": "521809.65689",
    "longitude": "-90.00646338243607",
    "latitude": "29.928185254416967",
    "geocoded_column": {
      "latitude": "29.928185254416967",
      "longitude": "-90.00646338243607"
    }
  },
  {
    "service_request": "2026-1288077",
    "request_type": "Trash/Recycling",
    "request_reason": "Order Trash Cart",
    "date_created": "2026-06-05T14:58:22.000",
    "date_modified": "2026-06-05T14:58:24.000",
    "request_status": "Pending",
    "responsible_agency": "Department of Sanitation",
    "final_address": "3423 Paris Ave",
    "address_councildis": "D",
    "status": "Assigned to Contractor",
    "contractor": "IV Waste",
    "rowid": "1288077",
    "final_x": "3679799.77461",
    "final_y": "544953.516815",
    "longitude": "-90.07297244316486",
    "latitude": "29.992484733528634",
    "geocoded_column": {
      "latitude": "29.992484733528634",
      "longitude": "-90.07297244316486"
    }
  },
  {
    "service_request": "2026-1288076",
    "request_type": "Abandoned Vehicles",
    "request_reason": "Abandoned/Junk Vehicles",
    "date_created": "2026-06-05T14:54:30.000",
    "date_modified": "2026-06-05T14:54:31.000",
    "request_status": "Pending",
    "responsible_agency": "Department of Public Works",
    "final_address": "4237 Alfred St",
    "address_councildis": "D",
    "status": "Pending",
    "rowid": "1288076",
    "final_x": "3677646.23106",
    "final_y": "547826.883346",
    "longitude": "-90.07967577812066",
    "latitude": "30.00045043651846",
    "geocoded_column": {
      "latitude": "30.00045043651846",
      "longitude": "-90.07967577812066"
    }
  },
  {
    "service_request": "2026-1288075",
    "request_type": "Trash/Recycling",
    "request_reason": "Request a Large Item Pick Up",
    "date_created": "2026-06-05T14:54:18.000",
    "date_modified": "2026-06-05T14:54:19.000",
    "request_status": "Pending",
    "responsible_agency": "Department of Sanitation",
    "final_address": "4700 Raymond Joseph Dr",
    "address_councildis": "E",
    "status": "Assigned to Contractor",
    "contractor": "Waste Pro",
    "rowid": "1288075",
    "final_x": "3703707.99588",
    "final_y": "554973.885592",
    "longitude": "-89.99708235032634",
    "latitude": "30.019292197734643",
    "geocoded_column": {
      "latitude": "30.019292197734643",
      "longitude": "-89.99708235032634"
    }
  },
  {
    "service_request": "2026-1288074",
    "request_type": "Trash/Recycling",
    "request_reason": "Request a Large Item Pick Up",
    "date_created": "2026-06-05T14:53:53.000",
    "date_modified": "2026-06-05T14:53:54.000",
    "request_status": "Pending",
    "responsible_agency": "Department of Sanitation",
    "final_address": "13427 N Nemours St",
    "address_councildis": "E",
    "status": "Assigned to Contractor",
    "contractor": "Waste Pro",
    "rowid": "1288074",
    "final_x": "3725321.07033",
    "final_y": "562763.700576",
    "longitude": "-89.92849163052206",
    "latitude": "30.040000265431246",
    "geocoded_column": {
      "latitude": "30.040000265431246",
      "longitude": "-89.92849163052206"
    }
  },
  {
    "service_request": "2026-1288073",
    "request_type": "Trash/Recycling",
    "request_reason": "Return Trash Cart",
    "date_created": "2026-06-05T14:52:13.000",
    "date_modified": "2026-06-05T14:52:16.000",
    "request_status": "Pending",
    "responsible_agency": "Department of Sanitation",
    "final_address": "345 Olivier St",
    "address_councildis": "C",
    "status": "Assigned to Contractor",
    "contractor": "Richards Disposal",
    "rowid": "1288073",
    "final_x": "3687201.5734",
    "final_y": "530418.476994",
    "longitude": "-90.05010580222665",
    "latitude": "29.95229252763659",
    "geocoded_column": {
      "latitude": "29.95229252763659",
      "longitude": "-90.05010580222665"
    }
  },
  {
    "service_request": "2026-1288072",
    "request_type": "Trash/Recycling",
    "request_reason": "Request a Large Item Pick Up",
    "date_created": "2026-06-05T14:51:13.000",
    "date_modified": "2026-06-05T14:51:15.000",
    "request_status": "Pending",
    "responsible_agency": "Department of Sanitation",
    "final_address": "7909 Belfast St",
    "address_councildis": "A",
    "status": "Assigned to Contractor",
    "contractor": "IV Waste",
    "rowid": "1288072",
    "final_x": "3666126.17268",
    "final_y": "531935.584451",
    "longitude": "-90.11660158789124",
    "latitude": "29.957096235987667",
    "geocoded_column": {
      "latitude": "29.957096235987667",
      "longitude": "-90.11660158789124"
    }
  },
  {
    "service_request": "2026-1288071",
    "request_type": "Property Maintenance",
    "request_reason": "Property Maintenance",
    "date_created": "2026-06-05T14:50:55.000",
    "date_modified": "2026-06-05T14:50:56.000",
    "request_status": "Pending",
    "responsible_agency": "Department of Code Enforcement",
    "final_address": "5976 Jamison St",
    "address_councildis": "D",
    "status": "Pending",
    "rowid": "1288071",
    "final_x": "3696686.37315",
    "final_y": "553495.105751",
    "longitude": "-90.01932175143519",
    "latitude": "30.015449394160974",
    "geocoded_column": {
      "latitude": "30.015449394160974",
      "longitude": "-90.01932175143519"
    }
  },
  {
    "service_request": "2026-1288070",
    "request_type": "Trash/Recycling",
    "request_reason": "Request a Large Item Pick Up",
    "date_created": "2026-06-05T14:50:04.000",
    "date_modified": "2026-06-05T14:50:05.000",
    "request_status": "Pending",
    "responsible_agency": "Department of Sanitation",
    "final_address": "819 Alvar St",
    "address_councildis": "C",
    "status": "Assigned to Contractor",
    "contractor": "IV Waste",
    "rowid": "1288070",
    "final_x": "3691278.48009",
    "final_y": "534398.097221",
    "longitude": "-90.03709070841572",
    "latitude": "29.963108925767504",
    "geocoded_column": {
      "latitude": "29.963108925767504",
      "longitude": "-90.03709070841572"
    }
  },
  {
    "service_request": "2026-1288069",
    "request_type": "Trash/Recycling",
    "request_reason": "Start Trash Service",
    "date_created": "2026-06-05T14:49:14.000",
    "date_modified": "2026-06-05T14:49:17.000",
    "request_status": "Pending",
    "responsible_agency": "Department of Sanitation",
    "final_address": "1126 Reynes St",
    "address_councildis": "E",
    "status": "Assigned to Contractor",
    "contractor": "Waste Pro",
    "rowid": "1288069",
    "final_x": "3696009.75114",
    "final_y": "534559.969221",
    "longitude": "-90.02214414654624",
    "latitude": "29.96340599857725",
    "geocoded_column": {
      "latitude": "29.96340599857725",
      "longitude": "-90.02214414654624"
    }
  },
  {
    "service_request": "2026-1288068",
    "request_type": "Trash/Recycling",
    "request_reason": "Start Trash Service",
    "date_created": "2026-06-05T14:48:04.000",
    "date_modified": "2026-06-05T14:48:06.000",
    "request_status": "Pending",
    "responsible_agency": "Department of Sanitation",
    "final_address": "1124 Reynes St",
    "address_councildis": "E",
    "status": "Assigned to Contractor",
    "contractor": "Waste Pro",
    "rowid": "1288068",
    "final_x": "3696007.35363",
    "final_y": "534541.983749",
    "longitude": "-90.02215236749534",
    "latitude": "29.9633566203409",
    "geocoded_column": {
      "latitude": "29.9633566203409",
      "longitude": "-90.02215236749534"
    }
  },
  {
    "service_request": "2026-1288067",
    "request_type": "Trash/Recycling",
    "request_reason": "Request a Large Item Pick Up",
    "date_created": "2026-06-05T14:46:12.000",
    "date_modified": "2026-06-05T14:46:14.000",
    "request_status": "Pending",
    "responsible_agency": "Department of Sanitation",
    "final_address": "12250 Morrison Rd",
    "address_councildis": "E",
    "status": "Assigned to Contractor",
    "contractor": "Waste Pro",
    "rowid": "1288067",
    "final_x": "3714660.04805",
    "final_y": "567364.924644",
    "longitude": "-89.96200942390027",
    "latitude": "30.053006848361594",
    "geocoded_column": {
      "latitude": "30.053006848361594",
      "longitude": "-89.96200942390027"
    }
  },
  {
    "service_request": "2026-1288066",
    "request_type": "Trash/Recycling",
    "request_reason": "Request a Large Item Pick Up",
    "date_created": "2026-06-05T14:43:56.000",
    "date_modified": "2026-06-05T14:43:58.000",
    "request_status": "Pending",
    "responsible_agency": "Department of Sanitation",
    "final_address": "3207 Gravier St",
    "address_councildis": "B",
    "status": "Assigned to Contractor",
    "contractor": "IV Waste",
    "rowid": "1288066",
    "final_x": "3672282.34587",
    "final_y": "534267.390597",
    "longitude": "-90.09708281670501",
    "latitude": "29.963326743107253",
    "geocoded_column": {
      "latitude": "29.963326743107253",
      "longitude": "-90.09708281670501"
    }
  },
  {
    "service_request": "2026-1288065",
    "request_type": "Trash/Recycling",
    "request_reason": "Start Trash Service",
    "date_created": "2026-06-05T14:43:47.000",
    "date_modified": "2026-06-05T14:43:49.000",
    "request_status": "Pending",
    "responsible_agency": "Department of Sanitation",
    "final_address": "2023 First St Apt B",
    "address_councildis": "B",
    "status": "Assigned to Contractor",
    "contractor": "IV Waste",
    "rowid": "1288065",
    "final_x": "3676086.0932",
    "final_y": "524603.226236",
    "longitude": "-90.08540337219597",
    "latitude": "29.93664011347843",
    "geocoded_column": {
      "latitude": "29.93664011347843",
      "longitude": "-90.08540337219597"
    }
  },
  {
    "service_request": "2026-1288064",
    "request_type": "Utility Poles",
    "request_reason": "Utility Pole Down",
    "date_created": "2026-06-05T14:41:32.000",
    "date_modified": "2026-06-05T14:41:35.000",
    "request_status": "Pending",
    "responsible_agency": "Utility Company Collective",
    "final_address": "JACKSON AVE & TCHOUPITOULAS ST",
    "address_councildis": "B",
    "status": "Pending",
    "rowid": "1288064",
    "final_x": "3680589.1",
    "final_y": "519797.08",
    "longitude": "-90.07135430113576",
    "latitude": "29.923289173987115",
    "geocoded_column": {
      "latitude": "29.923289173987115",
      "longitude": "-90.07135430113576"
    }
  },
  {
    "service_request": "2026-1288063",
    "request_type": "Trash/Recycling",
    "request_reason": "Request a Large Item Pick Up",
    "date_created": "2026-06-05T14:40:07.000",
    "date_modified": "2026-06-05T14:40:08.000",
    "request_status": "Pending",
    "responsible_agency": "Department of Sanitation",
    "final_address": "4555 Eastview Dr",
    "address_councildis": "E",
    "status": "Assigned to Contractor",
    "contractor": "Waste Pro",
    "rowid": "1288063",
    "final_x": "3705284.43671",
    "final_y": "554207.914392",
    "longitude": "-89.99212970265238",
    "latitude": "30.01713542846537",
    "geocoded_column": {
      "latitude": "30.01713542846537",
      "longitude": "-89.99212970265238"
    }
  },
  {
    "service_request": "2026-1288062",
    "request_type": "Trash/Recycling",
    "request_reason": "Repair Trash Cart",
    "date_created": "2026-06-05T14:37:02.000",
    "date_modified": "2026-06-05T14:37:04.000",
    "request_status": "Pending",
    "responsible_agency": "Department of Sanitation",
    "final_address": "1028 N Robertson St",
    "address_councildis": "C",
    "status": "Assigned to Contractor",
    "contractor": "IV Waste",
    "rowid": "1288062",
    "final_x": "3680931.70927",
    "final_y": "535434.347974",
    "longitude": "-90.06972847391418",
    "latitude": "29.96627604857366",
    "geocoded_column": {
      "latitude": "29.96627604857366",
      "longitude": "-90.06972847391418"
    }
  },
  {
    "service_request": "2026-1288061",
    "request_type": "Drainage",
    "request_reason": "Catch Basin Frame and Cover Missing or Damaged",
    "date_created": "2026-06-05T14:36:57.000",
    "date_modified": "2026-06-05T14:36:59.000",
    "request_status": "Pending",
    "responsible_agency": "Sewerage & Water Board",
    "final_address": "3700 BLK Euphrosine St",
    "address_councildis": "B",
    "status": "Pending",
    "rowid": "1288061",
    "final_x": "3673135.5907",
    "final_y": "531363.745787",
    "longitude": "-90.09448749690283",
    "latitude": "29.955317348510427",
    "geocoded_column": {
      "latitude": "29.955317348510427",
      "longitude": "-90.09448749690283"
    }
  },
  {
    "service_request": "2026-1288060",
    "request_type": "Property Maintenance",
    "request_reason": "Property Maintenance",
    "date_created": "2026-06-05T14:36:12.000",
    "date_modified": "2026-06-05T14:58:05.000",
    "case_close_date": "2026-06-05T09:58:04.000",
    "request_status": "Closed",
    "responsible_agency": "Department of Code Enforcement",
    "final_address": "1511 N Claiborne Ave",
    "address_councildis": "C",
    "status": "Resolved",
    "rowid": "1288060",
    "final_x": "3681701.40444",
    "final_y": "537338.931464",
    "longitude": "-90.06723133399237",
    "latitude": "29.971489635559635",
    "geocoded_column": {
      "latitude": "29.971489635559635",
      "longitude": "-90.06723133399237"
    }
  },
  {
    "service_request": "2026-1288059",
    "request_type": "General Services",
    "request_reason": "General Service Request",
    "date_created": "2026-06-05T14:32:17.000",
    "date_modified": "2026-06-05T14:55:32.000",
    "case_close_date": "2026-06-05T09:55:31.000",
    "request_status": "Closed",
    "responsible_agency": "Orleans Parish Communication District",
    "final_address": "1217 Foucher St, New Orleans, Louisiana, 70115",
    "address_councildis": "B",
    "status": "Additional information requested from citizen",
    "rowid": "1288059",
    "final_x": "3674050.86318",
    "final_y": "519817.288376",
    "longitude": "-90.09199237897313",
    "latitude": "29.923541123641915",
    "geocoded_column": {
      "latitude": "29.923541123641915",
      "longitude": "-90.09199237897313"
    }
  },
  {
    "service_request": "2026-1288058",
    "request_type": "Abandoned Vehicles",
    "request_reason": "Abandoned/Junk Vehicles",
    "date_created": "2026-06-05T14:31:12.000",
    "date_modified": "2026-06-05T14:31:13.000",
    "request_status": "Pending",
    "responsible_agency": "Department of Public Works",
    "final_address": "6104 Colbert St",
    "address_councildis": "A",
    "status": "Pending",
    "rowid": "1288058",
    "final_x": "3667384.58138",
    "final_y": "548104.226194",
    "longitude": "-90.11208375226272",
    "latitude": "30.001517750790235",
    "geocoded_column": {
      "latitude": "30.001517750790235",
      "longitude": "-90.11208375226272"
    }
  },
  {
    "service_request": "2026-1288057",
    "request_type": "Trash/Recycling",
    "request_reason": "Order Recycling Cart",
    "date_created": "2026-06-05T14:29:30.000",
    "date_modified": "2026-06-05T14:29:32.000",
    "request_status": "Pending",
    "responsible_agency": "Department of Sanitation",
    "final_address": "1028 N Robertson St",
    "address_councildis": "C",
    "status": "Pending",
    "rowid": "1288057",
    "final_x": "3680931.70927",
    "final_y": "535434.347974",
    "longitude": "-90.06972847391418",
    "latitude": "29.96627604857366",
    "geocoded_column": {
      "latitude": "29.96627604857366",
      "longitude": "-90.06972847391418"
    }
  },
  {
    "service_request": "2026-1288056",
    "request_type": "Drainage",
    "request_reason": "Catch Basin Not Draining",
    "date_created": "2026-06-05T14:28:33.000",
    "date_modified": "2026-06-05T14:29:16.000",
    "request_status": "Pending",
    "responsible_agency": "Sewerage & Water Board",
    "final_address": "44 Newcomb Blvd",
    "address_councildis": "A",
    "status": "Pending",
    "rowid": "1288056",
    "final_x": "3664062.74951",
    "final_y": "525622.550333",
    "longitude": "-90.12332777857694",
    "latitude": "29.939797512086955",
    "geocoded_column": {
      "latitude": "29.939797512086955",
      "longitude": "-90.12332777857694"
    }
  },
  {
    "service_request": "2026-1288055",
    "request_type": "Trash/Recycling",
    "request_reason": "Damaged Caused By Contractor",
    "date_created": "2026-06-05T14:28:08.000",
    "date_modified": "2026-06-05T14:28:10.000",
    "request_status": "Pending",
    "responsible_agency": "Department of Sanitation",
    "final_address": "1731 Alvar St",
    "address_councildis": "D",
    "status": "Assigned to Contractor",
    "contractor": "IV Waste",
    "rowid": "1288055",
    "final_x": "3692165.21577",
    "final_y": "537883.875913",
    "longitude": "-90.03416570786807",
    "latitude": "29.972665974542306",
    "geocoded_column": {
      "latitude": "29.972665974542306",
      "longitude": "-90.03416570786807"
    }
  },
  {
    "service_request": "2026-1288054",
    "request_type": "Streetlights",
    "request_reason": "New Streetlight Request",
    "date_created": "2026-06-05T14:26:15.000",
    "date_modified": "2026-06-05T14:26:17.000",
    "request_status": "Pending",
    "responsible_agency": "Department of Public Works",
    "final_address": "2730 N Prieur St",
    "address_councildis": "D",
    "status": "Pending",
    "rowid": "1288054",
    "final_x": "3688429.05372",
    "final_y": "539291.529098",
    "longitude": "-90.04591520988794",
    "latitude": "29.976652473916804",
    "geocoded_column": {
      "latitude": "29.976652473916804",
      "longitude": "-90.04591520988794"
    }
  },
  {
    "service_request": "2026-1288053",
    "request_type": "Trash/Recycling",
    "request_reason": "Request a Large Item Pick Up",
    "date_created": "2026-06-05T14:25:06.000",
    "date_modified": "2026-06-05T14:25:08.000",
    "request_status": "Pending",
    "responsible_agency": "Department of Sanitation",
    "final_address": "3117 Pine St",
    "address_councildis": "B",
    "status": "Assigned to Contractor",
    "contractor": "IV Waste",
    "rowid": "1288053",
    "final_x": "3667811.75847",
    "final_y": "532448.041859",
    "longitude": "-90.11126175310618",
    "latitude": "29.958456002328937",
    "geocoded_column": {
      "latitude": "29.958456002328937",
      "longitude": "-90.11126175310618"
    }
  },
  {
    "service_request": "2026-1288052",
    "request_type": "General Services",
    "request_reason": "General Service Request",
    "date_created": "2026-06-05T14:24:47.000",
    "date_modified": "2026-06-05T14:52:18.000",
    "case_close_date": "2026-06-05T09:52:18.000",
    "request_status": "Closed",
    "responsible_agency": "Orleans Parish Communication District",
    "final_address": "6017 Pasteur Blvd",
    "address_councildis": "D",
    "status": "Referred to External Agency",
    "rowid": "1288052",
    "final_x": "3682816.61711",
    "final_y": "554990.149336",
    "longitude": "-90.06309136125745",
    "latitude": "30.019990264385722",
    "geocoded_column": {
      "latitude": "30.019990264385722",
      "longitude": "-90.06309136125745"
    }
  },
  {
    "service_request": "2026-1288051",
    "request_type": "Roads and Streets",
    "request_reason": "Pothole",
    "date_created": "2026-06-05T14:22:57.000",
    "date_modified": "2026-06-05T14:22:59.000",
    "request_status": "Pending",
    "responsible_agency": "Department of Public Works",
    "final_address": "520 First St",
    "address_councildis": "B",
    "status": "Pending",
    "rowid": "1288051",
    "final_x": "3679199.34491",
    "final_y": "519733.921336",
    "longitude": "-90.07574341961637",
    "latitude": "29.923157522008854",
    "geocoded_column": {
      "latitude": "29.923157522008854",
      "longitude": "-90.07574341961637"
    }
  },
  {
    "service_request": "2026-1288050",
    "request_type": "Trash/Recycling",
    "request_reason": "Return Recycling Cart",
    "date_created": "2026-06-05T14:21:20.000",
    "date_modified": "2026-06-05T14:21:22.000",
    "request_status": "Pending",
    "responsible_agency": "Department of Sanitation",
    "final_address": "920 Congress St",
    "address_councildis": "C",
    "status": "Pending",
    "rowid": "1288050",
    "final_x": "3690538.98153",
    "final_y": "534965.289478",
    "longitude": "-90.03940572253755",
    "latitude": "29.964691487897614",
    "geocoded_column": {
      "latitude": "29.964691487897614",
      "longitude": "-90.03940572253755"
    }
  },
  {
    "service_request": "2026-1288049",
    "request_type": "Trash/Recycling",
    "request_reason": "Order Trash Cart",
    "date_created": "2026-06-05T14:18:01.000",
    "date_modified": "2026-06-05T14:18:04.000",
    "request_status": "Pending",
    "responsible_agency": "Department of Sanitation",
    "final_address": "826 Frenchmen St",
    "address_councildis": "C",
    "status": "Assigned to Contractor",
    "contractor": "IV Waste",
    "rowid": "1288049",
    "final_x": "3684631.30095",
    "final_y": "535406.803654",
    "longitude": "-90.05804622093298",
    "latitude": "29.96608761154468",
    "geocoded_column": {
      "latitude": "29.96608761154468",
      "longitude": "-90.05804622093298"
    }
  },
  {
    "service_request": "2026-1288048",
    "request_type": "Drainage",
    "request_reason": "Catch Basin Not Draining",
    "date_created": "2026-06-05T14:16:33.000",
    "date_modified": "2026-06-05T14:16:35.000",
    "request_status": "Pending",
    "responsible_agency": "Sewerage & Water Board",
    "final_address": "520 First St",
    "address_councildis": "B",
    "status": "Pending",
    "rowid": "1288048",
    "final_x": "3679199.34491",
    "final_y": "519733.921336",
    "longitude": "-90.07574341961637",
    "latitude": "29.923157522008854",
    "geocoded_column": {
      "latitude": "29.923157522008854",
      "longitude": "-90.07574341961637"
    }
  },
  {
    "service_request": "2026-1288047",
    "request_type": "Trash/Recycling",
    "request_reason": "Damaged Caused By Contractor",
    "date_created": "2026-06-05T14:15:25.000",
    "date_modified": "2026-06-05T14:15:27.000",
    "request_status": "Pending",
    "responsible_agency": "Department of Sanitation",
    "final_address": "1038 Milan St",
    "address_councildis": "B",
    "status": "Assigned to Contractor",
    "contractor": "IV Waste",
    "rowid": "1288047",
    "final_x": "3671690.89108",
    "final_y": "519536.973367",
    "longitude": "-90.09945148086652",
    "latitude": "29.922840435865165",
    "geocoded_column": {
      "latitude": "29.922840435865165",
      "longitude": "-90.09945148086652"
    }
  },
  {
    "service_request": "2026-1288046",
    "request_type": "Trash/Recycling",
    "request_reason": "Order Trash Cart",
    "date_created": "2026-06-05T14:15:17.000",
    "date_modified": "2026-06-05T14:15:19.000",
    "request_status": "Pending",
    "responsible_agency": "Department of Sanitation",
    "final_address": "1028 N Robertson St",
    "address_councildis": "C",
    "status": "Assigned to Contractor",
    "contractor": "IV Waste",
    "rowid": "1288046",
    "final_x": "3680931.70927",
    "final_y": "535434.347974",
    "longitude": "-90.06972847391418",
    "latitude": "29.96627604857366",
    "geocoded_column": {
      "latitude": "29.96627604857366",
      "longitude": "-90.06972847391418"
    }
  },
  {
    "service_request": "2026-1288044",
    "request_type": "Abandoned Vehicles",
    "request_reason": "Abandoned/Junk Vehicles",
    "date_created": "2026-06-05T14:10:23.000",
    "date_modified": "2026-06-05T14:10:24.000",
    "request_status": "Pending",
    "responsible_agency": "Department of Public Works",
    "final_address": "BURGUNDY ST & PORT ST",
    "address_councildis": "C",
    "status": "Pending",
    "rowid": "1288044",
    "final_x": "3687219.7",
    "final_y": "535604.78",
    "longitude": "-90.04986513829044",
    "latitude": "29.966552511254623",
    "geocoded_column": {
      "latitude": "29.966552511254623",
      "longitude": "-90.04986513829044"
    }
  },
  {
    "service_request": "2026-1288043",
    "request_type": "Trash/Recycling",
    "request_reason": "Order Trash Cart",
    "date_created": "2026-06-05T14:07:39.000",
    "date_modified": "2026-06-05T14:07:41.000",
    "request_status": "Pending",
    "responsible_agency": "Department of Sanitation",
    "final_address": "1342 St Bernard Ave",
    "address_councildis": "C",
    "status": "Assigned to Contractor",
    "contractor": "IV Waste",
    "rowid": "1288043",
    "final_x": "3682655.78191",
    "final_y": "536842.34356",
    "longitude": "-90.06423464369658",
    "latitude": "29.970095159800493",
    "geocoded_column": {
      "latitude": "29.970095159800493",
      "longitude": "-90.06423464369658"
    }
  },
  {
    "service_request": "2026-1288042",
    "request_type": "Trash/Recycling",
    "request_reason": "Return Recycling Cart",
    "date_created": "2026-06-05T14:06:21.000",
    "date_modified": "2026-06-05T14:06:23.000",
    "request_status": "Pending",
    "responsible_agency": "Department of Sanitation",
    "final_address": "3551 Rue Denise",
    "address_councildis": "C",
    "status": "Pending",
    "rowid": "1288042",
    "final_x": "3704214.48599",
    "final_y": "517492.120374",
    "longitude": "-89.99686334624792",
    "latitude": "29.91621472724445",
    "geocoded_column": {
      "latitude": "29.91621472724445",
      "longitude": "-89.99686334624792"
    }
  },
  {
    "service_request": "2026-1288041",
    "request_type": "Trash/Recycling",
    "request_reason": "Request a Large Item Pick Up",
    "date_created": "2026-06-05T14:04:46.000",
    "date_modified": "2026-06-05T14:04:47.000",
    "request_status": "Pending",
    "responsible_agency": "Department of Sanitation",
    "final_address": "3942 S Pin Oak Ave",
    "address_councildis": "C",
    "status": "Assigned to Contractor",
    "contractor": "Richards Disposal",
    "rowid": "1288041",
    "final_x": "3705019.33758",
    "final_y": "513477.326514",
    "longitude": "-89.99447100460442",
    "latitude": "29.905149584057483",
    "geocoded_column": {
      "latitude": "29.905149584057483",
      "longitude": "-89.99447100460442"
    }
  },
  {
    "service_request": "2026-1288040",
    "request_type": "Trash/Recycling",
    "request_reason": "Request a Large Item Pick Up",
    "date_created": "2026-06-05T14:02:19.000",
    "date_modified": "2026-06-05T14:02:20.000",
    "request_status": "Pending",
    "responsible_agency": "Department of Sanitation",
    "final_address": "1617 Marigny St",
    "address_councildis": "D",
    "status": "Assigned to Contractor",
    "contractor": "IV Waste",
    "rowid": "1288040",
    "final_x": "3685297.43791",
    "final_y": "538338.806985",
    "longitude": "-90.05583935054742",
    "latitude": "29.974129197949896",
    "geocoded_column": {
      "latitude": "29.974129197949896",
      "longitude": "-90.05583935054742"
    }
  },
  {
    "service_request": "2026-1288039",
    "request_type": "Trash/Recycling",
    "request_reason": "Dead Animal Pick Up",
    "date_created": "2026-06-05T13:58:33.000",
    "date_modified": "2026-06-05T16:38:03.000",
    "case_close_date": "2026-06-05T11:38:02.000",
    "request_status": "Closed",
    "responsible_agency": "Department of Sanitation",
    "final_address": "ST BERNARD AVE & LAKESHORE DR",
    "address_councildis": "D",
    "status": "Invalid Request",
    "contractor": "IV Waste",
    "contractor_action": "Invalid Request",
    "rowid": "1288039",
    "final_x": "3676848.4",
    "final_y": "557114.68",
    "longitude": "-90.08187572632262",
    "latitude": "30.02601252277763",
    "geocoded_column": {
      "latitude": "30.02601252277763",
      "longitude": "-90.08187572632262"
    }
  },
  {
    "service_request": "2026-1288038",
    "request_type": "Trash/Recycling",
    "request_reason": "Request a Large Item Pick Up",
    "date_created": "2026-06-05T13:57:44.000",
    "date_modified": "2026-06-05T13:57:45.000",
    "request_status": "Pending",
    "responsible_agency": "Department of Sanitation",
    "final_address": "14575 Beekman Rd",
    "address_councildis": "E",
    "status": "Assigned to Contractor",
    "contractor": "Waste Pro",
    "rowid": "1288038",
    "final_x": "3721127.23679",
    "final_y": "573100.187113",
    "longitude": "-89.94134845520738",
    "latitude": "30.068562016212294",
    "geocoded_column": {
      "latitude": "30.068562016212294",
      "longitude": "-89.94134845520738"
    }
  },
  {
    "service_request": "2026-1288037",
    "request_type": "Property Maintenance",
    "request_reason": "Property Maintenance",
    "date_created": "2026-06-05T13:53:29.000",
    "date_modified": "2026-06-05T13:53:31.000",
    "request_status": "Pending",
    "responsible_agency": "Department of Code Enforcement",
    "final_address": "1450 Josephine St",
    "address_councildis": "B",
    "status": "Pending",
    "rowid": "1288037",
    "final_x": "3678247.27253",
    "final_y": "523444.999739",
    "longitude": "-90.07862047326248",
    "latitude": "29.933390474531205",
    "geocoded_column": {
      "latitude": "29.933390474531205",
      "longitude": "-90.07862047326248"
    }
  },
  {
    "service_request": "2026-1288036",
    "request_type": "Trash/Recycling",
    "request_reason": "Request a Large Item Pick Up",
    "date_created": "2026-06-05T13:46:10.000",
    "date_modified": "2026-06-05T13:46:12.000",
    "request_status": "Pending",
    "responsible_agency": "Department of Sanitation",
    "final_address": "4643 Naples St",
    "address_councildis": "E",
    "status": "Assigned to Contractor",
    "contractor": "Waste Pro",
    "rowid": "1288036",
    "final_x": "3763027.62627",
    "final_y": "572714.994665",
    "longitude": "-89.80891193277432",
    "latitude": "30.066036748534753",
    "geocoded_column": {
      "latitude": "30.066036748534753",
      "longitude": "-89.80891193277432"
    }
  },
  {
    "service_request": "2026-1288035",
    "request_type": "Streetlights",
    "request_reason": "Streetlight Outage/Malfunction",
    "date_created": "2026-06-05T13:43:44.000",
    "date_modified": "2026-06-05T13:43:45.000",
    "request_status": "Pending",
    "responsible_agency": "Department of Public Works",
    "final_address": "1559 Iberville St Apt 101",
    "address_councildis": "C",
    "status": "Pending",
    "rowid": "1288035",
    "final_x": "3679106.58933",
    "final_y": "532844.619204",
    "longitude": "-90.07558193897489",
    "latitude": "29.959210390789906",
    "geocoded_column": {
      "latitude": "29.959210390789906",
      "longitude": "-90.07558193897489"
    }
  },
  {
    "service_request": "2026-1288034",
    "request_type": "Trash/Recycling",
    "request_reason": "Request a Large Item Pick Up",
    "date_created": "2026-06-05T13:43:05.000",
    "date_modified": "2026-06-05T13:43:06.000",
    "request_status": "Pending",
    "responsible_agency": "Department of Sanitation",
    "final_address": "2717 Frankfort St",
    "address_councildis": "D",
    "status": "Assigned to Contractor",
    "contractor": "IV Waste",
    "rowid": "1288034",
    "final_x": "3687155.23682",
    "final_y": "557228.381851",
    "longitude": "-90.04930348647372",
    "latitude": "30.026011610482616",
    "geocoded_column": {
      "latitude": "30.026011610482616",
      "longitude": "-90.04930348647372"
    }
  },
  {
    "service_request": "2026-1288033",
    "request_type": "Tree Service",
    "request_reason": "Dead or Dying Tree",
    "date_created": "2026-06-05T13:42:17.000",
    "date_modified": "2026-06-05T13:42:20.000",
    "request_status": "Pending",
    "responsible_agency": "Department of Parks & Parkways",
    "final_address": "22 Crane St",
    "address_councildis": "D",
    "status": "Pending",
    "rowid": "1288033",
    "final_x": "3673276.98196",
    "final_y": "554762.738904",
    "longitude": "-90.09324140446533",
    "latitude": "30.019652300453934",
    "geocoded_column": {
      "latitude": "30.019652300453934",
      "longitude": "-90.09324140446533"
    }
  },
  {
    "service_request": "2026-1288032",
    "request_type": "Trash/Recycling",
    "request_reason": "Start Trash Service",
    "date_created": "2026-06-05T13:37:58.000",
    "date_modified": "2026-06-05T13:48:50.000",
    "request_status": "Pending",
    "responsible_agency": "Department of Sanitation",
    "final_address": "35 Maryland Dr",
    "address_councildis": "A",
    "status": "Assigned to Contractor",
    "contractor": "IV Waste",
    "rowid": "1288032",
    "final_x": "3663706.78938",
    "final_y": "541068.31054",
    "longitude": "-90.12393690723401",
    "latitude": "29.982278637196682",
    "geocoded_column": {
      "latitude": "29.982278637196682",
      "longitude": "-90.12393690723401"
    }
  },
  {
    "service_request": "2026-1288031",
    "request_type": "Trash/Recycling",
    "request_reason": "Request a Large Item Pick Up",
    "date_created": "2026-06-05T13:37:46.000",
    "date_modified": "2026-06-05T13:37:49.000",
    "request_status": "Pending",
    "responsible_agency": "Department of Sanitation",
    "final_address": "212 David St",
    "address_councildis": "A",
    "status": "Assigned to Contractor",
    "contractor": "IV Waste",
    "rowid": "1288031",
    "final_x": "3671268.22561",
    "final_y": "538936.073546",
    "longitude": "-90.10012662913783",
    "latitude": "29.976194097755297",
    "geocoded_column": {
      "latitude": "29.976194097755297",
      "longitude": "-90.10012662913783"
    }
  },
  {
    "service_request": "2026-1288030",
    "request_type": "Trash/Recycling",
    "request_reason": "Order Recycling Cart",
    "date_created": "2026-06-05T13:36:57.000",
    "date_modified": "2026-06-05T13:49:27.000",
    "request_status": "Pending",
    "responsible_agency": "Department of Sanitation",
    "final_address": "35 Maryland Dr",
    "address_councildis": "A",
    "status": "Pending",
    "rowid": "1288030",
    "final_x": "3663706.78938",
    "final_y": "541068.31054",
    "longitude": "-90.12393690723401",
    "latitude": "29.982278637196682",
    "geocoded_column": {
      "latitude": "29.982278637196682",
      "longitude": "-90.12393690723401"
    }
  },
  {
    "service_request": "2026-1288029",
    "request_type": "Trash/Recycling",
    "request_reason": "Order Trash Cart",
    "date_created": "2026-06-05T13:35:51.000",
    "date_modified": "2026-06-05T13:47:29.000",
    "request_status": "Pending",
    "responsible_agency": "Department of Sanitation",
    "final_address": "35 Maryland Dr",
    "address_councildis": "A",
    "status": "Assigned to Contractor",
    "contractor": "IV Waste",
    "rowid": "1288029",
    "final_x": "3663706.78938",
    "final_y": "541068.31054",
    "longitude": "-90.12393690723401",
    "latitude": "29.982278637196682",
    "geocoded_column": {
      "latitude": "29.982278637196682",
      "longitude": "-90.12393690723401"
    }
  },
  {
    "service_request": "2026-1288028",
    "request_type": "Trash/Recycling",
    "request_reason": "Repair Recycling Cart",
    "date_created": "2026-06-05T13:34:48.000",
    "date_modified": "2026-06-05T13:34:50.000",
    "request_status": "Pending",
    "responsible_agency": "Department of Sanitation",
    "final_address": "5417 Loyola Ave",
    "address_councildis": "A",
    "status": "Pending",
    "rowid": "1288028",
    "final_x": "3667524.13204",
    "final_y": "523049.919291",
    "longitude": "-90.11248619837072",
    "latitude": "29.932622640578707",
    "geocoded_column": {
      "latitude": "29.932622640578707",
      "longitude": "-90.11248619837072"
    }
  },
  {
    "service_request": "2026-1288027",
    "request_type": "Tree Service",
    "request_reason": "Tree Trim",
    "date_created": "2026-06-05T13:34:17.000",
    "date_modified": "2026-06-05T13:34:19.000",
    "request_status": "Pending",
    "responsible_agency": "Department of Parks & Parkways",
    "final_address": "6210 Eads St",
    "address_councildis": "D",
    "status": "Pending",
    "rowid": "1288027",
    "final_x": "3686672.78511",
    "final_y": "556123.89481",
    "longitude": "-90.05086703073317",
    "latitude": "30.02298953854419",
    "geocoded_column": {
      "latitude": "30.02298953854419",
      "longitude": "-90.05086703073317"
    }
  },
  {
    "service_request": "2026-1288026",
    "request_type": "Trash/Recycling",
    "request_reason": "Replace Trash Cart",
    "date_created": "2026-06-05T13:32:12.000",
    "date_modified": "2026-06-05T13:32:14.000",
    "request_status": "Pending",
    "responsible_agency": "Department of Sanitation",
    "final_address": "1312 St Roch Ave",
    "address_councildis": "C",
    "status": "Assigned to Contractor",
    "contractor": "IV Waste",
    "rowid": "1288026",
    "final_x": "3686360.40546",
    "final_y": "537270.517512",
    "longitude": "-90.05251997554915",
    "latitude": "29.97115914671406",
    "geocoded_column": {
      "latitude": "29.97115914671406",
      "longitude": "-90.05251997554915"
    }
  },
  {
    "service_request": "2026-1288025",
    "request_type": "Abandoned Vehicles",
    "request_reason": "Abandoned/Junk Vehicles",
    "date_created": "2026-06-05T13:31:15.000",
    "date_modified": "2026-06-05T13:31:17.000",
    "request_status": "Pending",
    "responsible_agency": "Department of Public Works",
    "final_address": "6100 BLK Colbert St",
    "address_councildis": "A",
    "status": "Pending",
    "rowid": "1288025",
    "final_x": "3667502.78963",
    "final_y": "548358.900117",
    "longitude": "-90.11170174209332",
    "latitude": "30.002214551153962",
    "geocoded_column": {
      "latitude": "30.002214551153962",
      "longitude": "-90.11170174209332"
    }
  },