[
  {
    "service_request": "2024-1116553",
    "request_type": "Roads/Drainage",
    "request_reason": "Pothole",
    "date_created": "2024-07-28T23:20:01.000",
    "date_modified": "2024-07-28T23:20:01.000",
    "request_status": "Pending",
    "responsible_agency": "Department of Public Works",
    "final_address": "1112 Constantinople St",
    "address_councildis": "B",
    "status": "Pending",
    "rowid": "1116553",
    "final_x": "3672348.95259",
    "final_y": "519796.384952",
    "longitude": "-90.09736540233975",
    "latitude": "29.923534233550217",
    "geocoded_column": {
      "latitude": "29.923534233550217",
      "longitude": "-90.09736540233975"
    }
  },
  {
    "service_request": "2024-1116552",
    "request_type": "Roads/Drainage",
    "request_reason": "Pothole",
    "date_created": "2024-07-28T23:18:21.000",
    "date_modified": "2024-07-28T23:18:21.000",
    "request_status": "Pending",
    "responsible_agency": "Department of Public Works",
    "final_address": "1312 Milan St",
    "address_councildis": "B",
    "status": "Pending",
    "rowid": "1116552",
    "final_x": "3671625.82823",
    "final_y": "520286.919608",
    "longitude": "-90.09963137110304",
    "latitude": "29.92490447494246",
    "geocoded_column": {
      "latitude": "29.92490447494246",
      "longitude": "-90.09963137110304"
    }
  },
  {
    "service_request": "2024-1116551",
    "request_type": "Trash/Recycling",
    "request_reason": "Request a Large Item Pick Up",
    "date_created": "2024-07-28T23:14:49.000",
    "date_modified": "2024-07-28T23:14:50.000",
    "request_status": "Pending",
    "responsible_agency": "Department of Sanitation",
    "final_address": "3919 Orleans Ave",
    "address_councildis": "A",
    "status": "Assigned to Contractor",
    "contractor": "IV Waste",
    "rowid": "1116551",
    "final_x": "3673175.06862",
    "final_y": "539902.661322",
    "longitude": "-90.09407122890767",
    "latitude": "29.97879531757046",
    "geocoded_column": {
      "latitude": "29.97879531757046",
      "longitude": "-90.09407122890767"
    }
  },
  {
    "service_request": "2024-1116550",
    "request_type": "Trash/Recycling",
    "request_reason": "Request a Large Item Pick Up",
    "date_created": "2024-07-28T23:14:37.000",
    "date_modified": "2024-07-28T23:14:38.000",
    "request_status": "Pending",
    "responsible_agency": "Department of Sanitation",
    "final_address": "3919 Orleans Ave",
    "address_councildis": "A",
    "status": "Assigned to Contractor",
    "contractor": "IV Waste",
    "rowid": "1116550",
    "final_x": "3673175.06862",
    "final_y": "539902.661322",
    "longitude": "-90.09407122890767",
    "latitude": "29.97879531757046",
    "geocoded_column": {
      "latitude": "29.97879531757046",
      "longitude": "-90.09407122890767"
    }
  },
  {
    "service_request": "2024-1116549",
    "request_type": "Roads/Drainage",
    "request_reason": "Pothole",
    "date_created": "2024-07-28T23:08:52.000",
    "date_modified": "2024-07-28T23:08:52.000",
    "request_status": "Pending",
    "responsible_agency": "Department of Public Works",
    "final_address": "1421 Constantinople St",
    "address_councildis": "B",
    "status": "Pending",
    "rowid": "1116549",
    "final_x": "3672433.24257",
    "final_y": "520667.657465",
    "longitude": "-90.09706965638372",
    "latitude": "29.925927453713577",
    "geocoded_column": {
      "latitude": "29.925927453713577",
      "longitude": "-90.09706965638372"
    }
  },
  {
    "service_request": "2024-1116548",
    "request_type": "Trash/Recycling",
    "request_reason": "Order Recycling Cart",
    "date_created": "2024-07-28T22:42:22.000",
    "date_modified": "2024-07-28T22:42:22.000",
    "request_status": "Pending",
    "responsible_agency": "Department of Sanitation",
    "final_address": "714 Alvar St",
    "address_councildis": "C",
    "status": "Pending",
    "rowid": "1116548",
    "final_x": "3691117.52809",
    "final_y": "534021.902853",
    "longitude": "-90.0376124074633",
    "latitude": "29.962079528462144",
    "geocoded_column": {
      "latitude": "29.962079528462144",
      "longitude": "-90.0376124074633"
    }
  },
  {
    "service_request": "2024-1116547",
    "request_type": "Roads/Drainage",
    "request_reason": "Catch Basin - Clogged",
    "date_created": "2024-07-28T22:19:45.000",
    "date_modified": "2024-07-28T22:19:45.000",
    "request_status": "Pending",
    "responsible_agency": "Department of Public Works",
    "final_address": "9 Marywood Ct",
    "address_councildis": "E",
    "status": "Pending",
    "rowid": "1116547",
    "final_x": "3712768.65726",
    "final_y": "566478.124195",
    "longitude": "-89.96802093085478",
    "latitude": "30.05063061237584",
    "geocoded_column": {
      "latitude": "30.05063061237584",
      "longitude": "-89.96802093085478"
    }
  },
  {
    "service_request": "2024-1116546",
    "request_type": "Abandoned Vehicles",
    "request_reason": "Abandoned/Junk Vehicles",
    "date_created": "2024-07-28T22:02:50.000",
    "date_modified": "2024-07-28T22:02:50.000",
    "request_status": "Pending",
    "responsible_agency": "Department of Public Works",
    "final_address": "7500 BLK Scottwood Dr",
    "address_councildis": "E",
    "status": "Pending",
    "rowid": "1116546",
    "final_x": "3717430.9191",
    "final_y": "570513.097935",
    "longitude": "-89.95313170307645",
    "latitude": "30.0615715498675",
    "geocoded_column": {
      "latitude": "30.0615715498675",
      "longitude": "-89.95313170307645"
    }
  },
  {
    "service_request": "2024-1116545",
    "request_type": "Trash/Recycling",
    "request_reason": "Request a Large Item Pick Up",
    "date_created": "2024-07-28T21:57:48.000",
    "date_modified": "2024-07-28T21:57:49.000",
    "request_status": "Pending",
    "responsible_agency": "Department of Sanitation",
    "final_address": "3326 Plymouth Pl",
    "address_councildis": "C",
    "status": "Assigned to Contractor",
    "contractor": "Richards Disposal",
    "rowid": "1116545",
    "final_x": "3702868.40311",
    "final_y": "518909.216055",
    "longitude": "-90.00106008090722",
    "latitude": "29.92015435519999",
    "geocoded_column": {
      "latitude": "29.92015435519999",
      "longitude": "-90.00106008090722"
    }
  },
  {
    "service_request": "2024-1116544",
    "request_type": "Health Related Request",
    "request_reason": "Noise Ordinance Complaint",
    "date_created": "2024-07-28T21:35:14.000",
    "date_modified": "2024-07-28T21:35:14.000",
    "request_status": "Pending",
    "responsible_agency": "Health Department",
    "final_address": "600 BLK N Broad St",
    "address_councildis": "A",
    "status": "Pending",
    "rowid": "1116544",
    "final_x": "3676359.9435",
    "final_y": "536531.150807",
    "longitude": "-90.08412827453832",
    "latitude": "29.969429719559482",
    "geocoded_column": {
      "latitude": "29.969429719559482",
      "longitude": "-90.08412827453832"
    }
  },
  {
    "service_request": "2024-1116542",
    "request_type": "Health Related Request",
    "request_reason": "Noise Ordinance Complaint",
    "date_created": "2024-07-28T21:25:24.000",
    "date_modified": "2024-07-28T21:25:24.000",
    "request_status": "Pending",
    "responsible_agency": "Health Department",
    "final_address": "4327 Bienville Ave",
    "address_councildis": "A",
    "status": "Pending",
    "rowid": "1116542",
    "final_x": "3670557.00423",
    "final_y": "539816.328586",
    "longitude": "-90.1023430148152",
    "latitude": "29.97863552908133",
    "geocoded_column": {
      "latitude": "29.97863552908133",
      "longitude": "-90.1023430148152"
    }
  },
  {
    "service_request": "2024-1116541",
    "request_type": "Traffic Signals/Signs/Striping/Streetlights",
    "request_reason": "Street Light Outage/Malfunction",
    "date_created": "2024-07-28T21:24:47.000",
    "date_modified": "2024-07-28T21:24:47.000",
    "request_status": "Pending",
    "responsible_agency": "Department of Public Works",
    "final_address": "821 Louisa St",
    "address_councildis": "C",
    "status": "Assigned to Contractor",
    "contractor": "Legacy Professional Services",
    "rowid": "1116541",
    "final_x": "3689345.80732",
    "final_y": "534884.190278",
    "longitude": "-90.04317655614172",
    "latitude": "29.9645054877613",
    "geocoded_column": {
      "latitude": "29.9645054877613",
      "longitude": "-90.04317655614172"
    }
  },
  {
    "service_request": "2024-1116540",
    "request_type": "Health Related Request",
    "request_reason": "Noise Ordinance Complaint",
    "date_created": "2024-07-28T21:12:06.000",
    "date_modified": "2024-07-28T21:12:06.000",
    "request_status": "Pending",
    "responsible_agency": "Health Department",
    "final_address": "4431 Allen Street ",
    "address_councildis": "D",
    "status": "Pending",
    "rowid": "1116540",
    "final_x": "3681799.81045",
    "final_y": "548915.642451",
    "longitude": "-90.06651634373895",
    "latitude": "30.00331852530556",
    "geocoded_column": {
      "latitude": "30.00331852530556",
      "longitude": "-90.06651634373895"
    }
  },
  {
    "service_request": "2024-1116539",
    "request_type": "Health Related Request",
    "request_reason": "Noise Ordinance Complaint",
    "date_created": "2024-07-28T21:08:18.000",
    "date_modified": "2024-07-28T21:08:18.000",
    "request_status": "Pending",
    "responsible_agency": "Health Department",
    "final_address": "4435 Allen Street ",
    "address_councildis": "D",
    "status": "Pending",
    "rowid": "1116539",
    "final_x": "3681779.27964",
    "final_y": "548980.954067",
    "longitude": "-90.06657892265319",
    "latitude": "30.003498732935743",
    "geocoded_column": {
      "latitude": "30.003498732935743",
      "longitude": "-90.06657892265319"
    }
  },
  {
    "service_request": "2024-1116538",
    "request_type": "Trash/Recycling",
    "request_reason": "Illegal Dumping",
    "date_created": "2024-07-28T20:48:41.000",
    "date_modified": "2024-07-28T20:48:41.000",
    "request_status": "Pending",
    "responsible_agency": "Department of Sanitation",
    "final_address": "1800 BLK Gordon St",
    "address_councildis": "E",
    "status": "Pending",
    "rowid": "1116538",
    "final_x": "3700233.33998",
    "final_y": "536109.380325",
    "longitude": "-90.00875004274405",
    "latitude": "29.967532754382106",
    "geocoded_column": {
      "latitude": "29.967532754382106",
      "longitude": "-90.00875004274405"
    }
  },
  {
    "service_request": "2024-1116537",
    "request_type": "Parks & Parkways",
    "request_reason": "Request Grass Cutting Service (City Owned Property)",
    "date_created": "2024-07-28T20:45:58.000",
    "date_modified": "2024-07-28T20:45:58.000",
    "request_status": "Pending",
    "responsible_agency": "Department of Parks & Parkway",
    "final_address": "PARIS RD & I 10 E SERVICE RD",
    "address_councildis": "E",
    "status": "Pending",
    "rowid": "1116537",
    "final_x": "3721432.3",
    "final_y": "569031.98",
    "longitude": "-89.94054041721856",
    "latitude": "30.057365963027966",
    "geocoded_column": {
      "latitude": "30.057365963027966",
      "longitude": "-89.94054041721856"
    }
  },
  {
    "service_request": "2024-1116536",
    "request_type": "Mosquito, Termite & Rodent Control",
    "request_reason": "Mosquito Complaint",
    "date_created": "2024-07-28T20:05:16.000",
    "date_modified": "2024-07-28T20:05:16.000",
    "request_status": "Pending",
    "responsible_agency": "Mosquito, Termite & Rodent Control Board",
    "final_address": "10 Bear Creek Dr",
    "address_councildis": "C",
    "status": "Pending",
    "rowid": "1116536",
    "final_x": "3718405.81695",
    "final_y": "515134.765491",
    "longitude": "-89.95216010903188",
    "latitude": "29.90927007952927",
    "geocoded_column": {
      "latitude": "29.90927007952927",
      "longitude": "-89.95216010903188"
    }
  },
  {
    "service_request": "2024-1116535",
    "request_type": "Trash/Recycling",
    "request_reason": "Replace Trash Cart",
    "date_created": "2024-07-28T19:53:42.000",
    "date_modified": "2024-07-28T19:53:43.000",
    "request_status": "Pending",
    "responsible_agency": "Department of Sanitation",
    "final_address": "1240 Lesseps St",
    "address_councildis": "D",
    "status": "Assigned to Contractor",
    "contractor": "IV Waste",
    "rowid": "1116535",
    "final_x": "3692835.89072",
    "final_y": "535783.495751",
    "longitude": "-90.03212293059758",
    "latitude": "29.966869747238146",
    "geocoded_column": {
      "latitude": "29.966869747238146",
      "longitude": "-90.03212293059758"
    }
  },
  {
    "service_request": "2024-1116534",
    "request_type": "Abandoned Vehicles",
    "request_reason": "Abandoned/Junk Vehicles",
    "date_created": "2024-07-28T19:49:44.000",
    "date_modified": "2024-07-28T19:49:44.000",
    "request_status": "Pending",
    "responsible_agency": "Department of Public Works",
    "final_address": "420 Upperline St",
    "address_councildis": "B",
    "status": "Pending",
    "rowid": "1116534",
    "final_x": "3668907.85562",
    "final_y": "517122.203381",
    "longitude": "-90.10831794897267",
    "latitude": "29.916282691227153",
    "geocoded_column": {
      "latitude": "29.916282691227153",
      "longitude": "-90.10831794897267"
    }
  },
  {
    "service_request": "2024-1116533",
    "request_type": "Health Related Request",
    "request_reason": "Noise Ordinance Complaint",
    "date_created": "2024-07-28T19:34:55.000",
    "date_modified": "2024-07-28T19:34:55.000",
    "request_status": "Pending",
    "responsible_agency": "Health Department",
    "final_address": "7412 Lakeshore Dr",
    "address_councildis": "D",
    "status": "Pending",
    "rowid": "1116533",
    "final_x": "3666834.90644",
    "final_y": "556350.731994",
    "longitude": "-90.11354290644564",
    "latitude": "30.024208849408627",
    "geocoded_column": {
      "latitude": "30.024208849408627",
      "longitude": "-90.11354290644564"
    }
  },
  {
    "service_request": "2024-1116532",
    "request_type": "Abandoned Vehicles",
    "request_reason": "Abandoned/Junk Vehicles",
    "date_created": "2024-07-28T19:24:10.000",
    "date_modified": "2024-07-28T19:24:10.000",
    "request_status": "Pending",
    "responsible_agency": "Department of Public Works",
    "final_address": " & BALDWIN ST",
    "address_councildis": "D",
    "status": "Pending",
    "rowid": "1116532",
    "final_x": "3687880.8",
    "final_y": "560035.64",
    "longitude": "-90.04691121641319",
    "latitude": "30.03370814054373",
    "geocoded_column": {
      "latitude": "30.03370814054373",
      "longitude": "-90.04691121641319"
    }
  },
  {
    "service_request": "2024-1116531",
    "request_type": "Abandoned Vehicles",
    "request_reason": "Abandoned/Junk Vehicles",
    "date_created": "2024-07-28T19:22:08.000",
    "date_modified": "2024-07-28T19:22:08.000",
    "request_status": "Pending",
    "responsible_agency": "Department of Public Works",
    "final_address": " & BALDWIN ST",
    "address_councildis": "D",
    "status": "Pending",
    "rowid": "1116531",
    "final_x": "3687880.8",
    "final_y": "560035.64",
    "longitude": "-90.04691121641319",
    "latitude": "30.03370814054373",
    "geocoded_column": {
      "latitude": "30.03370814054373",
      "longitude": "-90.04691121641319"
    }
  },
  {
    "service_request": "2024-1116530",
    "request_type": "Property Maintenance",
    "request_reason": "Property Maintenance",
    "date_created": "2024-07-28T19:20:53.000",
    "date_modified": "2024-07-28T19:20:53.000",
    "request_status": "Pending",
    "responsible_agency": "Department of Code Enforcement",
    "final_address": "3600 N Homestead Dr",
    "address_councildis": "C",
    "status": "Pending",
    "rowid": "1116530",
    "final_x": "3697078.11165",
    "final_y": "525400.781565",
    "longitude": "-90.01910214215707",
    "latitude": "29.93818778510873",
    "geocoded_column": {
      "latitude": "29.93818778510873",
      "longitude": "-90.01910214215707"
    }
  },
  {
    "service_request": "2024-1116529",
    "request_type": "Property Maintenance",
    "request_reason": "Property Maintenance",
    "date_created": "2024-07-28T19:15:41.000",
    "date_modified": "2024-07-28T19:15:41.000",
    "request_status": "Pending",
    "responsible_agency": "Department of Code Enforcement",
    "final_address": "3600 N Homestead Dr",
    "address_councildis": "C",
    "status": "Pending",
    "rowid": "1116529",
    "final_x": "3697078.11165",
    "final_y": "525400.781565",
    "longitude": "-90.01910214215707",
    "latitude": "29.93818778510873",
    "geocoded_column": {
      "latitude": "29.93818778510873",
      "longitude": "-90.01910214215707"
    }
  },
  {
    "service_request": "2024-1116528",
    "request_type": "Property Maintenance",
    "request_reason": "Property Maintenance",
    "date_created": "2024-07-28T19:07:24.000",
    "date_modified": "2024-07-28T19:07:24.000",
    "request_status": "Pending",
    "responsible_agency": "Department of Code Enforcement",
    "final_address": "1300 Annette St",
    "address_councildis": "C",
    "status": "Pending",
    "rowid": "1116528",
    "final_x": "3683080.89103",
    "final_y": "536599.645319",
    "longitude": "-90.06290060541917",
    "latitude": "29.969414870321913",
    "geocoded_column": {
      "latitude": "29.969414870321913",
      "longitude": "-90.06290060541917"
    }
  },
  {
    "service_request": "2024-1116527",
    "request_type": "Property Maintenance",
    "request_reason": "Property Maintenance",
    "date_created": "2024-07-28T18:50:17.000",
    "date_modified": "2024-07-28T18:50:17.000",
    "request_status": "Pending",
    "responsible_agency": "Department of Code Enforcement",
    "final_address": "1603 Murl St",
    "address_councildis": "C",
    "status": "Pending",
    "rowid": "1116527",
    "final_x": "3695320.65494",
    "final_y": "525469.596221",
    "longitude": "-90.02464808641334",
    "latitude": "29.93843231051299",
    "geocoded_column": {
      "latitude": "29.93843231051299",
      "longitude": "-90.02464808641334"
    }
  },
  {
    "service_request": "2024-1116526",
    "request_type": "Trash/Recycling",
    "request_reason": "Request a Large Item Pick Up",
    "date_created": "2024-07-28T18:48:03.000",
    "date_modified": "2024-07-28T18:48:04.000",
    "request_status": "Pending",
    "responsible_agency": "Department of Sanitation",
    "final_address": "7220 Camberley Dr",
    "address_councildis": "E",
    "status": "Assigned to Contractor",
    "contractor": "Waste Pro",
    "rowid": "1116526",
    "final_x": "3713079.49387",
    "final_y": "565054.625506",
    "longitude": "-89.96709214049548",
    "latitude": "30.04670638135721",
    "geocoded_column": {
      "latitude": "30.04670638135721",
      "longitude": "-89.96709214049548"
    }
  },
  {
    "service_request": "2024-1116525",
    "request_type": "Trash/Recycling",
    "request_reason": "Request a Large Item Pick Up",
    "date_created": "2024-07-28T18:44:35.000",
    "date_modified": "2024-07-28T18:44:35.000",
    "request_status": "Pending",
    "responsible_agency": "Department of Sanitation",
    "final_address": "7220 Camberley Dr",
    "address_councildis": "E",
    "status": "Assigned to Contractor",
    "contractor": "Waste Pro",
    "rowid": "1116525",
    "final_x": "3713079.49387",
    "final_y": "565054.625506",
    "longitude": "-89.96709214049548",
    "latitude": "30.04670638135721",
    "geocoded_column": {
      "latitude": "30.04670638135721",
      "longitude": "-89.96709214049548"
    }
  },
  {
    "service_request": "2024-1116524",
    "request_type": "Trash/Recycling",
    "request_reason": "Request a Large Item Pick Up",
    "date_created": "2024-07-28T18:42:40.000",
    "date_modified": "2024-07-28T18:42:41.000",
    "request_status": "Pending",
    "responsible_agency": "Department of Sanitation",
    "final_address": "7220 Camberley Dr",
    "address_councildis": "E",
    "status": "Assigned to Contractor",
    "contractor": "Waste Pro",
    "rowid": "1116524",
    "final_x": "3713079.49387",
    "final_y": "565054.625506",
    "longitude": "-89.96709214049548",
    "latitude": "30.04670638135721",
    "geocoded_column": {
      "latitude": "30.04670638135721",
      "longitude": "-89.96709214049548"
    }
  },
  {
    "service_request": "2024-1116523",
    "request_type": "Roads/Drainage",
    "request_reason": "Catch Basin - Broken/Damage",
    "date_created": "2024-07-28T18:34:42.000",
    "date_modified": "2024-07-28T18:34:42.000",
    "request_status": "Pending",
    "responsible_agency": "Department of Public Works",
    "final_address": "519 Jefferson Ave",
    "address_councildis": "B",
    "status": "Pending",
    "rowid": "1116523",
    "final_x": "3666547.2114",
    "final_y": "517315.950709",
    "longitude": "-90.11576261534495",
    "latitude": "29.916884620084595",
    "geocoded_column": {
      "latitude": "29.916884620084595",
      "longitude": "-90.11576261534495"
    }
  },
  {
    "service_request": "2024-1116521",
    "request_type": "Roads/Drainage",
    "request_reason": "Pothole",
    "date_created": "2024-07-28T18:24:11.000",
    "date_modified": "2024-07-28T18:24:11.000",
    "request_status": "Pending",
    "responsible_agency": "Department of Public Works",
    "final_address": "1400 BLK Valence St",
    "address_councildis": "B",
    "status": "Pending",
    "rowid": "1116521",
    "final_x": "3669784.65285",
    "final_y": "520336.257015",
    "longitude": "-90.1054417057675",
    "latitude": "29.925094517046503",
    "geocoded_column": {
      "latitude": "29.925094517046503",
      "longitude": "-90.1054417057675"
    }
  },
  {
    "service_request": "2024-1116520",
    "request_type": "Roads/Drainage",
    "request_reason": "Damaged Sidewalk",
    "date_created": "2024-07-28T18:14:34.000",
    "date_modified": "2024-07-28T18:14:34.000",
    "request_status": "Pending",
    "responsible_agency": "Department of Public Works",
    "final_address": "5200 BLK Danneel St",
    "address_councildis": "B",
    "status": "Pending",
    "rowid": "1116520",
    "final_x": "3668060.05328",
    "final_y": "522163.577836",
    "longitude": "-90.11082418753892",
    "latitude": "29.93016977275902",
    "geocoded_column": {
      "latitude": "29.93016977275902",
      "longitude": "-90.11082418753892"
    }
  },
  {
    "service_request": "2024-1116519",
    "request_type": "Trash/Recycling",
    "request_reason": "Request a Large Item Pick Up",
    "date_created": "2024-07-28T17:50:46.000",
    "date_modified": "2024-07-28T17:50:47.000",
    "request_status": "Pending",
    "responsible_agency": "Department of Sanitation",
    "final_address": "3623 St Ferdinand St",
    "address_councildis": "D",
    "status": "Assigned to Contractor",
    "contractor": "IV Waste",
    "rowid": "1116519",
    "final_x": "3690040.19593",
    "final_y": "546486.092113",
    "longitude": "-90.04057037940096",
    "latitude": "29.996385069313863",
    "geocoded_column": {
      "latitude": "29.996385069313863",
      "longitude": "-90.04057037940096"
    }
  },
  {
    "service_request": "2024-1116518",
    "request_type": "Trash/Recycling",
    "request_reason": "Order Recycling Cart",
    "date_created": "2024-07-28T17:36:21.000",
    "date_modified": "2024-07-28T17:36:21.000",
    "request_status": "Pending",
    "responsible_agency": "Department of Sanitation",
    "final_address": "7500 Garnet St",
    "address_councildis": "D",
    "status": "Pending",
    "rowid": "1116518",
    "final_x": "3667317.05652",
    "final_y": "556458.052954",
    "longitude": "-90.11201578118447",
    "latitude": "30.024489822068457",
    "geocoded_column": {
      "latitude": "30.024489822068457",
      "longitude": "-90.11201578118447"
    }
  },
  {
    "service_request": "2024-1116517",
    "request_type": "Trash/Recycling",
    "request_reason": "Replace Trash Cart",
    "date_created": "2024-07-28T17:35:48.000",
    "date_modified": "2024-07-28T17:35:49.000",
    "request_status": "Pending",
    "responsible_agency": "Department of Sanitation",
    "final_address": "851 Hidalgo St",
    "address_councildis": "A",
    "status": "Assigned to Contractor",
    "contractor": "IV Waste",
    "rowid": "1116517",
    "final_x": "3669163.81364",
    "final_y": "544131.914638",
    "longitude": "-90.10659731718499",
    "latitude": "29.99054300270925",
    "geocoded_column": {
      "latitude": "29.99054300270925",
      "longitude": "-90.10659731718499"
    }
  },
  {
    "service_request": "2024-1116516",
    "request_type": "Trash/Recycling",
    "request_reason": "Order Trash Cart",
    "date_created": "2024-07-28T17:34:06.000",
    "date_modified": "2024-07-28T17:34:06.000",
    "request_status": "Pending",
    "responsible_agency": "Department of Sanitation",
    "final_address": "7500 Garnet St",
    "address_councildis": "D",
    "status": "Assigned to Contractor",
    "contractor": "IV Waste",
    "rowid": "1116516",
    "final_x": "3667317.05652",
    "final_y": "556458.052954",
    "longitude": "-90.11201578118447",
    "latitude": "30.024489822068457",
    "geocoded_column": {
      "latitude": "30.024489822068457",
      "longitude": "-90.11201578118447"
    }
  },
  {
    "service_request": "2024-1116515",
    "request_type": "Trash/Recycling",
    "request_reason": "Order Trash Cart",
    "date_created": "2024-07-28T17:31:53.000",
    "date_modified": "2024-07-28T17:31:54.000",
    "request_status": "Pending",
    "responsible_agency": "Department of Sanitation",
    "final_address": "7500 Garnet St",
    "address_councildis": "D",
    "status": "Assigned to Contractor",
    "contractor": "IV Waste",
    "rowid": "1116515",
    "final_x": "3667317.05652",
    "final_y": "556458.052954",
    "longitude": "-90.11201578118447",
    "latitude": "30.024489822068457",
    "geocoded_column": {
      "latitude": "30.024489822068457",
      "longitude": "-90.11201578118447"
    }
  },
  {
    "service_request": "2024-1116514",
    "request_type": "Property Maintenance",
    "request_reason": "Property Maintenance",
    "date_created": "2024-07-28T17:31:33.000",
    "date_modified": "2024-07-28T17:31:33.000",
    "request_status": "Pending",
    "responsible_agency": "Department of Code Enforcement",
    "final_address": "2930 Annunciation St",
    "address_councildis": "B",
    "status": "Pending",
    "rowid": "1116514",
    "final_x": "3677023.78414",
    "final_y": "519448.265591",
    "longitude": "-90.08262067863652",
    "latitude": "29.922437536745804",
    "geocoded_column": {
      "latitude": "29.922437536745804",
      "longitude": "-90.08262067863652"
    }
  },
  {
    "service_request": "2024-1116513",
    "request_type": "Trash/Recycling",
    "request_reason": "Order Recycling Cart",
    "date_created": "2024-07-28T17:28:27.000",
    "date_modified": "2024-07-28T17:28:27.000",
    "request_status": "Pending",
    "responsible_agency": "Department of Sanitation",
    "final_address": "3727 Gentilly Blvd",
    "address_councildis": "D",
    "status": "Pending",
    "rowid": "1116513",
    "final_x": "3687190.07983",
    "final_y": "548984.651731",
    "longitude": "-90.04948525259114",
    "latitude": "30.003343313154225",
    "geocoded_column": {
      "latitude": "30.003343313154225",
      "longitude": "-90.04948525259114"
    }
  },
  {
    "service_request": "2024-1116512",
    "request_type": "Trash/Recycling",
    "request_reason": "Request a Large Item Pick Up",
    "date_created": "2024-07-28T17:26:37.000",
    "date_modified": "2024-07-28T17:26:38.000",
    "request_status": "Pending",
    "responsible_agency": "Department of Sanitation",
    "final_address": "722 Seventh St",
    "address_councildis": "B",
    "status": "Assigned to Contractor",
    "contractor": "IV Waste",
    "rowid": "1116512",
    "final_x": "3677051.45672",
    "final_y": "519261.343991",
    "longitude": "-90.08253976827275",
    "latitude": "29.921922732160077",
    "geocoded_column": {
      "latitude": "29.921922732160077",
      "longitude": "-90.08253976827275"
    }
  },
  {
    "service_request": "2024-1116511",
    "request_type": "Trash/Recycling",
    "request_reason": "Request a Large Item Pick Up",
    "date_created": "2024-07-28T17:22:42.000",
    "date_modified": "2024-07-28T17:22:43.000",
    "request_status": "Pending",
    "responsible_agency": "Department of Sanitation",
    "final_address": "4001 Toulouse St",
    "address_councildis": "A",
    "status": "Assigned to Contractor",
    "contractor": "IV Waste",
    "rowid": "1116511",
    "final_x": "3672562.29825",
    "final_y": "539535.280458",
    "longitude": "-90.09601912238169",
    "latitude": "29.977803353908875",
    "geocoded_column": {
      "latitude": "29.977803353908875",
      "longitude": "-90.09601912238169"
    }
  },
  {
    "service_request": "2024-1116510",
    "request_type": "Trash/Recycling",
    "request_reason": "Request a Large Item Pick Up",
    "date_created": "2024-07-28T17:22:37.000",
    "date_modified": "2024-07-28T17:22:38.000",
    "request_status": "Pending",
    "responsible_agency": "Department of Sanitation",
    "final_address": "8139 Cohn St",
    "address_councildis": "A",
    "status": "Assigned to Contractor",
    "contractor": "IV Waste",
    "rowid": "1116510",
    "final_x": "3663416.99373",
    "final_y": "530439.366914",
    "longitude": "-90.12520619098831",
    "latitude": "29.953060946833503",
    "geocoded_column": {
      "latitude": "29.953060946833503",
      "longitude": "-90.12520619098831"
    }
  },
  {
    "service_request": "2024-1116509",
    "request_type": "Trash/Recycling",
    "request_reason": "Request a Large Item Pick Up",
    "date_created": "2024-07-28T17:21:26.000",
    "date_modified": "2024-07-28T17:21:27.000",
    "request_status": "Pending",
    "responsible_agency": "Department of Sanitation",
    "final_address": "4818 Longfellow Dr",
    "address_councildis": "E",
    "status": "Assigned to Contractor",
    "contractor": "Waste Pro",
    "rowid": "1116509",
    "final_x": "3709511.54641",
    "final_y": "556273.365018",
    "longitude": "-89.9786967390205",
    "latitude": "30.022677888460002",
    "geocoded_column": {
      "latitude": "30.022677888460002",
      "longitude": "-89.9786967390205"
    }
  },
  {
    "service_request": "2024-1116508",
    "request_type": "Trash/Recycling",
    "request_reason": "Request a Large Item Pick Up",
    "date_created": "2024-07-28T17:12:35.000",
    "date_modified": "2024-07-28T17:12:36.000",
    "request_status": "Pending",
    "responsible_agency": "Department of Sanitation",
    "final_address": "2738 Valence St",
    "address_councildis": "B",
    "status": "Assigned to Contractor",
    "contractor": "IV Waste",
    "rowid": "1116508",
    "final_x": "3669280.44538",
    "final_y": "524935.871485",
    "longitude": "-90.1068779209339",
    "latitude": "29.937756831980487",
    "geocoded_column": {
      "latitude": "29.937756831980487",
      "longitude": "-90.1068779209339"
    }
  },
  {
    "service_request": "2024-1116507",
    "request_type": "Property Maintenance",
    "request_reason": "Property Maintenance",
    "date_created": "2024-07-28T17:00:46.000",
    "date_modified": "2024-07-28T17:00:46.000",
    "request_status": "Pending",
    "responsible_agency": "Department of Code Enforcement",
    "final_address": "2530 Laurel St",
    "address_councildis": "B",
    "status": "Pending",
    "rowid": "1116507",
    "final_x": "3678031.5028",
    "final_y": "520549.525624",
    "longitude": "-90.07940167702301",
    "latitude": "29.925435360965437",
    "geocoded_column": {
      "latitude": "29.925435360965437",
      "longitude": "-90.07940167702301"
    }
  },
  {
    "service_request": "2024-1116506",
    "request_type": "Roads/Drainage",
    "request_reason": "Street Subsidence (Sinking)",
    "date_created": "2024-07-28T16:57:31.000",
    "date_modified": "2024-07-28T16:57:31.000",
    "request_status": "Pending",
    "responsible_agency": "Department of Public Works",
    "final_address": "2605 Laurel St",
    "address_councildis": "B",
    "status": "Pending",
    "rowid": "1116506",
    "final_x": "3677911.05902",
    "final_y": "520543.481848",
    "longitude": "-90.07978208944988",
    "latitude": "29.92542236622245",
    "geocoded_column": {
      "latitude": "29.92542236622245",
      "longitude": "-90.07978208944988"
    }
  },
  {
    "service_request": "2024-1116505",
    "request_type": "Trash/Recycling",
    "request_reason": "Request a Large Item Pick Up",
    "date_created": "2024-07-28T16:34:45.000",
    "date_modified": "2024-07-28T16:34:46.000",
    "request_status": "Pending",
    "responsible_agency": "Department of Sanitation",
    "final_address": "3601 Camp St",
    "address_councildis": "B",
    "status": "Assigned to Contractor",
    "contractor": "IV Waste",
    "rowid": "1116505",
    "final_x": "3673955.17684",
    "final_y": "519672.449016",
    "longitude": "-90.09229937761704",
    "latitude": "29.92314571189189",
    "geocoded_column": {
      "latitude": "29.92314571189189",
      "longitude": "-90.09229937761704"
    }
  },
  {
    "service_request": "2024-1116504",
    "request_type": "Trash/Recycling",
    "request_reason": "Request a Large Item Pick Up",
    "date_created": "2024-07-28T16:33:02.000",
    "date_modified": "2024-07-28T16:33:03.000",
    "request_status": "Pending",
    "responsible_agency": "Department of Sanitation",
    "final_address": "616 Sixth St",
    "address_councildis": "B",
    "status": "Assigned to Contractor",
    "contractor": "IV Waste",
    "rowid": "1116504",
    "final_x": "3677513.93486",
    "final_y": "519130.305271",
    "longitude": "-90.08108443967728",
    "latitude": "29.921548528515974",
    "geocoded_column": {
      "latitude": "29.921548528515974",
      "longitude": "-90.08108443967728"
    }
  },
  {
    "service_request": "2024-1116503",
    "request_type": "Trash/Recycling",
    "request_reason": "Order Trash Cart",
    "date_created": "2024-07-28T16:16:05.000",
    "date_modified": "2024-07-28T16:16:06.000",
    "request_status": "Pending",
    "responsible_agency": "Department of Sanitation",
    "final_address": "3240 Toledano St",
    "address_councildis": "B",
    "status": "Assigned to Contractor",
    "contractor": "IV Waste",
    "rowid": "1116503",
    "final_x": "3671990.24891",
    "final_y": "527643.754879",
    "longitude": "-90.09823068958903",
    "latitude": "29.94512259778672",
    "geocoded_column": {
      "latitude": "29.94512259778672",
      "longitude": "-90.09823068958903"
    }
  },
  {
    "service_request": "2024-1116502",
    "request_type": "Trash/Recycling",
    "request_reason": "Request a Large Item Pick Up",
    "date_created": "2024-07-28T15:58:39.000",
    "date_modified": "2024-07-28T15:58:40.000",
    "request_status": "Pending",
    "responsible_agency": "Department of Sanitation",
    "final_address": "5989 Tchoupitoulas St",
    "address_councildis": "A",
    "status": "Assigned to Contractor",
    "contractor": "IV Waste",
    "rowid": "1116502",
    "final_x": "3664218.29831",
    "final_y": "517547.15423",
    "longitude": "-90.12310596497085",
    "latitude": "29.917588198936496",
    "geocoded_column": {
      "latitude": "29.917588198936496",
      "longitude": "-90.12310596497085"
    }
  },
  {
    "service_request": "2024-1116501",
    "request_type": "Trash/Recycling",
    "request_reason": "Request a Large Item Pick Up",
    "date_created": "2024-07-28T15:48:04.000",
    "date_modified": "2024-07-28T15:48:06.000",
    "request_status": "Pending",
    "responsible_agency": "Department of Sanitation",
    "final_address": "1938 River Oaks Dr",
    "address_councildis": "C",
    "status": "Assigned to Contractor",
    "contractor": "Richards Disposal",
    "rowid": "1116501",
    "final_x": "3701723.19217",
    "final_y": "523496.200827",
    "longitude": "-90.00450702813053",
    "latitude": "29.932803541064725",
    "geocoded_column": {
      "latitude": "29.932803541064725",
      "longitude": "-90.00450702813053"
    }
  },
  {
    "service_request": "2024-1116500",
    "request_type": "Property Maintenance",
    "request_reason": "Property Maintenance",
    "date_created": "2024-07-28T15:40:47.000",
    "date_modified": "2024-07-28T15:40:47.000",
    "request_status": "Pending",
    "responsible_agency": "Department of Code Enforcement",
    "final_address": "8423 Hickory St",
    "address_councildis": "A",
    "status": "Pending",
    "rowid": "1116500",
    "final_x": "3662466.77792",
    "final_y": "530815.12973",
    "longitude": "-90.1281940930222",
    "latitude": "29.954121687129657",
    "geocoded_column": {
      "latitude": "29.954121687129657",
      "longitude": "-90.1281940930222"
    }
  },
  {
    "service_request": "2024-1116499",
    "request_type": "Parks & Parkways",
    "request_reason": "Request Tree Service (Right of Way/Public Property)",
    "date_created": "2024-07-28T15:39:18.000",
    "date_modified": "2024-07-28T15:39:18.000",
    "request_status": "Pending",
    "responsible_agency": "Department of Parks & Parkway",
    "final_address": "620 Verret St",
    "address_councildis": "C",
    "status": "Pending",
    "rowid": "1116499",
    "final_x": "3687101.09622",
    "final_y": "529296.599745",
    "longitude": "-90.05046272199932",
    "latitude": "29.949210842535475",
    "geocoded_column": {
      "latitude": "29.949210842535475",
      "longitude": "-90.05046272199932"
    }
  },
  {
    "service_request": "2024-1116498",
    "request_type": "Property Maintenance",
    "request_reason": "Property Maintenance",
    "date_created": "2024-07-28T15:38:58.000",
    "date_modified": "2024-07-28T15:38:58.000",
    "request_status": "Pending",
    "responsible_agency": "Department of Code Enforcement",
    "final_address": "119 Broadway St",
    "address_councildis": "A",
    "status": "Pending",
    "rowid": "1116498",
    "final_x": "3660889.02432",
    "final_y": "521374.110265",
    "longitude": "-90.13348818933625",
    "latitude": "29.92820740935019",
    "geocoded_column": {
      "latitude": "29.92820740935019",
      "longitude": "-90.13348818933625"
    }
  },
  {
    "service_request": "2024-1116497",
    "request_type": "Abandoned Vehicles",
    "request_reason": "Abandoned/Junk Vehicles",
    "date_created": "2024-07-28T15:37:54.000",
    "date_modified": "2024-07-28T15:37:54.000",
    "request_status": "Pending",
    "responsible_agency": "Department of Public Works",
    "final_address": "1004 Clouet St",
    "address_councildis": "C",
    "status": "Pending",
    "rowid": "1116497",
    "final_x": "3688884.15452",
    "final_y": "535629.684614",
    "longitude": "-90.04460793893364",
    "latitude": "29.966569621407906",
    "geocoded_column": {
      "latitude": "29.966569621407906",
      "longitude": "-90.04460793893364"
    }
  },
  {
    "service_request": "2024-1116496",
    "request_type": "Roads/Drainage",
    "request_reason": "Pothole",
    "date_created": "2024-07-28T15:36:03.000",
    "date_modified": "2024-07-28T15:36:03.000",
    "request_status": "Pending",
    "responsible_agency": "Department of Public Works",
    "final_address": "1015 N Salcedo St",
    "address_councildis": "A",
    "status": "Pending",
    "rowid": "1116496",
    "final_x": "3676236.94766",
    "final_y": "538975.785994",
    "longitude": "-90.08443255819074",
    "latitude": "29.976155318048335",
    "geocoded_column": {
      "latitude": "29.976155318048335",
      "longitude": "-90.08443255819074"
    }
  },
  {
    "service_request": "2024-1116495",
    "request_type": "Property Maintenance",
    "request_reason": "Property Maintenance",
    "date_created": "2024-07-28T15:29:02.000",
    "date_modified": "2024-07-28T15:29:02.000",
    "request_status": "Pending",
    "responsible_agency": "Department of Code Enforcement",
    "final_address": "1313 Annette St",
    "address_councildis": "C",
    "status": "Pending",
    "rowid": "1116495",
    "final_x": "3683138.41064",
    "final_y": "536650.386247",
    "longitude": "-90.06271717714922",
    "latitude": "29.969552636632358",
    "geocoded_column": {
      "latitude": "29.969552636632358",
      "longitude": "-90.06271717714922"
    }
  },
  {
    "service_request": "2024-1116494",
    "request_type": "Trash/Recycling",
    "request_reason": "Request a Large Item Pick Up",
    "date_created": "2024-07-28T15:26:07.000",
    "date_modified": "2024-07-28T15:26:08.000",
    "request_status": "Pending",
    "responsible_agency": "Department of Sanitation",
    "final_address": "906 Wilson Dr",
    "address_councildis": "A",
    "status": "Assigned to Contractor",
    "contractor": "IV Waste",
    "rowid": "1116494",
    "final_x": "3674133.75169",
    "final_y": "539930.516426",
    "longitude": "-90.09104238761749",
    "latitude": "29.978843365069103",
    "geocoded_column": {
      "latitude": "29.978843365069103",
      "longitude": "-90.09104238761749"
    }
  },
  {
    "service_request": "2024-1116493",
    "request_type": "Roads/Drainage",
    "request_reason": "Street Subsidence (Sinking)",
    "date_created": "2024-07-28T15:21:51.000",
    "date_modified": "2024-07-28T15:21:51.000",
    "request_status": "Pending",
    "responsible_agency": "Department of Public Works",
    "final_address": "4900 BLK Carondelet St",
    "address_councildis": "B",
    "status": "Pending",
    "rowid": "1116493",
    "final_x": "3668896.39117",
    "final_y": "521072.698456",
    "longitude": "-90.1082208153295",
    "latitude": "29.927145640369307",
    "geocoded_column": {
      "latitude": "29.927145640369307",
      "longitude": "-90.1082208153295"
    }
  },
  {
    "service_request": "2024-1116492",
    "request_type": "Roads/Drainage",
    "request_reason": "Pothole",
    "date_created": "2024-07-28T15:21:37.000",
    "date_modified": "2024-07-28T15:21:37.000",
    "request_status": "Pending",
    "responsible_agency": "Department of Public Works",
    "final_address": "1312 Milan St",
    "address_councildis": "B",
    "status": "Pending",
    "rowid": "1116492",
    "final_x": "3671625.82823",
    "final_y": "520286.919608",
    "longitude": "-90.09963137110304",
    "latitude": "29.92490447494246",
    "geocoded_column": {
      "latitude": "29.92490447494246",
      "longitude": "-90.09963137110304"
    }
  },
  {
    "service_request": "2024-1116491",
    "request_type": "Trash/Recycling",
    "request_reason": "Request a Large Item Pick Up",
    "date_created": "2024-07-28T15:21:02.000",
    "date_modified": "2024-07-28T15:21:03.000",
    "request_status": "Pending",
    "responsible_agency": "Department of Sanitation",
    "final_address": "19 Yosemite Dr",
    "address_councildis": "C",
    "status": "Assigned to Contractor",
    "contractor": "Richards Disposal",
    "rowid": "1116491",
    "final_x": "3699738.83056",
    "final_y": "517575.066806",
    "longitude": "-90.01098718251737",
    "latitude": "29.916585582884764",
    "geocoded_column": {
      "latitude": "29.916585582884764",
      "longitude": "-90.01098718251737"
    }
  },
  {
    "service_request": "2024-1116490",
    "request_type": "Roads/Drainage",
    "request_reason": "Pothole",
    "date_created": "2024-07-28T15:21:02.000",
    "date_modified": "2024-07-28T15:21:02.000",
    "request_status": "Pending",
    "responsible_agency": "Department of Public Works",
    "final_address": "1112 Constantinople St",
    "address_councildis": "B",
    "status": "Pending",
    "rowid": "1116490",
    "final_x": "3672348.95259",
    "final_y": "519796.384952",
    "longitude": "-90.09736540233975",
    "latitude": "29.923534233550217",
    "geocoded_column": {
      "latitude": "29.923534233550217",
      "longitude": "-90.09736540233975"
    }
  },
  {
    "service_request": "2024-1116489",
    "request_type": "Roads/Drainage",
    "request_reason": "Damaged Sidewalk",
    "date_created": "2024-07-28T15:18:24.000",
    "date_modified": "2024-07-28T15:18:24.000",
    "request_status": "Pending",
    "responsible_agency": "Department of Public Works",
    "final_address": "200 BLK Lake Marina Ave",
    "address_councildis": "A",
    "status": "Pending",
    "rowid": "1116489",
    "final_x": "3666197.68627",
    "final_y": "555414.263303",
    "longitude": "-90.11558786010524",
    "latitude": "30.0216525289039",
    "geocoded_column": {
      "latitude": "30.0216525289039",
      "longitude": "-90.11558786010524"
    }
  },
  {
    "service_request": "2024-1116488",
    "request_type": "Roads/Drainage",
    "request_reason": "Damaged Sidewalk",
    "date_created": "2024-07-28T15:13:21.000",
    "date_modified": "2024-07-28T15:13:21.000",
    "request_status": "Pending",
    "responsible_agency": "Department of Public Works",
    "final_address": "200 BLK Lake Marina Ave",
    "address_councildis": "A",
    "status": "Pending",
    "rowid": "1116488",
    "final_x": "3666197.68627",
    "final_y": "555414.263303",
    "longitude": "-90.11558786010524",
    "latitude": "30.0216525289039",
    "geocoded_column": {
      "latitude": "30.0216525289039",
      "longitude": "-90.11558786010524"
    }
  },
  {
    "service_request": "2024-1116487",
    "request_type": "Trash/Recycling",
    "request_reason": "Request a Large Item Pick Up",
    "date_created": "2024-07-28T15:11:17.000",
    "date_modified": "2024-07-28T15:11:18.000",
    "request_status": "Pending",
    "responsible_agency": "Department of Sanitation",
    "final_address": "237 Broadway St",
    "address_councildis": "A",
    "status": "Assigned to Contractor",
    "contractor": "IV Waste",
    "rowid": "1116487",
    "final_x": "3661302.10605",
    "final_y": "522134.258106",
    "longitude": "-90.13215902064022",
    "latitude": "29.930285677891927",
    "geocoded_column": {
      "latitude": "29.930285677891927",
      "longitude": "-90.13215902064022"
    }
  },
  {
    "service_request": "2024-1116486",
    "request_type": "Trash/Recycling",
    "request_reason": "Order Trash Cart",
    "date_created": "2024-07-28T15:06:45.000",
    "date_modified": "2024-07-28T15:06:45.000",
    "request_status": "Pending",
    "responsible_agency": "Department of Sanitation",
    "final_address": "1210 Camp St Apt A",
    "address_councildis": "B",
    "status": "Assigned to Contractor",
    "contractor": "IV Waste",
    "rowid": "1116486",
    "final_x": "3680257.22869",
    "final_y": "525601.438141",
    "longitude": "-90.0722002357553",
    "latitude": "29.939259295260793",
    "geocoded_column": {
      "latitude": "29.939259295260793",
      "longitude": "-90.0722002357553"
    }
  },
  {
    "service_request": "2024-1116485",
    "request_type": "Trash/Recycling",
    "request_reason": "Request a Large Item Pick Up",
    "date_created": "2024-07-28T14:57:36.000",
    "date_modified": "2024-07-28T14:57:37.000",
    "request_status": "Pending",
    "responsible_agency": "Department of Sanitation",
    "final_address": "2024 Bodenger Blvd",
    "address_councildis": "C",
    "status": "Assigned to Contractor",
    "contractor": "Richards Disposal",
    "rowid": "1116485",
    "final_x": "3688483.34863",
    "final_y": "524266.74022",
    "longitude": "-90.0462767412112",
    "latitude": "29.93533781396794",
    "geocoded_column": {
      "latitude": "29.93533781396794",
      "longitude": "-90.0462767412112"
    }
  },
  {
    "service_request": "2024-1116484",
    "request_type": "Trash/Recycling",
    "request_reason": "Request a Large Item Pick Up",
    "date_created": "2024-07-28T14:53:26.000",
    "date_modified": "2024-07-28T14:53:27.000",
    "request_status": "Pending",
    "responsible_agency": "Department of Sanitation",
    "final_address": "5413 Burgundy St",
    "address_councildis": "E",
    "status": "Assigned to Contractor",
    "contractor": "Waste Pro",
    "rowid": "1116484",
    "final_x": "3697069.76682",
    "final_y": "533200.837316",
    "longitude": "-90.0188459887216",
    "latitude": "29.95963547257295",
    "geocoded_column": {
      "latitude": "29.95963547257295",
      "longitude": "-90.0188459887216"
    }
  },
  {
    "service_request": "2024-1116483",
    "request_type": "Trash/Recycling",
    "request_reason": "Request a Large Item Pick Up",
    "date_created": "2024-07-28T14:46:49.000",
    "date_modified": "2024-07-28T14:46:50.000",
    "request_status": "Pending",
    "responsible_agency": "Department of Sanitation",
    "final_address": "2024 Bodenger Blvd",
    "address_councildis": "C",
    "status": "Assigned to Contractor",
    "contractor": "Richards Disposal",
    "rowid": "1116483",
    "final_x": "3688483.34863",
    "final_y": "524266.74022",
    "longitude": "-90.0462767412112",
    "latitude": "29.93533781396794",
    "geocoded_column": {
      "latitude": "29.93533781396794",
      "longitude": "-90.0462767412112"
    }
  },
  {
    "service_request": "2024-1116482",
    "request_type": "Trash/Recycling",
    "request_reason": "Return Trash Cart",
    "date_created": "2024-07-28T14:45:03.000",
    "date_modified": "2024-07-28T14:45:04.000",
    "request_status": "Pending",
    "responsible_agency": "Department of Sanitation",
    "final_address": "5015 S Saratoga St",
    "address_councildis": "B",
    "status": "Assigned to Contractor",
    "contractor": "IV Waste",
    "rowid": "1116482",
    "final_x": "3668636.00974",
    "final_y": "522572.646266",
    "longitude": "-90.10899218177794",
    "latitude": "29.93127767119106",
    "geocoded_column": {
      "latitude": "29.93127767119106",
      "longitude": "-90.10899218177794"
    }
  },
  {
    "service_request": "2024-1116481",
    "request_type": "Roads/Drainage",
    "request_reason": "Pothole",
    "date_created": "2024-07-28T14:30:54.000",
    "date_modified": "2024-07-28T14:30:54.000",
    "request_status": "Pending",
    "responsible_agency": "Department of Public Works",
    "final_address": "4757 Music St",
    "address_councildis": "D",
    "status": "Pending",
    "rowid": "1116481",
    "final_x": "3685708.05686",
    "final_y": "550657.129556",
    "longitude": "-90.05410819627038",
    "latitude": "30.0079875953223",
    "geocoded_column": {
      "latitude": "30.0079875953223",
      "longitude": "-90.05410819627038"
    }
  },
  {
    "service_request": "2024-1116480",
    "request_type": "Roads/Drainage",
    "request_reason": "Street Subsidence (Sinking)",
    "date_created": "2024-07-28T14:17:53.000",
    "date_modified": "2024-07-28T14:17:53.000",
    "request_status": "Pending",
    "responsible_agency": "Department of Public Works",
    "final_address": "216 Norland Ave",
    "address_councildis": "C",
    "status": "Pending",
    "rowid": "1116480",
    "final_x": "3706781.87543",
    "final_y": "520473.553912",
    "longitude": "-89.98864927837282",
    "latitude": "29.924330043275294",
    "geocoded_column": {
      "latitude": "29.924330043275294",
      "longitude": "-89.98864927837282"
    }
  },
  {
    "service_request": "2024-1116479",
    "request_type": "Trash/Recycling",
    "request_reason": "Request a Large Item Pick Up",
    "date_created": "2024-07-28T14:13:46.000",
    "date_modified": "2024-07-28T14:13:47.000",
    "request_status": "Pending",
    "responsible_agency": "Department of Sanitation",
    "final_address": "4438 General Pershing St",
    "address_councildis": "B",
    "status": "Assigned to Contractor",
    "contractor": "IV Waste",
    "rowid": "1116479",
    "final_x": "3669126.98439",
    "final_y": "529871.405825",
    "longitude": "-90.10719567261788",
    "latitude": "29.951332464251376",
    "geocoded_column": {
      "latitude": "29.951332464251376",
      "longitude": "-90.10719567261788"
    }
  },
  {
    "service_request": "2024-1116478",
    "request_type": "Traffic Signals/Signs/Striping/Streetlights",
    "request_reason": "Traffic Signal Malfunctioning/Damaged",
    "date_created": "2024-07-28T14:10:33.000",
    "date_modified": "2024-07-28T14:10:33.000",
    "request_status": "Pending",
    "responsible_agency": "Department of Public Works",
    "final_address": "S BROAD ST & TULANE AVE",
    "address_councildis": "B",
    "status": "Pending",
    "rowid": "1116478",
    "final_x": "3674313.3",
    "final_y": "533773.18",
    "longitude": "-90.09068620733277",
    "latitude": "29.961907423023113",
    "geocoded_column": {
      "latitude": "29.961907423023113",
      "longitude": "-90.09068620733277"
    }
  },
  {
    "service_request": "2024-1116477",
    "request_type": "Trash/Recycling",
    "request_reason": "Request a Large Item Pick Up",
    "date_created": "2024-07-28T13:55:27.000",
    "date_modified": "2024-07-28T13:55:28.000",
    "request_status": "Pending",
    "responsible_agency": "Department of Sanitation",
    "final_address": "3739 General Pershing St",
    "address_councildis": "B",
    "status": "Assigned to Contractor",
    "contractor": "IV Waste",
    "rowid": "1116477",
    "final_x": "3670537.01153",
    "final_y": "528475.265664",
    "longitude": "-90.10279083079358",
    "latitude": "29.947451972991935",
    "geocoded_column": {
      "latitude": "29.947451972991935",
      "longitude": "-90.10279083079358"
    }
  },
  {
    "service_request": "2024-1116476",
    "request_type": "Abandoned Vehicles",
    "request_reason": "Abandoned/Junk Vehicles",
    "date_created": "2024-07-28T13:32:10.000",
    "date_modified": "2024-07-28T13:32:10.000",
    "request_status": "Pending",
    "responsible_agency": "Department of Public Works",
    "final_address": "3633 Fourth St",
    "address_councildis": "B",
    "status": "Pending",
    "rowid": "1116476",
    "final_x": "3672171.74785",
    "final_y": "528828.549888",
    "longitude": "-90.09761729783078",
    "latitude": "29.94837501475076",
    "geocoded_column": {
      "latitude": "29.94837501475076",
      "longitude": "-90.09761729783078"
    }
  },
  {
    "service_request": "2024-1116475",
    "request_type": "Graffiti Removal",
    "request_reason": "Graffiti Removal",
    "date_created": "2024-07-28T13:19:04.000",
    "date_modified": "2024-07-28T13:19:04.000",
    "request_status": "Pending",
    "responsible_agency": "Department of Code Enforcement",
    "final_address": "1400 BLK Leontine St",
    "address_councildis": "B",
    "status": "Pending",
    "rowid": "1116475",
    "final_x": "3667392.72062",
    "final_y": "520379.546627",
    "longitude": "-90.1129908374688",
    "latitude": "29.92528381317404",
    "geocoded_column": {
      "latitude": "29.92528381317404",
      "longitude": "-90.1129908374688"
    }
  },
  {
    "service_request": "2024-1116474",
    "request_type": "Trash/Recycling",
    "request_reason": "Repair Trash Cart",
    "date_created": "2024-07-28T12:58:48.000",
    "date_modified": "2024-07-28T12:58:49.000",
    "request_status": "Pending",
    "responsible_agency": "Department of Sanitation",
    "final_address": "AUDUBON ST & SPRUCE ST",
    "address_councildis": "A",
    "status": "Assigned to Contractor",
    "contractor": "IV Waste",
    "rowid": "1116474",
    "final_x": "3665995.0",
    "final_y": "528677.98",
    "longitude": "-90.11712497457401",
    "latitude": "29.948142712633544",
    "geocoded_column": {
      "latitude": "29.948142712633544",
      "longitude": "-90.11712497457401"
    }
  },
  {
    "service_request": "2024-1116473",
    "request_type": "Trash/Recycling",
    "request_reason": "Request a Large Item Pick Up",
    "date_created": "2024-07-28T12:22:36.000",
    "date_modified": "2024-07-28T12:22:37.000",
    "request_status": "Pending",
    "responsible_agency": "Department of Sanitation",
    "final_address": "8 Virginia Ct",
    "address_councildis": "A",
    "status": "Assigned to Contractor",
    "contractor": "IV Waste",
    "rowid": "1116473",
    "final_x": "3668827.81178",
    "final_y": "542353.943629",
    "longitude": "-90.10771873781705",
    "latitude": "29.985664076624342",
    "geocoded_column": {
      "latitude": "29.985664076624342",
      "longitude": "-90.10771873781705"
    }
  },
  {
    "service_request": "2024-1116471",
    "request_type": "Roads/Drainage",
    "request_reason": "Pothole",
    "date_created": "2024-07-28T11:58:48.000",
    "date_modified": "2024-07-28T11:58:48.000",
    "request_status": "Pending",
    "responsible_agency": "Department of Public Works",
    "final_address": "726 Louque Pl",
    "address_councildis": "A",
    "status": "Pending",
    "rowid": "1116471",
    "final_x": "3668444.11348",
    "final_y": "543495.275342",
    "longitude": "-90.10889216615112",
    "latitude": "29.98881362905192",
    "geocoded_column": {
      "latitude": "29.98881362905192",
      "longitude": "-90.10889216615112"
    }
  },
  {
    "service_request": "2024-1116470",
    "request_type": "Abandoned Vehicles",
    "request_reason": "Abandoned/Junk Vehicles",
    "date_created": "2024-07-28T11:30:39.000",
    "date_modified": "2024-07-28T11:30:39.000",
    "request_status": "Pending",
    "responsible_agency": "Department of Public Works",
    "final_address": "2317 Ap Tureaud Ave",
    "address_councildis": "D",
    "status": "Pending",
    "rowid": "1116470",
    "final_x": "3681707.23938",
    "final_y": "540654.366923",
    "longitude": "-90.06709719845627",
    "latitude": "29.98060575430081",
    "geocoded_column": {
      "latitude": "29.98060575430081",
      "longitude": "-90.06709719845627"
    }
  },
  {
    "service_request": "2024-1116469",
    "request_type": "Roads/Drainage",
    "request_reason": "Damaged Sidewalk",
    "date_created": "2024-07-28T11:29:52.000",
    "date_modified": "2024-07-28T11:29:52.000",
    "request_status": "Pending",
    "responsible_agency": "Department of Public Works",
    "final_address": "7934 Maple St",
    "address_councildis": "A",
    "status": "Pending",
    "rowid": "1116469",
    "final_x": "3661353.61946",
    "final_y": "526976.072894",
    "longitude": "-90.13183612703901",
    "latitude": "29.943597655075305",
    "geocoded_column": {
      "latitude": "29.943597655075305",
      "longitude": "-90.13183612703901"
    }
  },
  {
    "service_request": "2024-1116467",
    "request_type": "Roads/Drainage",
    "request_reason": "Catch Basin - Clogged",
    "date_created": "2024-07-28T10:59:54.000",
    "date_modified": "2024-07-28T10:59:54.000",
    "request_status": "Pending",
    "responsible_agency": "Department of Public Works",
    "final_address": "8120 Zimple St",
    "address_councildis": "A",
    "status": "Pending",
    "rowid": "1116467",
    "final_x": "3661589.07462",
    "final_y": "528188.636928",
    "longitude": "-90.1310525595442",
    "latitude": "29.946925028593476",
    "geocoded_column": {
      "latitude": "29.946925028593476",
      "longitude": "-90.1310525595442"
    }
  },
  {
    "service_request": "2024-1116466",
    "request_type": "Traffic Signals/Signs/Striping/Streetlights",
    "request_reason": "Street Light Outage/Malfunction",
    "date_created": "2024-07-28T10:54:39.000",
    "date_modified": "2024-07-28T10:54:40.000",
    "request_status": "Pending",
    "responsible_agency": "Department of Public Works",
    "final_address": "5034 Toulon St",
    "address_councildis": "E",
    "status": "Assigned to Contractor",
    "contractor": "Legacy Professional Services",
    "rowid": "1116466",
    "final_x": "3723597.52383",
    "final_y": "561502.657759",
    "longitude": "-89.9339871745391",
    "latitude": "30.036590906074665",
    "geocoded_column": {
      "latitude": "30.036590906074665",
      "longitude": "-89.9339871745391"
    }
  },
  {
    "service_request": "2024-1116465",
    "request_type": "Trash/Recycling",
    "request_reason": "Order Recycling Cart",
    "date_created": "2024-07-28T10:53:52.000",
    "date_modified": "2024-07-28T10:53:52.000",
    "request_status": "Pending",
    "responsible_agency": "Department of Sanitation",
    "final_address": "2821 Banks St",
    "address_councildis": "B",
    "status": "Pending",
    "rowid": "1116465",
    "final_x": "3674041.74241",
    "final_y": "534663.229766",
    "longitude": "-90.09151328416331",
    "latitude": "29.964362855920474",
    "geocoded_column": {
      "latitude": "29.964362855920474",
      "longitude": "-90.09151328416331"
    }
  },
  {
    "service_request": "2024-1116464",
    "request_type": "Safety & Permits",
    "request_reason": "Licenses & Permits",
    "date_created": "2024-07-28T10:52:24.000",
    "date_modified": "2024-07-28T10:52:24.000",
    "request_status": "Pending",
    "responsible_agency": "Safety and Permits",
    "final_address": "7910 Earhart Blvd",
    "address_councildis": "B",
    "status": "Pending",
    "rowid": "1116464",
    "final_x": "3667005.87399",
    "final_y": "533034.124676",
    "longitude": "-90.11378683341556",
    "latitude": "29.960091146202156",
    "geocoded_column": {
      "latitude": "29.960091146202156",
      "longitude": "-90.11378683341556"
    }
  },
  {
    "service_request": "2024-1116463",
    "request_type": "Health Related Request",
    "request_reason": "Noise Ordinance Complaint",
    "date_created": "2024-07-28T10:48:48.000",
    "date_modified": "2024-07-28T10:48:48.000",
    "request_status": "Pending",
    "responsible_agency": "Health Department",
    "final_address": "7910 Earhart Blvd",
    "address_councildis": "B",
    "status": "Pending",
    "rowid": "1116463",
    "final_x": "3667005.87399",
    "final_y": "533034.124676",
    "longitude": "-90.11378683341556",
    "latitude": "29.960091146202156",
    "geocoded_column": {
      "latitude": "29.960091146202156",
      "longitude": "-90.11378683341556"
    }
  },
  {
    "service_request": "2024-1116462",
    "request_type": "Traffic Signals/Signs/Striping/Streetlights",
    "request_reason": "Traffic Signal Malfunctioning/Damaged",
    "date_created": "2024-07-28T10:39:29.000",
    "date_modified": "2024-07-28T10:39:29.000",
    "request_status": "Pending",
    "responsible_agency": "Department of Public Works",
    "final_address": "2700 Tulane Ave",
    "address_councildis": "B",
    "status": "Pending",
    "rowid": "1116462",
    "final_x": "3673969.52104",
    "final_y": "533787.066053",
    "longitude": "-90.0917713338198",
    "latitude": "29.961955851912233",
    "geocoded_column": {
      "latitude": "29.961955851912233",
      "longitude": "-90.0917713338198"
    }
  },
  {
    "service_request": "2024-1116461",
    "request_type": "Trash/Recycling",
    "request_reason": "Replace Trash Cart",
    "date_created": "2024-07-28T10:13:31.000",
    "date_modified": "2024-07-28T10:13:31.000",
    "request_status": "Pending",
    "responsible_agency": "Department of Sanitation",
    "final_address": "3420 Vincennes Pl",
    "address_councildis": "A",
    "status": "Assigned to Contractor",
    "contractor": "IV Waste",
    "rowid": "1116461",
    "final_x": "3667955.70657",
    "final_y": "528677.265664",
    "longitude": "-90.11093422869689",
    "latitude": "29.948083378981305",
    "geocoded_column": {
      "latitude": "29.948083378981305",
      "longitude": "-90.11093422869689"
    }
  },
  {
    "service_request": "2024-1116460",
    "request_type": "Property Maintenance",
    "request_reason": "Property Maintenance",
    "date_created": "2024-07-28T09:56:51.000",
    "date_modified": "2024-07-28T09:56:51.000",
    "request_status": "Pending",
    "responsible_agency": "Department of Code Enforcement",
    "final_address": "2315 Rousseau St",
    "address_councildis": "B",
    "status": "Pending",
    "rowid": "1116460",
    "final_x": "3679777.3933",
    "final_y": "519994.282808",
    "longitude": "-90.07390970925157",
    "latitude": "29.923855973997618",
    "geocoded_column": {
      "latitude": "29.923855973997618",
      "longitude": "-90.07390970925157"
    }
  },
  {
    "service_request": "2024-1116459",
    "request_type": "Trash/Recycling",
    "request_reason": "Request a Large Item Pick Up",
    "date_created": "2024-07-28T09:52:46.000",
    "date_modified": "2024-07-28T09:52:47.000",
    "request_status": "Pending",
    "responsible_agency": "Department of Sanitation",
    "final_address": "725 Jourdan Ave",
    "address_councildis": "E",
    "status": "Assigned to Contractor",
    "contractor": "Waste Pro",
    "rowid": "1116459",
    "final_x": "3694717.26006",
    "final_y": "533234.935876",
    "longitude": "-90.02627340230015",
    "latitude": "29.9598032283643",
    "geocoded_column": {
      "latitude": "29.9598032283643",
      "longitude": "-90.02627340230015"
    }
  },
  {
    "service_request": "2024-1116458",
    "request_type": "Trash/Recycling",
    "request_reason": "Request a Large Item Pick Up",
    "date_created": "2024-07-28T09:52:41.000",
    "date_modified": "2024-07-28T09:52:42.000",
    "request_status": "Pending",
    "responsible_agency": "Department of Sanitation",
    "final_address": "2102 S Carrollton Ave, New Orleans, Louisiana, 70118",
    "address_councildis": "A",
    "status": "Assigned to Contractor",
    "contractor": "IV Waste",
    "rowid": "1116458",
    "final_x": "3664120.04231",
    "final_y": "530761.218306",
    "longitude": "-90.12297552606961",
    "latitude": "29.953925532786744",
    "geocoded_column": {
      "latitude": "29.953925532786744",
      "longitude": "-90.12297552606961"
    }
  },
  {
    "service_request": "2024-1116457",
    "request_type": "Trash/Recycling",
    "request_reason": "Replace Trash Cart",
    "date_created": "2024-07-28T09:24:18.000",
    "date_modified": "2024-07-28T09:24:19.000",
    "request_status": "Pending",
    "responsible_agency": "Department of Sanitation",
    "final_address": "2463 Leon C Simon Dr",
    "address_councildis": "D",
    "status": "Assigned to Contractor",
    "contractor": "IV Waste",
    "rowid": "1116457",
    "final_x": "3685211.72213",
    "final_y": "557250.799515",
    "longitude": "-90.05544394420869",
    "latitude": "30.026132991877414",
    "geocoded_column": {
      "latitude": "30.026132991877414",
      "longitude": "-90.05544394420869"
    }
  },
  {
    "service_request": "2024-1116456",
    "request_type": "Trash/Recycling",
    "request_reason": "Request a Large Item Pick Up",
    "date_created": "2024-07-28T09:17:00.000",
    "date_modified": "2024-07-28T09:17:01.000",
    "request_status": "Pending",
    "responsible_agency": "Department of Sanitation",
    "final_address": "219 N Olympia St",
    "address_councildis": "A",
    "status": "Assigned to Contractor",
    "contractor": "IV Waste",
    "rowid": "1116456",
    "final_x": "3669740.96814",
    "final_y": "540130.743947",
    "longitude": "-90.1049097217218",
    "latitude": "29.979524145226346",
    "geocoded_column": {
      "latitude": "29.979524145226346",
      "longitude": "-90.1049097217218"
    }
  },
  {
    "service_request": "2024-1116455",
    "request_type": "Trash/Recycling",
    "request_reason": "Order Recycling Cart",
    "date_created": "2024-07-28T09:11:47.000",
    "date_modified": "2024-07-28T09:11:47.000",
    "request_status": "Pending",
    "responsible_agency": "Department of Sanitation",
    "final_address": "4500 Constance St",
    "address_councildis": "B",
    "status": "Pending",
    "rowid": "1116455",
    "final_x": "3670642.95521",
    "final_y": "518337.254646",
    "longitude": "-90.10280008061042",
    "latitude": "29.919572577541757",
    "geocoded_column": {
      "latitude": "29.919572577541757",
      "longitude": "-90.10280008061042"
    }
  },
  {
    "service_request": "2024-1116454",
    "request_type": "Trash/Recycling",
    "request_reason": "Order Trash Cart",
    "date_created": "2024-07-28T09:10:15.000",
    "date_modified": "2024-07-28T09:10:16.000",
    "request_status": "Pending",
    "responsible_agency": "Department of Sanitation",
    "final_address": "4500 Constance St",
    "address_councildis": "B",
    "status": "Assigned to Contractor",
    "contractor": "IV Waste",
    "rowid": "1116454",
    "final_x": "3670642.95521",
    "final_y": "518337.254646",
    "longitude": "-90.10280008061042",
    "latitude": "29.919572577541757",
    "geocoded_column": {
      "latitude": "29.919572577541757",
      "longitude": "-90.10280008061042"
    }
  },
  {
    "service_request": "2024-1116453",
    "request_type": "Roads/Drainage",
    "request_reason": "Pothole",
    "date_created": "2024-07-28T09:03:41.000",
    "date_modified": "2024-07-28T09:03:41.000",
    "request_status": "Pending",
    "responsible_agency": "Department of Public Works",
    "final_address": "8423 Green St",
    "address_councildis": "A",
    "status": "Pending",
    "rowid": "1116453",
    "final_x": "3662227.31399",
    "final_y": "530562.908738",
    "longitude": "-90.12895859824927",
    "latitude": "29.953435083835238",
    "geocoded_column": {
      "latitude": "29.953435083835238",
      "longitude": "-90.12895859824927"
    }
  },
  {
    "service_request": "2024-1116452",
    "request_type": "Abandoned Vehicles",
    "request_reason": "Abandoned/Junk Vehicles",
    "date_created": "2024-07-28T08:55:40.000",
    "date_modified": "2024-07-28T08:55:40.000",
    "request_status": "Pending",
    "responsible_agency": "Department of Public Works",
    "final_address": "3932 St Claude Ave",
    "address_councildis": "C",
    "status": "Pending",
    "rowid": "1116452",
    "final_x": "3691739.26608",
    "final_y": "535275.582022",
    "longitude": "-90.03560422377498",
    "latitude": "29.965507359690648",
    "geocoded_column": {
      "latitude": "29.965507359690648",
      "longitude": "-90.03560422377498"
    }
  },
  {
    "service_request": "2024-1116451",
    "request_type": "Trash/Recycling",
    "request_reason": "Replace Trash Cart",
    "date_created": "2024-07-28T08:55:37.000",
    "date_modified": "2024-07-28T08:55:38.000",
    "request_status": "Pending",
    "responsible_agency": "Department of Sanitation",
    "final_address": "2463 Leon C Simon Dr",
    "address_councildis": "D",
    "status": "Assigned to Contractor",
    "contractor": "IV Waste",
    "rowid": "1116451",
    "final_x": "3685211.72213",
    "final_y": "557250.799515",
    "longitude": "-90.05544394420869",
    "latitude": "30.026132991877414",
    "geocoded_column": {
      "latitude": "30.026132991877414",
      "longitude": "-90.05544394420869"
    }
  },
  {
    "service_request": "2024-1116450",
    "request_type": "Roads/Drainage",
    "request_reason": "Damaged Sidewalk",
    "date_created": "2024-07-28T08:41:10.000",
    "date_modified": "2024-07-28T08:41:10.000",
    "request_status": "Pending",
    "responsible_agency": "Department of Public Works",
    "final_address": "1823 Hillary St",
    "address_councildis": "A",
    "status": "Pending",
    "rowid": "1116450",
    "final_x": "3664873.83501",
    "final_y": "528842.758912",
    "longitude": "-90.1206594579173",
    "latitude": "29.948628475383263",
    "geocoded_column": {
      "latitude": "29.948628475383263",
      "longitude": "-90.1206594579173"
    }
  },
  {
    "service_request": "2024-1116449",
    "request_type": "Trash/Recycling",
    "request_reason": "Replace Trash Cart",
    "date_created": "2024-07-28T08:37:15.000",
    "date_modified": "2024-07-28T08:37:16.000",
    "request_status": "Pending",
    "responsible_agency": "Department of Sanitation",
    "final_address": "1828 Hillary St",
    "address_councildis": "A",
    "status": "Assigned to Contractor",
    "contractor": "IV Waste",
    "rowid": "1116449",
    "final_x": "3664849.66151",
    "final_y": "528923.027648",
    "longitude": "-90.12073310210937",
    "latitude": "29.9488498919295",
    "geocoded_column": {
      "latitude": "29.9488498919295",
      "longitude": "-90.12073310210937"
    }
  },
  {
    "service_request": "2024-1116448",
    "request_type": "Roads/Drainage",
    "request_reason": "Catch Basin - Clogged",
    "date_created": "2024-07-28T08:30:52.000",
    "date_modified": "2024-07-28T08:30:52.000",
    "request_status": "Pending",
    "responsible_agency": "Department of Public Works",
    "final_address": "7600 Cohn St",
    "address_councildis": "A",
    "status": "Pending",
    "rowid": "1116448",
    "final_x": "3664900.61536",
    "final_y": "528982.824832",
    "longitude": "-90.1205702199013",
    "latitude": "29.949012832081646",
    "geocoded_column": {
      "latitude": "29.949012832081646",
      "longitude": "-90.1205702199013"
    }
  },
  {
    "service_request": "2024-1116447",
    "request_type": "Trash/Recycling",
    "request_reason": "Request a Large Item Pick Up",
    "date_created": "2024-07-28T08:29:20.000",
    "date_modified": "2024-07-28T11:15:40.000",
    "request_status": "Pending",
    "responsible_agency": "Department of Sanitation",
    "final_address": "6556 Louisville St, New Orleans, Louisiana, 70124",
    "address_councildis": "A",
    "status": "Assigned to Contractor",
    "contractor": "IV Waste",
    "rowid": "1116447",
    "final_x": "3668006.40673",
    "final_y": "551234.006229",
    "longitude": "-90.11001378081009",
    "latitude": "30.010105317830895",
    "geocoded_column": {
      "latitude": "30.010105317830895",
      "longitude": "-90.11001378081009"
    }
  },
  {
    "service_request": "2024-1116446",
    "request_type": "Roads/Drainage",
    "request_reason": "Street Subsidence (Sinking)",
    "date_created": "2024-07-28T08:19:15.000",
    "date_modified": "2024-07-28T08:19:15.000",
    "request_status": "Pending",
    "responsible_agency": "Department of Public Works",
    "final_address": "7800 BLK Panola St",
    "address_councildis": "A",
    "status": "Pending",
    "rowid": "1116446",
    "final_x": "3664796.04078",
    "final_y": "530070.381576",
    "longitude": "-90.1208640730322",
    "latitude": "29.952006304287483",
    "geocoded_column": {
      "latitude": "29.952006304287483",
      "longitude": "-90.1208640730322"
    }
  },
  {
    "service_request": "2024-1116445",
    "request_type": "Property Maintenance",
    "request_reason": "Property Maintenance",
    "date_created": "2024-07-28T08:17:11.000",
    "date_modified": "2024-07-28T08:17:11.000",
    "request_status": "Pending",
    "responsible_agency": "Department of Code Enforcement",
    "final_address": "FOUCHER ST & ST CHARLES AVE",
    "address_councildis": "B",
    "status": "Pending",
    "rowid": "1116445",
    "final_x": "3673513.6",
    "final_y": "521201.48",
    "longitude": "-90.09364104984931",
    "latitude": "29.927363199139325",
    "geocoded_column": {
      "latitude": "29.927363199139325",
      "longitude": "-90.09364104984931"
    }
  },
  {
    "service_request": "2024-1116444",
    "request_type": "Health Related Request",
    "request_reason": "Noise Ordinance Complaint",
    "date_created": "2024-07-28T07:54:22.000",
    "date_modified": "2024-07-28T07:54:22.000",
    "request_status": "Pending",
    "responsible_agency": "Health Department",
    "final_address": "4209 Buchanan St",
    "address_councildis": "D",
    "status": "Pending",
    "rowid": "1116444",
    "final_x": "3677277.91618",
    "final_y": "547648.755154",
    "longitude": "-90.08084545962063",
    "latitude": "29.99997172210418",
    "geocoded_column": {
      "latitude": "29.99997172210418",
      "longitude": "-90.08084545962063"
    }
  },
  {
    "service_request": "2024-1116443",
    "request_type": "Roads/Drainage",
    "request_reason": "Street Flooding / Drainage",
    "date_created": "2024-07-28T07:47:55.000",
    "date_modified": "2024-07-28T07:47:55.000",
    "request_status": "Pending",
    "responsible_agency": "Department of Public Works",
    "final_address": "1443 Burbank Dr",
    "address_councildis": "D",
    "status": "Pending",
    "rowid": "1116443",
    "final_x": "3677817.29512",
    "final_y": "554323.293272",
    "longitude": "-90.07891070245039",
    "latitude": "30.01830809144444",
    "geocoded_column": {
      "latitude": "30.01830809144444",
      "longitude": "-90.07891070245039"
    }
  },
  {
    "service_request": "2024-1116442",
    "request_type": "Abandoned Vehicles",
    "request_reason": "Abandoned/Junk Vehicles",
    "date_created": "2024-07-28T07:27:41.000",
    "date_modified": "2024-07-28T07:27:41.000",
    "request_status": "Pending",
    "responsible_agency": "Department of Public Works",
    "final_address": "1804 Second St",
    "address_councildis": "B",
    "status": "Pending",
    "rowid": "1116442",
    "final_x": "3676224.04494",
    "final_y": "523701.274619",
    "longitude": "-90.08499887423883",
    "latitude": "29.93415590971917",
    "geocoded_column": {
      "latitude": "29.93415590971917",
      "longitude": "-90.08499887423883"
    }
  },
  {
    "service_request": "2024-1116441",
    "request_type": "Roads/Drainage",
    "request_reason": "Damaged Sidewalk",
    "date_created": "2024-07-28T07:26:02.000",
    "date_modified": "2024-07-28T07:26:02.000",
    "request_status": "Pending",
    "responsible_agency": "Department of Public Works",
    "final_address": "1443 Burbank Dr",
    "address_councildis": "D",
    "status": "Pending",
    "rowid": "1116441",
    "final_x": "3677817.29512",
    "final_y": "554323.293272",
    "longitude": "-90.07891070245039",
    "latitude": "30.01830809144444",
    "geocoded_column": {
      "latitude": "30.01830809144444",
      "longitude": "-90.07891070245039"
    }
  },
  {
    "service_request": "2024-1116440",
    "request_type": "Traffic Signals/Signs/Striping/Streetlights",
    "request_reason": "Street Light Outage/Malfunction",
    "date_created": "2024-07-28T07:23:01.000",
    "date_modified": "2024-07-28T07:23:02.000",
    "request_status": "Pending",
    "responsible_agency": "Department of Public Works",
    "final_address": "6000 BLK Brighton Pl",
    "address_councildis": "C",
    "status": "Assigned to Contractor",
    "contractor": "Legacy Professional Services",
    "rowid": "1116440",
    "final_x": "3706311.93117",
    "final_y": "520090.076077",
    "longitude": "-89.99014690713645",
    "latitude": "29.923290768907595",
    "geocoded_column": {
      "latitude": "29.923290768907595",
      "longitude": "-89.99014690713645"
    }
  },
  {
    "service_request": "2024-1116439",
    "request_type": "Trash/Recycling",
    "request_reason": "Missed Trash Pick-Up",
    "date_created": "2024-07-28T06:48:31.000",
    "date_modified": "2024-07-28T06:48:32.000",
    "request_status": "Pending",
    "responsible_agency": "Department of Sanitation",
    "final_address": "920 Bourbon St",
    "address_councildis": "C",
    "status": "Assigned to Contractor",
    "contractor": "Empire Services",
    "rowid": "1116439",
    "final_x": "3682841.80162",
    "final_y": "533388.664708",
    "longitude": "-90.06376802295951",
    "latitude": "29.96059306467935",
    "geocoded_column": {
      "latitude": "29.96059306467935",
      "longitude": "-90.06376802295951"
    }
  },
  {
    "service_request": "2024-1116438",
    "request_type": "Trash/Recycling",
    "request_reason": "Missed Trash Pick-Up",
    "date_created": "2024-07-28T06:48:05.000",
    "date_modified": "2024-07-28T06:48:06.000",
    "request_status": "Pending",
    "responsible_agency": "Department of Sanitation",
    "final_address": "920 Bourbon St",
    "address_councildis": "C",
    "status": "Assigned to Contractor",
    "contractor": "Empire Services",
    "rowid": "1116438",
    "final_x": "3682841.80162",
    "final_y": "533388.664708",
    "longitude": "-90.06376802295951",
    "latitude": "29.96059306467935",
    "geocoded_column": {
      "latitude": "29.96059306467935",
      "longitude": "-90.06376802295951"
    }
  },
  {
    "service_request": "2024-1116437",
    "request_type": "Roads/Drainage",
    "request_reason": "Pothole",
    "date_created": "2024-07-28T05:45:04.000",
    "date_modified": "2024-07-28T05:45:04.000",
    "request_status": "Pending",
    "responsible_agency": "Department of Public Works",
    "final_address": "1501 General Taylor St",
    "address_councildis": "B",
    "status": "Pending",
    "rowid": "1116437",
    "final_x": "3672757.23963",
    "final_y": "520814.498105",
    "longitude": "-90.09604188611411",
    "latitude": "29.926321602463354",
    "geocoded_column": {
      "latitude": "29.926321602463354",
      "longitude": "-90.09604188611411"
    }
  },
  {
    "service_request": "2024-1116436",
    "request_type": "Roads/Drainage",
    "request_reason": "Pothole",
    "date_created": "2024-07-28T05:43:25.000",
    "date_modified": "2024-07-28T05:43:25.000",
    "request_status": "Pending",
    "responsible_agency": "Department of Public Works",
    "final_address": "4200 BLK Perrier St",
    "address_councildis": "B",
    "status": "Pending",
    "rowid": "1116436",
    "final_x": "3671500.64253",
    "final_y": "520125.882108",
    "longitude": "-90.1000320136845",
    "latitude": "29.924465378806524",
    "geocoded_column": {
      "latitude": "29.924465378806524",
      "longitude": "-90.1000320136845"
    }
  },
  {
    "service_request": "2024-1116435",
    "request_type": "Roads/Drainage",
    "request_reason": "Pothole",
    "date_created": "2024-07-28T05:41:31.000",
    "date_modified": "2024-07-28T05:41:31.000",
    "request_status": "Pending",
    "responsible_agency": "Department of Public Works",
    "final_address": "6018 Benjamin St",
    "address_councildis": "A",
    "status": "Pending",
    "rowid": "1116435",
    "final_x": "3665453.14343",
    "final_y": "522163.43609",
    "longitude": "-90.11905381999654",
    "latitude": "29.93024560339561",
    "geocoded_column": {
      "latitude": "29.93024560339561",
      "longitude": "-90.11905381999654"
    }
  },
  {
    "service_request": "2024-1116434",
    "request_type": "Roads/Drainage",
    "request_reason": "Pothole",
    "date_created": "2024-07-28T05:40:29.000",
    "date_modified": "2024-07-28T05:40:29.000",
    "request_status": "Pending",
    "responsible_agency": "Department of Public Works",
    "final_address": "6028 Benjamin St",
    "address_councildis": "A",
    "status": "Pending",
    "rowid": "1116434",
    "final_x": "3665338.06842",
    "final_y": "522201.69881",
    "longitude": "-90.1194158153632",
    "latitude": "29.930354166447213",
    "geocoded_column": {
      "latitude": "29.930354166447213",
      "longitude": "-90.1194158153632"
    }
  },
  {
    "service_request": "2024-1116433",
    "request_type": "Roads/Drainage",
    "request_reason": "Pothole",
    "date_created": "2024-07-28T05:39:25.000",
    "date_modified": "2024-07-28T05:39:25.000",
    "request_status": "Pending",
    "responsible_agency": "Department of Public Works",
    "final_address": "6033 Benjamin St",
    "address_councildis": "A",
    "status": "Pending",
    "rowid": "1116433",
    "final_x": "3665306.09895",
    "final_y": "522294.315706",
    "longitude": "-90.1195136411945",
    "latitude": "29.93060976484396",
    "geocoded_column": {
      "latitude": "29.93060976484396",
      "longitude": "-90.1195136411945"
    }
  },
  {
    "service_request": "2024-1116432",
    "request_type": "Trash/Recycling",
    "request_reason": "Request a Large Item Pick Up",
    "date_created": "2024-07-28T04:15:07.000",
    "date_modified": "2024-07-28T04:15:08.000",
    "request_status": "Pending",
    "responsible_agency": "Department of Sanitation",
    "final_address": "6356 Marshal Foch St",
    "address_councildis": "A",
    "status": "Assigned to Contractor",
    "contractor": "IV Waste",
    "rowid": "1116432",
    "final_x": "3669979.31783",
    "final_y": "549657.040084",
    "longitude": "-90.10383406964185",
    "latitude": "30.00571115043383",
    "geocoded_column": {
      "latitude": "30.00571115043383",
      "longitude": "-90.10383406964185"
    }
  },
  {
    "service_request": "2024-1116431",
    "request_type": "Property Maintenance",
    "request_reason": "Property Maintenance",
    "date_created": "2024-07-28T00:28:52.000",
    "date_modified": "2024-07-28T00:28:52.000",
    "request_status": "Pending",
    "responsible_agency": "Department of Code Enforcement",
    "final_address": "1217 Peniston St",
    "address_councildis": "B",
    "status": "Pending",
    "rowid": "1116431",
    "final_x": "3673159.33563",
    "final_y": "520223.99436",
    "longitude": "-90.0947927290907",
    "latitude": "29.924685961874083",
    "geocoded_column": {
      "latitude": "29.924685961874083",
      "longitude": "-90.0947927290907"
    }
  },
  {
    "service_request": "2024-1116430",
    "request_type": "Roads/Drainage",
    "request_reason": "Pothole",
    "date_created": "2024-07-27T23:23:08.000",
    "date_modified": "2024-07-27T23:23:08.000",
    "request_status": "Pending",
    "responsible_agency": "Department of Public Works",
    "final_address": "1421 General Taylor St",
    "address_councildis": "B",
    "status": "Pending",
    "rowid": "1116430",
    "final_x": "3672783.68392",
    "final_y": "520716.466425",
    "longitude": "-90.09596175059541",
    "latitude": "29.926051261619584",
    "geocoded_column": {
      "latitude": "29.926051261619584",
      "longitude": "-90.09596175059541"
    }
  },
  {
    "service_request": "2024-1116429",
    "request_type": "Roads/Drainage",
    "request_reason": "Pothole",
    "date_created": "2024-07-27T23:22:00.000",
    "date_modified": "2024-07-27T23:22:00.000",
    "request_status": "Pending",
    "responsible_agency": "Department of Public Works",
    "final_address": "4212 Camp St",
    "address_councildis": "B",
    "status": "Pending",
    "rowid": "1116429",
    "final_x": "3671624.68814",
    "final_y": "519166.521975",
    "longitude": "-90.09967304793963",
    "latitude": "29.921823772662087",
    "geocoded_column": {
      "latitude": "29.921823772662087",
      "longitude": "-90.09967304793963"
    }
  },
  {
    "service_request": "2024-1116428",
    "request_type": "Roads/Drainage",
    "request_reason": "Pothole",
    "date_created": "2024-07-27T23:20:53.000",
    "date_modified": "2024-07-27T23:20:53.000",
    "request_status": "Pending",
    "responsible_agency": "Department of Public Works",
    "final_address": "1130 Milan St",
    "address_councildis": "B",
    "status": "Pending",
    "rowid": "1116428",
    "final_x": "3671661.92315",
    "final_y": "519830.296056",
    "longitude": "-90.09953295162545",
    "latitude": "29.923647837374453",
    "geocoded_column": {
      "latitude": "29.923647837374453",
      "longitude": "-90.09953295162545"
    }
  },
  {
    "service_request": "2024-1116427",
    "request_type": "Roads/Drainage",
    "request_reason": "Catch Basin - Clogged",
    "date_created": "2024-07-27T22:51:39.000",
    "date_modified": "2024-07-27T22:51:39.000",
    "request_status": "Pending",
    "responsible_agency": "Department of Public Works",
    "final_address": "1103 Royal St",
    "address_councildis": "C",
    "status": "Pending",
    "rowid": "1116427",
    "final_x": "3683454.08885",
    "final_y": "533683.208389",
    "longitude": "-90.06182422292649",
    "latitude": "29.961384290915166",
    "geocoded_column": {
      "latitude": "29.961384290915166",
      "longitude": "-90.06182422292649"
    }
  },
  {
    "service_request": "2024-1116425",
    "request_type": "Trash/Recycling",
    "request_reason": "Request a Large Item Pick Up",
    "date_created": "2024-07-27T22:26:04.000",
    "date_modified": "2024-07-27T22:26:05.000",
    "request_status": "Pending",
    "responsible_agency": "Department of Sanitation",
    "final_address": "1510 Tricou St",
    "address_councildis": "E",
    "status": "Assigned to Contractor",
    "contractor": "Waste Pro",
    "rowid": "1116425",
    "final_x": "3700707.88586",
    "final_y": "534564.641605",
    "longitude": "-90.00730788125063",
    "latitude": "29.9632701857034",
    "geocoded_column": {
      "latitude": "29.9632701857034",
      "longitude": "-90.00730788125063"
    }
  },
  {
    "service_request": "2024-1116424",
    "request_type": "Trash/Recycling",
    "request_reason": "Request a Large Item Pick Up",
    "date_created": "2024-07-27T21:58:34.000",
    "date_modified": "2024-07-27T21:58:36.000",
    "request_status": "Pending",
    "responsible_agency": "Department of Sanitation",
    "final_address": "622 S Cortez St",
    "address_councildis": "B",
    "status": "Assigned to Contractor",
    "contractor": "IV Waste",
    "rowid": "1116424",
    "final_x": "3670789.85627",
    "final_y": "535844.629383",
    "longitude": "-90.10174240823683",
    "latitude": "29.96770781483116",
    "geocoded_column": {
      "latitude": "29.96770781483116",
      "longitude": "-90.10174240823683"
    }
  },
  {
    "service_request": "2024-1116423",
    "request_type": "Roads/Drainage",
    "request_reason": "Pothole",
    "date_created": "2024-07-27T21:53:46.000",
    "date_modified": "2024-07-27T21:53:46.000",
    "request_status": "Pending",
    "responsible_agency": "Department of Public Works",
    "final_address": "5216 Conti St",
    "address_councildis": "A",
    "status": "Pending",
    "rowid": "1116423",
    "final_x": "3668478.34606",
    "final_y": "541732.673996",
    "longitude": "-90.10884353228813",
    "latitude": "29.983966069798658",
    "geocoded_column": {
      "latitude": "29.983966069798658",
      "longitude": "-90.10884353228813"
    }
  },
  {
    "service_request": "2024-1116421",
    "request_type": "Property Maintenance",
    "request_reason": "Property Maintenance",
    "date_created": "2024-07-27T20:18:39.000",
    "date_modified": "2024-07-27T20:18:39.000",
    "request_status": "Pending",
    "responsible_agency": "Department of Code Enforcement",
    "final_address": "1006 Mazant St",
    "address_councildis": "C",
    "status": "Pending",
    "rowid": "1116421",
    "final_x": "3691984.97347",
    "final_y": "534877.750662",
    "longitude": "-90.03484253054923",
    "latitude": "29.96440580938134",
    "geocoded_column": {
      "latitude": "29.96440580938134",
      "longitude": "-90.03484253054923"
    }
  },
  {
    "service_request": "2024-1116420",
    "request_type": "Trash/Recycling",
    "request_reason": "Request a Large Item Pick Up",
    "date_created": "2024-07-27T20:08:13.000",
    "date_modified": "2024-07-27T20:08:14.000",
    "request_status": "Pending",
    "responsible_agency": "Department of Sanitation",
    "final_address": "1679 St Thomas St",
    "address_councildis": "B",
    "status": "Assigned to Contractor",
    "contractor": "IV Waste",
    "rowid": "1116420",
    "final_x": "3681343.36988",
    "final_y": "522114.219066",
    "longitude": "-90.0688926444367",
    "latitude": "29.92963768234391",
    "geocoded_column": {
      "latitude": "29.92963768234391",
      "longitude": "-90.0688926444367"
    }
  },
  {
    "service_request": "2024-1116419",
    "request_type": "Property Maintenance",
    "request_reason": "Property Maintenance",
    "date_created": "2024-07-27T19:56:59.000",
    "date_modified": "2024-07-27T19:56:59.000",
    "request_status": "Pending",
    "responsible_agency": "Department of Code Enforcement",
    "final_address": "7537 Avalon Way",
    "address_councildis": "E",
    "status": "Pending",
    "rowid": "1116419",
    "final_x": "3709285.37137",
    "final_y": "564238.550753",
    "longitude": "-89.97911394232345",
    "latitude": "30.044586347597484",
    "geocoded_column": {
      "latitude": "30.044586347597484",
      "longitude": "-89.97911394232345"
    }
  },
  {
    "service_request": "2024-1116418",
    "request_type": "Traffic Signals/Signs/Striping/Streetlights",
    "request_reason": "Street Light Outage/Malfunction",
    "date_created": "2024-07-27T19:54:40.000",
    "date_modified": "2024-07-27T19:54:41.000",
    "request_status": "Pending",
    "responsible_agency": "Department of Public Works",
    "final_address": "3120 N Johnson St",
    "address_councildis": "D",
    "status": "Assigned to Contractor",
    "contractor": "Legacy Professional Services",
    "rowid": "1116418",
    "final_x": "3689982.77398",
    "final_y": "539296.37185",
    "longitude": "-90.04100792420098",
    "latitude": "29.97661769776352",
    "geocoded_column": {
      "latitude": "29.97661769776352",
      "longitude": "-90.04100792420098"
    }
  },
  {
    "service_request": "2024-1116417",
    "request_type": "Roads/Drainage",
    "request_reason": "Man hole cover issue",
    "date_created": "2024-07-27T19:45:11.000",
    "date_modified": "2024-07-27T19:45:11.000",
    "request_status": "Pending",
    "responsible_agency": "Department of Public Works",
    "final_address": "1100 S Carrollton Ave",
    "address_councildis": "A",
    "status": "Pending",
    "rowid": "1116417",
    "final_x": "3661751.90522",
    "final_y": "528190.900672",
    "longitude": "-90.13053836561525",
    "latitude": "29.946926554318562",
    "geocoded_column": {
      "latitude": "29.946926554318562",
      "longitude": "-90.13053836561525"
    }
  },
  {
    "service_request": "2024-1116416",
    "request_type": "Trash/Recycling",
    "request_reason": "Illegal Dumping",
    "date_created": "2024-07-27T19:34:54.000",
    "date_modified": "2024-07-27T19:34:54.000",
    "request_status": "Pending",
    "responsible_agency": "Department of Sanitation",
    "final_address": "4200 BLK S Derbigny St",
    "address_councildis": "B",
    "status": "Pending",
    "rowid": "1116416",
    "final_x": "3670882.70282",
    "final_y": "526305.067584",
    "longitude": "-90.10177299507691",
    "latitude": "29.941474423518752",
    "geocoded_column": {
      "latitude": "29.941474423518752",
      "longitude": "-90.10177299507691"
    }
  },
  {
    "service_request": "2024-1116415",
    "request_type": "Abandoned Vehicles",
    "request_reason": "Abandoned/Junk Vehicles",
    "date_created": "2024-07-27T19:18:08.000",
    "date_modified": "2024-07-27T19:18:08.000",
    "request_status": "Pending",
    "responsible_agency": "Department of Public Works",
    "final_address": "2407 St Thomas St",
    "address_councildis": "B",
    "status": "Pending",
    "rowid": "1116415",
    "final_x": "3678985.68392",
    "final_y": "519956.18124",
    "longitude": "-90.07641016953328",
    "latitude": "29.923775110696408",
    "geocoded_column": {
      "latitude": "29.923775110696408",
      "longitude": "-90.07641016953328"
    }
  },
  {
    "service_request": "2024-1116414",
    "request_type": "Parks & Parkways",
    "request_reason": "Request Tree Service (Right of Way/Public Property)",
    "date_created": "2024-07-27T19:07:09.000",
    "date_modified": "2024-07-27T19:07:09.000",
    "request_status": "Pending",
    "responsible_agency": "Department of Parks & Parkway",
    "final_address": "1800 BLK Allen Toussaint Blvd",
    "address_councildis": "D",
    "status": "Pending",
    "rowid": "1116414",
    "final_x": "3681138.33027",
    "final_y": "555582.230815",
    "longitude": "-90.06837355798129",
    "latitude": "30.021669322024913",
    "geocoded_column": {
      "latitude": "30.021669322024913",
      "longitude": "-90.06837355798129"
    }
  },
  {
    "service_request": "2024-1116413",
    "request_type": "Roads/Drainage",
    "request_reason": "Catch Basin - Clogged",
    "date_created": "2024-07-27T18:55:31.000",
    "date_modified": "2024-07-27T18:55:31.000",
    "request_status": "Pending",
    "responsible_agency": "Department of Public Works",
    "final_address": "1904 Broadway St",
    "address_councildis": "A",
    "status": "Pending",
    "rowid": "1116413",
    "final_x": "3665542.91476",
    "final_y": "528637.769792",
    "longitude": "-90.11855374357985",
    "latitude": "29.948045334061227",
    "geocoded_column": {
      "latitude": "29.948045334061227",
      "longitude": "-90.11855374357985"
    }
  },
  {
    "service_request": "2024-1116412",
    "request_type": "Property Maintenance",
    "request_reason": "Property Maintenance",
    "date_created": "2024-07-27T18:49:58.000",
    "date_modified": "2024-07-27T18:49:58.000",
    "request_status": "Pending",
    "responsible_agency": "Department of Code Enforcement",
    "final_address": "2522 Lavender St",
    "address_councildis": "D",
    "status": "Pending",
    "rowid": "1116412",
    "final_x": "3686487.64809",
    "final_y": "546851.675089",
    "longitude": "-90.05177970305058",
    "latitude": "29.997500020071733",
    "geocoded_column": {
      "latitude": "29.997500020071733",
      "longitude": "-90.05177970305058"
    }
  },
  {
    "service_request": "2024-1116411",
    "request_type": "Property Maintenance",
    "request_reason": "Property Maintenance",
    "date_created": "2024-07-27T18:23:27.000",
    "date_modified": "2024-07-27T18:23:27.000",
    "request_status": "Pending",
    "responsible_agency": "Department of Code Enforcement",
    "final_address": "5328 Franklin Ave",
    "address_councildis": "D",
    "status": "Pending",
    "rowid": "1116411",
    "final_x": "3686598.08463",
    "final_y": "552478.467542",
    "longitude": "-90.05123195217394",
    "latitude": "30.01296825730906",
    "geocoded_column": {
      "latitude": "30.01296825730906",
      "longitude": "-90.05123195217394"
    }
  },
  {
    "service_request": "2024-1116410",
    "request_type": "Property Maintenance",
    "request_reason": "Property Maintenance",
    "date_created": "2024-07-27T18:22:37.000",
    "date_modified": "2024-07-27T18:22:37.000",
    "request_status": "Pending",
    "responsible_agency": "Department of Code Enforcement",
    "final_address": "5324 Franklin Ave",
    "address_councildis": "D",
    "status": "Pending",
    "rowid": "1116410",
    "final_x": "3686600.55574",
    "final_y": "552420.248534",
    "longitude": "-90.0512262029717",
    "latitude": "30.012808100362758",
    "geocoded_column": {
      "latitude": "30.012808100362758",
      "longitude": "-90.0512262029717"
    }
  },
  {
    "service_request": "2024-1116409",
    "request_type": "Trash/Recycling",
    "request_reason": "Replace Trash Cart",
    "date_created": "2024-07-27T18:22:01.000",
    "date_modified": "2024-07-27T18:22:01.000",
    "request_status": "Pending",
    "responsible_agency": "Department of Sanitation",
    "final_address": "2530 Soniat St",
    "address_councildis": "B",
    "status": "Assigned to Contractor",
    "contractor": "IV Waste",
    "rowid": "1116409",
    "final_x": "3668502.44378",
    "final_y": "524818.327036",
    "longitude": "-90.1093381051691",
    "latitude": "29.937456497178466",
    "geocoded_column": {
      "latitude": "29.937456497178466",
      "longitude": "-90.1093381051691"
    }
  },
  {
    "service_request": "2024-1116408",
    "request_type": "Property Maintenance",
    "request_reason": "Property Maintenance",
    "date_created": "2024-07-27T18:21:43.000",
    "date_modified": "2024-07-27T18:21:43.000",
    "request_status": "Pending",
    "responsible_agency": "Department of Code Enforcement",
    "final_address": "5332 Franklin Ave",
    "address_councildis": "D",
    "status": "Pending",
    "rowid": "1116408",
    "final_x": "3686594.38262",
    "final_y": "552509.259478",
    "longitude": "-90.05124255995877",
    "latitude": "30.013053037734434",
    "geocoded_column": {
      "latitude": "30.013053037734434",
      "longitude": "-90.05124255995877"
    }
  },