[
  {
    "service_request": "2025-1238001",
    "request_type": "Trash/Recycling",
    "request_reason": "Order Recycling Cart",
    "date_created": "2025-11-04T23:28:26.000",
    "date_modified": "2025-11-04T23:28:28.000",
    "request_status": "Pending",
    "responsible_agency": "Department of Sanitation",
    "final_address": "9860 Andover Dr",
    "address_councildis": "E",
    "status": "Pending",
    "rowid": "1238001",
    "final_x": "3709130.94635",
    "final_y": "562056.188511",
    "longitude": "-89.97968347338715",
    "latitude": "30.038590739910678",
    "geocoded_column": {
      "latitude": "30.038590739910678",
      "longitude": "-89.97968347338715"
    }
  },
  {
    "service_request": "2025-1238000",
    "request_type": "Property Maintenance",
    "request_reason": "Property Maintenance",
    "date_created": "2025-11-04T22:50:33.000",
    "date_modified": "2025-11-04T22:50:35.000",
    "request_status": "Pending",
    "responsible_agency": "Department of Code Enforcement",
    "final_address": "4400 Dreux Ave",
    "address_councildis": "D",
    "status": "Pending",
    "rowid": "1238000",
    "final_x": "3690032.15952",
    "final_y": "552735.39759",
    "longitude": "-90.04037300801264",
    "latitude": "30.013568619509233",
    "geocoded_column": {
      "latitude": "30.013568619509233",
      "longitude": "-90.04037300801264"
    }
  },
  {
    "service_request": "2025-1237999",
    "request_type": "Safety & Permits",
    "request_reason": "Zoning Enforcement",
    "date_created": "2025-11-04T22:28:48.000",
    "date_modified": "2025-11-04T22:28:50.000",
    "request_status": "Pending",
    "responsible_agency": "Safety and Permits",
    "final_address": "2828 Boyd St",
    "address_councildis": "C",
    "status": "Pending",
    "rowid": "1237999",
    "final_x": "3708194.89963",
    "final_y": "519838.014264",
    "longitude": "-89.984212511078",
    "latitude": "29.922536860354302",
    "geocoded_column": {
      "latitude": "29.922536860354302",
      "longitude": "-89.984212511078"
    }
  },
  {
    "service_request": "2025-1237998",
    "request_type": "Abandoned Vehicles",
    "request_reason": "Abandoned/Junk Vehicles",
    "date_created": "2025-11-04T21:41:44.000",
    "date_modified": "2025-11-04T21:41:46.000",
    "request_status": "Pending",
    "responsible_agency": "Department of Public Works",
    "final_address": "3400 Bacchus Dr",
    "address_councildis": "C",
    "status": "Pending",
    "rowid": "1237998",
    "final_x": "3710219.89189",
    "final_y": "518180.38143",
    "longitude": "-89.97788238447511",
    "latitude": "29.917913237848673",
    "geocoded_column": {
      "latitude": "29.917913237848673",
      "longitude": "-89.97788238447511"
    }
  },
  {
    "service_request": "2025-1237997",
    "request_type": "Trash/Recycling",
    "request_reason": "Request a Large Item Pick Up",
    "date_created": "2025-11-04T21:40:39.000",
    "date_modified": "2025-11-04T21:40:43.000",
    "request_status": "Pending",
    "responsible_agency": "Department of Sanitation",
    "final_address": "5000 Mexico St",
    "address_councildis": "D",
    "status": "Assigned to Contractor",
    "contractor": "IV Waste",
    "rowid": "1237997",
    "final_x": "3690940.74819",
    "final_y": "556509.45129",
    "longitude": "-90.03736748920235",
    "latitude": "30.02391763759887",
    "geocoded_column": {
      "latitude": "30.02391763759887",
      "longitude": "-90.03736748920235"
    }
  },
  {
    "service_request": "2025-1237996",
    "request_type": "Streetlights",
    "request_reason": "Streetlight Outage/Malfunction",
    "date_created": "2025-11-04T20:43:25.000",
    "date_modified": "2025-11-04T20:43:27.000",
    "request_status": "Pending",
    "responsible_agency": "Department of Public Works",
    "final_address": "3507 Paris Ave",
    "address_councildis": "D",
    "status": "Pending",
    "rowid": "1237996",
    "final_x": "3679779.91887",
    "final_y": "545216.171279",
    "longitude": "-90.07302603809407",
    "latitude": "29.993207541220958",
    "geocoded_column": {
      "latitude": "29.993207541220958",
      "longitude": "-90.07302603809407"
    }
  },
  {
    "service_request": "2025-1237995",
    "request_type": "Trash/Recycling",
    "request_reason": "Repair Trash Cart",
    "date_created": "2025-11-04T20:05:17.000",
    "date_modified": "2025-11-04T20:05:20.000",
    "request_status": "Pending",
    "responsible_agency": "Department of Sanitation",
    "final_address": "1573 De Battista Pl",
    "address_councildis": "C",
    "status": "Assigned to Contractor",
    "contractor": "Richards Disposal",
    "rowid": "1237995",
    "final_x": "3699699.53604",
    "final_y": "525181.368893",
    "longitude": "-90.01083411087838",
    "latitude": "29.937501543146986",
    "geocoded_column": {
      "latitude": "29.937501543146986",
      "longitude": "-90.01083411087838"
    }
  },
  {
    "service_request": "2025-1237994",
    "request_type": "Trash/Recycling",
    "request_reason": "Replace Trash Cart",
    "date_created": "2025-11-04T19:58:23.000",
    "date_modified": "2025-11-04T19:58:24.000",
    "request_status": "Pending",
    "responsible_agency": "Department of Sanitation",
    "final_address": "2333 General Taylor St",
    "address_councildis": "B",
    "status": "Assigned to Contractor",
    "contractor": "IV Waste",
    "rowid": "1237994",
    "final_x": "3672039.26574",
    "final_y": "523739.191227",
    "longitude": "-90.09820881311921",
    "latitude": "29.93438486515152",
    "geocoded_column": {
      "latitude": "29.93438486515152",
      "longitude": "-90.09820881311921"
    }
  },
  {
    "service_request": "2025-1237993",
    "request_type": "Road Striping",
    "request_reason": "Lane Striping or other Pavement Markings",
    "date_created": "2025-11-04T19:58:18.000",
    "date_modified": "2025-11-04T19:58:21.000",
    "request_status": "Pending",
    "responsible_agency": "Department of Public Works",
    "final_address": "3418 S Broad St",
    "address_councildis": "B",
    "status": "Pending",
    "rowid": "1237993",
    "final_x": "3670917.52174",
    "final_y": "529478.308673",
    "longitude": "-90.10155536523936",
    "latitude": "29.950198770789438",
    "geocoded_column": {
      "latitude": "29.950198770789438",
      "longitude": "-90.10155536523936"
    }
  },
  {
    "service_request": "2025-1237992",
    "request_type": "Streetlights",
    "request_reason": "Streetlight Outage/Malfunction",
    "date_created": "2025-11-04T19:53:17.000",
    "date_modified": "2025-11-04T19:53:19.000",
    "request_status": "Pending",
    "responsible_agency": "Department of Public Works",
    "final_address": "3418 S Broad St",
    "address_councildis": "B",
    "status": "Pending",
    "rowid": "1237992",
    "final_x": "3670917.52174",
    "final_y": "529478.308673",
    "longitude": "-90.10155536523936",
    "latitude": "29.950198770789438",
    "geocoded_column": {
      "latitude": "29.950198770789438",
      "longitude": "-90.10155536523936"
    }
  },
  {
    "service_request": "2025-1237991",
    "request_type": "Property Maintenance",
    "request_reason": "Property Maintenance",
    "date_created": "2025-11-04T19:13:34.000",
    "date_modified": "2025-11-04T19:13:36.000",
    "request_status": "Pending",
    "responsible_agency": "Department of Code Enforcement",
    "final_address": "4516 S Robertson St",
    "address_councildis": "B",
    "status": "Pending",
    "rowid": "1237991",
    "final_x": "3669948.49806",
    "final_y": "524303.036476",
    "longitude": "-90.10479024132798",
    "latitude": "29.935997061313838",
    "geocoded_column": {
      "latitude": "29.935997061313838",
      "longitude": "-90.10479024132798"
    }
  },
  {
    "service_request": "2025-1237990",
    "request_type": "Street and Traffic Signs",
    "request_reason": "Traffic or Parking Sign Damaged or Missing",
    "date_created": "2025-11-04T19:06:51.000",
    "date_modified": "2025-11-04T19:06:53.000",
    "request_status": "Pending",
    "responsible_agency": "Department of Public Works",
    "final_address": "1337 Burdette St",
    "address_councildis": "A",
    "status": "Pending",
    "rowid": "1237990",
    "final_x": "3663261.46669",
    "final_y": "528071.509119",
    "longitude": "-90.12577607348997",
    "latitude": "29.94655460838485",
    "geocoded_column": {
      "latitude": "29.94655460838485",
      "longitude": "-90.12577607348997"
    }
  },
  {
    "service_request": "2025-1237989",
    "request_type": "Street and Traffic Signs",
    "request_reason": "Traffic or Parking Sign Damaged or Missing",
    "date_created": "2025-11-04T18:59:33.000",
    "date_modified": "2025-11-04T18:59:36.000",
    "request_status": "Pending",
    "responsible_agency": "Department of Public Works",
    "final_address": "1339 Hillary St",
    "address_councildis": "A",
    "status": "Pending",
    "rowid": "1237989",
    "final_x": "3663770.57402",
    "final_y": "527631.004799",
    "longitude": "-90.12418330929687",
    "latitude": "29.9453286002959",
    "geocoded_column": {
      "latitude": "29.9453286002959",
      "longitude": "-90.12418330929687"
    }
  },
  {
    "service_request": "2025-1237988",
    "request_type": "Trash/Recycling",
    "request_reason": "Replace Trash Cart",
    "date_created": "2025-11-04T18:49:18.000",
    "date_modified": "2025-11-04T18:49:21.000",
    "request_status": "Pending",
    "responsible_agency": "Department of Sanitation",
    "final_address": "3121 Marais St",
    "address_councildis": "C",
    "status": "Assigned to Contractor",
    "contractor": "IV Waste",
    "rowid": "1237988",
    "final_x": "3689273.31145",
    "final_y": "536340.502343",
    "longitude": "-90.0433537176228",
    "latitude": "29.968512080594238",
    "geocoded_column": {
      "latitude": "29.968512080594238",
      "longitude": "-90.0433537176228"
    }
  },
  {
    "service_request": "2025-1237987",
    "request_type": "Parks & Parkways",
    "request_reason": "Request Tree Service (Right of Way/Public Property)",
    "date_created": "2025-11-04T18:38:11.000",
    "date_modified": "2025-11-04T18:38:14.000",
    "request_status": "Pending",
    "responsible_agency": "Department of Parks & Parkway",
    "final_address": "7272 Canal Blvd",
    "address_councildis": "D",
    "status": "Pending",
    "rowid": "1237987",
    "final_x": "3669049.91886",
    "final_y": "555300.200537",
    "longitude": "-90.1065793933683",
    "latitude": "30.0212552408949",
    "geocoded_column": {
      "latitude": "30.0212552408949",
      "longitude": "-90.1065793933683"
    }
  },
  {
    "service_request": "2025-1237986",
    "request_type": "General Services",
    "request_reason": "General Service Request",
    "date_created": "2025-11-04T18:18:34.000",
    "date_modified": "2025-11-04T18:18:36.000",
    "request_status": "Pending",
    "responsible_agency": "Orleans Parish Communication District",
    "final_address": "400 BLK Lakeshore Pkwy",
    "address_councildis": "D",
    "status": "Pending",
    "rowid": "1237986",
    "final_x": "3668367.11861",
    "final_y": "557127.282515",
    "longitude": "-90.10867515746642",
    "latitude": "30.026299147803925",
    "geocoded_column": {
      "latitude": "30.026299147803925",
      "longitude": "-90.10867515746642"
    }
  },
  {
    "service_request": "2025-1237985",
    "request_type": "Trash/Recycling",
    "request_reason": "Request a Large Item Pick Up",
    "date_created": "2025-11-04T18:03:53.000",
    "date_modified": "2025-11-04T18:03:56.000",
    "request_status": "Pending",
    "responsible_agency": "Department of Sanitation",
    "final_address": "3421 Dauphine St",
    "address_councildis": "C",
    "status": "Assigned to Contractor",
    "contractor": "IV Waste",
    "rowid": "1237985",
    "final_x": "3690076.09398",
    "final_y": "534552.586885",
    "longitude": "-90.04088218496521",
    "latitude": "29.963571064706723",
    "geocoded_column": {
      "latitude": "29.963571064706723",
      "longitude": "-90.04088218496521"
    }
  },
  {
    "service_request": "2025-1237984",
    "request_type": "Trash/Recycling",
    "request_reason": "Request a Large Item Pick Up",
    "date_created": "2025-11-04T17:57:57.000",
    "date_modified": "2025-11-04T17:57:59.000",
    "request_status": "Pending",
    "responsible_agency": "Department of Sanitation",
    "final_address": "5803 Fontainebleau Dr",
    "address_councildis": "B",
    "status": "Assigned to Contractor",
    "contractor": "IV Waste",
    "rowid": "1237984",
    "final_x": "3668512.14887",
    "final_y": "529857.889601",
    "longitude": "-90.1091374829572",
    "latitude": "29.951313375380714",
    "geocoded_column": {
      "latitude": "29.951313375380714",
      "longitude": "-90.1091374829572"
    }
  },
  {
    "service_request": "2025-1237983",
    "request_type": "Trash/Recycling",
    "request_reason": "Request a Large Item Pick Up",
    "date_created": "2025-11-04T17:57:34.000",
    "date_modified": "2025-11-04T17:57:35.000",
    "request_status": "Pending",
    "responsible_agency": "Department of Sanitation",
    "final_address": "4822 Nottingham Dr",
    "address_councildis": "E",
    "status": "Assigned to Contractor",
    "contractor": "Waste Pro",
    "rowid": "1237983",
    "final_x": "3716281.04607",
    "final_y": "557266.235803",
    "longitude": "-89.95726927273842",
    "latitude": "30.025186097226108",
    "geocoded_column": {
      "latitude": "30.025186097226108",
      "longitude": "-89.95726927273842"
    }
  },
  {
    "service_request": "2025-1237982",
    "request_type": "Streetlights",
    "request_reason": "Streetlight Outage/Malfunction",
    "date_created": "2025-11-04T17:49:56.000",
    "date_modified": "2025-11-04T17:49:57.000",
    "request_status": "Pending",
    "responsible_agency": "Department of Public Works",
    "final_address": "1301 Octavia St",
    "address_councildis": "A",
    "status": "Pending",
    "rowid": "1237982",
    "final_x": "3666884.30849",
    "final_y": "520650.338041",
    "longitude": "-90.11458664799541",
    "latitude": "29.926043282841203",
    "geocoded_column": {
      "latitude": "29.926043282841203",
      "longitude": "-90.11458664799541"
    }
  },
  {
    "service_request": "2025-1237981",
    "request_type": "General Services",
    "request_reason": "General Service Request",
    "date_created": "2025-11-04T17:49:02.000",
    "date_modified": "2025-11-04T17:49:05.000",
    "request_status": "Pending",
    "responsible_agency": "Orleans Parish Communication District",
    "final_address": "4122 Hollygrove St",
    "address_councildis": "A",
    "status": "Pending",
    "rowid": "1237981",
    "final_x": "3666643.62119",
    "final_y": "538287.259273",
    "longitude": "-90.11475434099879",
    "latitude": "29.97454612153947",
    "geocoded_column": {
      "latitude": "29.97454612153947",
      "longitude": "-90.11475434099879"
    }
  },
  {
    "service_request": "2025-1237980",
    "request_type": "Abandoned Vehicles",
    "request_reason": "Abandoned/Junk Vehicles",
    "date_created": "2025-11-04T17:20:50.000",
    "date_modified": "2025-11-04T17:20:52.000",
    "request_status": "Pending",
    "responsible_agency": "Department of Public Works",
    "final_address": "8725 Birch St",
    "address_councildis": "A",
    "status": "Pending",
    "rowid": "1237980",
    "final_x": "3661199.41453",
    "final_y": "531023.550466",
    "longitude": "-90.13218903770849",
    "latitude": "29.954731367894414",
    "geocoded_column": {
      "latitude": "29.954731367894414",
      "longitude": "-90.13218903770849"
    }
  },
  {
    "service_request": "2025-1237979",
    "request_type": "Healthy Homes",
    "request_reason": "Healthy Homes",
    "date_created": "2025-11-04T17:01:37.000",
    "date_modified": "2025-11-04T17:01:38.000",
    "request_status": "Pending",
    "responsible_agency": "Department of Code Enforcement",
    "final_address": "1728 Gentilly Blvd Apt 2B",
    "address_councildis": "D",
    "status": "Pending",
    "rowid": "1237979",
    "final_x": "3678725.042",
    "final_y": "541748.745228",
    "longitude": "-90.07647836115896",
    "latitude": "29.983705193507273",
    "geocoded_column": {
      "latitude": "29.983705193507273",
      "longitude": "-90.07647836115896"
    }
  },
  {
    "service_request": "2025-1237978",
    "request_type": "Abandoned Vehicles",
    "request_reason": "Abandoned/Junk Vehicles",
    "date_created": "2025-11-04T16:59:12.000",
    "date_modified": "2025-11-04T16:59:13.000",
    "request_status": "Pending",
    "responsible_agency": "Department of Public Works",
    "final_address": "3502 Vespasian St",
    "address_councildis": "C",
    "status": "Pending",
    "rowid": "1237978",
    "final_x": "3696321.49655",
    "final_y": "522708.266042",
    "longitude": "-90.0215881461155",
    "latitude": "29.930808133313597",
    "geocoded_column": {
      "latitude": "29.930808133313597",
      "longitude": "-90.0215881461155"
    }
  },
  {
    "service_request": "2025-1237977",
    "request_type": "Trash/Recycling",
    "request_reason": "Replace Trash Cart",
    "date_created": "2025-11-04T16:56:58.000",
    "date_modified": "2025-11-04T16:57:00.000",
    "request_status": "Pending",
    "responsible_agency": "Department of Sanitation",
    "final_address": "7311 Cameo St",
    "address_councildis": "D",
    "status": "Assigned to Contractor",
    "contractor": "IV Waste",
    "rowid": "1237977",
    "final_x": "3667886.45825",
    "final_y": "555628.070233",
    "longitude": "-90.11024455966431",
    "latitude": "30.02219096481864",
    "geocoded_column": {
      "latitude": "30.02219096481864",
      "longitude": "-90.11024455966431"
    }
  },
  {
    "service_request": "2025-1237976",
    "request_type": "Trash/Recycling",
    "request_reason": "Request a Large Item Pick Up",
    "date_created": "2025-11-04T16:53:19.000",
    "date_modified": "2025-11-04T16:53:21.000",
    "request_status": "Pending",
    "responsible_agency": "Department of Sanitation",
    "final_address": "7231 Thornley Dr",
    "address_councildis": "E",
    "status": "Assigned to Contractor",
    "contractor": "Waste Pro",
    "rowid": "1237976",
    "final_x": "3702951.08586",
    "final_y": "560296.812509",
    "longitude": "-89.99927809866269",
    "latitude": "30.03395243609643",
    "geocoded_column": {
      "latitude": "30.03395243609643",
      "longitude": "-89.99927809866269"
    }
  },
  {
    "service_request": "2025-1237975",
    "request_type": "Trash/Recycling",
    "request_reason": "Request a Large Item Pick Up",
    "date_created": "2025-11-04T16:39:23.000",
    "date_modified": "2025-11-04T16:39:25.000",
    "request_status": "Pending",
    "responsible_agency": "Department of Sanitation",
    "final_address": "509 S Cortez St",
    "address_councildis": "B",
    "status": "Assigned to Contractor",
    "contractor": "IV Waste",
    "rowid": "1237975",
    "final_x": "3671015.81671",
    "final_y": "536275.390919",
    "longitude": "-90.10101418720207",
    "latitude": "29.968885584531982",
    "geocoded_column": {
      "latitude": "29.968885584531982",
      "longitude": "-90.10101418720207"
    }
  },
  {
    "service_request": "2025-1237974",
    "request_type": "Healthy Homes",
    "request_reason": "Healthy Homes",
    "date_created": "2025-11-04T16:37:56.000",
    "date_modified": "2025-11-04T16:37:58.000",
    "request_status": "Pending",
    "responsible_agency": "Department of Code Enforcement",
    "final_address": "4912 Haik Dr",
    "address_councildis": "D",
    "status": "Pending",
    "rowid": "1237974",
    "final_x": "3681925.20341",
    "final_y": "550757.889621",
    "longitude": "-90.06605584099891",
    "latitude": "30.008380229702595",
    "geocoded_column": {
      "latitude": "30.008380229702595",
      "longitude": "-90.06605584099891"
    }
  },
  {
    "service_request": "2025-1237973",
    "request_type": "Healthy Homes",
    "request_reason": "Healthy Homes",
    "date_created": "2025-11-04T16:36:57.000",
    "date_modified": "2025-11-04T16:36:59.000",
    "request_status": "Pending",
    "responsible_agency": "Department of Code Enforcement",
    "final_address": "1909 Port St",
    "address_councildis": "D",
    "status": "Pending",
    "rowid": "1237973",
    "final_x": "3688250.60316",
    "final_y": "539526.125322",
    "longitude": "-90.04647048926896",
    "latitude": "29.97730304250434",
    "geocoded_column": {
      "latitude": "29.97730304250434",
      "longitude": "-90.04647048926896"
    }
  },
  {
    "service_request": "2025-1237972",
    "request_type": "Trash/Recycling",
    "request_reason": "Replace Trash Cart",
    "date_created": "2025-11-04T16:33:07.000",
    "date_modified": "2025-11-04T16:33:09.000",
    "request_status": "Pending",
    "responsible_agency": "Department of Sanitation",
    "final_address": "5234 Westlake Dr",
    "address_councildis": "E",
    "status": "Assigned to Contractor",
    "contractor": "Waste Pro",
    "rowid": "1237972",
    "final_x": "3699250.45271",
    "final_y": "556775.64137",
    "longitude": "-90.01110088952858",
    "latitude": "30.024388518730735",
    "geocoded_column": {
      "latitude": "30.024388518730735",
      "longitude": "-90.01110088952858"
    }
  },
  {
    "service_request": "2025-1237971",
    "request_type": "Trash/Recycling",
    "request_reason": "Replace Trash Cart",
    "date_created": "2025-11-04T16:29:48.000",
    "date_modified": "2025-11-04T16:29:51.000",
    "request_status": "Pending",
    "responsible_agency": "Department of Sanitation",
    "final_address": "904 St Ann St",
    "address_councildis": "C",
    "status": "Assigned to Contractor",
    "contractor": "IV Waste",
    "rowid": "1237971",
    "final_x": "3682145.83426",
    "final_y": "533214.229316",
    "longitude": "-90.06597184006117",
    "latitude": "29.960134611639447",
    "geocoded_column": {
      "latitude": "29.960134611639447",
      "longitude": "-90.06597184006117"
    }
  },
  {
    "service_request": "2025-1237970",
    "request_type": "Drainage",
    "request_reason": "Illegal Dumping (Sewer Odor)",
    "date_created": "2025-11-04T16:23:37.000",
    "date_modified": "2025-11-04T16:24:35.000",
    "request_status": "Pending",
    "responsible_agency": "Sewerage & Water Board",
    "final_address": "4500 BLK Bonita Dr",
    "address_councildis": "E",
    "status": "Pending",
    "rowid": "1237970",
    "final_x": "3704610.408",
    "final_y": "553974.420382",
    "longitude": "-89.9942679626071",
    "latitude": "30.016515085581247",
    "geocoded_column": {
      "latitude": "30.016515085581247",
      "longitude": "-89.9942679626071"
    }
  },
  {
    "service_request": "2025-1237969",
    "request_type": "Trash/Recycling",
    "request_reason": "Request a Large Item Pick Up",
    "date_created": "2025-11-04T16:19:59.000",
    "date_modified": "2025-11-04T16:20:01.000",
    "request_status": "Pending",
    "responsible_agency": "Department of Sanitation",
    "final_address": "401 Andry St",
    "address_councildis": "E",
    "status": "Assigned to Contractor",
    "contractor": "Waste Pro",
    "rowid": "1237969",
    "final_x": "3696548.85661",
    "final_y": "531596.573827",
    "longitude": "-90.02054893466108",
    "latitude": "29.955240734818638",
    "geocoded_column": {
      "latitude": "29.955240734818638",
      "longitude": "-90.02054893466108"
    }
  },
  {
    "service_request": "2025-1237968",
    "request_type": "Roads and Streets",
    "request_reason": "Pothole",
    "date_created": "2025-11-04T16:17:05.000",
    "date_modified": "2025-11-04T16:17:07.000",
    "request_status": "Pending",
    "responsible_agency": "Department of Public Works",
    "final_address": "4300 BLK Mithra St",
    "address_councildis": "D",
    "status": "Pending",
    "rowid": "1237968",
    "final_x": "3689881.39317",
    "final_y": "553198.824164",
    "longitude": "-90.0408328335802",
    "latitude": "30.014847547988246",
    "geocoded_column": {
      "latitude": "30.014847547988246",
      "longitude": "-90.0408328335802"
    }
  },
  {
    "service_request": "2025-1237967",
    "request_type": "Trash/Recycling",
    "request_reason": "Request a Large Item Pick Up",
    "date_created": "2025-11-04T16:16:24.000",
    "date_modified": "2025-11-04T16:16:26.000",
    "request_status": "Pending",
    "responsible_agency": "Department of Sanitation",
    "final_address": "7540 Daniel Dr",
    "address_councildis": "E",
    "status": "Assigned to Contractor",
    "contractor": "Waste Pro",
    "rowid": "1237967",
    "final_x": "3705150.08452",
    "final_y": "562534.1128",
    "longitude": "-89.99224629747638",
    "latitude": "30.04003355219674",
    "geocoded_column": {
      "latitude": "30.04003355219674",
      "longitude": "-89.99224629747638"
    }
  },
  {
    "service_request": "2025-1237966",
    "request_type": "Property Maintenance",
    "request_reason": "Property Maintenance",
    "date_created": "2025-11-04T16:14:29.000",
    "date_modified": "2025-11-04T16:14:31.000",
    "request_status": "Pending",
    "responsible_agency": "Department of Code Enforcement",
    "final_address": "610 Park Blvd",
    "address_councildis": "C",
    "status": "Pending",
    "rowid": "1237966",
    "final_x": "3687685.64931",
    "final_y": "525924.696189",
    "longitude": "-90.04873639317188",
    "latitude": "29.93992124636378",
    "geocoded_column": {
      "latitude": "29.93992124636378",
      "longitude": "-90.04873639317188"
    }
  },
  {
    "service_request": "2025-1237965",
    "request_type": "Trash/Recycling",
    "request_reason": "Repair Trash Cart",
    "date_created": "2025-11-04T16:14:07.000",
    "date_modified": "2025-11-04T16:14:09.000",
    "request_status": "Pending",
    "responsible_agency": "Department of Sanitation",
    "final_address": "800 Germain St",
    "address_councildis": "A",
    "status": "Assigned to Contractor",
    "contractor": "IV Waste",
    "rowid": "1237965",
    "final_x": "3669334.23956",
    "final_y": "547813.218706",
    "longitude": "-90.10593442278575",
    "latitude": "30.000660300430518",
    "geocoded_column": {
      "latitude": "30.000660300430518",
      "longitude": "-90.10593442278575"
    }
  },
  {
    "service_request": "2025-1237964",
    "request_type": "Healthy Homes",
    "request_reason": "Healthy Homes",
    "date_created": "2025-11-04T16:14:00.000",
    "date_modified": "2025-11-04T16:14:01.000",
    "request_status": "Pending",
    "responsible_agency": "Department of Code Enforcement",
    "final_address": "2101 Fats Domino Ave",
    "address_councildis": "E",
    "status": "Pending",
    "rowid": "1237964",
    "final_x": "3699096.77104",
    "final_y": "537515.39444",
    "longitude": "-90.01228813751293",
    "latitude": "29.97143486540345",
    "geocoded_column": {
      "latitude": "29.97143486540345",
      "longitude": "-90.01228813751293"
    }
  },
  {
    "service_request": "2025-1237963",
    "request_type": "Trash/Recycling",
    "request_reason": "Request a Large Item Pick Up",
    "date_created": "2025-11-04T16:11:56.000",
    "date_modified": "2025-11-04T16:11:59.000",
    "request_status": "Pending",
    "responsible_agency": "Department of Sanitation",
    "final_address": "7534 Birch St",
    "address_councildis": "A",
    "status": "Assigned to Contractor",
    "contractor": "IV Waste",
    "rowid": "1237963",
    "final_x": "3664291.62176",
    "final_y": "528107.041855",
    "longitude": "-90.12252230623676",
    "latitude": "29.94662242023292",
    "geocoded_column": {
      "latitude": "29.94662242023292",
      "longitude": "-90.12252230623676"
    }
  },
  {
    "service_request": "2025-1237962",
    "request_type": "Trash/Recycling",
    "request_reason": "Order Recycling Cart",
    "date_created": "2025-11-04T16:09:14.000",
    "date_modified": "2025-11-04T16:09:16.000",
    "request_status": "Pending",
    "responsible_agency": "Department of Sanitation",
    "final_address": "4421 Fontainebleau Dr",
    "address_councildis": "B",
    "status": "Pending",
    "rowid": "1237962",
    "final_x": "3669104.59226",
    "final_y": "529704.994625",
    "longitude": "-90.1072719984842",
    "latitude": "29.950875546737535",
    "geocoded_column": {
      "latitude": "29.950875546737535",
      "longitude": "-90.1072719984842"
    }
  },
  {
    "service_request": "2025-1237961",
    "request_type": "Trash/Recycling",
    "request_reason": "Order Trash Cart",
    "date_created": "2025-11-04T16:08:56.000",
    "date_modified": "2025-11-04T16:08:57.000",
    "request_status": "Pending",
    "responsible_agency": "Department of Sanitation",
    "final_address": "4421 Fontainebleau Dr",
    "address_councildis": "B",
    "status": "Assigned to Contractor",
    "contractor": "IV Waste",
    "rowid": "1237961",
    "final_x": "3669104.59226",
    "final_y": "529704.994625",
    "longitude": "-90.1072719984842",
    "latitude": "29.950875546737535",
    "geocoded_column": {
      "latitude": "29.950875546737535",
      "longitude": "-90.1072719984842"
    }
  },
  {
    "service_request": "2025-1237960",
    "request_type": "Abandoned Vehicles",
    "request_reason": "Abandoned/Junk Vehicles",
    "date_created": "2025-11-04T16:06:40.000",
    "date_modified": "2025-11-04T16:06:41.000",
    "request_status": "Pending",
    "responsible_agency": "Department of Public Works",
    "final_address": "1938 Fats Domino Ave",
    "address_councildis": "E",
    "status": "Pending",
    "rowid": "1237960",
    "final_x": "3698866.24304",
    "final_y": "537087.795464",
    "longitude": "-90.01303173402373",
    "latitude": "29.970266428042983",
    "geocoded_column": {
      "latitude": "29.970266428042983",
      "longitude": "-90.01303173402373"
    }
  },
  {
    "service_request": "2025-1237959",
    "request_type": "Trash/Recycling",
    "request_reason": "Request a Large Item Pick Up",
    "date_created": "2025-11-04T16:00:50.000",
    "date_modified": "2025-11-04T16:01:41.000",
    "request_status": "Pending",
    "responsible_agency": "Department of Sanitation",
    "final_address": "14724 Emory Rd",
    "address_councildis": "E",
    "status": "Assigned to Contractor",
    "contractor": "Waste Pro",
    "rowid": "1237959",
    "final_x": "3720429.11724",
    "final_y": "573567.899818",
    "longitude": "-89.94353740348582",
    "latitude": "30.069871329133974",
    "geocoded_column": {
      "latitude": "30.069871329133974",
      "longitude": "-89.94353740348582"
    }
  },
  {
    "service_request": "2025-1237958",
    "request_type": "Trash/Recycling",
    "request_reason": "Request a Large Item Pick Up",
    "date_created": "2025-11-04T16:00:35.000",
    "date_modified": "2025-11-04T16:00:37.000",
    "request_status": "Pending",
    "responsible_agency": "Department of Sanitation",
    "final_address": "511 S Pierce St",
    "address_councildis": "A",
    "status": "Assigned to Contractor",
    "contractor": "IV Waste",
    "rowid": "1237958",
    "final_x": "3670409.38177",
    "final_y": "536702.390791",
    "longitude": "-90.10291487206533",
    "latitude": "29.97007761042458",
    "geocoded_column": {
      "latitude": "29.97007761042458",
      "longitude": "-90.10291487206533"
    }
  },
  {
    "service_request": "2025-1237957",
    "request_type": "Trash/Recycling",
    "request_reason": "Request a Large Item Pick Up",
    "date_created": "2025-11-04T15:59:38.000",
    "date_modified": "2025-11-04T15:59:40.000",
    "request_status": "Pending",
    "responsible_agency": "Department of Sanitation",
    "final_address": "428 Delery St",
    "address_councildis": "E",
    "status": "Assigned to Contractor",
    "contractor": "Waste Pro",
    "rowid": "1237957",
    "final_x": "3699539.8746",
    "final_y": "530814.071362",
    "longitude": "-90.01113297204942",
    "latitude": "29.952994565922367",
    "geocoded_column": {
      "latitude": "29.952994565922367",
      "longitude": "-90.01113297204942"
    }
  },
  {
    "service_request": "2025-1237956",
    "request_type": "Trash/Recycling",
    "request_reason": "Request a Large Item Pick Up",
    "date_created": "2025-11-04T15:59:26.000",
    "date_modified": "2025-11-04T15:59:28.000",
    "request_status": "Pending",
    "responsible_agency": "Department of Sanitation",
    "final_address": "2118 Marais St",
    "address_councildis": "C",
    "status": "Assigned to Contractor",
    "contractor": "IV Waste",
    "rowid": "1237956",
    "final_x": "3684730.34063",
    "final_y": "536612.213447",
    "longitude": "-90.05769107789219",
    "latitude": "29.96939903946583",
    "geocoded_column": {
      "latitude": "29.96939903946583",
      "longitude": "-90.05769107789219"
    }
  },
  {
    "service_request": "2025-1237955",
    "request_type": "Abandoned Vehicles",
    "request_reason": "Abandoned/Junk Vehicles",
    "date_created": "2025-11-04T15:58:33.000",
    "date_modified": "2025-11-04T15:58:34.000",
    "request_status": "Pending",
    "responsible_agency": "Department of Public Works",
    "final_address": "1015 Race St",
    "address_councildis": "B",
    "status": "Pending",
    "rowid": "1237955",
    "final_x": "3680435.47682",
    "final_y": "523833.788219",
    "longitude": "-90.07169893066329",
    "latitude": "29.934393447801526",
    "geocoded_column": {
      "latitude": "29.934393447801526",
      "longitude": "-90.07169893066329"
    }
  },
  {
    "service_request": "2025-1237954",
    "request_type": "Trash/Recycling",
    "request_reason": "Replace Trash Cart",
    "date_created": "2025-11-04T15:58:16.000",
    "date_modified": "2025-11-04T15:58:18.000",
    "request_status": "Pending",
    "responsible_agency": "Department of Sanitation",
    "final_address": "2615 S Prieur St",
    "address_councildis": "B",
    "status": "Assigned to Contractor",
    "contractor": "IV Waste",
    "rowid": "1237954",
    "final_x": "3672956.43368",
    "final_y": "527879.773439",
    "longitude": "-90.0951720851277",
    "latitude": "29.945742899536448",
    "geocoded_column": {
      "latitude": "29.945742899536448",
      "longitude": "-90.0951720851277"
    }
  },
  {
    "service_request": "2025-1237953",
    "request_type": "Trash/Recycling",
    "request_reason": "Request a Large Item Pick Up",
    "date_created": "2025-11-04T15:53:14.000",
    "date_modified": "2025-11-04T15:53:16.000",
    "request_status": "Pending",
    "responsible_agency": "Department of Sanitation",
    "final_address": "5 Alice Ct",
    "address_councildis": "E",
    "status": "Assigned to Contractor",
    "contractor": "Waste Pro",
    "rowid": "1237953",
    "final_x": "3696783.60669",
    "final_y": "533846.636549",
    "longitude": "-90.01972623332642",
    "latitude": "29.96142021521976",
    "geocoded_column": {
      "latitude": "29.96142021521976",
      "longitude": "-90.01972623332642"
    }
  },
  {
    "service_request": "2025-1237952",
    "request_type": "Trash/Recycling",
    "request_reason": "Return Recycling Cart",
    "date_created": "2025-11-04T15:50:32.000",
    "date_modified": "2025-11-04T15:50:34.000",
    "request_status": "Pending",
    "responsible_agency": "Department of Sanitation",
    "final_address": "32 Olympic Ct",
    "address_councildis": "C",
    "status": "Pending",
    "rowid": "1237952",
    "final_x": "3699734.25834",
    "final_y": "515853.775156",
    "longitude": "-90.01106431060758",
    "latitude": "29.91185276043689",
    "geocoded_column": {
      "latitude": "29.91185276043689",
      "longitude": "-90.01106431060758"
    }
  },
  {
    "service_request": "2025-1237951",
    "request_type": "Streetlights",
    "request_reason": "Streetlight Outage/Malfunction",
    "date_created": "2025-11-04T15:47:20.000",
    "date_modified": "2025-11-04T15:47:22.000",
    "request_status": "Pending",
    "responsible_agency": "Department of Public Works",
    "final_address": "32 Olympic Ct",
    "address_councildis": "C",
    "status": "Pending",
    "rowid": "1237951",
    "final_x": "3699734.25834",
    "final_y": "515853.775156",
    "longitude": "-90.01106431060758",
    "latitude": "29.91185276043689",
    "geocoded_column": {
      "latitude": "29.91185276043689",
      "longitude": "-90.01106431060758"
    }
  },
  {
    "service_request": "2025-1237950",
    "request_type": "Property Maintenance",
    "request_reason": "Property Maintenance",
    "date_created": "2025-11-04T15:47:14.000",
    "date_modified": "2025-11-04T15:47:16.000",
    "request_status": "Pending",
    "responsible_agency": "Department of Code Enforcement",
    "final_address": "3106 Upperline St",
    "address_councildis": "B",
    "status": "Pending",
    "rowid": "1237950",
    "final_x": "3669206.58785",
    "final_y": "526414.701822",
    "longitude": "-90.10706113054808",
    "latitude": "29.94182531119544",
    "geocoded_column": {
      "latitude": "29.94182531119544",
      "longitude": "-90.10706113054808"
    }
  },
  {
    "service_request": "2025-1237949",
    "request_type": "Trash/Recycling",
    "request_reason": "Request a Large Item Pick Up",
    "date_created": "2025-11-04T15:43:39.000",
    "date_modified": "2025-11-04T15:43:42.000",
    "request_status": "Pending",
    "responsible_agency": "Department of Sanitation",
    "final_address": "2101 Adams St",
    "address_councildis": "A",
    "status": "Assigned to Contractor",
    "contractor": "IV Waste",
    "rowid": "1237949",
    "final_x": "3665232.16711",
    "final_y": "529714.857217",
    "longitude": "-90.11949887749869",
    "latitude": "29.95101603102012",
    "geocoded_column": {
      "latitude": "29.95101603102012",
      "longitude": "-90.11949887749869"
    }
  },
  {
    "service_request": "2025-1237948",
    "request_type": "Street and Traffic Signs",
    "request_reason": "Traffic or Parking Sign Damaged or Missing",
    "date_created": "2025-11-04T15:42:48.000",
    "date_modified": "2025-11-04T15:42:49.000",
    "request_status": "Pending",
    "responsible_agency": "Department of Public Works",
    "final_address": "12345 N Interstate 10 Service Rd",
    "address_councildis": "E",
    "status": "Pending",
    "rowid": "1237948",
    "final_x": "3716593.31205",
    "final_y": "566491.532899",
    "longitude": "-89.95593215830806",
    "latitude": "30.050541620166843",
    "geocoded_column": {
      "latitude": "30.050541620166843",
      "longitude": "-89.95593215830806"
    }
  },
  {
    "service_request": "2025-1237947",
    "request_type": "Traffic Signals",
    "request_reason": "Traffic Signal Malfunctioning or Damaged",
    "date_created": "2025-11-04T15:42:32.000",
    "date_modified": "2025-11-04T15:42:34.000",
    "request_status": "Pending",
    "responsible_agency": "Department of Public Works",
    "final_address": "ST BERNARD AVE & I 610 E",
    "address_councildis": "D",
    "status": "Pending",
    "rowid": "1237947",
    "final_x": "3678420.3",
    "final_y": "545069.28",
    "longitude": "-90.07732593505737",
    "latitude": "29.992844691153376",
    "geocoded_column": {
      "latitude": "29.992844691153376",
      "longitude": "-90.07732593505737"
    }
  },
  {
    "service_request": "2025-1237946",
    "request_type": "Property Maintenance",
    "request_reason": "Property Maintenance",
    "date_created": "2025-11-04T15:40:19.000",
    "date_modified": "2025-11-04T15:59:48.000",
    "request_status": "Pending",
    "responsible_agency": "Department of Code Enforcement",
    "final_address": "2343 Tennessee St",
    "address_councildis": "E",
    "status": "Pending",
    "rowid": "1237946",
    "final_x": "3697085.31831",
    "final_y": "539153.61697",
    "longitude": "-90.01858119624613",
    "latitude": "29.976002999874257",
    "geocoded_column": {
      "latitude": "29.976002999874257",
      "longitude": "-90.01858119624613"
    }
  },
  {
    "service_request": "2025-1237945",
    "request_type": "Trash/Recycling",
    "request_reason": "Request a Large Item Pick Up",
    "date_created": "2025-11-04T15:39:00.000",
    "date_modified": "2025-11-04T15:39:03.000",
    "request_status": "Pending",
    "responsible_agency": "Department of Sanitation",
    "final_address": "1636 N Miro St",
    "address_councildis": "D",
    "status": "Assigned to Contractor",
    "contractor": "IV Waste",
    "rowid": "1237945",
    "final_x": "3680720.76904",
    "final_y": "539270.345354",
    "longitude": "-90.07026108486727",
    "latitude": "29.97683011367257",
    "geocoded_column": {
      "latitude": "29.97683011367257",
      "longitude": "-90.07026108486727"
    }
  },
  {
    "service_request": "2025-1237944",
    "request_type": "Trash/Recycling",
    "request_reason": "Illegal Dumping",
    "date_created": "2025-11-04T15:37:25.000",
    "date_modified": "2025-11-04T15:38:14.000",
    "request_status": "Pending",
    "responsible_agency": "Department of Sanitation",
    "final_address": "N TONTI ST & FRENCHMEN ST",
    "address_councildis": "D",
    "status": "Pending",
    "rowid": "1237944",
    "final_x": "3684235.5",
    "final_y": "540690.28",
    "longitude": "-90.05911060345451",
    "latitude": "29.980627437615333",
    "geocoded_column": {
      "latitude": "29.980627437615333",
      "longitude": "-90.05911060345451"
    }
  },
  {
    "service_request": "2025-1237943",
    "request_type": "Drainage",
    "request_reason": "Catch Basin Not Draining",
    "date_created": "2025-11-04T15:35:29.000",
    "date_modified": "2025-11-04T15:35:31.000",
    "request_status": "Pending",
    "responsible_agency": "Sewerage & Water Board",
    "final_address": "2348 Philip St",
    "address_councildis": "B",
    "status": "Pending",
    "rowid": "1237943",
    "final_x": "3675508.11745",
    "final_y": "525758.724157",
    "longitude": "-90.0871883958191",
    "latitude": "29.939834649919455",
    "geocoded_column": {
      "latitude": "29.939834649919455",
      "longitude": "-90.0871883958191"
    }
  },
  {
    "service_request": "2025-1237942",
    "request_type": "Streetlights",
    "request_reason": "Streetlight Outage/Malfunction",
    "date_created": "2025-11-04T15:34:55.000",
    "date_modified": "2025-11-04T15:34:57.000",
    "request_status": "Pending",
    "responsible_agency": "Department of Public Works",
    "final_address": "1701 S Dupre St",
    "address_councildis": "B",
    "status": "Pending",
    "rowid": "1237942",
    "final_x": "3670715.78868",
    "final_y": "530125.390145",
    "longitude": "-90.10217038059034",
    "latitude": "29.951983993737848",
    "geocoded_column": {
      "latitude": "29.951983993737848",
      "longitude": "-90.10217038059034"
    }
  },
  {
    "service_request": "2025-1237941",
    "request_type": "Trash/Recycling",
    "request_reason": "Replace Trash Cart",
    "date_created": "2025-11-04T15:33:55.000",
    "date_modified": "2025-11-04T15:33:58.000",
    "request_status": "Pending",
    "responsible_agency": "Department of Sanitation",
    "final_address": "1929 Pine St",
    "address_councildis": "A",
    "status": "Assigned to Contractor",
    "contractor": "IV Waste",
    "rowid": "1237941",
    "final_x": "3665461.07776",
    "final_y": "528868.249536",
    "longitude": "-90.11880442369709",
    "latitude": "29.94868146424032",
    "geocoded_column": {
      "latitude": "29.94868146424032",
      "longitude": "-90.11880442369709"
    }
  },
  {
    "service_request": "2025-1237940",
    "request_type": "Trash/Recycling",
    "request_reason": "Request a Large Item Pick Up",
    "date_created": "2025-11-04T15:30:00.000",
    "date_modified": "2025-11-04T15:30:02.000",
    "request_status": "Pending",
    "responsible_agency": "Department of Sanitation",
    "final_address": "6641 Morrison Rd",
    "address_councildis": "E",
    "status": "Assigned to Contractor",
    "contractor": "Waste Pro",
    "rowid": "1237940",
    "final_x": "3698174.01207",
    "final_y": "558606.440668",
    "longitude": "-90.01443564252658",
    "latitude": "30.029456626398463",
    "geocoded_column": {
      "latitude": "30.029456626398463",
      "longitude": "-90.01443564252658"
    }
  },
  {
    "service_request": "2025-1237939",
    "request_type": "Trash/Recycling",
    "request_reason": "Request a Large Item Pick Up",
    "date_created": "2025-11-04T15:28:51.000",
    "date_modified": "2025-11-04T15:28:53.000",
    "request_status": "Pending",
    "responsible_agency": "Department of Sanitation",
    "final_address": "5715 Dauphine St",
    "address_councildis": "E",
    "status": "Assigned to Contractor",
    "contractor": "Waste Pro",
    "rowid": "1237939",
    "final_x": "3698197.70544",
    "final_y": "532553.081092",
    "longitude": "-90.01530776625226",
    "latitude": "29.95781874524404",
    "geocoded_column": {
      "latitude": "29.95781874524404",
      "longitude": "-90.01530776625226"
    }
  },
  {
    "service_request": "2025-1237938",
    "request_type": "Streetlights",
    "request_reason": "Streetlight Outage/Malfunction",
    "date_created": "2025-11-04T15:27:29.000",
    "date_modified": "2025-11-04T15:27:33.000",
    "request_status": "Pending",
    "responsible_agency": "Department of Public Works",
    "final_address": "4611 Lurline St",
    "address_councildis": "E",
    "status": "Pending",
    "rowid": "1237938",
    "final_x": "3712135.56472",
    "final_y": "555288.797593",
    "longitude": "-89.97044254141136",
    "latitude": "30.01988515562522",
    "geocoded_column": {
      "latitude": "30.01988515562522",
      "longitude": "-89.97044254141136"
    }
  },
  {
    "service_request": "2025-1237937",
    "request_type": "Trash/Recycling",
    "request_reason": "Request a Large Item Pick Up",
    "date_created": "2025-11-04T15:21:42.000",
    "date_modified": "2025-11-04T15:21:44.000",
    "request_status": "Pending",
    "responsible_agency": "Department of Sanitation",
    "final_address": "7820 Shubrick Ave",
    "address_councildis": "E",
    "status": "Assigned to Contractor",
    "contractor": "Waste Pro",
    "rowid": "1237937",
    "final_x": "3706460.7594",
    "final_y": "564213.271201",
    "longitude": "-89.98804188108076",
    "latitude": "30.044608326470303",
    "geocoded_column": {
      "latitude": "30.044608326470303",
      "longitude": "-89.98804188108076"
    }
  },
  {
    "service_request": "2025-1237936",
    "request_type": "Trash/Recycling",
    "request_reason": "Request a Large Item Pick Up",
    "date_created": "2025-11-04T15:17:57.000",
    "date_modified": "2025-11-04T15:18:00.000",
    "request_status": "Pending",
    "responsible_agency": "Department of Sanitation",
    "final_address": "7733 Freret St",
    "address_councildis": "A",
    "status": "Assigned to Contractor",
    "contractor": "IV Waste",
    "rowid": "1237936",
    "final_x": "3662437.93197",
    "final_y": "527047.359678",
    "longitude": "-90.12841028298374",
    "latitude": "29.94376236320937",
    "geocoded_column": {
      "latitude": "29.94376236320937",
      "longitude": "-90.12841028298374"
    }
  },
  {
    "service_request": "2025-1237935",
    "request_type": "Streetlights",
    "request_reason": "Streetlight Outage/Malfunction",
    "date_created": "2025-11-04T15:15:18.000",
    "date_modified": "2025-11-04T15:15:20.000",
    "request_status": "Pending",
    "responsible_agency": "Department of Public Works",
    "final_address": "1008 Toulouse St",
    "address_councildis": "C",
    "status": "Pending",
    "rowid": "1237935",
    "final_x": "3681358.37436",
    "final_y": "532838.760068",
    "longitude": "-90.06847155691145",
    "latitude": "29.9591261243876",
    "geocoded_column": {
      "latitude": "29.9591261243876",
      "longitude": "-90.06847155691145"
    }
  },
  {
    "service_request": "2025-1237934",
    "request_type": "Trash/Recycling",
    "request_reason": "Repair Trash Cart",
    "date_created": "2025-11-04T15:15:14.000",
    "date_modified": "2025-11-04T15:15:16.000",
    "request_status": "Pending",
    "responsible_agency": "Department of Sanitation",
    "final_address": "4741 Bienville Ave",
    "address_councildis": "A",
    "status": "Assigned to Contractor",
    "contractor": "IV Waste",
    "rowid": "1237934",
    "final_x": "3669404.45722",
    "final_y": "540682.960459",
    "longitude": "-90.10595387869155",
    "latitude": "29.981052468981787",
    "geocoded_column": {
      "latitude": "29.981052468981787",
      "longitude": "-90.10595387869155"
    }
  },
  {
    "service_request": "2025-1237933",
    "request_type": "Graffiti Removal",
    "request_reason": "Graffiti Removal",
    "date_created": "2025-11-04T15:13:35.000",
    "date_modified": "2025-11-04T15:13:37.000",
    "request_status": "Pending",
    "responsible_agency": "Department of Code Enforcement",
    "final_address": "1000 BLK Toulouse St",
    "address_councildis": "C",
    "status": "Pending",
    "rowid": "1237933",
    "final_x": "3681308.17803",
    "final_y": "532915.952985",
    "longitude": "-90.06862737408439",
    "latitude": "29.959339902137188",
    "geocoded_column": {
      "latitude": "29.959339902137188",
      "longitude": "-90.06862737408439"
    }
  },
  {
    "service_request": "2025-1237931",
    "request_type": "Street and Traffic Signs",
    "request_reason": "Additional Signage Request",
    "date_created": "2025-11-04T15:13:11.000",
    "date_modified": "2025-11-04T15:13:13.000",
    "request_status": "Pending",
    "responsible_agency": "Department of Public Works",
    "final_address": "2931 St Thomas St",
    "address_councildis": "B",
    "status": "Pending",
    "rowid": "1237931",
    "final_x": "3677395.83694",
    "final_y": "518901.021623",
    "longitude": "-90.08146513097275",
    "latitude": "29.92092162089272",
    "geocoded_column": {
      "latitude": "29.92092162089272",
      "longitude": "-90.08146513097275"
    }
  },
  {
    "service_request": "2025-1237930",
    "request_type": "Trash/Recycling",
    "request_reason": "Order Trash Cart",
    "date_created": "2025-11-04T15:10:06.000",
    "date_modified": "2025-11-04T15:10:08.000",
    "request_status": "Pending",
    "responsible_agency": "Department of Sanitation",
    "final_address": "6019 Baccich St",
    "address_councildis": "D",
    "status": "Assigned to Contractor",
    "contractor": "IV Waste",
    "rowid": "1237930",
    "final_x": "3687527.43414",
    "final_y": "555448.173465",
    "longitude": "-90.04819048430372",
    "latitude": "30.021105226475118",
    "geocoded_column": {
      "latitude": "30.021105226475118",
      "longitude": "-90.04819048430372"
    }
  },
  {
    "service_request": "2025-1237929",
    "request_type": "Trash/Recycling",
    "request_reason": "Request a Large Item Pick Up",
    "date_created": "2025-11-04T15:06:38.000",
    "date_modified": "2025-11-04T15:06:40.000",
    "request_status": "Pending",
    "responsible_agency": "Department of Sanitation",
    "final_address": "5861 Kensington Blvd",
    "address_councildis": "E",
    "status": "Assigned to Contractor",
    "contractor": "Waste Pro",
    "rowid": "1237929",
    "final_x": "3713234.78821",
    "final_y": "561211.780318",
    "longitude": "-89.96674618549075",
    "latitude": "30.03613501265572",
    "geocoded_column": {
      "latitude": "30.03613501265572",
      "longitude": "-89.96674618549075"
    }
  },
  {
    "service_request": "2025-1237928",
    "request_type": "Trash/Recycling",
    "request_reason": "Repair Recycling Cart",
    "date_created": "2025-11-04T15:06:09.000",
    "date_modified": "2025-11-04T15:06:10.000",
    "request_status": "Pending",
    "responsible_agency": "Department of Sanitation",
    "final_address": "1628 S Liberty St",
    "address_councildis": "B",
    "status": "Pending",
    "rowid": "1237928",
    "final_x": "3676708.0683",
    "final_y": "526473.240062",
    "longitude": "-90.08337536673302",
    "latitude": "29.941763395677828",
    "geocoded_column": {
      "latitude": "29.941763395677828",
      "longitude": "-90.08337536673302"
    }
  },
  {
    "service_request": "2025-1237927",
    "request_type": "Road Striping",
    "request_reason": "Lane Striping or other Pavement Markings",
    "date_created": "2025-11-04T15:04:07.000",
    "date_modified": "2025-11-04T15:04:10.000",
    "request_status": "Pending",
    "responsible_agency": "Department of Public Works",
    "final_address": "2931 St Thomas St",
    "address_councildis": "B",
    "status": "Pending",
    "rowid": "1237927",
    "final_x": "3677395.83694",
    "final_y": "518901.021623",
    "longitude": "-90.08146513097275",
    "latitude": "29.92092162089272",
    "geocoded_column": {
      "latitude": "29.92092162089272",
      "longitude": "-90.08146513097275"
    }
  },
  {
    "service_request": "2025-1237926",
    "request_type": "Trash/Recycling",
    "request_reason": "Repair Trash Cart",
    "date_created": "2025-11-04T15:03:01.000",
    "date_modified": "2025-11-04T15:03:03.000",
    "request_status": "Pending",
    "responsible_agency": "Department of Sanitation",
    "final_address": "422 S Salcedo St",
    "address_councildis": "B",
    "status": "Assigned to Contractor",
    "contractor": "IV Waste",
    "rowid": "1237926",
    "final_x": "3673286.33633",
    "final_y": "534874.576198",
    "longitude": "-90.09389158139012",
    "latitude": "29.964966476976066",
    "geocoded_column": {
      "latitude": "29.964966476976066",
      "longitude": "-90.09389158139012"
    }
  },
  {
    "service_request": "2025-1237925",
    "request_type": "Trash/Recycling",
    "request_reason": "Repair Recycling Cart",
    "date_created": "2025-11-04T15:01:58.000",
    "date_modified": "2025-11-04T15:01:59.000",
    "request_status": "Pending",
    "responsible_agency": "Department of Sanitation",
    "final_address": "907 Montegut St",
    "address_councildis": "C",
    "status": "Pending",
    "rowid": "1237925",
    "final_x": "3688295.61039",
    "final_y": "535418.19623",
    "longitude": "-90.04647405117092",
    "latitude": "29.96600628996925",
    "geocoded_column": {
      "latitude": "29.96600628996925",
      "longitude": "-90.04647405117092"
    }
  },
  {
    "service_request": "2025-1237924",
    "request_type": "Healthy Homes",
    "request_reason": "Healthy Homes",
    "date_created": "2025-11-04T15:00:28.000",
    "date_modified": "2025-11-04T15:00:30.000",
    "request_status": "Pending",
    "responsible_agency": "Department of Code Enforcement",
    "final_address": "1728 Gentilly Blvd Apt 2B",
    "address_councildis": "D",
    "status": "Pending",
    "rowid": "1237924",
    "final_x": "3678725.042",
    "final_y": "541748.745228",
    "longitude": "-90.07647836115896",
    "latitude": "29.983705193507273",
    "geocoded_column": {
      "latitude": "29.983705193507273",
      "longitude": "-90.07647836115896"
    }
  },
  {
    "service_request": "2025-1237923",
    "request_type": "Property Maintenance",
    "request_reason": "Property Maintenance",
    "date_created": "2025-11-04T14:54:09.000",
    "date_modified": "2025-11-04T14:54:10.000",
    "request_status": "Pending",
    "responsible_agency": "Department of Code Enforcement",
    "final_address": "4736 Warren Dr",
    "address_councildis": "E",
    "status": "Pending",
    "rowid": "1237923",
    "final_x": "3713386.92786",
    "final_y": "556261.995674",
    "longitude": "-89.96645199713439",
    "latitude": "30.022520082185807",
    "geocoded_column": {
      "latitude": "30.022520082185807",
      "longitude": "-89.96645199713439"
    }
  },
  {
    "service_request": "2025-1237922",
    "request_type": "Trash/Recycling",
    "request_reason": "Repair Trash Cart",
    "date_created": "2025-11-04T14:53:12.000",
    "date_modified": "2025-11-04T14:53:13.000",
    "request_status": "Pending",
    "responsible_agency": "Department of Sanitation",
    "final_address": "1024 Andry St",
    "address_councildis": "E",
    "status": "Assigned to Contractor",
    "contractor": "Waste Pro",
    "rowid": "1237922",
    "final_x": "3697064.87715",
    "final_y": "533751.367301",
    "longitude": "-90.018841485908",
    "latitude": "29.961149389244877",
    "geocoded_column": {
      "latitude": "29.961149389244877",
      "longitude": "-90.018841485908"
    }
  },
  {
    "service_request": "2025-1237921",
    "request_type": "Trash/Recycling",
    "request_reason": "Replace Trash Cart",
    "date_created": "2025-11-04T14:52:25.000",
    "date_modified": "2025-11-04T14:52:27.000",
    "request_status": "Pending",
    "responsible_agency": "Department of Sanitation",
    "final_address": "928 Bourbon St",
    "address_councildis": "C",
    "status": "Assigned to Contractor",
    "contractor": "IV Waste",
    "rowid": "1237921",
    "final_x": "3682958.86332",
    "final_y": "533401.764228",
    "longitude": "-90.06339790734926",
    "latitude": "29.960625517000548",
    "geocoded_column": {
      "latitude": "29.960625517000548",
      "longitude": "-90.06339790734926"
    }
  },
  {
    "service_request": "2025-1237920",
    "request_type": "Trash/Recycling",
    "request_reason": "Illegal Dumping",
    "date_created": "2025-11-04T14:50:19.000",
    "date_modified": "2025-11-04T14:50:21.000",
    "request_status": "Pending",
    "responsible_agency": "Department of Sanitation",
    "final_address": "730 S Tonti St",
    "address_councildis": "B",
    "status": "Pending",
    "rowid": "1237920",
    "final_x": "3674464.33819",
    "final_y": "531575.043267",
    "longitude": "-90.09028455429656",
    "latitude": "29.95585877761701",
    "geocoded_column": {
      "latitude": "29.95585877761701",
      "longitude": "-90.09028455429656"
    }
  },
  {
    "service_request": "2025-1237919",
    "request_type": "Trash/Recycling",
    "request_reason": "Request a Large Item Pick Up",
    "date_created": "2025-11-04T14:49:35.000",
    "date_modified": "2025-11-04T14:49:37.000",
    "request_status": "Pending",
    "responsible_agency": "Department of Sanitation",
    "final_address": "4824 Virgilian St",
    "address_councildis": "D",
    "status": "Assigned to Contractor",
    "contractor": "Waste Pro",
    "rowid": "1237919",
    "final_x": "3697356.48503",
    "final_y": "554214.968536",
    "longitude": "-90.01717839441929",
    "latitude": "30.01740759813479",
    "geocoded_column": {
      "latitude": "30.01740759813479",
      "longitude": "-90.01717839441929"
    }
  },
  {
    "service_request": "2025-1237918",
    "request_type": "Trash/Recycling",
    "request_reason": "Repair Trash Cart",
    "date_created": "2025-11-04T14:48:19.000",
    "date_modified": "2025-11-04T14:48:20.000",
    "request_status": "Pending",
    "responsible_agency": "Department of Sanitation",
    "final_address": "7430 Hansbrough Ave",
    "address_councildis": "E",
    "status": "Assigned to Contractor",
    "contractor": "Waste Pro",
    "rowid": "1237918",
    "final_x": "3707861.49336",
    "final_y": "563982.410145",
    "longitude": "-89.9836235487842",
    "latitude": "30.043928257415075",
    "geocoded_column": {
      "latitude": "30.043928257415075",
      "longitude": "-89.9836235487842"
    }
  },
  {
    "service_request": "2025-1237917",
    "request_type": "Abandoned Vehicles",
    "request_reason": "Abandoned/Junk Vehicles",
    "date_created": "2025-11-04T14:46:01.000",
    "date_modified": "2025-11-04T14:46:03.000",
    "request_status": "Pending",
    "responsible_agency": "Department of Public Works",
    "final_address": "7415 Cameo St",
    "address_councildis": "D",
    "status": "Pending",
    "rowid": "1237917",
    "final_x": "3667848.63226",
    "final_y": "555983.533721",
    "longitude": "-90.11035209287614",
    "latitude": "30.023169473190496",
    "geocoded_column": {
      "latitude": "30.023169473190496",
      "longitude": "-90.11035209287614"
    }
  },
  {
    "service_request": "2025-1237916",
    "request_type": "Parks & Parkways",
    "request_reason": "Request Grass Cutting Service (City Owned Property)",
    "date_created": "2025-11-04T14:44:42.000",
    "date_modified": "2025-11-04T14:46:29.000",
    "request_status": "Pending",
    "responsible_agency": "Department of Parks & Parkway",
    "final_address": "RAYNE DR & CHURCHILL DR",
    "address_councildis": "D",
    "status": "Pending",
    "rowid": "1237916",
    "final_x": "3679774.4",
    "final_y": "547953.88",
    "longitude": "-90.07294834664003",
    "latitude": "30.000735437249514",
    "geocoded_column": {
      "latitude": "30.000735437249514",
      "longitude": "-90.07294834664003"
    }
  },
  {
    "service_request": "2025-1237915",
    "request_type": "Trash/Recycling",
    "request_reason": "Request a Large Item Pick Up",
    "date_created": "2025-11-04T14:44:21.000",
    "date_modified": "2025-11-04T14:44:24.000",
    "request_status": "Pending",
    "responsible_agency": "Department of Sanitation",
    "final_address": "0 BLK Admiralty Ct",
    "address_councildis": "C",
    "status": "Assigned to Contractor",
    "contractor": "Richards Disposal",
    "rowid": "1237915",
    "final_x": "3704031.03777",
    "final_y": "523040.620373",
    "longitude": "-89.99723816614093",
    "latitude": "29.931477060413563",
    "geocoded_column": {
      "latitude": "29.931477060413563",
      "longitude": "-89.99723816614093"
    }
  },
  {
    "service_request": "2025-1237914",
    "request_type": "Trash/Recycling",
    "request_reason": "Repair Trash Cart",
    "date_created": "2025-11-04T14:41:48.000",
    "date_modified": "2025-11-04T14:41:49.000",
    "request_status": "Pending",
    "responsible_agency": "Department of Sanitation",
    "final_address": "1124 Kentucky St",
    "address_councildis": "D",
    "status": "Assigned to Contractor",
    "contractor": "IV Waste",
    "rowid": "1237914",
    "final_x": "3693366.79235",
    "final_y": "535247.764422",
    "longitude": "-90.03046558753273",
    "latitude": "29.965380087298602",
    "geocoded_column": {
      "latitude": "29.965380087298602",
      "longitude": "-90.03046558753273"
    }
  },
  {
    "service_request": "2025-1237913",
    "request_type": "Trash/Recycling",
    "request_reason": "Replace Trash Cart",
    "date_created": "2025-11-04T14:40:27.000",
    "date_modified": "2025-11-04T14:40:31.000",
    "request_status": "Pending",
    "responsible_agency": "Department of Sanitation",
    "final_address": "1022 Andry St",
    "address_councildis": "E",
    "status": "Assigned to Contractor",
    "contractor": "Waste Pro",
    "rowid": "1237913",
    "final_x": "3697061.83869",
    "final_y": "533740.517637",
    "longitude": "-90.01885147379784",
    "latitude": "29.961119652359248",
    "geocoded_column": {
      "latitude": "29.961119652359248",
      "longitude": "-90.01885147379784"
    }
  },
  {
    "service_request": "2025-1237912",
    "request_type": "Trash/Recycling",
    "request_reason": "Replace Trash Cart",
    "date_created": "2025-11-04T14:39:18.000",
    "date_modified": "2025-11-04T14:49:57.000",
    "request_status": "Pending",
    "responsible_agency": "Department of Sanitation",
    "final_address": "1122 Kentucky St",
    "address_councildis": "D",
    "status": "Assigned to Contractor",
    "contractor": "IV Waste",
    "rowid": "1237912",
    "final_x": "3693363.50787",
    "final_y": "535234.99175",
    "longitude": "-90.03047641834661",
    "latitude": "29.965345069646993",
    "geocoded_column": {
      "latitude": "29.965345069646993",
      "longitude": "-90.03047641834661"
    }
  },
  {
    "service_request": "2025-1237911",
    "request_type": "Trash/Recycling",
    "request_reason": "Order Trash Cart",
    "date_created": "2025-11-04T14:37:58.000",
    "date_modified": "2025-11-04T14:38:00.000",
    "request_status": "Pending",
    "responsible_agency": "Department of Sanitation",
    "final_address": "3930 Hollygrove St",
    "address_councildis": "A",
    "status": "Assigned to Contractor",
    "contractor": "IV Waste",
    "rowid": "1237911",
    "final_x": "3666210.07405",
    "final_y": "537818.636104",
    "longitude": "-90.11613931534649",
    "latitude": "29.97327023491766",
    "geocoded_column": {
      "latitude": "29.97327023491766",
      "longitude": "-90.11613931534649"
    }
  },
  {
    "service_request": "2025-1237910",
    "request_type": "Trash/Recycling",
    "request_reason": "Replace Trash Cart",
    "date_created": "2025-11-04T14:37:43.000",
    "date_modified": "2025-11-04T14:49:51.000",
    "request_status": "Pending",
    "responsible_agency": "Department of Sanitation",
    "final_address": "1120 Kentucky St",
    "address_councildis": "D",
    "status": "Assigned to Contractor",
    "contractor": "IV Waste",
    "rowid": "1237910",
    "final_x": "3693359.85795",
    "final_y": "535220.394502",
    "longitude": "-90.03048846870344",
    "latitude": "29.965305046479497",
    "geocoded_column": {
      "latitude": "29.965305046479497",
      "longitude": "-90.03048846870344"
    }
  },
  {
    "service_request": "2025-1237909",
    "request_type": "Abandoned Vehicles",
    "request_reason": "Abandoned/Junk Vehicles",
    "date_created": "2025-11-04T14:36:31.000",
    "date_modified": "2025-11-04T14:36:33.000",
    "request_status": "Pending",
    "responsible_agency": "Department of Public Works",
    "final_address": "7725 Lehigh St",
    "address_councildis": "E",
    "status": "Pending",
    "rowid": "1237909",
    "final_x": "3710246.60651",
    "final_y": "566250.497315",
    "longitude": "-89.97600070250944",
    "latitude": "30.0500871184133",
    "geocoded_column": {
      "latitude": "30.0500871184133",
      "longitude": "-89.97600070250944"
    }
  },
  {
    "service_request": "2025-1237908",
    "request_type": "Trash/Recycling",
    "request_reason": "Illegal Dumping",
    "date_created": "2025-11-04T14:36:04.000",
    "date_modified": "2025-11-04T14:36:06.000",
    "request_status": "Pending",
    "responsible_agency": "Department of Sanitation",
    "final_address": "ST LOUIS ST & N GALVEZ ST",
    "address_councildis": "D",
    "status": "Pending",
    "rowid": "1237908",
    "final_x": "3677848.2",
    "final_y": "535071.68",
    "longitude": "-90.07947867436269",
    "latitude": "29.965371974610818",
    "geocoded_column": {
      "latitude": "29.965371974610818",
      "longitude": "-90.07947867436269"
    }
  },
  {
    "service_request": "2025-1237907",
    "request_type": "Trash/Recycling",
    "request_reason": "Replace Trash Cart",
    "date_created": "2025-11-04T14:34:57.000",
    "date_modified": "2025-11-04T14:49:46.000",
    "request_status": "Pending",
    "responsible_agency": "Department of Sanitation",
    "final_address": "1118 Kentucky St",
    "address_councildis": "D",
    "status": "Assigned to Contractor",
    "contractor": "IV Waste",
    "rowid": "1237907",
    "final_x": "3693357.30422",
    "final_y": "535208.717574",
    "longitude": "-90.03049695249575",
    "latitude": "29.965273018888798",
    "geocoded_column": {
      "latitude": "29.965273018888798",
      "longitude": "-90.03049695249575"
    }
  },
  {
    "service_request": "2025-1237906",
    "request_type": "Safety & Permits",
    "request_reason": "Zoning Enforcement",
    "date_created": "2025-11-04T14:23:44.000",
    "date_modified": "2025-11-04T14:23:46.000",
    "request_status": "Pending",
    "responsible_agency": "Safety and Permits",
    "final_address": "1931 Orleans Ave",
    "address_councildis": "D",
    "status": "Pending",
    "rowid": "1237906",
    "final_x": "3679105.96098",
    "final_y": "535350.26855",
    "longitude": "-90.07549706731277",
    "latitude": "29.966100093909354",
    "geocoded_column": {
      "latitude": "29.966100093909354",
      "longitude": "-90.07549706731277"
    }
  },
  {
    "service_request": "2025-1237905",
    "request_type": "Trash/Recycling",
    "request_reason": "Order Recycling Cart",
    "date_created": "2025-11-04T14:22:53.000",
    "date_modified": "2025-11-04T14:22:55.000",
    "request_status": "Pending",
    "responsible_agency": "Department of Sanitation",
    "final_address": "2604 Valence St",
    "address_councildis": "B",
    "status": "Pending",
    "rowid": "1237905",
    "final_x": "3669335.49735",
    "final_y": "524341.367292",
    "longitude": "-90.10672420900026",
    "latitude": "29.93612051657322",
    "geocoded_column": {
      "latitude": "29.93612051657322",
      "longitude": "-90.10672420900026"
    }
  },
  {
    "service_request": "2025-1237904",
    "request_type": "Trash/Recycling",
    "request_reason": "Repair Recycling Cart",
    "date_created": "2025-11-04T14:21:52.000",
    "date_modified": "2025-11-04T14:21:54.000",
    "request_status": "Pending",
    "responsible_agency": "Department of Sanitation",
    "final_address": "8322 Pritchard Pl",
    "address_councildis": "A",
    "status": "Pending",
    "rowid": "1237904",
    "final_x": "3665366.15943",
    "final_y": "533465.432836",
    "longitude": "-90.1189502867511",
    "latitude": "29.961324987202875",
    "geocoded_column": {
      "latitude": "29.961324987202875",
      "longitude": "-90.1189502867511"
    }
  },
  {
    "service_request": "2025-1237903",
    "request_type": "Trash/Recycling",
    "request_reason": "Request a Large Item Pick Up",
    "date_created": "2025-11-04T14:19:04.000",
    "date_modified": "2025-11-04T14:19:06.000",
    "request_status": "Pending",
    "responsible_agency": "Department of Sanitation",
    "final_address": "3924 Buchanan St",
    "address_councildis": "D",
    "status": "Assigned to Contractor",
    "contractor": "IV Waste",
    "rowid": "1237903",
    "final_x": "3677284.2187",
    "final_y": "546628.281041",
    "longitude": "-90.08086078692466",
    "latitude": "29.99716558894755",
    "geocoded_column": {
      "latitude": "29.99716558894755",
      "longitude": "-90.08086078692466"
    }
  },
  {
    "service_request": "2025-1237902",
    "request_type": "Streetlights",
    "request_reason": "Streetlight Knocked Down/Leaning",
    "date_created": "2025-11-04T14:15:59.000",
    "date_modified": "2025-11-04T14:16:07.000",
    "request_status": "Pending",
    "responsible_agency": "Department of Public Works",
    "final_address": "3501 Martin Luther King, Jr. Blvd",
    "address_councildis": "B",
    "status": "Pending",
    "rowid": "1237902",
    "final_x": "3673282.125",
    "final_y": "529356.166081",
    "longitude": "-90.09409335361381",
    "latitude": "29.949792812077515",
    "geocoded_column": {
      "latitude": "29.949792812077515",
      "longitude": "-90.09409335361381"
    }
  },
  {
    "service_request": "2025-1237901",
    "request_type": "Trash/Recycling",
    "request_reason": "Request a Large Item Pick Up",
    "date_created": "2025-11-04T14:13:30.000",
    "date_modified": "2025-11-04T14:13:33.000",
    "request_status": "Pending",
    "responsible_agency": "Department of Sanitation",
    "final_address": "2118 Terpsichore St",
    "address_councildis": "B",
    "status": "Assigned to Contractor",
    "contractor": "IV Waste",
    "rowid": "1237901",
    "final_x": "3676964.05531",
    "final_y": "526545.106302",
    "longitude": "-90.08256468586049",
    "latitude": "29.941953323249283",
    "geocoded_column": {
      "latitude": "29.941953323249283",
      "longitude": "-90.08256468586049"
    }
  },
  {
    "service_request": "2025-1237900",
    "request_type": "Streetlights",
    "request_reason": "Streetlight Outage/Malfunction",
    "date_created": "2025-11-04T14:05:07.000",
    "date_modified": "2025-11-04T14:05:45.000",
    "request_status": "Pending",
    "responsible_agency": "Department of Public Works",
    "final_address": "1001 Leboeuf St",
    "address_councildis": "C",
    "status": "Pending",
    "rowid": "1237900",
    "final_x": "3689695.21916",
    "final_y": "527831.132671",
    "longitude": "-90.04232409141451",
    "latitude": "29.94510119565906",
    "geocoded_column": {
      "latitude": "29.94510119565906",
      "longitude": "-90.04232409141451"
    }
  },
  {
    "service_request": "2025-1237899",
    "request_type": "Trash/Recycling",
    "request_reason": "Request a Large Item Pick Up",
    "date_created": "2025-11-04T14:04:24.000",
    "date_modified": "2025-11-04T14:05:34.000",
    "request_status": "Pending",
    "responsible_agency": "Department of Sanitation",
    "final_address": "2118 Terpsichore St, New Orleans, Louisiana, 70113",
    "address_councildis": "B",
    "status": "Assigned to Contractor",
    "contractor": "IV Waste",
    "rowid": "1237899",
    "final_x": "3676964.05531",
    "final_y": "526545.106302",
    "longitude": "-90.08256468586049",
    "latitude": "29.941953323249283",
    "geocoded_column": {
      "latitude": "29.941953323249283",
      "longitude": "-90.08256468586049"
    }
  },
  {
    "service_request": "2025-1237898",
    "request_type": "Trash/Recycling",
    "request_reason": "Request a Large Item Pick Up",
    "date_created": "2025-11-04T14:03:23.000",
    "date_modified": "2025-11-04T14:03:25.000",
    "request_status": "Pending",
    "responsible_agency": "Department of Sanitation",
    "final_address": "5444 Elysian Fields Ave",
    "address_councildis": "D",
    "status": "Assigned to Contractor",
    "contractor": "IV Waste",
    "rowid": "1237898",
    "final_x": "3683504.63893",
    "final_y": "552978.207575",
    "longitude": "-90.06098802338201",
    "latitude": "30.014437171013505",
    "geocoded_column": {
      "latitude": "30.014437171013505",
      "longitude": "-90.06098802338201"
    }
  },
  {
    "service_request": "2025-1237897",
    "request_type": "Trash/Recycling",
    "request_reason": "Order Recycling Cart",
    "date_created": "2025-11-04T13:59:38.000",
    "date_modified": "2025-11-04T13:59:40.000",
    "request_status": "Pending",
    "responsible_agency": "Department of Sanitation",
    "final_address": "1833 Louisa St",
    "address_councildis": "D",
    "status": "Pending",
    "rowid": "1237897",
    "final_x": "3690324.22134",
    "final_y": "538764.092425",
    "longitude": "-90.03994850750406",
    "latitude": "29.97514352477992",
    "geocoded_column": {
      "latitude": "29.97514352477992",
      "longitude": "-90.03994850750406"
    }
  },
  {
    "service_request": "2025-1237896",
    "request_type": "Drainage",
    "request_reason": "Catch Basin Not Draining",
    "date_created": "2025-11-04T13:57:02.000",
    "date_modified": "2025-11-04T13:57:05.000",
    "request_status": "Pending",
    "responsible_agency": "Sewerage & Water Board",
    "final_address": "6918 Mayo Rd",
    "address_councildis": "E",
    "status": "Pending",
    "rowid": "1237896",
    "final_x": "3701650.48439",
    "final_y": "558307.871708",
    "longitude": "-90.00346107986195",
    "latitude": "30.028525191982617",
    "geocoded_column": {
      "latitude": "30.028525191982617",
      "longitude": "-90.00346107986195"
    }
  },
  {
    "service_request": "2025-1237895",
    "request_type": "Trash/Recycling",
    "request_reason": "Order Trash Cart",
    "date_created": "2025-11-04T13:55:43.000",
    "date_modified": "2025-11-04T13:55:45.000",
    "request_status": "Pending",
    "responsible_agency": "Department of Sanitation",
    "final_address": "7221 Voyageur Ct",
    "address_councildis": "E",
    "status": "Assigned to Contractor",
    "contractor": "Waste Pro",
    "rowid": "1237895",
    "final_x": "3726512.13209",
    "final_y": "568830.034853",
    "longitude": "-89.92449183830298",
    "latitude": "30.05663994215329",
    "geocoded_column": {
      "latitude": "30.05663994215329",
      "longitude": "-89.92449183830298"
    }
  },
  {
    "service_request": "2025-1237894",
    "request_type": "Trash/Recycling",
    "request_reason": "Request a Large Item Pick Up",
    "date_created": "2025-11-04T13:53:49.000",
    "date_modified": "2025-11-04T13:54:55.000",
    "request_status": "Pending",
    "responsible_agency": "Department of Sanitation",
    "final_address": "4428 Longfellow Dr",
    "address_councildis": "E",
    "status": "Assigned to Contractor",
    "contractor": "Waste Pro",
    "rowid": "1237894",
    "final_x": "3709713.14008",
    "final_y": "554253.8374",
    "longitude": "-89.97813522744202",
    "latitude": "30.017118420405904",
    "geocoded_column": {
      "latitude": "30.017118420405904",
      "longitude": "-89.97813522744202"
    }
  },
  {
    "service_request": "2025-1237893",
    "request_type": "Trash/Recycling",
    "request_reason": "Illegal Dumping",
    "date_created": "2025-11-04T13:53:40.000",
    "date_modified": "2025-11-04T13:53:42.000",
    "request_status": "Pending",
    "responsible_agency": "Department of Sanitation",
    "final_address": "DOWNMAN RD & ROBIN ST",
    "address_councildis": "D",
    "status": "Pending",
    "rowid": "1237893",
    "final_x": "3696086.9",
    "final_y": "552853.08",
    "longitude": "-90.02123902801074",
    "latitude": "30.013702953407904",
    "geocoded_column": {
      "latitude": "30.013702953407904",
      "longitude": "-90.02123902801074"
    }
  },
  {
    "service_request": "2025-1237892",
    "request_type": "Abandoned Vehicles",
    "request_reason": "Abandoned/Junk Vehicles",
    "date_created": "2025-11-04T13:48:40.000",
    "date_modified": "2025-11-04T13:50:48.000",
    "request_status": "Pending",
    "responsible_agency": "Department of Public Works",
    "final_address": "5000 BLK La Salle St",
    "address_councildis": "B",
    "status": "Inspected",
    "rowid": "1237892",
    "final_x": "3668651.88084",
    "final_y": "523565.79616",
    "longitude": "-90.10890857581377",
    "latitude": "29.93400804931125",
    "geocoded_column": {
      "latitude": "29.93400804931125",
      "longitude": "-90.10890857581377"
    }
  },
  {
    "service_request": "2025-1237891",
    "request_type": "Street and Traffic Signs",
    "request_reason": "Additional Signage Request",
    "date_created": "2025-11-04T13:48:31.000",
    "date_modified": "2025-11-04T13:48:33.000",
    "request_status": "Pending",
    "responsible_agency": "Department of Public Works",
    "final_address": "400 BLK S Rampart St",
    "address_councildis": "B",
    "status": "Pending",
    "rowid": "1237891",
    "final_x": "3679394.11329",
    "final_y": "529932.612823",
    "longitude": "-90.07477500783739",
    "latitude": "29.951194673988425",
    "geocoded_column": {
      "latitude": "29.951194673988425",
      "longitude": "-90.07477500783739"
    }
  },
  {
    "service_request": "2025-1237890",
    "request_type": "Street and Traffic Signs",
    "request_reason": "Stop Sign Missing or Damaged",
    "date_created": "2025-11-04T13:47:54.000",
    "date_modified": "2025-11-04T13:47:55.000",
    "request_status": "Pending",
    "responsible_agency": "Department of Public Works",
    "final_address": "1ST ST & DANNEEL ST",
    "address_councildis": "B",
    "status": "Pending",
    "rowid": "1237890",
    "final_x": "3676159.1",
    "final_y": "524411.88",
    "longitude": "-90.08517946663093",
    "latitude": "29.93611178748609",
    "geocoded_column": {
      "latitude": "29.93611178748609",
      "longitude": "-90.08517946663093"
    }
  },
  {
    "service_request": "2025-1237889",
    "request_type": "Trash/Recycling",
    "request_reason": "Request a Large Item Pick Up",
    "date_created": "2025-11-04T13:47:16.000",
    "date_modified": "2025-11-04T13:47:18.000",
    "request_status": "Pending",
    "responsible_agency": "Department of Sanitation",
    "final_address": "75 Audubon Blvd",
    "address_councildis": "A",
    "status": "Assigned to Contractor",
    "contractor": "IV Waste",
    "rowid": "1237889",
    "final_x": "3665859.15303",
    "final_y": "527585.328575",
    "longitude": "-90.11759050464175",
    "latitude": "29.945142238060036",
    "geocoded_column": {
      "latitude": "29.945142238060036",
      "longitude": "-90.11759050464175"
    }
  },
  {
    "service_request": "2025-1237888",
    "request_type": "Trash/Recycling",
    "request_reason": "Repair Trash Cart",
    "date_created": "2025-11-04T13:43:09.000",
    "date_modified": "2025-11-04T13:43:11.000",
    "request_status": "Pending",
    "responsible_agency": "Department of Sanitation",
    "final_address": "7903 Birch St",
    "address_councildis": "A",
    "status": "Assigned to Contractor",
    "contractor": "IV Waste",
    "rowid": "1237888",
    "final_x": "3663478.80346",
    "final_y": "528951.967872",
    "longitude": "-90.12506054657334",
    "latitude": "29.94896928725943",
    "geocoded_column": {
      "latitude": "29.94896928725943",
      "longitude": "-90.12506054657334"
    }
  },
  {
    "service_request": "2025-1237887",
    "request_type": "Street and Traffic Signs",
    "request_reason": "One Way Sign Missing or Damaged",
    "date_created": "2025-11-04T13:42:54.000",
    "date_modified": "2025-11-04T13:42:56.000",
    "request_status": "Pending",
    "responsible_agency": "Department of Public Works",
    "final_address": "1000 BLK Perdido St",
    "address_councildis": "B",
    "status": "Pending",
    "rowid": "1237887",
    "final_x": "3679551.028",
    "final_y": "530090.773596",
    "longitude": "-90.0742740617182",
    "latitude": "29.95162482299242",
    "geocoded_column": {
      "latitude": "29.95162482299242",
      "longitude": "-90.0742740617182"
    }
  },
  {
    "service_request": "2025-1237886",
    "request_type": "Traffic Signals",
    "request_reason": "Traffic Signal Malfunctioning or Damaged",
    "date_created": "2025-11-04T13:39:10.000",
    "date_modified": "2025-11-04T13:39:12.000",
    "request_status": "Pending",
    "responsible_agency": "Department of Public Works",
    "final_address": "JACKSON AVE & ANNUNCIATION ST",
    "address_councildis": "B",
    "status": "Pending",
    "rowid": "1237886",
    "final_x": "3679502.8",
    "final_y": "521194.98",
    "longitude": "-90.07473486967793",
    "latitude": "29.927165795495878",
    "geocoded_column": {
      "latitude": "29.927165795495878",
      "longitude": "-90.07473486967793"
    }
  },
  {
    "service_request": "2025-1237885",
    "request_type": "Roads and Streets",
    "request_reason": "Street Subsidence (Sinking)",
    "date_created": "2025-11-04T13:37:59.000",
    "date_modified": "2025-11-04T13:38:01.000",
    "request_status": "Pending",
    "responsible_agency": "Sewerage & Water Board",
    "final_address": "2427 Marengo St",
    "address_councildis": "B",
    "status": "Pending",
    "rowid": "1237885",
    "final_x": "3671700.23291",
    "final_y": "524017.205436",
    "longitude": "-90.09926968009744",
    "latitude": "29.93515935869871",
    "geocoded_column": {
      "latitude": "29.93515935869871",
      "longitude": "-90.09926968009744"
    }
  },
  {
    "service_request": "2025-1237884",
    "request_type": "Trash/Recycling",
    "request_reason": "Request a Large Item Pick Up",
    "date_created": "2025-11-04T13:31:45.000",
    "date_modified": "2025-11-04T13:31:48.000",
    "request_status": "Pending",
    "responsible_agency": "Department of Sanitation",
    "final_address": "7722 Shubert St",
    "address_councildis": "E",
    "status": "Assigned to Contractor",
    "contractor": "Waste Pro",
    "rowid": "1237884",
    "final_x": "3695556.29302",
    "final_y": "559145.380252",
    "longitude": "-90.02268806557122",
    "latitude": "30.03102109287153",
    "geocoded_column": {
      "latitude": "30.03102109287153",
      "longitude": "-90.02268806557122"
    }
  },
  {
    "service_request": "2025-1237883",
    "request_type": "Abandoned Vehicles",
    "request_reason": "Abandoned/Junk Vehicles",
    "date_created": "2025-11-04T13:30:58.000",
    "date_modified": "2025-11-04T13:31:00.000",
    "request_status": "Pending",
    "responsible_agency": "Department of Public Works",
    "final_address": "7801 Hampson St",
    "address_councildis": "A",
    "status": "Pending",
    "rowid": "1237883",
    "final_x": "3661617.67936",
    "final_y": "526404.367998",
    "longitude": "-90.1310213558698",
    "latitude": "29.942018032350934",
    "geocoded_column": {
      "latitude": "29.942018032350934",
      "longitude": "-90.1310213558698"
    }
  },
  {
    "service_request": "2025-1237882",
    "request_type": "Roads and Streets",
    "request_reason": "Curb Damage",
    "date_created": "2025-11-04T13:28:55.000",
    "date_modified": "2025-11-04T13:28:57.000",
    "request_status": "Pending",
    "responsible_agency": "Department of Public Works",
    "final_address": "6062 Beechcraft St",
    "address_councildis": "D",
    "status": "Pending",
    "rowid": "1237882",
    "final_x": "3696748.90531",
    "final_y": "553300.711063",
    "longitude": "-90.01913122418887",
    "latitude": "30.014912910048473",
    "geocoded_column": {
      "latitude": "30.014912910048473",
      "longitude": "-90.01913122418887"
    }
  },
  {
    "service_request": "2025-1237881",
    "request_type": "Trash/Recycling",
    "request_reason": "Request a Large Item Pick Up",
    "date_created": "2025-11-04T13:27:00.000",
    "date_modified": "2025-11-04T13:27:01.000",
    "request_status": "Pending",
    "responsible_agency": "Department of Sanitation",
    "final_address": "1927 Second St",
    "address_councildis": "B",
    "status": "Assigned to Contractor",
    "contractor": "IV Waste",
    "rowid": "1237881",
    "final_x": "3676003.28584",
    "final_y": "524153.439932",
    "longitude": "-90.08568026055516",
    "latitude": "29.935405827852808",
    "geocoded_column": {
      "latitude": "29.935405827852808",
      "longitude": "-90.08568026055516"
    }
  },
  {
    "service_request": "2025-1237880",
    "request_type": "Trash/Recycling",
    "request_reason": "Request a Large Item Pick Up",
    "date_created": "2025-11-04T13:25:57.000",
    "date_modified": "2025-11-04T13:25:59.000",
    "request_status": "Pending",
    "responsible_agency": "Department of Sanitation",
    "final_address": "2645 Bristol Pl",
    "address_councildis": "C",
    "status": "Assigned to Contractor",
    "contractor": "Richards Disposal",
    "rowid": "1237880",
    "final_x": "3702555.69706",
    "final_y": "521191.725433",
    "longitude": "-90.00196342388394",
    "latitude": "29.92644046161899",
    "geocoded_column": {
      "latitude": "29.92644046161899",
      "longitude": "-90.00196342388394"
    }
  },
  {
    "service_request": "2025-1237879",
    "request_type": "Trash/Recycling",
    "request_reason": "Replace Recycling Cart",
    "date_created": "2025-11-04T13:23:53.000",
    "date_modified": "2025-11-04T13:23:54.000",
    "request_status": "Pending",
    "responsible_agency": "Department of Sanitation",
    "final_address": "2748 St Philip St",
    "address_councildis": "A",
    "status": "Pending",
    "rowid": "1237879",
    "final_x": "3677020.84706",
    "final_y": "538098.009545",
    "longitude": "-90.08198704739017",
    "latitude": "29.973718217356",
    "geocoded_column": {
      "latitude": "29.973718217356",
      "longitude": "-90.08198704739017"
    }
  },
  {
    "service_request": "2025-1237878",
    "request_type": "Trash/Recycling",
    "request_reason": "Damaged Caused By Contractor",
    "date_created": "2025-11-04T13:22:29.000",
    "date_modified": "2025-11-04T13:22:30.000",
    "request_status": "Pending",
    "responsible_agency": "Department of Sanitation",
    "final_address": "709 Mazant St",
    "address_councildis": "C",
    "status": "Assigned to Contractor",
    "contractor": "IV Waste",
    "rowid": "1237878",
    "final_x": "3691794.6456",
    "final_y": "533823.414917",
    "longitude": "-90.03548128087105",
    "latitude": "29.9615126850145",
    "geocoded_column": {
      "latitude": "29.9615126850145",
      "longitude": "-90.03548128087105"
    }
  },
  {
    "service_request": "2025-1237877",
    "request_type": "Trash/Recycling",
    "request_reason": "Request a Large Item Pick Up",
    "date_created": "2025-11-04T13:18:59.000",
    "date_modified": "2025-11-04T13:19:01.000",
    "request_status": "Pending",
    "responsible_agency": "Department of Sanitation",
    "final_address": "816 N Carrollton Ave",
    "address_councildis": "A",
    "status": "Assigned to Contractor",
    "contractor": "IV Waste",
    "rowid": "1237877",
    "final_x": "3672952.07528",
    "final_y": "540200.788363",
    "longitude": "-90.09476534935874",
    "latitude": "29.97962169475027",
    "geocoded_column": {
      "latitude": "29.97962169475027",
      "longitude": "-90.09476534935874"
    }
  },
  {
    "service_request": "2025-1237876",
    "request_type": "Property Maintenance",
    "request_reason": "Property Maintenance",
    "date_created": "2025-11-04T13:17:50.000",
    "date_modified": "2025-11-04T14:24:54.000",
    "case_close_date": "2025-11-04T08:24:53.000",
    "request_status": "Closed",
    "responsible_agency": "Department of Code Enforcement",
    "final_address": "2732 St Anthony St",
    "address_councildis": "D",
    "status": "Referred to Code Enforcement",
    "rowid": "1237876",
    "final_x": "3682980.4397",
    "final_y": "542411.781005",
    "longitude": "-90.06301434639904",
    "latitude": "29.98539927743459",
    "geocoded_column": {
      "latitude": "29.98539927743459",
      "longitude": "-90.06301434639904"
    }
  },
  {
    "service_request": "2025-1237875",
    "request_type": "Trash/Recycling",
    "request_reason": "Request a Large Item Pick Up",
    "date_created": "2025-11-04T13:17:45.000",
    "date_modified": "2025-11-04T13:17:47.000",
    "request_status": "Pending",
    "responsible_agency": "Department of Sanitation",
    "final_address": "1805 St Roch Ave",
    "address_councildis": "D",
    "status": "Assigned to Contractor",
    "contractor": "IV Waste",
    "rowid": "1237875",
    "final_x": "3686483.29967",
    "final_y": "539077.988426",
    "longitude": "-90.05206803103603",
    "latitude": "29.976125280657058",
    "geocoded_column": {
      "latitude": "29.976125280657058",
      "longitude": "-90.05206803103603"
    }
  },
  {
    "service_request": "2025-1237874",
    "request_type": "Street and Traffic Signs",
    "request_reason": "Additional Signage Request",
    "date_created": "2025-11-04T13:17:05.000",
    "date_modified": "2025-11-04T13:18:48.000",
    "request_status": "Pending",
    "responsible_agency": "Department of Public Works",
    "final_address": "BURDETTE ST & LEAKE AVE & BENJAMIN ST",
    "address_councildis": "A",
    "status": "Pending",
    "rowid": "1237874",
    "final_x": "3660649.45",
    "final_y": "525277.8",
    "longitude": "-90.13411550457381",
    "latitude": "29.93894822656626",
    "geocoded_column": {
      "latitude": "29.93894822656626",
      "longitude": "-90.13411550457381"
    }
  },
  {
    "service_request": "2025-1237873",
    "request_type": "Trash/Recycling",
    "request_reason": "Order Recycling Cart",
    "date_created": "2025-11-04T13:13:49.000",
    "date_modified": "2025-11-04T13:13:50.000",
    "request_status": "Pending",
    "responsible_agency": "Department of Sanitation",
    "final_address": "2225 S Carrollton Ave",
    "address_councildis": "A",
    "status": "Pending",
    "rowid": "1237873",
    "final_x": "3664584.87898",
    "final_y": "531005.860994",
    "longitude": "-90.12149958624694",
    "latitude": "29.954584711413258",
    "geocoded_column": {
      "latitude": "29.954584711413258",
      "longitude": "-90.12149958624694"
    }
  },
  {
    "service_request": "2025-1237872",
    "request_type": "Trash/Recycling",
    "request_reason": "Missed Trash Pick-Up",
    "date_created": "2025-11-04T13:08:47.000",
    "date_modified": "2025-11-04T13:42:20.000",
    "case_close_date": "2025-11-04T07:42:19.000",
    "request_status": "Closed",
    "responsible_agency": "Department of Sanitation",
    "final_address": "2118 Laharpe St",
    "address_councildis": "D",
    "status": "Invalid Request",
    "contractor": "IV Waste",
    "contractor_action": "Invalid",
    "rowid": "1237872",
    "final_x": "3680393.10267",
    "final_y": "538638.566473",
    "longitude": "-90.071317934764",
    "latitude": "29.975102867870312",
    "geocoded_column": {
      "latitude": "29.975102867870312",
      "longitude": "-90.071317934764"
    }
  },
  {
    "service_request": "2025-1237871",
    "request_type": "Parks & Parkways",
    "request_reason": "Request Tree Service (Right of Way/Public Property)",
    "date_created": "2025-11-04T13:07:45.000",
    "date_modified": "2025-11-04T13:07:47.000",
    "request_status": "Pending",
    "responsible_agency": "Department of Parks & Parkway",
    "final_address": "416 S Hennessey St",
    "address_councildis": "A",
    "status": "Pending",
    "rowid": "1237871",
    "final_x": "3669487.25486",
    "final_y": "537821.760072",
    "longitude": "-90.10578917923372",
    "latitude": "29.97318269511411",
    "geocoded_column": {
      "latitude": "29.97318269511411",
      "longitude": "-90.10578917923372"
    }
  },
  {
    "service_request": "2025-1237870",
    "request_type": "Trash/Recycling",
    "request_reason": "Request a Large Item Pick Up",
    "date_created": "2025-11-04T13:02:51.000",
    "date_modified": "2025-11-04T13:02:53.000",
    "request_status": "Pending",
    "responsible_agency": "Department of Sanitation",
    "final_address": "514 Harrison Ave",
    "address_councildis": "A",
    "status": "Assigned to Contractor",
    "contractor": "IV Waste",
    "rowid": "1237870",
    "final_x": "3668054.43201",
    "final_y": "549203.835987",
    "longitude": "-90.10993053307449",
    "latitude": "30.00452164828683",
    "geocoded_column": {
      "latitude": "30.00452164828683",
      "longitude": "-90.10993053307449"
    }
  },
  {
    "service_request": "2025-1237869",
    "request_type": "Abandoned Vehicles",
    "request_reason": "Abandoned/Junk Vehicles",
    "date_created": "2025-11-04T13:02:02.000",
    "date_modified": "2025-11-04T13:02:40.000",
    "request_status": "Pending",
    "responsible_agency": "Department of Public Works",
    "final_address": "200 BLK S Salcedo St",
    "address_councildis": "B",
    "status": "Inspected",
    "rowid": "1237869",
    "final_x": "3673707.89533",
    "final_y": "535587.219624",
    "longitude": "-90.09253595147413",
    "latitude": "29.96691346141597",
    "geocoded_column": {
      "latitude": "29.96691346141597",
      "longitude": "-90.09253595147413"
    }
  },
  {
    "service_request": "2025-1237868",
    "request_type": "Abandoned Vehicles",
    "request_reason": "Abandoned/Junk Vehicles",
    "date_created": "2025-11-04T12:53:44.000",
    "date_modified": "2025-11-04T12:53:46.000",
    "request_status": "Pending",
    "responsible_agency": "Department of Public Works",
    "final_address": "7921 Arcadia Ln",
    "address_councildis": "E",
    "status": "Pending",
    "rowid": "1237868",
    "final_x": "3711861.78117",
    "final_y": "567905.266149",
    "longitude": "-89.9708335861018",
    "latitude": "30.054584352845175",
    "geocoded_column": {
      "latitude": "30.054584352845175",
      "longitude": "-89.9708335861018"
    }
  },
  {
    "service_request": "2025-1237867",
    "request_type": "Trash/Recycling",
    "request_reason": "Order Trash Cart",
    "date_created": "2025-11-04T12:51:38.000",
    "date_modified": "2025-11-04T12:51:40.000",
    "request_status": "Pending",
    "responsible_agency": "Department of Sanitation",
    "final_address": "2608 S Miro St",
    "address_councildis": "B",
    "status": "Assigned to Contractor",
    "contractor": "IV Waste",
    "rowid": "1237867",
    "final_x": "3672489.17051",
    "final_y": "528669.500032",
    "longitude": "-90.09662048099877",
    "latitude": "29.94792826346521",
    "geocoded_column": {
      "latitude": "29.94792826346521",
      "longitude": "-90.09662048099877"
    }
  },
  {
    "service_request": "2025-1237866",
    "request_type": "Trash/Recycling",
    "request_reason": "Request a Large Item Pick Up",
    "date_created": "2025-11-04T12:43:47.000",
    "date_modified": "2025-11-04T12:43:48.000",
    "request_status": "Pending",
    "responsible_agency": "Department of Sanitation",
    "final_address": "3624 Bruxelles St",
    "address_councildis": "D",
    "status": "Assigned to Contractor",
    "contractor": "IV Waste",
    "rowid": "1237866",
    "final_x": "3680035.12949",
    "final_y": "545779.961424",
    "longitude": "-90.07220026929333",
    "latitude": "29.99475004409106",
    "geocoded_column": {
      "latitude": "29.99475004409106",
      "longitude": "-90.07220026929333"
    }
  },
  {
    "service_request": "2025-1237865",
    "request_type": "Trash/Recycling",
    "request_reason": "Request a Large Item Pick Up",
    "date_created": "2025-11-04T12:43:24.000",
    "date_modified": "2025-11-04T12:43:25.000",
    "request_status": "Pending",
    "responsible_agency": "Department of Sanitation",
    "final_address": "322 Calhoun St",
    "address_councildis": "A",
    "status": "Assigned to Contractor",
    "contractor": "IV Waste",
    "rowid": "1237865",
    "final_x": "3662787.58323",
    "final_y": "518287.652278",
    "longitude": "-90.1275973593474",
    "latitude": "29.9196658119982",
    "geocoded_column": {
      "latitude": "29.9196658119982",
      "longitude": "-90.1275973593474"
    }
  },
  {
    "service_request": "2025-1237864",
    "request_type": "Trash/Recycling",
    "request_reason": "Request a Large Item Pick Up",
    "date_created": "2025-11-04T12:42:50.000",
    "date_modified": "2025-11-04T12:42:51.000",
    "request_status": "Pending",
    "responsible_agency": "Department of Sanitation",
    "final_address": "18 Heritage Ln",
    "address_councildis": "C",
    "status": "Assigned to Contractor",
    "contractor": "Richards Disposal",
    "rowid": "1237864",
    "final_x": "3695791.39792",
    "final_y": "520386.237368",
    "longitude": "-90.02334538824479",
    "latitude": "29.924440021767712",
    "geocoded_column": {
      "latitude": "29.924440021767712",
      "longitude": "-90.02334538824479"
    }
  },
  {
    "service_request": "2025-1237863",
    "request_type": "Trash/Recycling",
    "request_reason": "Repair Trash Cart",
    "date_created": "2025-11-04T12:38:33.000",
    "date_modified": "2025-11-04T12:38:35.000",
    "request_status": "Pending",
    "responsible_agency": "Department of Sanitation",
    "final_address": "2332 Nashville Ave",
    "address_councildis": "A",
    "status": "Assigned to Contractor",
    "contractor": "IV Waste",
    "rowid": "1237863",
    "final_x": "3666979.64135",
    "final_y": "524809.575164",
    "longitude": "-90.11414600935257",
    "latitude": "29.93747707255996",
    "geocoded_column": {
      "latitude": "29.93747707255996",
      "longitude": "-90.11414600935257"
    }
  },
  {
    "service_request": "2025-1237862",
    "request_type": "Roads and Streets",
    "request_reason": "Street Subsidence (Sinking)",
    "date_created": "2025-11-04T12:22:05.000",
    "date_modified": "2025-11-04T12:22:08.000",
    "request_status": "Pending",
    "responsible_agency": "Sewerage & Water Board",
    "final_address": "1329 Andry St",
    "address_councildis": "E",
    "status": "Pending",
    "rowid": "1237862",
    "final_x": "3697509.65975",
    "final_y": "534889.751302",
    "longitude": "-90.0173956665821",
    "latitude": "29.964265502952077",
    "geocoded_column": {
      "latitude": "29.964265502952077",
      "longitude": "-90.0173956665821"
    }
  },