[
  {
    "service_request": "2023-992289",
    "request_type": "Abandoned Vehicles",
    "request_reason": "Abandoned/Junk Vehicles",
    "date_created": "2023-04-19T01:20:16.000",
    "date_modified": "2023-04-19T01:20:16.000",
    "request_status": "Pending",
    "responsible_agency": "Department of Public Works",
    "final_address": "2440 Dauphine St",
    "address_councildis": "C",
    "status": "Pending",
    "rowid": "992289",
    "final_x": "3686172.29686",
    "final_y": "535284.648518",
    "longitude": "-90.05318411439598",
    "latitude": "29.96570447841788",
    "geocoded_column": {
      "latitude": "29.96570447841788",
      "longitude": "-90.05318411439598"
    }
  },
  {
    "service_request": "2023-992288",
    "request_type": "Abandoned Vehicles",
    "request_reason": "Abandoned/Junk Vehicles",
    "date_created": "2023-04-19T01:17:11.000",
    "date_modified": "2023-04-19T01:17:11.000",
    "request_status": "Pending",
    "responsible_agency": "Department of Public Works",
    "final_address": "2440 Dauphine St",
    "address_councildis": "C",
    "status": "Pending",
    "rowid": "992288",
    "final_x": "3686172.29686",
    "final_y": "535284.648518",
    "longitude": "-90.05318411439598",
    "latitude": "29.96570447841788",
    "geocoded_column": {
      "latitude": "29.96570447841788",
      "longitude": "-90.05318411439598"
    }
  },
  {
    "service_request": "2023-992287",
    "request_type": "Trash/Recycling",
    "request_reason": "Request a Large Item Pick Up",
    "date_created": "2023-04-19T01:10:18.000",
    "date_modified": "2023-04-19T01:10:19.000",
    "request_status": "Pending",
    "responsible_agency": "Department of Sanitation",
    "final_address": "1653 Rousselin Dr",
    "address_councildis": "D",
    "status": "Assigned to Contractor",
    "contractor": "IV Waste",
    "rowid": "992287",
    "final_x": "3679568.60597",
    "final_y": "540384.481099",
    "longitude": "-90.07386130100782",
    "latitude": "29.97992847241266",
    "geocoded_column": {
      "latitude": "29.97992847241266",
      "longitude": "-90.07386130100782"
    }
  },
  {
    "service_request": "2023-992286",
    "request_type": "Trash/Recycling",
    "request_reason": "Replace Trash Cart",
    "date_created": "2023-04-19T00:36:31.000",
    "date_modified": "2023-04-19T00:36:32.000",
    "request_status": "Pending",
    "responsible_agency": "Department of Sanitation",
    "final_address": "2127 Robert St",
    "address_councildis": "B",
    "status": "Assigned to Contractor",
    "contractor": "Richards Disposal",
    "rowid": "992286",
    "final_x": "3668847.43124",
    "final_y": "523416.263419",
    "longitude": "-90.10829627605551",
    "latitude": "29.93359113499303",
    "geocoded_column": {
      "latitude": "29.93359113499303",
      "longitude": "-90.10829627605551"
    }
  },
  {
    "service_request": "2023-992285",
    "request_type": "Roads/Drainage",
    "request_reason": "Accessibility Ramps, Curbs and Sidewalk Repair",
    "date_created": "2023-04-18T23:09:08.000",
    "date_modified": "2023-04-18T23:09:08.000",
    "request_status": "Pending",
    "responsible_agency": "Department of Public Works",
    "final_address": "2029 Charbonnet St",
    "address_councildis": "E",
    "status": "Pending",
    "rowid": "992285",
    "final_x": "3699602.02391",
    "final_y": "537095.108616",
    "longitude": "-90.01070780718456",
    "latitude": "29.970263204298835",
    "geocoded_column": {
      "latitude": "29.970263204298835",
      "longitude": "-90.01070780718456"
    }
  },
  {
    "service_request": "2023-992284",
    "request_type": "Traffic Signals/Signs/Striping/Streetlights",
    "request_reason": "Street Light Outage/Malfunction",
    "date_created": "2023-04-18T23:07:50.000",
    "date_modified": "2023-04-18T23:07:51.000",
    "request_status": "Pending",
    "responsible_agency": "Department of Public Works",
    "final_address": "6125 Pines Blvd",
    "address_councildis": "D",
    "status": "Assigned to Contractor",
    "contractor": "Legacy Professional Services",
    "rowid": "992284",
    "final_x": "3696572.62506",
    "final_y": "556310.77513",
    "longitude": "-90.01957914226281",
    "latitude": "30.02319500647701",
    "geocoded_column": {
      "latitude": "30.02319500647701",
      "longitude": "-90.01957914226281"
    }
  },
  {
    "service_request": "2023-992283",
    "request_type": "Trash/Recycling",
    "request_reason": "Request a Large Item Pick Up",
    "date_created": "2023-04-18T22:43:49.000",
    "date_modified": "2023-04-18T22:43:50.000",
    "request_status": "Pending",
    "responsible_agency": "Department of Sanitation",
    "final_address": "4927 S Johnson St",
    "address_councildis": "B",
    "status": "Assigned to Contractor",
    "contractor": "Richards Disposal",
    "rowid": "992283",
    "final_x": "3669027.26759",
    "final_y": "527098.138367",
    "longitude": "-90.10760420159336",
    "latitude": "29.943709815868093",
    "geocoded_column": {
      "latitude": "29.943709815868093",
      "longitude": "-90.10760420159336"
    }
  },
  {
    "service_request": "2023-992282",
    "request_type": "Trash/Recycling",
    "request_reason": "Replace Recycling Cart",
    "date_created": "2023-04-18T22:11:38.000",
    "date_modified": "2023-04-18T22:11:38.000",
    "request_status": "Pending",
    "responsible_agency": "Department of Sanitation",
    "final_address": "1011 St Philip St",
    "address_councildis": "C",
    "status": "Pending",
    "rowid": "992282",
    "final_x": "3682297.01711",
    "final_y": "534092.306181",
    "longitude": "-90.06546375659495",
    "latitude": "29.962544423965042",
    "geocoded_column": {
      "latitude": "29.962544423965042",
      "longitude": "-90.06546375659495"
    }
  },
  {
    "service_request": "2023-992281",
    "request_type": "Trash/Recycling",
    "request_reason": "Replace Trash Cart",
    "date_created": "2023-04-18T22:00:18.000",
    "date_modified": "2023-04-18T22:00:18.000",
    "request_status": "Pending",
    "responsible_agency": "Department of Sanitation",
    "final_address": "1121 Valence St",
    "address_councildis": "B",
    "status": "Assigned to Contractor",
    "contractor": "Richards Disposal",
    "rowid": "992281",
    "final_x": "3669909.31137",
    "final_y": "519621.00172",
    "longitude": "-90.10507240022332",
    "latitude": "29.923124118629712",
    "geocoded_column": {
      "latitude": "29.923124118629712",
      "longitude": "-90.10507240022332"
    }
  },
  {
    "service_request": "2023-992280",
    "request_type": "Trash/Recycling",
    "request_reason": "Request a Large Item Pick Up",
    "date_created": "2023-04-18T21:29:14.000",
    "date_modified": "2023-04-18T21:29:15.000",
    "request_status": "Pending",
    "responsible_agency": "Department of Sanitation",
    "status": "Assigned to Contractor",
    "rowid": "992280",
    "longitude": "0.0",
    "latitude": "0.0",
    "geocoded_column": {
      "latitude": "0.0",
      "longitude": "0.0"
    }
  },
  {
    "service_request": "2023-992279",
    "request_type": "Trash/Recycling",
    "request_reason": "MIssed Recycling Pick-Up",
    "date_created": "2023-04-18T20:42:59.000",
    "date_modified": "2023-04-18T20:43:00.000",
    "request_status": "Pending",
    "responsible_agency": "Department of Sanitation",
    "final_address": "2116 Bienville Ave",
    "address_councildis": "B",
    "status": "Assigned to Contractor",
    "contractor": "Richards Disposal",
    "rowid": "992279",
    "final_x": "3677570.17691",
    "final_y": "534325.076933",
    "longitude": "-90.0803824398211",
    "latitude": "29.963327431847656",
    "geocoded_column": {
      "latitude": "29.963327431847656",
      "longitude": "-90.0803824398211"
    }
  },
  {
    "service_request": "2023-992278",
    "request_type": "Abandoned Vehicles",
    "request_reason": "Abandoned/Junk Vehicles",
    "date_created": "2023-04-18T20:40:52.000",
    "date_modified": "2023-04-18T20:40:52.000",
    "request_status": "Pending",
    "responsible_agency": "Department of Public Works",
    "final_address": "1927 Urquhart St",
    "address_councildis": "C",
    "status": "Pending",
    "rowid": "992278",
    "final_x": "3684045.72847",
    "final_y": "536992.857672",
    "longitude": "-90.05983977433648",
    "latitude": "29.97046661823326",
    "geocoded_column": {
      "latitude": "29.97046661823326",
      "longitude": "-90.05983977433648"
    }
  },
  {
    "service_request": "2023-992277",
    "request_type": "Property Maintenance",
    "request_reason": "Property Maintenance",
    "date_created": "2023-04-18T20:38:59.000",
    "date_modified": "2023-04-18T20:38:59.000",
    "request_status": "Pending",
    "responsible_agency": "Department of Code Enforcement",
    "final_address": "3517 Danneel St",
    "address_councildis": "B",
    "status": "Pending",
    "rowid": "992277",
    "final_x": "3673107.54932",
    "final_y": "522693.757818",
    "longitude": "-90.09487193736092",
    "latitude": "29.931478555301858",
    "geocoded_column": {
      "latitude": "29.931478555301858",
      "longitude": "-90.09487193736092"
    }
  },
  {
    "service_request": "2023-992276",
    "request_type": "Trash/Recycling",
    "request_reason": "Order Recycling Cart",
    "date_created": "2023-04-18T20:30:13.000",
    "date_modified": "2023-04-18T20:30:13.000",
    "request_status": "Pending",
    "responsible_agency": "Department of Sanitation",
    "status": "Pending",
    "rowid": "992276",
    "longitude": "0.0",
    "latitude": "0.0",
    "geocoded_column": {
      "latitude": "0.0",
      "longitude": "0.0"
    }
  },
  {
    "service_request": "2023-992275",
    "request_type": "Trash/Recycling",
    "request_reason": "Start Trash Service",
    "date_created": "2023-04-18T20:04:40.000",
    "date_modified": "2023-04-18T20:04:41.000",
    "request_status": "Pending",
    "responsible_agency": "Department of Sanitation",
    "final_address": "2601 St Ann St",
    "address_councildis": "D",
    "status": "Assigned to Contractor",
    "contractor": "Richards Disposal",
    "rowid": "992275",
    "final_x": "3677358.74242",
    "final_y": "536937.055176",
    "longitude": "-90.08095997443978",
    "latitude": "29.9705158392504",
    "geocoded_column": {
      "latitude": "29.9705158392504",
      "longitude": "-90.08095997443978"
    }
  },
  {
    "service_request": "2023-992274",
    "request_type": "Traffic Signals/Signs/Striping/Streetlights",
    "request_reason": "Street Light Outage/Malfunction",
    "date_created": "2023-04-18T19:49:36.000",
    "date_modified": "2023-04-18T19:49:37.000",
    "request_status": "Pending",
    "responsible_agency": "Department of Public Works",
    "final_address": "5700 Wildair Dr",
    "address_councildis": "D",
    "status": "Assigned to Contractor",
    "contractor": "Legacy Professional Services",
    "rowid": "992274",
    "final_x": "3681494.50556",
    "final_y": "553728.686679",
    "longitude": "-90.06731284899575",
    "latitude": "30.016561936046216",
    "geocoded_column": {
      "latitude": "30.016561936046216",
      "longitude": "-90.06731284899575"
    }
  },
  {
    "service_request": "2023-992273",
    "request_type": "Property Maintenance",
    "request_reason": "Property Maintenance",
    "date_created": "2023-04-18T19:49:19.000",
    "date_modified": "2023-04-18T19:49:19.000",
    "request_status": "Pending",
    "responsible_agency": "Department of Code Enforcement",
    "final_address": "2007 Laharpe St",
    "address_councildis": "D",
    "status": "Pending",
    "rowid": "992273",
    "final_x": "3680800.48546",
    "final_y": "538417.610889",
    "longitude": "-90.07003900810967",
    "latitude": "29.97448297285133",
    "geocoded_column": {
      "latitude": "29.97448297285133",
      "longitude": "-90.07003900810967"
    }
  },
  {
    "service_request": "2023-992272",
    "request_type": "Roads/Drainage",
    "request_reason": "Damaged Sidewalk",
    "date_created": "2023-04-18T19:44:24.000",
    "date_modified": "2023-04-18T19:44:24.000",
    "request_status": "Pending",
    "responsible_agency": "Department of Public Works",
    "final_address": "2200 Foucher St",
    "address_councildis": "B",
    "status": "Pending",
    "rowid": "992272",
    "final_x": "3672742.43624",
    "final_y": "523324.203451",
    "longitude": "-90.09600306629278",
    "latitude": "29.933222922913703",
    "geocoded_column": {
      "latitude": "29.933222922913703",
      "longitude": "-90.09600306629278"
    }
  },
  {
    "service_request": "2023-992271",
    "request_type": "Trash/Recycling",
    "request_reason": "Request a Large Item Pick Up",
    "date_created": "2023-04-18T19:40:46.000",
    "date_modified": "2023-04-18T19:40:47.000",
    "request_status": "Pending",
    "responsible_agency": "Department of Sanitation",
    "final_address": "7510 Shubrick Ave",
    "address_councildis": "E",
    "status": "Assigned to Contractor",
    "contractor": "Waste Pro",
    "rowid": "992271",
    "final_x": "3706917.24471",
    "final_y": "563318.931616",
    "longitude": "-89.98663240904878",
    "latitude": "30.042134504248033",
    "geocoded_column": {
      "latitude": "30.042134504248033",
      "longitude": "-89.98663240904878"
    }
  },
  {
    "service_request": "2023-992270",
    "request_type": "Roads/Drainage",
    "request_reason": "Pothole",
    "date_created": "2023-04-18T19:34:31.000",
    "date_modified": "2023-04-18T19:34:31.000",
    "request_status": "Pending",
    "responsible_agency": "Department of Public Works",
    "final_address": "7300 Shubrick Ave",
    "address_councildis": "E",
    "status": "Pending",
    "rowid": "992270",
    "final_x": "3707200.02833",
    "final_y": "562812.238496",
    "longitude": "-89.98575754486897",
    "latitude": "30.040732157998285",
    "geocoded_column": {
      "latitude": "30.040732157998285",
      "longitude": "-89.98575754486897"
    }
  },
  {
    "service_request": "2023-992269",
    "request_type": "Mosquito, Termite & Rodent Control",
    "request_reason": "Rodent Complaint (Rats)",
    "date_created": "2023-04-18T19:25:22.000",
    "date_modified": "2023-04-18T19:25:23.000",
    "request_status": "Pending",
    "responsible_agency": "Mosquito, Termite & Rodent Control Board",
    "final_address": "331 Loyola Ave",
    "address_councildis": "B",
    "status": "Pending",
    "rowid": "992269",
    "final_x": "3679035.27496",
    "final_y": "530507.093122",
    "longitude": "-90.07588813529344",
    "latitude": "29.952785134550847",
    "geocoded_column": {
      "latitude": "29.952785134550847",
      "longitude": "-90.07588813529344"
    }
  },
  {
    "service_request": "2023-992268",
    "request_type": "Trash/Recycling",
    "request_reason": "Request a Large Item Pick Up",
    "date_created": "2023-04-18T19:24:46.000",
    "date_modified": "2023-04-18T19:24:47.000",
    "request_status": "Pending",
    "responsible_agency": "Department of Sanitation",
    "final_address": "2501 Chelsea Dr",
    "address_councildis": "C",
    "status": "Assigned to Contractor",
    "contractor": "Richards Disposal",
    "rowid": "992268",
    "final_x": "3704357.17802",
    "final_y": "522002.656378",
    "longitude": "-89.99624682473541",
    "latitude": "29.9286125611529",
    "geocoded_column": {
      "latitude": "29.9286125611529",
      "longitude": "-89.99624682473541"
    }
  },
  {
    "service_request": "2023-992266",
    "request_type": "Roads/Drainage",
    "request_reason": "Road Shoulder Repair",
    "date_created": "2023-04-18T19:08:53.000",
    "date_modified": "2023-04-18T19:08:53.000",
    "request_status": "Pending",
    "responsible_agency": "Department of Public Works",
    "final_address": "500 Eliza St",
    "address_councildis": "C",
    "status": "Pending",
    "rowid": "992266",
    "final_x": "3687185.3919",
    "final_y": "529961.730049",
    "longitude": "-90.05017304611663",
    "latitude": "29.95103712820748",
    "geocoded_column": {
      "latitude": "29.95103712820748",
      "longitude": "-90.05017304611663"
    }
  },
  {
    "service_request": "2023-992265",
    "request_type": "Safety & Permits",
    "request_reason": "Licenses & Permits",
    "date_created": "2023-04-18T19:07:20.000",
    "date_modified": "2023-04-18T19:07:21.000",
    "request_status": "Pending",
    "responsible_agency": "Safety and Permits",
    "final_address": "940 Gravier St",
    "address_councildis": "B",
    "status": "Pending",
    "rowid": "992265",
    "final_x": "3679849.51995",
    "final_y": "530464.291394",
    "longitude": "-90.07331859930923",
    "latitude": "29.952642849403674",
    "geocoded_column": {
      "latitude": "29.952642849403674",
      "longitude": "-90.07331859930923"
    }
  },
  {
    "service_request": "2023-992264",
    "request_type": "Trash/Recycling",
    "request_reason": "Missed Trash Pick-Up",
    "date_created": "2023-04-18T19:03:53.000",
    "date_modified": "2023-04-18T19:03:53.000",
    "request_status": "Pending",
    "responsible_agency": "Department of Sanitation",
    "final_address": "1027 Eliza St",
    "address_councildis": "C",
    "status": "Assigned to Contractor",
    "contractor": "Richards Disposal",
    "rowid": "992264",
    "final_x": "3688760.1087",
    "final_y": "529827.772417",
    "longitude": "-90.0452056491381",
    "latitude": "29.950620208302546",
    "geocoded_column": {
      "latitude": "29.950620208302546",
      "longitude": "-90.0452056491381"
    }
  },
  {
    "service_request": "2023-992263",
    "request_type": "Abandoned Vehicles",
    "request_reason": "Abandoned/Junk Vehicles",
    "date_created": "2023-04-18T19:03:25.000",
    "date_modified": "2023-04-18T19:03:25.000",
    "request_status": "Pending",
    "responsible_agency": "Department of Public Works",
    "final_address": "1912 Urquhart St",
    "address_councildis": "C",
    "status": "Pending",
    "rowid": "992263",
    "final_x": "3683960.0502",
    "final_y": "536871.503368",
    "longitude": "-90.06011461420904",
    "latitude": "29.970135554031778",
    "geocoded_column": {
      "latitude": "29.970135554031778",
      "longitude": "-90.06011461420904"
    }
  },
  {
    "service_request": "2023-992262",
    "request_type": "Trash/Recycling",
    "request_reason": "Repair Trash Cart",
    "date_created": "2023-04-18T18:53:14.000",
    "date_modified": "2023-04-18T18:53:14.000",
    "request_status": "Pending",
    "responsible_agency": "Department of Sanitation",
    "final_address": "2715 Aubry St",
    "address_councildis": "D",
    "status": "Assigned to Contractor",
    "contractor": "IV Waste",
    "rowid": "992262",
    "final_x": "3679382.42312",
    "final_y": "541375.517132",
    "longitude": "-90.0744149533697",
    "latitude": "29.982659102888526",
    "geocoded_column": {
      "latitude": "29.982659102888526",
      "longitude": "-90.0744149533697"
    }
  },
  {
    "service_request": "2023-992261",
    "request_type": "Trash/Recycling",
    "request_reason": "Order Recycling Cart",
    "date_created": "2023-04-18T18:52:35.000",
    "date_modified": "2023-04-18T18:52:35.000",
    "request_status": "Pending",
    "responsible_agency": "Department of Sanitation",
    "final_address": "2715 Aubry St",
    "address_councildis": "D",
    "status": "Pending",
    "rowid": "992261",
    "final_x": "3679382.42312",
    "final_y": "541375.517132",
    "longitude": "-90.0744149533697",
    "latitude": "29.982659102888526",
    "geocoded_column": {
      "latitude": "29.982659102888526",
      "longitude": "-90.0744149533697"
    }
  },
  {
    "service_request": "2023-992260",
    "request_type": "Trash/Recycling",
    "request_reason": "Replace Trash Cart",
    "date_created": "2023-04-18T18:49:10.000",
    "date_modified": "2023-04-18T18:49:11.000",
    "request_status": "Pending",
    "responsible_agency": "Department of Sanitation",
    "final_address": "4833 Chestnut St",
    "address_councildis": "B",
    "status": "Assigned to Contractor",
    "contractor": "Richards Disposal",
    "rowid": "992260",
    "final_x": "3669248.34074",
    "final_y": "519392.173367",
    "longitude": "-90.10716656647652",
    "latitude": "29.922514378491314",
    "geocoded_column": {
      "latitude": "29.922514378491314",
      "longitude": "-90.10716656647652"
    }
  },
  {
    "service_request": "2023-992259",
    "request_type": "Abandoned Vehicles",
    "request_reason": "Abandoned/Junk Vehicles",
    "date_created": "2023-04-18T18:42:20.000",
    "date_modified": "2023-04-18T18:42:20.000",
    "request_status": "Pending",
    "responsible_agency": "Department of Public Works",
    "final_address": "1809 Burgundy St",
    "address_councildis": "C",
    "status": "Pending",
    "rowid": "992259",
    "final_x": "3683667.55394",
    "final_y": "535497.693446",
    "longitude": "-90.06108651892016",
    "latitude": "29.96636698535687",
    "geocoded_column": {
      "latitude": "29.96636698535687",
      "longitude": "-90.06108651892016"
    }
  },
  {
    "service_request": "2023-992258",
    "request_type": "Trash/Recycling",
    "request_reason": "Order Recycling Cart",
    "date_created": "2023-04-18T18:40:22.000",
    "date_modified": "2023-04-18T18:40:23.000",
    "request_status": "Pending",
    "responsible_agency": "Department of Sanitation",
    "final_address": "2916 Laurel St",
    "address_councildis": "B",
    "status": "Pending",
    "rowid": "992258",
    "final_x": "3676924.29333",
    "final_y": "519820.149688",
    "longitude": "-90.08292192079136",
    "latitude": "29.923463083481074",
    "geocoded_column": {
      "latitude": "29.923463083481074",
      "longitude": "-90.08292192079136"
    }
  },
  {
    "service_request": "2023-992257",
    "request_type": "Trash/Recycling",
    "request_reason": "MIssed Recycling Pick-Up",
    "date_created": "2023-04-18T18:30:31.000",
    "date_modified": "2023-04-18T18:30:31.000",
    "request_status": "Pending",
    "responsible_agency": "Department of Sanitation",
    "final_address": "809 N Rocheblave St",
    "address_councildis": "D",
    "status": "Assigned to Contractor",
    "contractor": "Richards Disposal",
    "rowid": "992257",
    "final_x": "3677765.29634",
    "final_y": "536713.153927",
    "longitude": "-90.07968376611245",
    "latitude": "29.969887962881344",
    "geocoded_column": {
      "latitude": "29.969887962881344",
      "longitude": "-90.07968376611245"
    }
  },
  {
    "service_request": "2023-992256",
    "request_type": "Trash/Recycling",
    "request_reason": "Replace Recycling Cart",
    "date_created": "2023-04-18T18:25:11.000",
    "date_modified": "2023-04-18T18:25:11.000",
    "request_status": "Pending",
    "responsible_agency": "Department of Sanitation",
    "final_address": "1014 N Lopez St",
    "address_councildis": "A",
    "status": "Pending",
    "rowid": "992256",
    "final_x": "3676131.54107",
    "final_y": "538985.180554",
    "longitude": "-90.08476514016316",
    "latitude": "29.97618430844918",
    "geocoded_column": {
      "latitude": "29.97618430844918",
      "longitude": "-90.08476514016316"
    }
  },
  {
    "service_request": "2023-992255",
    "request_type": "Trash/Recycling",
    "request_reason": "Replace Trash Cart",
    "date_created": "2023-04-18T18:23:58.000",
    "date_modified": "2023-04-18T18:23:59.000",
    "request_status": "Pending",
    "responsible_agency": "Department of Sanitation",
    "status": "Assigned to Contractor",
    "rowid": "992255",
    "longitude": "0.0",
    "latitude": "0.0",
    "geocoded_column": {
      "latitude": "0.0",
      "longitude": "0.0"
    }
  },
  {
    "service_request": "2023-992254",
    "request_type": "Roads/Drainage",
    "request_reason": "Pothole",
    "date_created": "2023-04-18T18:19:52.000",
    "date_modified": "2023-04-18T18:19:52.000",
    "request_status": "Pending",
    "responsible_agency": "Department of Public Works",
    "final_address": "5212 Macarthur Blvd",
    "address_councildis": "C",
    "status": "Pending",
    "rowid": "992254",
    "final_x": "3703312.08049",
    "final_y": "519975.14732",
    "longitude": "-89.99962045106713",
    "latitude": "29.923071106051616",
    "geocoded_column": {
      "latitude": "29.923071106051616",
      "longitude": "-89.99962045106713"
    }
  },
  {
    "service_request": "2023-992253",
    "request_type": "Roads/Drainage",
    "request_reason": "Pothole",
    "date_created": "2023-04-18T18:19:42.000",
    "date_modified": "2023-04-18T18:19:42.000",
    "request_status": "Pending",
    "responsible_agency": "Department of Public Works",
    "final_address": "5212 Macarthur Blvd",
    "address_councildis": "C",
    "status": "Pending",
    "rowid": "992253",
    "final_x": "3703312.08049",
    "final_y": "519975.14732",
    "longitude": "-89.99962045106713",
    "latitude": "29.923071106051616",
    "geocoded_column": {
      "latitude": "29.923071106051616",
      "longitude": "-89.99962045106713"
    }
  },
  {
    "service_request": "2023-992252",
    "request_type": "Trash/Recycling",
    "request_reason": "Missed Trash Pick-Up",
    "date_created": "2023-04-18T18:16:53.000",
    "date_modified": "2023-04-18T18:16:54.000",
    "request_status": "Pending",
    "responsible_agency": "Department of Sanitation",
    "final_address": "7710 Weaver Ave",
    "address_councildis": "E",
    "status": "Assigned to Contractor",
    "contractor": "Waste Pro",
    "rowid": "992252",
    "final_x": "3707241.27416",
    "final_y": "564585.484257",
    "longitude": "-89.98556127877376",
    "latitude": "30.04560654391974",
    "geocoded_column": {
      "latitude": "30.04560654391974",
      "longitude": "-89.98556127877376"
    }
  },
  {
    "service_request": "2023-992251",
    "request_type": "Trash/Recycling",
    "request_reason": "Return Recycling Cart",
    "date_created": "2023-04-18T18:11:14.000",
    "date_modified": "2023-04-18T18:11:14.000",
    "request_status": "Pending",
    "responsible_agency": "Department of Sanitation",
    "status": "Pending",
    "rowid": "992251",
    "longitude": "0.0",
    "latitude": "0.0",
    "geocoded_column": {
      "latitude": "0.0",
      "longitude": "0.0"
    }
  },
  {
    "service_request": "2023-992250",
    "request_type": "Trash/Recycling",
    "request_reason": "Replace Trash Cart",
    "date_created": "2023-04-18T18:09:42.000",
    "date_modified": "2023-04-18T18:09:43.000",
    "request_status": "Pending",
    "responsible_agency": "Department of Sanitation",
    "final_address": "2429 N Johnson St",
    "address_councildis": "D",
    "status": "Assigned to Contractor",
    "contractor": "IV Waste",
    "rowid": "992250",
    "final_x": "3686499.38934",
    "final_y": "539794.498698",
    "longitude": "-90.05199190974452",
    "latitude": "29.978094937148747",
    "geocoded_column": {
      "latitude": "29.978094937148747",
      "longitude": "-90.05199190974452"
    }
  },
  {
    "service_request": "2023-992249",
    "request_type": "Trash/Recycling",
    "request_reason": "Order Recycling Cart",
    "date_created": "2023-04-18T18:04:50.000",
    "date_modified": "2023-04-18T18:04:50.000",
    "request_status": "Pending",
    "responsible_agency": "Department of Sanitation",
    "final_address": "3311 St Ann St",
    "address_councildis": "A",
    "status": "Pending",
    "rowid": "992249",
    "final_x": "3674836.62312",
    "final_y": "538845.117961",
    "longitude": "-90.08885968234804",
    "latitude": "29.975837918563485",
    "geocoded_column": {
      "latitude": "29.975837918563485",
      "longitude": "-90.08885968234804"
    }
  },
  {
    "service_request": "2023-992248",
    "request_type": "Roads/Drainage",
    "request_reason": "Debris in Roadway",
    "date_created": "2023-04-18T18:00:05.000",
    "date_modified": "2023-04-18T18:00:05.000",
    "request_status": "Pending",
    "responsible_agency": "Department of Public Works",
    "final_address": "SISTER ST & ST CLAUDE AVE",
    "address_councildis": "E",
    "status": "Pending",
    "rowid": "992248",
    "final_x": "3694658.9",
    "final_y": "534585.98",
    "longitude": "-90.02640902894048",
    "latitude": "29.96351995360696",
    "geocoded_column": {
      "latitude": "29.96351995360696",
      "longitude": "-90.02640902894048"
    }
  },
  {
    "service_request": "2023-992247",
    "request_type": "Abandoned Vehicles",
    "request_reason": "Abandoned/Junk Vehicles",
    "date_created": "2023-04-18T17:59:36.000",
    "date_modified": "2023-04-18T17:59:36.000",
    "request_status": "Pending",
    "responsible_agency": "Department of Public Works",
    "final_address": "7321 Camberley Dr",
    "address_councildis": "E",
    "status": "Pending",
    "rowid": "992247",
    "final_x": "3712992.33874",
    "final_y": "565379.48317",
    "longitude": "-89.96735535413002",
    "latitude": "30.047602465398477",
    "geocoded_column": {
      "latitude": "30.047602465398477",
      "longitude": "-89.96735535413002"
    }
  },
  {
    "service_request": "2023-992246",
    "request_type": "Abandoned Vehicles",
    "request_reason": "Abandoned/Junk Vehicles",
    "date_created": "2023-04-18T17:46:20.000",
    "date_modified": "2023-04-18T17:46:20.000",
    "request_status": "Pending",
    "responsible_agency": "Department of Public Works",
    "final_address": "615 Desire St",
    "address_councildis": "C",
    "status": "Pending",
    "rowid": "992246",
    "final_x": "3689793.20374",
    "final_y": "533990.886917",
    "longitude": "-90.04179551317199",
    "latitude": "29.96203535652359",
    "geocoded_column": {
      "latitude": "29.96203535652359",
      "longitude": "-90.04179551317199"
    }
  },
  {
    "service_request": "2023-992245",
    "request_type": "Trash/Recycling",
    "request_reason": "Request a Large Item Pick Up",
    "date_created": "2023-04-18T17:45:03.000",
    "date_modified": "2023-04-18T17:45:04.000",
    "request_status": "Pending",
    "responsible_agency": "Department of Sanitation",
    "final_address": "1019 Clouet St",
    "address_councildis": "C",
    "status": "Assigned to Contractor",
    "contractor": "IV Waste",
    "rowid": "992245",
    "final_x": "3688965.01603",
    "final_y": "535717.683271",
    "longitude": "-90.04434945368091",
    "latitude": "29.966809086020987",
    "geocoded_column": {
      "latitude": "29.966809086020987",
      "longitude": "-90.04434945368091"
    }
  },
  {
    "service_request": "2023-992244",
    "request_type": "Trash/Recycling",
    "request_reason": "Request a Large Item Pick Up",
    "date_created": "2023-04-18T17:41:59.000",
    "date_modified": "2023-04-18T17:41:59.000",
    "request_status": "Pending",
    "responsible_agency": "Department of Sanitation",
    "final_address": "7903 Means Ave",
    "address_councildis": "E",
    "status": "Assigned to Contractor",
    "contractor": "Waste Pro",
    "rowid": "992244",
    "final_x": "3707689.38257",
    "final_y": "565509.88765",
    "longitude": "-89.98411064634928",
    "latitude": "30.048133782970616",
    "geocoded_column": {
      "latitude": "30.048133782970616",
      "longitude": "-89.98411064634928"
    }
  },
  {
    "service_request": "2023-992243",
    "request_type": "Trash/Recycling",
    "request_reason": "Replace Trash Cart",
    "date_created": "2023-04-18T17:41:39.000",
    "date_modified": "2023-04-18T17:41:40.000",
    "request_status": "Pending",
    "responsible_agency": "Department of Sanitation",
    "final_address": "5530 Rickert Dr",
    "address_councildis": "E",
    "status": "Assigned to Contractor",
    "contractor": "Waste Pro",
    "rowid": "992243",
    "final_x": "3703159.85559",
    "final_y": "556277.933146",
    "longitude": "-89.99876628440764",
    "latitude": "30.022895391879526",
    "geocoded_column": {
      "latitude": "30.022895391879526",
      "longitude": "-89.99876628440764"
    }
  },
  {
    "service_request": "2023-992242",
    "request_type": "Trash/Recycling",
    "request_reason": "Request a Large Item Pick Up",
    "date_created": "2023-04-18T17:40:58.000",
    "date_modified": "2023-04-18T17:40:59.000",
    "request_status": "Pending",
    "responsible_agency": "Department of Sanitation",
    "final_address": "1511 Dublin St",
    "address_councildis": "A",
    "status": "Assigned to Contractor",
    "contractor": "Richards Disposal",
    "rowid": "992242",
    "final_x": "3662522.7001",
    "final_y": "529449.343873",
    "longitude": "-90.12806287532004",
    "latitude": "29.95036459889652",
    "geocoded_column": {
      "latitude": "29.95036459889652",
      "longitude": "-90.12806287532004"
    }
  },
  {
    "service_request": "2023-992241",
    "request_type": "Trash/Recycling",
    "request_reason": "Request a Large Item Pick Up",
    "date_created": "2023-04-18T17:38:35.000",
    "date_modified": "2023-04-18T17:38:35.000",
    "request_status": "Pending",
    "responsible_agency": "Department of Sanitation",
    "final_address": "4909 Carondelet St",
    "address_councildis": "B",
    "status": "Assigned to Contractor",
    "contractor": "Richards Disposal",
    "rowid": "992241",
    "final_x": "3668967.87502",
    "final_y": "521173.868281",
    "longitude": "-90.10799174322814",
    "latitude": "29.927421723435902",
    "geocoded_column": {
      "latitude": "29.927421723435902",
      "longitude": "-90.10799174322814"
    }
  },
  {
    "service_request": "2023-992240",
    "request_type": "Property Maintenance",
    "request_reason": "Property Maintenance",
    "date_created": "2023-04-18T17:29:51.000",
    "date_modified": "2023-04-18T17:35:53.000",
    "request_status": "Pending",
    "responsible_agency": "Department of Code Enforcement",
    "final_address": "14 Pointe Coupee Pl",
    "address_councildis": "E",
    "status": "Pending",
    "rowid": "992240",
    "final_x": "3725352.49696",
    "final_y": "564610.858209",
    "longitude": "-89.92832073445084",
    "latitude": "30.04507812399178",
    "geocoded_column": {
      "latitude": "30.04507812399178",
      "longitude": "-89.92832073445084"
    }
  },
  {
    "service_request": "2023-992239",
    "request_type": "Trash/Recycling",
    "request_reason": "Repair Trash Cart",
    "date_created": "2023-04-18T17:16:42.000",
    "date_modified": "2023-04-18T17:16:42.000",
    "request_status": "Pending",
    "responsible_agency": "Department of Sanitation",
    "final_address": "6070 Vicksburg St",
    "address_councildis": "A",
    "status": "Assigned to Contractor",
    "contractor": "IV Waste",
    "rowid": "992239",
    "final_x": "3668826.18695",
    "final_y": "547777.518354",
    "longitude": "-90.10754060782025",
    "latitude": "30.00057709104523",
    "geocoded_column": {
      "latitude": "30.00057709104523",
      "longitude": "-90.10754060782025"
    }
  },
  {
    "service_request": "2023-992238",
    "request_type": "Trash/Recycling",
    "request_reason": "Replace Trash Cart",
    "date_created": "2023-04-18T17:15:17.000",
    "date_modified": "2023-04-18T17:15:18.000",
    "request_status": "Pending",
    "responsible_agency": "Department of Sanitation",
    "final_address": "5970 General Haig St",
    "address_councildis": "A",
    "status": "Assigned to Contractor",
    "contractor": "IV Waste",
    "rowid": "992238",
    "final_x": "3670460.90158",
    "final_y": "546992.470929",
    "longitude": "-90.10240306312811",
    "latitude": "29.998370296989684",
    "geocoded_column": {
      "latitude": "29.998370296989684",
      "longitude": "-90.10240306312811"
    }
  },
  {
    "service_request": "2023-992237",
    "request_type": "Trash/Recycling",
    "request_reason": "Repair Trash Cart",
    "date_created": "2023-04-18T17:14:11.000",
    "date_modified": "2023-04-18T17:14:11.000",
    "request_status": "Pending",
    "responsible_agency": "Department of Sanitation",
    "final_address": "5970 General Haig St",
    "address_councildis": "A",
    "status": "Assigned to Contractor",
    "contractor": "IV Waste",
    "rowid": "992237",
    "final_x": "3670460.90158",
    "final_y": "546992.470929",
    "longitude": "-90.10240306312811",
    "latitude": "29.998370296989684",
    "geocoded_column": {
      "latitude": "29.998370296989684",
      "longitude": "-90.10240306312811"
    }
  },
  {
    "service_request": "2023-992236",
    "request_type": "Abandoned Vehicles",
    "request_reason": "Abandoned/Junk Vehicles",
    "date_created": "2023-04-18T17:13:42.000",
    "date_modified": "2023-04-18T17:13:42.000",
    "request_status": "Pending",
    "responsible_agency": "Department of Public Works",
    "final_address": "3826 Dryades St",
    "address_councildis": "B",
    "status": "Pending",
    "rowid": "992236",
    "final_x": "3672447.60206",
    "final_y": "522072.225914",
    "longitude": "-90.096976487002",
    "latitude": "29.92978913961802",
    "geocoded_column": {
      "latitude": "29.92978913961802",
      "longitude": "-90.096976487002"
    }
  },
  {
    "service_request": "2023-992235",
    "request_type": "Abandoned Vehicles",
    "request_reason": "Abandoned/Junk Vehicles",
    "date_created": "2023-04-18T17:12:29.000",
    "date_modified": "2023-04-18T17:12:29.000",
    "request_status": "Pending",
    "responsible_agency": "Department of Public Works",
    "final_address": "3414 Dryades St",
    "address_councildis": "B",
    "status": "Pending",
    "rowid": "992235",
    "final_x": "3673630.64584",
    "final_y": "522451.016762",
    "longitude": "-90.09322887502952",
    "latitude": "29.930795539461574",
    "geocoded_column": {
      "latitude": "29.930795539461574",
      "longitude": "-90.09322887502952"
    }
  },
  {
    "service_request": "2023-992234",
    "request_type": "Abandoned Vehicles",
    "request_reason": "Abandoned/Junk Vehicles",
    "date_created": "2023-04-18T17:11:14.000",
    "date_modified": "2023-04-18T17:11:14.000",
    "request_status": "Pending",
    "responsible_agency": "Department of Public Works",
    "final_address": "3402 Dryades St",
    "address_councildis": "B",
    "status": "Pending",
    "rowid": "992234",
    "final_x": "3673710.6178",
    "final_y": "522485.072634",
    "longitude": "-90.09297525066839",
    "latitude": "29.93088680198381",
    "geocoded_column": {
      "latitude": "29.93088680198381",
      "longitude": "-90.09297525066839"
    }
  },
  {
    "service_request": "2023-992233",
    "request_type": "Trash/Recycling",
    "request_reason": "Replace Trash Cart",
    "date_created": "2023-04-18T17:09:48.000",
    "date_modified": "2023-04-18T17:09:48.000",
    "request_status": "Pending",
    "responsible_agency": "Department of Sanitation",
    "final_address": "8521 Chase St",
    "address_councildis": "E",
    "status": "Assigned to Contractor",
    "contractor": "Waste Pro",
    "rowid": "992233",
    "final_x": "3703425.42097",
    "final_y": "563376.630688",
    "longitude": "-89.99766570263893",
    "latitude": "30.042405533884075",
    "geocoded_column": {
      "latitude": "30.042405533884075",
      "longitude": "-89.99766570263893"
    }
  },
  {
    "service_request": "2023-992232",
    "request_type": "Abandoned Vehicles",
    "request_reason": "Abandoned/Junk Vehicles",
    "date_created": "2023-04-18T17:09:24.000",
    "date_modified": "2023-04-18T17:09:24.000",
    "request_status": "Pending",
    "responsible_agency": "Department of Public Works",
    "final_address": "1917 Foucher St",
    "address_councildis": "B",
    "status": "Pending",
    "rowid": "992232",
    "final_x": "3673121.88897",
    "final_y": "522476.92185",
    "longitude": "-90.0948340675214",
    "latitude": "29.930881900271682",
    "geocoded_column": {
      "latitude": "29.930881900271682",
      "longitude": "-90.0948340675214"
    }
  },
  {
    "service_request": "2023-992231",
    "request_type": "Abandoned Vehicles",
    "request_reason": "Abandoned/Junk Vehicles",
    "date_created": "2023-04-18T17:08:00.000",
    "date_modified": "2023-04-18T17:08:00.000",
    "request_status": "Pending",
    "responsible_agency": "Department of Public Works",
    "final_address": "1450 Josephine St",
    "address_councildis": "B",
    "status": "Pending",
    "rowid": "992231",
    "final_x": "3678247.27253",
    "final_y": "523444.999739",
    "longitude": "-90.07862047326248",
    "latitude": "29.933390474531205",
    "geocoded_column": {
      "latitude": "29.933390474531205",
      "longitude": "-90.07862047326248"
    }
  },
  {
    "service_request": "2023-992230",
    "request_type": "Abandoned Vehicles",
    "request_reason": "Abandoned/Junk Vehicles",
    "date_created": "2023-04-18T17:05:42.000",
    "date_modified": "2023-04-18T17:05:42.000",
    "request_status": "Pending",
    "responsible_agency": "Department of Public Works",
    "final_address": "1450 Josephine St",
    "address_councildis": "B",
    "status": "Pending",
    "rowid": "992230",
    "final_x": "3678247.27253",
    "final_y": "523444.999739",
    "longitude": "-90.07862047326248",
    "latitude": "29.933390474531205",
    "geocoded_column": {
      "latitude": "29.933390474531205",
      "longitude": "-90.07862047326248"
    }
  },
  {
    "service_request": "2023-992229",
    "request_type": "Trash/Recycling",
    "request_reason": "MIssed Recycling Pick-Up",
    "date_created": "2023-04-18T17:04:47.000",
    "date_modified": "2023-04-18T17:04:48.000",
    "request_status": "Pending",
    "responsible_agency": "Department of Sanitation",
    "final_address": "3645 Fairmont Dr",
    "address_councildis": "D",
    "status": "Assigned to Contractor",
    "contractor": "IV Waste",
    "rowid": "992229",
    "final_x": "3685497.46716",
    "final_y": "545977.59656",
    "longitude": "-90.05493845452268",
    "latitude": "29.99512703172047",
    "geocoded_column": {
      "latitude": "29.99512703172047",
      "longitude": "-90.05493845452268"
    }
  },
  {
    "service_request": "2023-992228",
    "request_type": "Abandoned Vehicles",
    "request_reason": "Abandoned/Junk Vehicles",
    "date_created": "2023-04-18T17:01:27.000",
    "date_modified": "2023-04-18T17:01:27.000",
    "request_status": "Pending",
    "responsible_agency": "Department of Public Works",
    "final_address": "1450 Josephine St",
    "address_councildis": "B",
    "status": "Pending",
    "rowid": "992228",
    "final_x": "3678247.27253",
    "final_y": "523444.999739",
    "longitude": "-90.07862047326248",
    "latitude": "29.933390474531205",
    "geocoded_column": {
      "latitude": "29.933390474531205",
      "longitude": "-90.07862047326248"
    }
  },
  {
    "service_request": "2023-992227",
    "request_type": "Trash/Recycling",
    "request_reason": "Request a Large Item Pick Up",
    "date_created": "2023-04-18T17:00:03.000",
    "date_modified": "2023-04-18T17:00:03.000",
    "request_status": "Pending",
    "responsible_agency": "Department of Sanitation",
    "final_address": "1922 Fourth St",
    "address_councildis": "B",
    "status": "Assigned to Contractor",
    "contractor": "Richards Disposal",
    "rowid": "992227",
    "final_x": "3675447.11899",
    "final_y": "523764.941243",
    "longitude": "-90.08744941949348",
    "latitude": "29.93435422310727",
    "geocoded_column": {
      "latitude": "29.93435422310727",
      "longitude": "-90.08744941949348"
    }
  },
  {
    "service_request": "2023-992226",
    "request_type": "Trash/Recycling",
    "request_reason": "Request a Large Item Pick Up",
    "date_created": "2023-04-18T16:59:56.000",
    "date_modified": "2023-04-18T16:59:57.000",
    "request_status": "Pending",
    "responsible_agency": "Department of Sanitation",
    "final_address": "2725 Ursulines Ave",
    "address_councildis": "A",
    "status": "Assigned to Contractor",
    "contractor": "Richards Disposal",
    "rowid": "992226",
    "final_x": "3677308.26408",
    "final_y": "538495.966345",
    "longitude": "-90.08106558596556",
    "latitude": "29.974803828289964",
    "geocoded_column": {
      "latitude": "29.974803828289964",
      "longitude": "-90.08106558596556"
    }
  },
  {
    "service_request": "2023-992225",
    "request_type": "Traffic Signals/Signs/Striping/Streetlights",
    "request_reason": "Street Light Outage/Malfunction",
    "date_created": "2023-04-18T16:59:44.000",
    "date_modified": "2023-04-18T16:59:45.000",
    "request_status": "Pending",
    "responsible_agency": "Department of Public Works",
    "final_address": "6235 Oxford St",
    "address_councildis": "C",
    "status": "Assigned to Contractor",
    "contractor": "Legacy Professional Services",
    "rowid": "992225",
    "final_x": "3707252.1226",
    "final_y": "519666.999992",
    "longitude": "-89.98719479431776",
    "latitude": "29.922097119330754",
    "geocoded_column": {
      "latitude": "29.922097119330754",
      "longitude": "-89.98719479431776"
    }
  },
  {
    "service_request": "2023-992224",
    "request_type": "Trash/Recycling",
    "request_reason": "Request a Large Item Pick Up",
    "date_created": "2023-04-18T16:55:56.000",
    "date_modified": "2023-04-18T16:55:57.000",
    "request_status": "Pending",
    "responsible_agency": "Department of Sanitation",
    "final_address": "1927 Fourth St",
    "address_councildis": "B",
    "status": "Assigned to Contractor",
    "contractor": "Richards Disposal",
    "rowid": "992224",
    "final_x": "3675577.37921",
    "final_y": "523879.917116",
    "longitude": "-90.08703424330795",
    "latitude": "29.93466647414845",
    "geocoded_column": {
      "latitude": "29.93466647414845",
      "longitude": "-90.08703424330795"
    }
  },
  {
    "service_request": "2023-992223",
    "request_type": "Roads/Drainage",
    "request_reason": "Street Subsidence (Sinking)",
    "date_created": "2023-04-18T16:51:09.000",
    "date_modified": "2023-04-18T16:51:10.000",
    "request_status": "Pending",
    "responsible_agency": "Department of Public Works",
    "final_address": "5600 BLK Constance St",
    "address_councildis": "A",
    "status": "Pending",
    "rowid": "992223",
    "final_x": "3665896.80564",
    "final_y": "518574.537442",
    "longitude": "-90.11777343285756",
    "latitude": "29.92036432761003",
    "geocoded_column": {
      "latitude": "29.92036432761003",
      "longitude": "-90.11777343285756"
    }
  },
  {
    "service_request": "2023-992222",
    "request_type": "Trash/Recycling",
    "request_reason": "Replace Trash Cart",
    "date_created": "2023-04-18T16:50:36.000",
    "date_modified": "2023-04-18T16:50:36.000",
    "request_status": "Pending",
    "responsible_agency": "Department of Sanitation",
    "final_address": "1922 Fourth St",
    "address_councildis": "B",
    "status": "Assigned to Contractor",
    "contractor": "Richards Disposal",
    "rowid": "992222",
    "final_x": "3675447.11899",
    "final_y": "523764.941243",
    "longitude": "-90.08744941949348",
    "latitude": "29.93435422310727",
    "geocoded_column": {
      "latitude": "29.93435422310727",
      "longitude": "-90.08744941949348"
    }
  },
  {
    "service_request": "2023-992221",
    "request_type": "Trash/Recycling",
    "request_reason": "Missed Trash Pick-Up",
    "date_created": "2023-04-18T16:47:08.000",
    "date_modified": "2023-04-18T16:47:08.000",
    "request_status": "Pending",
    "responsible_agency": "Department of Sanitation",
    "final_address": "1863 Pleasure St",
    "address_councildis": "D",
    "status": "Assigned to Contractor",
    "contractor": "IV Waste",
    "rowid": "992221",
    "final_x": "3681907.24674",
    "final_y": "545037.374095",
    "longitude": "-90.06631241405516",
    "latitude": "29.992651403366015",
    "geocoded_column": {
      "latitude": "29.992651403366015",
      "longitude": "-90.06631241405516"
    }
  },
  {
    "service_request": "2023-992220",
    "request_type": "Roads/Drainage",
    "request_reason": "Pothole",
    "date_created": "2023-04-18T16:46:50.000",
    "date_modified": "2023-04-18T16:46:51.000",
    "request_status": "Pending",
    "responsible_agency": "Department of Public Works",
    "final_address": "7635 Benson St",
    "address_councildis": "E",
    "status": "Pending",
    "rowid": "992220",
    "final_x": "3704426.22711",
    "final_y": "562631.582496",
    "longitude": "-89.99453029927389",
    "latitude": "30.040324830334864",
    "geocoded_column": {
      "latitude": "30.040324830334864",
      "longitude": "-89.99453029927389"
    }
  },
  {
    "service_request": "2023-992219",
    "request_type": "Trash/Recycling",
    "request_reason": "Order Trash Cart",
    "date_created": "2023-04-18T16:46:46.000",
    "date_modified": "2023-04-18T16:46:47.000",
    "request_status": "Pending",
    "responsible_agency": "Department of Sanitation",
    "final_address": "7348 Heather Ct",
    "address_councildis": "E",
    "status": "Assigned to Contractor",
    "contractor": "Waste Pro",
    "rowid": "992219",
    "final_x": "3705409.37694",
    "final_y": "562304.348703",
    "longitude": "-89.99143536162181",
    "latitude": "30.039393444728507",
    "geocoded_column": {
      "latitude": "30.039393444728507",
      "longitude": "-89.99143536162181"
    }
  },
  {
    "service_request": "2023-992218",
    "request_type": "Trash/Recycling",
    "request_reason": "Order Recycling Cart",
    "date_created": "2023-04-18T16:44:06.000",
    "date_modified": "2023-04-18T16:44:07.000",
    "request_status": "Pending",
    "responsible_agency": "Department of Sanitation",
    "final_address": "2414 Arts St",
    "address_councildis": "D",
    "status": "Pending",
    "rowid": "992218",
    "final_x": "3686774.0998",
    "final_y": "541421.7739",
    "longitude": "-90.0510667642704",
    "latitude": "29.982560919348938",
    "geocoded_column": {
      "latitude": "29.982560919348938",
      "longitude": "-90.0510667642704"
    }
  },
  {
    "service_request": "2023-992217",
    "request_type": "Trash/Recycling",
    "request_reason": "Order Trash Cart",
    "date_created": "2023-04-18T16:43:27.000",
    "date_modified": "2023-04-18T16:43:28.000",
    "request_status": "Pending",
    "responsible_agency": "Department of Sanitation",
    "final_address": "2414 Arts St",
    "address_councildis": "D",
    "status": "Assigned to Contractor",
    "contractor": "IV Waste",
    "rowid": "992217",
    "final_x": "3686774.0998",
    "final_y": "541421.7739",
    "longitude": "-90.0510667642704",
    "latitude": "29.982560919348938",
    "geocoded_column": {
      "latitude": "29.982560919348938",
      "longitude": "-90.0510667642704"
    }
  },
  {
    "service_request": "2023-992216",
    "request_type": "Roads/Drainage",
    "request_reason": "Alley Way",
    "date_created": "2023-04-18T16:41:09.000",
    "date_modified": "2023-04-18T16:41:09.000",
    "request_status": "Pending",
    "responsible_agency": "Department of Public Works",
    "final_address": "6235 Louisville St",
    "address_councildis": "A",
    "status": "Pending",
    "rowid": "992216",
    "final_x": "3667985.49473",
    "final_y": "548926.209427",
    "longitude": "-90.11015768262465",
    "latitude": "30.00376029540787",
    "geocoded_column": {
      "latitude": "30.00376029540787",
      "longitude": "-90.11015768262465"
    }
  },
  {
    "service_request": "2023-992215",
    "request_type": "Traffic Signals/Signs/Striping/Streetlights",
    "request_reason": "Street Light Outage/Malfunction",
    "date_created": "2023-04-18T16:36:46.000",
    "date_modified": "2023-04-18T16:36:46.000",
    "request_status": "Pending",
    "responsible_agency": "Department of Public Works",
    "final_address": "13 St Claude Ct",
    "address_councildis": "E",
    "status": "Assigned to Contractor",
    "contractor": "Legacy Professional Services",
    "rowid": "992215",
    "final_x": "3697598.6865",
    "final_y": "533648.514821",
    "longitude": "-90.017159553004",
    "latitude": "29.960849732336666",
    "geocoded_column": {
      "latitude": "29.960849732336666",
      "longitude": "-90.017159553004"
    }
  },
  {
    "service_request": "2023-992214",
    "request_type": "Abandoned Vehicles",
    "request_reason": "Abandoned/Junk Vehicles",
    "date_created": "2023-04-18T16:25:50.000",
    "date_modified": "2023-04-18T16:28:24.000",
    "request_status": "Pending",
    "responsible_agency": "Department of Public Works",
    "final_address": "731 Marigny St",
    "address_councildis": "C",
    "status": "Pending",
    "rowid": "992214",
    "final_x": "3685542.01999",
    "final_y": "535163.035654",
    "longitude": "-90.0551787855153",
    "latitude": "29.965389431941176",
    "geocoded_column": {
      "latitude": "29.965389431941176",
      "longitude": "-90.0551787855153"
    }
  },
  {
    "service_request": "2023-992213",
    "request_type": "Trash/Recycling",
    "request_reason": "Order Trash Cart",
    "date_created": "2023-04-18T16:22:26.000",
    "date_modified": "2023-04-18T16:22:27.000",
    "request_status": "Pending",
    "responsible_agency": "Department of Sanitation",
    "final_address": "2617 Dante St",
    "address_councildis": "A",
    "status": "Assigned to Contractor",
    "contractor": "Richards Disposal",
    "rowid": "992213",
    "final_x": "3664950.51264",
    "final_y": "532675.615684",
    "longitude": "-90.1202892357421",
    "latitude": "29.959165354587956",
    "geocoded_column": {
      "latitude": "29.959165354587956",
      "longitude": "-90.1202892357421"
    }
  },
  {
    "service_request": "2023-992212",
    "request_type": "Traffic Signals/Signs/Striping/Streetlights",
    "request_reason": "Street Name Sign Damaged or Missing",
    "date_created": "2023-04-18T16:21:23.000",
    "date_modified": "2023-04-18T16:21:23.000",
    "request_status": "Pending",
    "responsible_agency": "Department of Public Works",
    "final_address": "GENERAL TAYLOR & PRYTANIA ST",
    "address_councildis": "B",
    "status": "Pending",
    "rowid": "992212",
    "final_x": "3672761.6",
    "final_y": "520505.48",
    "longitude": "-90.0960386550395",
    "latitude": "29.925471772365988",
    "geocoded_column": {
      "latitude": "29.925471772365988",
      "longitude": "-90.0960386550395"
    }
  },
  {
    "service_request": "2023-992211",
    "request_type": "Trash/Recycling",
    "request_reason": "Dead Animal Pick Up",
    "date_created": "2023-04-18T16:19:43.000",
    "date_modified": "2023-04-18T16:19:44.000",
    "request_status": "Pending",
    "responsible_agency": "Department of Sanitation",
    "final_address": "5314 St Anthony Ave",
    "address_councildis": "D",
    "status": "Assigned to Contractor",
    "contractor": "IV Waste",
    "rowid": "992211",
    "final_x": "3682090.1876",
    "final_y": "552537.304982",
    "longitude": "-90.06547240069479",
    "latitude": "30.01326795939257",
    "geocoded_column": {
      "latitude": "30.01326795939257",
      "longitude": "-90.06547240069479"
    }
  },
  {
    "service_request": "2023-992209",
    "request_type": "Roads/Drainage",
    "request_reason": "Pothole",
    "date_created": "2023-04-18T16:17:24.000",
    "date_modified": "2023-04-18T16:17:24.000",
    "request_status": "Pending",
    "responsible_agency": "Department of Public Works",
    "final_address": "1900 Congress St",
    "address_councildis": "D",
    "status": "Pending",
    "rowid": "992209",
    "final_x": "3691437.31881",
    "final_y": "538631.711881",
    "longitude": "-90.03643779969076",
    "latitude": "29.974744931011024",
    "geocoded_column": {
      "latitude": "29.974744931011024",
      "longitude": "-90.03643779969076"
    }
  },
  {
    "service_request": "2023-992207",
    "request_type": "Trash/Recycling",
    "request_reason": "Order Recycling Cart",
    "date_created": "2023-04-18T16:14:49.000",
    "date_modified": "2023-04-18T16:14:49.000",
    "request_status": "Pending",
    "responsible_agency": "Department of Sanitation",
    "final_address": "3508 Robert St",
    "address_councildis": "B",
    "status": "Pending",
    "rowid": "992207",
    "final_x": "3668905.15822",
    "final_y": "527716.553279",
    "longitude": "-90.10796885455333",
    "latitude": "29.945413847290684",
    "geocoded_column": {
      "latitude": "29.945413847290684",
      "longitude": "-90.10796885455333"
    }
  },
  {
    "service_request": "2023-992206",
    "request_type": "Roads/Drainage",
    "request_reason": "Pothole",
    "date_created": "2023-04-18T16:14:30.000",
    "date_modified": "2023-04-18T16:14:30.000",
    "request_status": "Pending",
    "responsible_agency": "Department of Public Works",
    "final_address": "5159 Mandeville St",
    "address_councildis": "D",
    "status": "Pending",
    "rowid": "992206",
    "final_x": "3684672.34658",
    "final_y": "551863.585046",
    "longitude": "-90.05733786697338",
    "latitude": "30.011336661807942",
    "geocoded_column": {
      "latitude": "30.011336661807942",
      "longitude": "-90.05733786697338"
    }
  },
  {
    "service_request": "2023-992205",
    "request_type": "Trash/Recycling",
    "request_reason": "Request a Large Item Pick Up",
    "date_created": "2023-04-18T16:13:11.000",
    "date_modified": "2023-04-18T16:13:11.000",
    "request_status": "Pending",
    "responsible_agency": "Department of Sanitation",
    "final_address": "1722 Lark St",
    "address_councildis": "D",
    "status": "Assigned to Contractor",
    "contractor": "IV Waste",
    "rowid": "992205",
    "final_x": "3678799.01352",
    "final_y": "557832.199643",
    "longitude": "-90.0756871501169",
    "latitude": "30.027926716187096",
    "geocoded_column": {
      "latitude": "30.027926716187096",
      "longitude": "-90.0756871501169"
    }
  },
  {
    "service_request": "2023-992204",
    "request_type": "Trash/Recycling",
    "request_reason": "Replace Trash Cart",
    "date_created": "2023-04-18T16:10:11.000",
    "date_modified": "2023-04-18T16:10:12.000",
    "request_status": "Pending",
    "responsible_agency": "Department of Sanitation",
    "final_address": "1701 S Carrollton Ave",
    "address_councildis": "A",
    "status": "Assigned to Contractor",
    "contractor": "Richards Disposal",
    "rowid": "992204",
    "final_x": "3663283.85869",
    "final_y": "529589.411521",
    "longitude": "-90.1256548615224",
    "latitude": "29.9507277029746",
    "geocoded_column": {
      "latitude": "29.9507277029746",
      "longitude": "-90.1256548615224"
    }
  },
  {
    "service_request": "2023-992203",
    "request_type": "Trash/Recycling",
    "request_reason": "Replace Trash Cart",
    "date_created": "2023-04-18T16:08:21.000",
    "date_modified": "2023-04-18T16:08:22.000",
    "request_status": "Pending",
    "responsible_agency": "Department of Sanitation",
    "final_address": "712 St Philip St",
    "address_councildis": "C",
    "status": "Assigned to Contractor",
    "contractor": "Empire Services",
    "rowid": "992203",
    "final_x": "3683109.38671",
    "final_y": "533382.109124",
    "longitude": "-90.06292327296278",
    "latitude": "29.960566884212387",
    "geocoded_column": {
      "latitude": "29.960566884212387",
      "longitude": "-90.06292327296278"
    }
  },
  {
    "service_request": "2023-992202",
    "request_type": "Trash/Recycling",
    "request_reason": "Request a Large Item Pick Up",
    "date_created": "2023-04-18T16:08:08.000",
    "date_modified": "2023-04-18T16:08:09.000",
    "request_status": "Pending",
    "responsible_agency": "Department of Sanitation",
    "final_address": "1913 Orleans Ave",
    "address_councildis": "D",
    "status": "Assigned to Contractor",
    "contractor": "Richards Disposal",
    "rowid": "992202",
    "final_x": "3679211.93743",
    "final_y": "535271.116998",
    "longitude": "-90.07516514090682",
    "latitude": "29.96587925491779",
    "geocoded_column": {
      "latitude": "29.96587925491779",
      "longitude": "-90.07516514090682"
    }
  },
  {
    "service_request": "2023-992201",
    "request_type": "Trash/Recycling",
    "request_reason": "Illegal Dumping",
    "date_created": "2023-04-18T16:06:59.000",
    "date_modified": "2023-04-18T16:06:59.000",
    "request_status": "Pending",
    "responsible_agency": "Department of Sanitation",
    "final_address": "1021 Adams St",
    "address_councildis": "A",
    "status": "Pending",
    "rowid": "992201",
    "final_x": "3662750.66067",
    "final_y": "526995.813502",
    "longitude": "-90.1274246224071",
    "latitude": "29.94361158157819",
    "geocoded_column": {
      "latitude": "29.94361158157819",
      "longitude": "-90.1274246224071"
    }
  },
  {
    "service_request": "2023-992200",
    "request_type": "Property Maintenance",
    "request_reason": "Property Maintenance",
    "date_created": "2023-04-18T16:06:38.000",
    "date_modified": "2023-04-18T16:06:38.000",
    "request_status": "Pending",
    "responsible_agency": "Department of Code Enforcement",
    "final_address": "3621 Leonidas St",
    "address_councildis": "A",
    "status": "Pending",
    "rowid": "992200",
    "final_x": "3666568.52781",
    "final_y": "536009.432007",
    "longitude": "-90.11506799148385",
    "latitude": "29.968285050806045",
    "geocoded_column": {
      "latitude": "29.968285050806045",
      "longitude": "-90.11506799148385"
    }
  },
  {
    "service_request": "2023-992199",
    "request_type": "Trash/Recycling",
    "request_reason": "MIssed Recycling Pick-Up",
    "date_created": "2023-04-18T16:01:08.000",
    "date_modified": "2023-04-18T16:01:09.000",
    "request_status": "Pending",
    "responsible_agency": "Department of Sanitation",
    "final_address": "7224 Chatelain Dr",
    "address_councildis": "E",
    "status": "Assigned to Contractor",
    "contractor": "Waste Pro",
    "rowid": "992199",
    "final_x": "3715274.05663",
    "final_y": "566982.38474",
    "longitude": "-89.9600832224293",
    "latitude": "30.051934800929242",
    "geocoded_column": {
      "latitude": "30.051934800929242",
      "longitude": "-89.9600832224293"
    }
  },
  {
    "service_request": "2023-992197",
    "request_type": "Abandoned Vehicles",
    "request_reason": "Abandoned/Junk Vehicles",
    "date_created": "2023-04-18T15:58:05.000",
    "date_modified": "2023-04-18T15:59:30.000",
    "request_status": "Pending",
    "responsible_agency": "Department of Public Works",
    "final_address": "4007 Prytania St",
    "address_councildis": "B",
    "status": "Pending",
    "rowid": "992197",
    "final_x": "3672295.34145",
    "final_y": "520512.087544",
    "longitude": "-90.09751026692359",
    "latitude": "29.92550377662367",
    "geocoded_column": {
      "latitude": "29.92550377662367",
      "longitude": "-90.09751026692359"
    }
  },
  {
    "service_request": "2023-992196",
    "request_type": "Roads/Drainage",
    "request_reason": "Pothole",
    "date_created": "2023-04-18T15:56:12.000",
    "date_modified": "2023-04-18T15:56:12.000",
    "request_status": "Pending",
    "responsible_agency": "Department of Public Works",
    "final_address": "6800 BLK Chef Menteur Hwy",
    "address_councildis": "E",
    "status": "Pending",
    "rowid": "992196",
    "final_x": "3700112.5",
    "final_y": "552038.51743",
    "longitude": "-90.00855005196375",
    "latitude": "30.0113358505743",
    "geocoded_column": {
      "latitude": "30.0113358505743",
      "longitude": "-90.00855005196375"
    }
  },
  {
    "service_request": "2023-992195",
    "request_type": "Roads/Drainage",
    "request_reason": "Catch Basin - Clogged",
    "date_created": "2023-04-18T15:53:32.000",
    "date_modified": "2023-04-18T15:53:32.000",
    "request_status": "Pending",
    "responsible_agency": "Department of Public Works",
    "final_address": "2339 Flood St",
    "address_councildis": "E",
    "status": "Pending",
    "rowid": "992195",
    "final_x": "3699039.28733",
    "final_y": "538617.286921",
    "longitude": "-90.01242956227438",
    "latitude": "29.974466494208357",
    "geocoded_column": {
      "latitude": "29.974466494208357",
      "longitude": "-90.01242956227438"
    }
  },
  {
    "service_request": "2023-992194",
    "request_type": "Trash/Recycling",
    "request_reason": "Request a Large Item Pick Up",
    "date_created": "2023-04-18T15:51:43.000",
    "date_modified": "2023-04-18T15:51:44.000",
    "request_status": "Pending",
    "responsible_agency": "Department of Sanitation",
    "final_address": "3025 Marigny St",
    "address_councildis": "D",
    "status": "Assigned to Contractor",
    "contractor": "IV Waste",
    "rowid": "992194",
    "final_x": "3684845.88303",
    "final_y": "543972.361806",
    "longitude": "-90.05706728971533",
    "latitude": "29.989633323999776",
    "geocoded_column": {
      "latitude": "29.989633323999776",
      "longitude": "-90.05706728971533"
    }
  },
  {
    "service_request": "2023-992193",
    "request_type": "Trash/Recycling",
    "request_reason": "MIssed Recycling Pick-Up",
    "date_created": "2023-04-18T15:48:06.000",
    "date_modified": "2023-04-18T15:53:20.000",
    "case_close_date": "2023-04-18T10:53:20.000",
    "request_status": "Closed",
    "responsible_agency": "Department of Sanitation",
    "final_address": " & BALDWIN ST",
    "address_councildis": "D",
    "status": "Assigned to Contractor",
    "contractor": "IV Waste",
    "contractor_action": "Completed",
    "rowid": "992193",
    "final_x": "3687880.8",
    "final_y": "560035.64",
    "longitude": "-90.04691121641319",
    "latitude": "30.03370814054373",
    "geocoded_column": {
      "latitude": "30.03370814054373",
      "longitude": "-90.04691121641319"
    }
  },
  {
    "service_request": "2023-992192",
    "request_type": "Trash/Recycling",
    "request_reason": "Replace Trash Cart",
    "date_created": "2023-04-18T15:46:53.000",
    "date_modified": "2023-04-18T15:46:54.000",
    "request_status": "Pending",
    "responsible_agency": "Department of Sanitation",
    "final_address": "4535 Annunciation St",
    "address_councildis": "B",
    "status": "Assigned to Contractor",
    "contractor": "Richards Disposal",
    "rowid": "992192",
    "final_x": "3670453.89537",
    "final_y": "517718.511542",
    "longitude": "-90.10341781396217",
    "latitude": "29.917876811231572",
    "geocoded_column": {
      "latitude": "29.917876811231572",
      "longitude": "-90.10341781396217"
    }
  },
  {
    "service_request": "2023-992191",
    "request_type": "Property Maintenance",
    "request_reason": "Property Maintenance",
    "date_created": "2023-04-18T15:43:58.000",
    "date_modified": "2023-04-18T15:43:58.000",
    "request_status": "Pending",
    "responsible_agency": "Department of Code Enforcement",
    "final_address": "2032 Lamanche St A",
    "address_councildis": "E",
    "status": "Pending",
    "rowid": "992191",
    "final_x": "3699303.26064",
    "final_y": "537326.670088",
    "longitude": "-90.01164289249485",
    "latitude": "29.970909393942105",
    "geocoded_column": {
      "latitude": "29.970909393942105",
      "longitude": "-90.01164289249485"
    }
  },
  {
    "service_request": "2023-992190",
    "request_type": "Trash/Recycling",
    "request_reason": "Missed Trash Pick-Up",
    "date_created": "2023-04-18T15:43:55.000",
    "date_modified": "2023-04-18T15:43:56.000",
    "request_status": "Pending",
    "responsible_agency": "Department of Sanitation",
    "final_address": "4535 Annunciation St",
    "address_councildis": "B",
    "status": "Assigned to Contractor",
    "contractor": "Richards Disposal",
    "rowid": "992190",
    "final_x": "3670453.89537",
    "final_y": "517718.511542",
    "longitude": "-90.10341781396217",
    "latitude": "29.917876811231572",
    "geocoded_column": {
      "latitude": "29.917876811231572",
      "longitude": "-90.10341781396217"
    }
  },
  {
    "service_request": "2023-992189",
    "request_type": "Roads/Drainage",
    "request_reason": "Catch Basin - Clogged",
    "date_created": "2023-04-18T15:43:32.000",
    "date_modified": "2023-04-18T15:43:32.000",
    "request_status": "Pending",
    "responsible_agency": "Department of Public Works",
    "final_address": "2241 Flood St",
    "address_councildis": "E",
    "status": "Pending",
    "rowid": "992189",
    "final_x": "3698940.34685",
    "final_y": "538272.333513",
    "longitude": "-90.0127545939845",
    "latitude": "29.97352113273518",
    "geocoded_column": {
      "latitude": "29.97352113273518",
      "longitude": "-90.0127545939845"
    }
  },
  {
    "service_request": "2023-992188",
    "request_type": "Roads/Drainage",
    "request_reason": "Street Flooding / Drainage",
    "date_created": "2023-04-18T15:41:31.000",
    "date_modified": "2023-04-18T15:41:31.000",
    "request_status": "Pending",
    "responsible_agency": "Department of Public Works",
    "final_address": "1236 N Villere St",
    "address_councildis": "C",
    "status": "Pending",
    "rowid": "992188",
    "final_x": "3681694.38818",
    "final_y": "535932.513415",
    "longitude": "-90.06730256806506",
    "latitude": "29.967622683909525",
    "geocoded_column": {
      "latitude": "29.967622683909525",
      "longitude": "-90.06730256806506"
    }
  },
  {
    "service_request": "2023-992187",
    "request_type": "Roads/Drainage",
    "request_reason": "Catch Basin - Clogged",
    "date_created": "2023-04-18T15:40:55.000",
    "date_modified": "2023-04-18T15:40:55.000",
    "request_status": "Pending",
    "responsible_agency": "Department of Public Works",
    "final_address": "1840 Charbonnet St",
    "address_councildis": "E",
    "status": "Pending",
    "rowid": "992187",
    "final_x": "3699334.35997",
    "final_y": "536576.064775",
    "longitude": "-90.01157202190971",
    "latitude": "29.96884451311015",
    "geocoded_column": {
      "latitude": "29.96884451311015",
      "longitude": "-90.01157202190971"
    }
  },
  {
    "service_request": "2023-992186",
    "request_type": "Trash/Recycling",
    "request_reason": "Replace Trash Cart",
    "date_created": "2023-04-18T15:38:51.000",
    "date_modified": "2023-04-18T15:38:51.000",
    "request_status": "Pending",
    "responsible_agency": "Department of Sanitation",
    "final_address": "8042 Gus St",
    "address_councildis": "E",
    "status": "Assigned to Contractor",
    "contractor": "Waste Pro",
    "rowid": "992186",
    "final_x": "3703220.73553",
    "final_y": "563300.552736",
    "longitude": "-89.99831538537799",
    "latitude": "30.042202908371934",
    "geocoded_column": {
      "latitude": "30.042202908371934",
      "longitude": "-89.99831538537799"
    }
  },
  {
    "service_request": "2023-992185",
    "request_type": "Property Maintenance",
    "request_reason": "Property Maintenance",
    "date_created": "2023-04-18T15:37:23.000",
    "date_modified": "2023-04-18T15:37:23.000",
    "request_status": "Pending",
    "responsible_agency": "Department of Code Enforcement",
    "final_address": "2026 Lamanche St A",
    "address_councildis": "E",
    "status": "Pending",
    "rowid": "992185",
    "final_x": "3699288.63837",
    "final_y": "537266.414024",
    "longitude": "-90.01169126612552",
    "latitude": "29.97074417523183",
    "geocoded_column": {
      "latitude": "29.97074417523183",
      "longitude": "-90.01169126612552"
    }
  },
  {
    "service_request": "2023-992184",
    "request_type": "Property Maintenance",
    "request_reason": "Property Maintenance",
    "date_created": "2023-04-18T15:36:40.000",
    "date_modified": "2023-04-18T16:26:56.000",
    "request_status": "Pending",
    "responsible_agency": "Department of Code Enforcement",
    "final_address": "7831 Bass St",
    "address_councildis": "E",
    "rowid": "992184",
    "final_x": "3719917.80178",
    "final_y": "573916.960362",
    "longitude": "-89.94514041660214",
    "latitude": "30.070848140665305",
    "geocoded_column": {
      "latitude": "30.070848140665305",
      "longitude": "-89.94514041660214"
    }
  },
  {
    "service_request": "2023-992183",
    "request_type": "Trash/Recycling",
    "request_reason": "Return Trash Cart",
    "date_created": "2023-04-18T15:34:49.000",
    "date_modified": "2023-04-18T15:34:50.000",
    "request_status": "Pending",
    "responsible_agency": "Department of Sanitation",
    "final_address": "1707 Second St",
    "address_councildis": "B",
    "status": "Assigned to Contractor",
    "contractor": "Richards Disposal",
    "rowid": "992183",
    "final_x": "3676472.56641",
    "final_y": "523445.595643",
    "longitude": "-90.08422309921652",
    "latitude": "29.933445428973386",
    "geocoded_column": {
      "latitude": "29.933445428973386",
      "longitude": "-90.08422309921652"
    }
  },
  {
    "service_request": "2023-992182",
    "request_type": "Traffic Signals/Signs/Striping/Streetlights",
    "request_reason": "Street Light Outage/Malfunction",
    "date_created": "2023-04-18T15:34:42.000",
    "date_modified": "2023-04-18T15:34:43.000",
    "request_status": "Pending",
    "responsible_agency": "Department of Public Works",
    "final_address": "7831 Bass St",
    "address_councildis": "E",
    "status": "Assigned to Contractor",
    "contractor": "Legacy Professional Services",
    "rowid": "992182",
    "final_x": "3719917.80178",
    "final_y": "573916.960362",
    "longitude": "-89.94514041660214",
    "latitude": "30.070848140665305",
    "geocoded_column": {
      "latitude": "30.070848140665305",
      "longitude": "-89.94514041660214"
    }
  },
  {
    "service_request": "2023-992181",
    "request_type": "Trash/Recycling",
    "request_reason": "Repair Trash Cart",
    "date_created": "2023-04-18T15:31:25.000",
    "date_modified": "2023-04-18T15:31:25.000",
    "request_status": "Pending",
    "responsible_agency": "Department of Sanitation",
    "final_address": "3129 Dumaine St",
    "address_councildis": "A",
    "status": "Assigned to Contractor",
    "contractor": "Richards Disposal",
    "rowid": "992181",
    "final_x": "3675523.68821",
    "final_y": "538814.396233",
    "longitude": "-90.08669078911402",
    "latitude": "29.975732908300717",
    "geocoded_column": {
      "latitude": "29.975732908300717",
      "longitude": "-90.08669078911402"
    }
  },
  {
    "service_request": "2023-992180",
    "request_type": "Trash/Recycling",
    "request_reason": "Request a Large Item Pick Up",
    "date_created": "2023-04-18T15:31:13.000",
    "date_modified": "2023-04-18T15:54:24.000",
    "request_status": "Pending",
    "responsible_agency": "Department of Sanitation",
    "final_address": "12021 E Barrington Dr",
    "address_councildis": "E",
    "status": "Assigned to Contractor",
    "contractor": "Waste Pro",
    "rowid": "992180",
    "final_x": "3714694.86821",
    "final_y": "566127.617571",
    "longitude": "-89.96194617379786",
    "latitude": "30.049603613661116",
    "geocoded_column": {
      "latitude": "30.049603613661116",
      "longitude": "-89.96194617379786"
    }
  },
  {
    "service_request": "2023-992179",
    "request_type": "Trash/Recycling",
    "request_reason": "Replace Trash Cart",
    "date_created": "2023-04-18T15:30:58.000",
    "date_modified": "2023-04-18T15:30:59.000",
    "request_status": "Pending",
    "responsible_agency": "Department of Sanitation",
    "final_address": "4929 Werner Dr",
    "address_councildis": "E",
    "status": "Assigned to Contractor",
    "contractor": "Waste Pro",
    "rowid": "992179",
    "final_x": "3704715.97002",
    "final_y": "556260.123802",
    "longitude": "-89.99385001161426",
    "latitude": "30.022796496582092",
    "geocoded_column": {
      "latitude": "30.022796496582092",
      "longitude": "-89.99385001161426"
    }
  },
  {
    "service_request": "2023-992178",
    "request_type": "Traffic Signals/Signs/Striping/Streetlights",
    "request_reason": "Disabled Parking Sign ",
    "date_created": "2023-04-18T15:29:56.000",
    "date_modified": "2023-04-18T15:29:56.000",
    "request_status": "Pending",
    "responsible_agency": "Department of Public Works",
    "final_address": "3133 Dumaine St",
    "address_councildis": "A",
    "status": "Pending",
    "rowid": "992178",
    "final_x": "3675496.7259",
    "final_y": "538826.906505",
    "longitude": "-90.08677551390424",
    "latitude": "29.975768113833084",
    "geocoded_column": {
      "latitude": "29.975768113833084",
      "longitude": "-90.08677551390424"
    }
  },
  {
    "service_request": "2023-992177",
    "request_type": "Trash/Recycling",
    "request_reason": "Missed Trash Pick-Up",
    "date_created": "2023-04-18T15:23:58.000",
    "date_modified": "2023-04-18T15:23:59.000",
    "request_status": "Pending",
    "responsible_agency": "Department of Sanitation",
    "final_address": "9114 Oleander St",
    "address_councildis": "A",
    "status": "Assigned to Contractor",
    "contractor": "Richards Disposal",
    "rowid": "992177",
    "final_x": "3664046.21492",
    "final_y": "536092.777479",
    "longitude": "-90.12303082383268",
    "latitude": "29.96858772107418",
    "geocoded_column": {
      "latitude": "29.96858772107418",
      "longitude": "-90.12303082383268"
    }
  },
  {
    "service_request": "2023-992176",
    "request_type": "Property Maintenance",
    "request_reason": "Property Maintenance",
    "date_created": "2023-04-18T15:23:47.000",
    "date_modified": "2023-04-18T15:23:47.000",
    "request_status": "Pending",
    "responsible_agency": "Department of Code Enforcement",
    "status": "Pending",
    "rowid": "992176",
    "longitude": "0.0",
    "latitude": "0.0",
    "geocoded_column": {
      "latitude": "0.0",
      "longitude": "0.0"
    }
  },
  {
    "service_request": "2023-992175",
    "request_type": "Trash/Recycling",
    "request_reason": "Illegal Dumping",
    "date_created": "2023-04-18T15:21:41.000",
    "date_modified": "2023-04-18T15:21:41.000",
    "request_status": "Pending",
    "responsible_agency": "Department of Sanitation",
    "final_address": "2318 Charbonnet St",
    "address_councildis": "E",
    "status": "Pending",
    "rowid": "992175",
    "final_x": "3699793.42199",
    "final_y": "538286.382025",
    "longitude": "-90.01005990808653",
    "latitude": "29.97353269982339",
    "geocoded_column": {
      "latitude": "29.97353269982339",
      "longitude": "-90.01005990808653"
    }
  },
  {
    "service_request": "2023-992174",
    "request_type": "Trash/Recycling",
    "request_reason": "Illegal Dumping",
    "date_created": "2023-04-18T15:19:31.000",
    "date_modified": "2023-04-18T15:19:31.000",
    "request_status": "Pending",
    "responsible_agency": "Department of Sanitation",
    "status": "Pending",
    "rowid": "992174",
    "longitude": "0.0",
    "latitude": "0.0",
    "geocoded_column": {
      "latitude": "0.0",
      "longitude": "0.0"
    }
  },
  {
    "service_request": "2023-992172",
    "request_type": "Trash/Recycling",
    "request_reason": "Order Trash Cart",
    "date_created": "2023-04-18T15:16:01.000",
    "date_modified": "2023-04-18T15:16:01.000",
    "request_status": "Pending",
    "responsible_agency": "Department of Sanitation",
    "final_address": "3329 Albert St",
    "address_councildis": "C",
    "status": "Assigned to Contractor",
    "contractor": "Richards Disposal",
    "rowid": "992172",
    "final_x": "3711918.18533",
    "final_y": "518162.23391",
    "longitude": "-89.97252253958172",
    "latitude": "29.917807989462446",
    "geocoded_column": {
      "latitude": "29.917807989462446",
      "longitude": "-89.97252253958172"
    }
  },
  {
    "service_request": "2023-992171",
    "request_type": "Trash/Recycling",
    "request_reason": "Order Recycling Cart",
    "date_created": "2023-04-18T15:14:52.000",
    "date_modified": "2023-04-18T15:15:05.000",
    "request_status": "Pending",
    "responsible_agency": "Department of Sanitation",
    "final_address": "1139 Sumner St",
    "address_councildis": "C",
    "status": "Pending",
    "rowid": "992171",
    "final_x": "3691032.88425",
    "final_y": "527082.663487",
    "longitude": "-90.03812739391836",
    "latitude": "29.943001653018605",
    "geocoded_column": {
      "latitude": "29.943001653018605",
      "longitude": "-90.03812739391836"
    }
  },
  {
    "service_request": "2023-992170",
    "request_type": "Trash/Recycling",
    "request_reason": "Replace Trash Cart",
    "date_created": "2023-04-18T15:14:30.000",
    "date_modified": "2023-04-18T15:14:31.000",
    "request_status": "Pending",
    "responsible_agency": "Department of Sanitation",
    "final_address": "3204 Leonidas St",
    "address_councildis": "A",
    "status": "Assigned to Contractor",
    "contractor": "Richards Disposal",
    "rowid": "992170",
    "final_x": "3665534.29146",
    "final_y": "534994.147398",
    "longitude": "-90.11836816676976",
    "latitude": "29.96552354854131",
    "geocoded_column": {
      "latitude": "29.96552354854131",
      "longitude": "-90.11836816676976"
    }
  },
  {
    "service_request": "2023-992169",
    "request_type": "Roads/Drainage",
    "request_reason": "Pothole",
    "date_created": "2023-04-18T15:14:17.000",
    "date_modified": "2023-04-18T15:14:17.000",
    "request_status": "Pending",
    "responsible_agency": "Department of Public Works",
    "final_address": "2900 Burgundy St",
    "address_councildis": "C",
    "status": "Pending",
    "rowid": "992169",
    "final_x": "3687935.97635",
    "final_y": "535406.315334",
    "longitude": "-90.04761018354542",
    "latitude": "29.96598472245033",
    "geocoded_column": {
      "latitude": "29.96598472245033",
      "longitude": "-90.04761018354542"
    }
  },
  {
    "service_request": "2023-992168",
    "request_type": "Trash/Recycling",
    "request_reason": "Request a Large Item Pick Up",
    "date_created": "2023-04-18T15:12:49.000",
    "date_modified": "2023-04-18T15:12:51.000",
    "request_status": "Pending",
    "responsible_agency": "Department of Sanitation",
    "final_address": "9922 E Wheaton Cir",
    "address_councildis": "E",
    "status": "Assigned to Contractor",
    "contractor": "Waste Pro",
    "rowid": "992168",
    "final_x": "3709190.08542",
    "final_y": "562416.323103",
    "longitude": "-89.97948313236614",
    "latitude": "30.039579045539632",
    "geocoded_column": {
      "latitude": "30.039579045539632",
      "longitude": "-89.97948313236614"
    }
  },
  {
    "service_request": "2023-992167",
    "request_type": "Trash/Recycling",
    "request_reason": "Request a Large Item Pick Up",
    "date_created": "2023-04-18T15:12:41.000",
    "date_modified": "2023-04-18T15:12:42.000",
    "request_status": "Pending",
    "responsible_agency": "Department of Sanitation",
    "final_address": "7400 BLK Chadbourne Dr",
    "address_councildis": "E",
    "status": "Assigned to Contractor",
    "contractor": "Waste Pro",
    "rowid": "992167",
    "final_x": "3701478.69707",
    "final_y": "557561.965044",
    "longitude": "-90.00403125993695",
    "latitude": "30.02647971761808",
    "geocoded_column": {
      "latitude": "30.02647971761808",
      "longitude": "-90.00403125993695"
    }
  },
  {
    "service_request": "2023-992166",
    "request_type": "Traffic Signals/Signs/Striping/Streetlights",
    "request_reason": "Request for Traffic Calming due to Speeding",
    "date_created": "2023-04-18T15:12:17.000",
    "date_modified": "2023-04-18T15:12:18.000",
    "request_status": "Pending",
    "responsible_agency": "Department of Public Works",
    "final_address": "900 BLK Navarre St",
    "address_councildis": "A",
    "status": "Pending",
    "rowid": "992166",
    "final_x": "3670384.97842",
    "final_y": "543661.699538",
    "longitude": "-90.10275590501232",
    "latitude": "29.989214067873803",
    "geocoded_column": {
      "latitude": "29.989214067873803",
      "longitude": "-90.10275590501232"
    }
  },
  {
    "service_request": "2023-992165",
    "request_type": "Property Maintenance",
    "request_reason": "Property Maintenance",
    "date_created": "2023-04-18T15:11:08.000",
    "date_modified": "2023-04-18T15:11:08.000",
    "request_status": "Pending",
    "responsible_agency": "Department of Code Enforcement",
    "status": "Pending",
    "rowid": "992165",
    "longitude": "0.0",
    "latitude": "0.0",
    "geocoded_column": {
      "latitude": "0.0",
      "longitude": "0.0"
    }
  },
  {
    "service_request": "2023-992164",
    "request_type": "Property Maintenance",
    "request_reason": "Property Maintenance",
    "date_created": "2023-04-18T15:08:35.000",
    "date_modified": "2023-04-18T15:08:35.000",
    "request_status": "Pending",
    "responsible_agency": "Department of Code Enforcement",
    "status": "Pending",
    "rowid": "992164",
    "longitude": "0.0",
    "latitude": "0.0",
    "geocoded_column": {
      "latitude": "0.0",
      "longitude": "0.0"
    }
  },
  {
    "service_request": "2023-992163",
    "request_type": "Mosquito, Termite & Rodent Control",
    "request_reason": "Rodent Complaint (Rats)",
    "date_created": "2023-04-18T15:07:43.000",
    "date_modified": "2023-04-18T15:07:43.000",
    "request_status": "Pending",
    "responsible_agency": "Mosquito, Termite & Rodent Control Board",
    "final_address": "1222 Frenchmen St",
    "address_councildis": "C",
    "status": "Pending",
    "rowid": "992163",
    "final_x": "3684510.02377",
    "final_y": "536832.931464",
    "longitude": "-90.05837909912964",
    "latitude": "29.97001267975877",
    "geocoded_column": {
      "latitude": "29.97001267975877",
      "longitude": "-90.05837909912964"
    }
  },
  {
    "service_request": "2023-992162",
    "request_type": "Trash/Recycling",
    "request_reason": "Repair Trash Cart",
    "date_created": "2023-04-18T15:07:23.000",
    "date_modified": "2023-04-18T15:07:23.000",
    "request_status": "Pending",
    "responsible_agency": "Department of Sanitation",
    "final_address": "818 S Carrollton Ave",
    "address_councildis": "A",
    "status": "Assigned to Contractor",
    "contractor": "Richards Disposal",
    "rowid": "992162",
    "final_x": "3661108.21677",
    "final_y": "527470.631039",
    "longitude": "-90.13259456949578",
    "latitude": "29.944964605846028",
    "geocoded_column": {
      "latitude": "29.944964605846028",
      "longitude": "-90.13259456949578"
    }
  },
  {
    "service_request": "2023-992161",
    "request_type": "Trash/Recycling",
    "request_reason": "Request a Large Item Pick Up",
    "date_created": "2023-04-18T15:06:10.000",
    "date_modified": "2023-04-18T16:03:48.000",
    "case_close_date": "2023-04-18T11:03:48.000",
    "request_status": "Closed",
    "responsible_agency": "Department of Sanitation",
    "final_address": "11800 Morrison Rd",
    "address_councildis": "E",
    "status": "Assigned to Contractor",
    "contractor": "Waste Pro",
    "contractor_action": "Completed",
    "rowid": "992161",
    "final_x": "3713413.32319",
    "final_y": "566427.045923",
    "longitude": "-89.96598531409377",
    "latitude": "30.050469031178366",
    "geocoded_column": {
      "latitude": "30.050469031178366",
      "longitude": "-89.96598531409377"
    }
  },
  {
    "service_request": "2023-992160",
    "request_type": "Property Maintenance",
    "request_reason": "Property Maintenance",
    "date_created": "2023-04-18T15:04:55.000",
    "date_modified": "2023-04-18T15:04:55.000",
    "request_status": "Pending",
    "responsible_agency": "Department of Code Enforcement",
    "status": "Pending",
    "rowid": "992160",
    "longitude": "0.0",
    "latitude": "0.0",
    "geocoded_column": {
      "latitude": "0.0",
      "longitude": "0.0"
    }
  },
  {
    "service_request": "2023-992159",
    "request_type": "Trash/Recycling",
    "request_reason": "Repair Trash Cart",
    "date_created": "2023-04-18T15:04:29.000",
    "date_modified": "2023-04-18T15:04:30.000",
    "request_status": "Pending",
    "responsible_agency": "Department of Sanitation",
    "final_address": "11030 Curran Rd",
    "address_councildis": "E",
    "status": "Assigned to Contractor",
    "contractor": "Waste Pro",
    "rowid": "992159",
    "final_x": "3710584.41963",
    "final_y": "566100.867683",
    "longitude": "-89.9749386153534",
    "latitude": "30.0496646901066",
    "geocoded_column": {
      "latitude": "30.0496646901066",
      "longitude": "-89.9749386153534"
    }
  },
  {
    "service_request": "2023-992158",
    "request_type": "Trash/Recycling",
    "request_reason": "Request a Large Item Pick Up",
    "date_created": "2023-04-18T15:02:41.000",
    "date_modified": "2023-04-18T15:02:42.000",
    "request_status": "Pending",
    "responsible_agency": "Department of Sanitation",
    "final_address": "5249 Pratt Dr",
    "address_councildis": "D",
    "status": "Assigned to Contractor",
    "contractor": "IV Waste",
    "rowid": "992158",
    "final_x": "3680473.21461",
    "final_y": "551864.86607",
    "longitude": "-90.07060458746255",
    "latitude": "30.011468091838687",
    "geocoded_column": {
      "latitude": "30.011468091838687",
      "longitude": "-90.07060458746255"
    }
  },
  {
    "service_request": "2023-992157",
    "request_type": "Abandoned Vehicles",
    "request_reason": "Abandoned/Junk Vehicles",
    "date_created": "2023-04-18T15:02:06.000",
    "date_modified": "2023-04-18T15:07:51.000",
    "request_status": "Pending",
    "responsible_agency": "Department of Public Works",
    "final_address": "408 Elmira Ave",
    "address_councildis": "C",
    "status": "Pending",
    "rowid": "992157",
    "final_x": "3688270.89174",
    "final_y": "530227.085505",
    "longitude": "-90.04673618332258",
    "latitude": "29.951733295424283",
    "geocoded_column": {
      "latitude": "29.951733295424283",
      "longitude": "-90.04673618332258"
    }
  },
  {
    "service_request": "2023-992156",
    "request_type": "Trash/Recycling",
    "request_reason": "Request a Large Item Pick Up",
    "date_created": "2023-04-18T15:00:25.000",
    "date_modified": "2023-04-18T15:00:26.000",
    "request_status": "Pending",
    "responsible_agency": "Department of Sanitation",
    "final_address": "1504 St Ann St",
    "address_councildis": "C",
    "status": "Assigned to Contractor",
    "contractor": "Richards Disposal",
    "rowid": "992156",
    "final_x": "3680463.29211",
    "final_y": "534480.640005",
    "longitude": "-90.07124089941055",
    "latitude": "29.963667873012735",
    "geocoded_column": {
      "latitude": "29.963667873012735",
      "longitude": "-90.07124089941055"
    }
  },
  {
    "service_request": "2023-992155",
    "request_type": "Trash/Recycling",
    "request_reason": "Replace Recycling Cart",
    "date_created": "2023-04-18T14:51:05.000",
    "date_modified": "2023-04-18T14:51:05.000",
    "request_status": "Pending",
    "responsible_agency": "Department of Sanitation",
    "final_address": "3861 Peach Tree Ct",
    "address_councildis": "C",
    "status": "Pending",
    "rowid": "992155",
    "final_x": "3704318.02295",
    "final_y": "512314.329713",
    "longitude": "-89.99672718513177",
    "latitude": "29.901974251887328",
    "geocoded_column": {
      "latitude": "29.901974251887328",
      "longitude": "-89.99672718513177"
    }
  },
  {
    "service_request": "2023-992154",
    "request_type": "Trash/Recycling",
    "request_reason": "Replace Trash Cart",
    "date_created": "2023-04-18T14:48:33.000",
    "date_modified": "2023-04-18T14:48:34.000",
    "request_status": "Pending",
    "responsible_agency": "Department of Sanitation",
    "final_address": "3861 Peach Tree Ct",
    "address_councildis": "C",
    "status": "Assigned to Contractor",
    "contractor": "Richards Disposal",
    "rowid": "992154",
    "final_x": "3704318.02295",
    "final_y": "512314.329713",
    "longitude": "-89.99672718513177",
    "latitude": "29.901974251887328",
    "geocoded_column": {
      "latitude": "29.901974251887328",
      "longitude": "-89.99672718513177"
    }
  },
  {
    "service_request": "2023-992153",
    "request_type": "Traffic Signals/Signs/Striping/Streetlights",
    "request_reason": "Street Light Outage/Malfunction",
    "date_created": "2023-04-18T14:47:33.000",
    "date_modified": "2023-04-18T14:47:33.000",
    "request_status": "Pending",
    "responsible_agency": "Department of Public Works",
    "final_address": "8225 Pritchard Pl",
    "address_councildis": "A",
    "status": "Assigned to Contractor",
    "contractor": "Legacy Professional Services",
    "rowid": "992153",
    "final_x": "3665664.67994",
    "final_y": "533298.70298",
    "longitude": "-90.1180131919123",
    "latitude": "29.960857832129246",
    "geocoded_column": {
      "latitude": "29.960857832129246",
      "longitude": "-90.1180131919123"
    }
  },
  {
    "service_request": "2023-992152",
    "request_type": "Trash/Recycling",
    "request_reason": "Request a Large Item Pick Up",
    "date_created": "2023-04-18T14:45:13.000",
    "date_modified": "2023-04-18T14:45:14.000",
    "request_status": "Pending",
    "responsible_agency": "Department of Sanitation",
    "final_address": "11409 Campbell Ln",
    "address_councildis": "E",
    "status": "Assigned to Contractor",
    "contractor": "Waste Pro",
    "rowid": "992152",
    "final_x": "3717886.86431",
    "final_y": "561353.486494",
    "longitude": "-89.95203950715717",
    "latitude": "30.03637126960304",
    "geocoded_column": {
      "latitude": "30.03637126960304",
      "longitude": "-89.95203950715717"
    }
  },
  {
    "service_request": "2023-992151",
    "request_type": "Roads/Drainage",
    "request_reason": "Pothole",
    "date_created": "2023-04-18T14:45:08.000",
    "date_modified": "2023-04-18T14:45:08.000",
    "request_status": "Pending",
    "responsible_agency": "Department of Public Works",
    "final_address": "2700 Tulane Ave",
    "address_councildis": "B",
    "status": "Pending",
    "rowid": "992151",
    "final_x": "3673969.52104",
    "final_y": "533787.066053",
    "longitude": "-90.0917713338198",
    "latitude": "29.961955851912233",
    "geocoded_column": {
      "latitude": "29.961955851912233",
      "longitude": "-90.0917713338198"
    }
  },
  {
    "service_request": "2023-992150",
    "request_type": "Property Maintenance",
    "request_reason": "Property Maintenance",
    "date_created": "2023-04-18T14:44:05.000",
    "date_modified": "2023-04-18T14:44:05.000",
    "request_status": "Pending",
    "responsible_agency": "Department of Code Enforcement",
    "final_address": "N GALVEZ ST & CHOCTAW ST",
    "address_councildis": "E",
    "status": "Pending",
    "rowid": "992150",
    "final_x": "3698423.9",
    "final_y": "537660.18",
    "longitude": "-90.01440788547147",
    "latitude": "29.971854287030173",
    "geocoded_column": {
      "latitude": "29.971854287030173",
      "longitude": "-90.01440788547147"
    }
  },
  {
    "service_request": "2023-992149",
    "request_type": "Trash/Recycling",
    "request_reason": "Request a Large Item Pick Up",
    "date_created": "2023-04-18T14:43:10.000",
    "date_modified": "2023-04-18T14:43:11.000",
    "request_status": "Pending",
    "responsible_agency": "Department of Sanitation",
    "final_address": "4710 Coronado Dr",
    "address_councildis": "E",
    "status": "Assigned to Contractor",
    "contractor": "Waste Pro",
    "rowid": "992149",
    "final_x": "3714076.47493",
    "final_y": "556287.308954",
    "longitude": "-89.96427226083689",
    "latitude": "30.022567048205087",
    "geocoded_column": {
      "latitude": "30.022567048205087",
      "longitude": "-89.96427226083689"
    }
  },
  {
    "service_request": "2023-992148",
    "request_type": "Roads/Drainage",
    "request_reason": "Damaged Sidewalk",
    "date_created": "2023-04-18T14:41:12.000",
    "date_modified": "2023-04-18T14:41:12.000",
    "request_status": "Pending",
    "responsible_agency": "Department of Public Works",
    "final_address": "2508 Joliet St",
    "address_councildis": "A",
    "status": "Pending",
    "rowid": "992148",
    "final_x": "3664101.41415",
    "final_y": "532901.024516",
    "longitude": "-90.12296297490296",
    "latitude": "29.959809844683292",
    "geocoded_column": {
      "latitude": "29.959809844683292",
      "longitude": "-90.12296297490296"
    }
  },
  {
    "service_request": "2023-992147",
    "request_type": "Trash/Recycling",
    "request_reason": "Missed Trash Pick-Up",
    "date_created": "2023-04-18T14:37:54.000",
    "date_modified": "2023-04-18T14:37:55.000",
    "request_status": "Pending",
    "responsible_agency": "Department of Sanitation",
    "final_address": "8613 Oleander St",
    "address_councildis": "A",
    "status": "Assigned to Contractor",
    "contractor": "Richards Disposal",
    "rowid": "992147",
    "final_x": "3665372.90234",
    "final_y": "534988.608518",
    "longitude": "-90.11887801419394",
    "latitude": "29.9655130228261",
    "geocoded_column": {
      "latitude": "29.9655130228261",
      "longitude": "-90.11887801419394"
    }
  },
  {
    "service_request": "2023-992146",
    "request_type": "Property Maintenance",
    "request_reason": "Property Maintenance",
    "date_created": "2023-04-18T14:37:23.000",
    "date_modified": "2023-04-18T14:37:23.000",
    "request_status": "Pending",
    "responsible_agency": "Department of Code Enforcement",
    "final_address": "8005 Wales St",
    "address_councildis": "E",
    "status": "Pending",
    "rowid": "992146",
    "final_x": "3701816.29111",
    "final_y": "562201.548703",
    "longitude": "-90.00279427160844",
    "latitude": "30.039225996097468",
    "geocoded_column": {
      "latitude": "30.039225996097468",
      "longitude": "-90.00279427160844"
    }
  },
  {
    "service_request": "2023-992145",
    "request_type": "Mayor's Request",
    "request_reason": "Entergy Bill Payment Assistance",
    "date_created": "2023-04-18T14:36:09.000",
    "date_modified": "2023-04-18T14:36:10.000",
    "request_status": "Pending",
    "responsible_agency": "Executive Office of the Mayor",
    "final_address": "2458 Gladiolus St",
    "address_councildis": "D",
    "status": "Pending",
    "rowid": "992145",
    "final_x": "3686099.0527",
    "final_y": "547379.216849",
    "longitude": "-90.05298864038504",
    "latitude": "29.99896251473692",
    "geocoded_column": {
      "latitude": "29.99896251473692",
      "longitude": "-90.05298864038504"
    }
  },
  {
    "service_request": "2023-992141",
    "request_type": "Parks & Parkways",
    "request_reason": "Request Tree Service (Right of Way/Public Property)",
    "date_created": "2023-04-18T14:34:50.000",
    "date_modified": "2023-04-18T14:35:47.000",
    "request_status": "Pending",
    "responsible_agency": "Department of Parks & Parkway",
    "final_address": "2508 Joliet St",
    "address_councildis": "A",
    "status": "Pending",
    "rowid": "992141",
    "final_x": "3664101.41415",
    "final_y": "532901.024516",
    "longitude": "-90.12296297490296",
    "latitude": "29.959809844683292",
    "geocoded_column": {
      "latitude": "29.959809844683292",
      "longitude": "-90.12296297490296"
    }
  },
  {
    "service_request": "2023-992140",
    "request_type": "Mayor's Request",
    "request_reason": "Entergy Bill Payment Assistance",
    "date_created": "2023-04-18T14:33:58.000",
    "date_modified": "2023-04-18T14:33:59.000",
    "request_status": "Pending",
    "responsible_agency": "Executive Office of the Mayor",
    "final_address": "7019 Crowder Blvd",
    "address_councildis": "E",
    "status": "Pending",
    "rowid": "992140",
    "final_x": "3704860.36363",
    "final_y": "559771.817757",
    "longitude": "-89.9932639945913",
    "latitude": "30.03244764665377",
    "geocoded_column": {
      "latitude": "30.03244764665377",
      "longitude": "-89.9932639945913"
    }
  },