[
  {
    "service_request": "2022-932024",
    "request_type": "Traffic Signals/Signs/Striping/Streetlights",
    "request_reason": "Street Light Outage/Malfunction",
    "date_created": "2022-10-26T23:01:28.000",
    "date_modified": "2022-10-26T23:01:29.000",
    "request_status": "Pending",
    "responsible_agency": "Department of Public Works",
    "final_address": "1240 Eighth St",
    "address_councildis": "B",
    "status": "Pending",
    "contractor": "Legacy Professional Services",
    "rowid": "932024",
    "final_x": "3675693.45057",
    "final_y": "520764.085945",
    "longitude": "-90.08677482034872",
    "latitude": "29.9260954788643",
    "geocoded_column": {
      "latitude": "29.9260954788643",
      "longitude": "-90.08677482034872"
    }
  },
  {
    "service_request": "2022-932023",
    "request_type": "Trash/Recycling",
    "request_reason": "Repair Trash Cart",
    "date_created": "2022-10-26T21:52:11.000",
    "date_modified": "2022-10-26T21:52:11.000",
    "request_status": "Pending",
    "responsible_agency": "Department of Sanitation",
    "final_address": "4405 Cartier Ave",
    "address_councildis": "D",
    "status": "Assigned to Contractor",
    "contractor": "Metro Disposal",
    "rowid": "932023",
    "final_x": "3678060.81333",
    "final_y": "548500.416722",
    "longitude": "-90.07834278199809",
    "latitude": "30.00228993572683",
    "geocoded_column": {
      "latitude": "30.00228993572683",
      "longitude": "-90.07834278199809"
    }
  },
  {
    "service_request": "2022-932022",
    "request_type": "Trash/Recycling",
    "request_reason": "Return Trash Cart",
    "date_created": "2022-10-26T21:32:27.000",
    "date_modified": "2022-10-26T21:32:28.000",
    "request_status": "Pending",
    "responsible_agency": "Department of Sanitation",
    "final_address": "3306 Annunciation St",
    "address_councildis": "B",
    "status": "Assigned to Contractor",
    "contractor": "Richards Disposal",
    "rowid": "932022",
    "final_x": "3675774.84129",
    "final_y": "518707.833975",
    "longitude": "-90.08658851918011",
    "latitude": "29.920439013965208",
    "geocoded_column": {
      "latitude": "29.920439013965208",
      "longitude": "-90.08658851918011"
    }
  },
  {
    "service_request": "2022-932021",
    "request_type": "Trash/Recycling",
    "request_reason": "Missed Trash Pick-Up",
    "date_created": "2022-10-26T21:24:39.000",
    "date_modified": "2022-10-26T21:24:40.000",
    "request_status": "Pending",
    "responsible_agency": "Department of Sanitation",
    "final_address": "2431 Broadway St",
    "address_councildis": "A",
    "status": "Assigned to Contractor",
    "contractor": "Richards Disposal",
    "rowid": "932021",
    "final_x": "3666818.88711",
    "final_y": "530336.705282",
    "longitude": "-90.11446790732798",
    "latitude": "29.952679596825135",
    "geocoded_column": {
      "latitude": "29.952679596825135",
      "longitude": "-90.11446790732798"
    }
  },
  {
    "service_request": "2022-932020",
    "request_type": "Law Enforcement Services",
    "request_reason": "Off Duty Officer for Hire",
    "date_created": "2022-10-26T21:23:24.000",
    "date_modified": "2022-10-26T21:23:24.000",
    "request_status": "Pending",
    "responsible_agency": "Office of Police Secondary Employment",
    "final_address": "1876 N Roman St",
    "address_councildis": "D",
    "status": "Pending",
    "rowid": "932020",
    "final_x": "3683560.73135",
    "final_y": "538748.622345",
    "longitude": "-90.06130989311943",
    "latitude": "29.975309173283534",
    "geocoded_column": {
      "latitude": "29.975309173283534",
      "longitude": "-90.06130989311943"
    }
  },
  {
    "service_request": "2022-932019",
    "request_type": "Property Maintenance",
    "request_reason": "Property Maintenance",
    "date_created": "2022-10-26T21:21:39.000",
    "date_modified": "2022-10-26T21:21:39.000",
    "request_status": "Pending",
    "responsible_agency": "Department of Code Enforcement",
    "final_address": "4966 Wright Rd",
    "address_councildis": "E",
    "status": "Pending",
    "rowid": "932019",
    "final_x": "3716452.29535",
    "final_y": "558065.052699",
    "longitude": "-89.95669783230132",
    "latitude": "30.027376869153798",
    "geocoded_column": {
      "latitude": "30.027376869153798",
      "longitude": "-89.95669783230132"
    }
  },
  {
    "service_request": "2022-932018",
    "request_type": "Trash/Recycling",
    "request_reason": "Replace Trash Cart",
    "date_created": "2022-10-26T21:15:25.000",
    "date_modified": "2022-10-26T21:15:26.000",
    "request_status": "Pending",
    "responsible_agency": "Department of Sanitation",
    "final_address": "1778 Lafreniere St",
    "address_councildis": "D",
    "status": "Assigned to Contractor",
    "contractor": "Metro Disposal",
    "rowid": "932018",
    "final_x": "3681179.53493",
    "final_y": "545212.848015",
    "longitude": "-90.06860500237201",
    "latitude": "29.993156000153814",
    "geocoded_column": {
      "latitude": "29.993156000153814",
      "longitude": "-90.06860500237201"
    }
  },
  {
    "service_request": "2022-932017",
    "request_type": "Trash/Recycling",
    "request_reason": "Order Recycling Cart",
    "date_created": "2022-10-26T21:13:03.000",
    "date_modified": "2022-10-26T21:13:03.000",
    "request_status": "Pending",
    "responsible_agency": "Department of Sanitation",
    "final_address": "2224 St Bernard Ave",
    "address_councildis": "D",
    "status": "Pending",
    "rowid": "932017",
    "final_x": "3680974.84335",
    "final_y": "540040.134027",
    "longitude": "-90.06943182121518",
    "latitude": "29.978939061703773",
    "geocoded_column": {
      "latitude": "29.978939061703773",
      "longitude": "-90.06943182121518"
    }
  },
  {
    "service_request": "2022-932016",
    "request_type": "Abandoned Vehicles",
    "request_reason": "Abandoned/Junk Vehicles",
    "date_created": "2022-10-26T21:08:43.000",
    "date_modified": "2022-10-26T21:08:43.000",
    "request_status": "Pending",
    "responsible_agency": "Department of Public Works",
    "final_address": "1668 N Tonti St",
    "address_councildis": "D",
    "status": "Pending",
    "rowid": "932016",
    "final_x": "3680605.56565",
    "final_y": "539750.166346",
    "longitude": "-90.0706082332086",
    "latitude": "29.978152946199305",
    "geocoded_column": {
      "latitude": "29.978152946199305",
      "longitude": "-90.0706082332086"
    }
  },
  {
    "service_request": "2022-932015",
    "request_type": "Roads/Drainage",
    "request_reason": "Pothole",
    "date_created": "2022-10-26T21:08:08.000",
    "date_modified": "2022-10-26T21:08:09.000",
    "request_status": "Pending",
    "responsible_agency": "Department of Public Works",
    "final_address": "1400 BLK Euterpe St",
    "address_councildis": "B",
    "status": "Pending",
    "rowid": "932015",
    "final_x": "3679524.03429",
    "final_y": "524608.921042",
    "longitude": "-90.07454944647704",
    "latitude": "29.93655237015102",
    "geocoded_column": {
      "latitude": "29.93655237015102",
      "longitude": "-90.07454944647704"
    }
  },
  {
    "service_request": "2022-932014",
    "request_type": "Roads/Drainage",
    "request_reason": "Pothole",
    "date_created": "2022-10-26T21:06:27.000",
    "date_modified": "2022-10-26T21:06:28.000",
    "request_status": "Pending",
    "responsible_agency": "Department of Public Works",
    "final_address": "1400 BLK Constance St",
    "address_councildis": "B",
    "status": "Pending",
    "rowid": "932014",
    "final_x": "3680609.04229",
    "final_y": "523938.03098",
    "longitude": "-90.07114736444261",
    "latitude": "29.934674825037007",
    "geocoded_column": {
      "latitude": "29.934674825037007",
      "longitude": "-90.07114736444261"
    }
  },
  {
    "service_request": "2022-932013",
    "request_type": "Roads/Drainage",
    "request_reason": "Pothole",
    "date_created": "2022-10-26T21:04:25.000",
    "date_modified": "2022-10-26T21:04:25.000",
    "request_status": "Pending",
    "responsible_agency": "Department of Public Works",
    "final_address": "1500 BLK Melpomene St",
    "address_councildis": "B",
    "status": "Pending",
    "rowid": "932013",
    "final_x": "3679439.43767",
    "final_y": "525371.806656",
    "longitude": "-90.07479006789754",
    "latitude": "29.93865260848783",
    "geocoded_column": {
      "latitude": "29.93865260848783",
      "longitude": "-90.07479006789754"
    }
  },
  {
    "service_request": "2022-932012",
    "request_type": "Roads/Drainage",
    "request_reason": "Pothole",
    "date_created": "2022-10-26T21:03:26.000",
    "date_modified": "2022-10-26T21:03:27.000",
    "request_status": "Pending",
    "responsible_agency": "Department of Public Works",
    "final_address": "1408 Melpomene St",
    "address_councildis": "B",
    "status": "Pending",
    "rowid": "932012",
    "final_x": "3679913.65851",
    "final_y": "525039.457149",
    "longitude": "-90.07330444052477",
    "latitude": "29.937724426869373",
    "geocoded_column": {
      "latitude": "29.937724426869373",
      "longitude": "-90.07330444052477"
    }
  },
  {
    "service_request": "2022-932011",
    "request_type": "Roads/Drainage",
    "request_reason": "Pothole",
    "date_created": "2022-10-26T21:00:15.000",
    "date_modified": "2022-10-26T21:00:15.000",
    "request_status": "Pending",
    "responsible_agency": "Department of Public Works",
    "final_address": "1000 BLK Race St",
    "address_councildis": "B",
    "status": "Pending",
    "rowid": "932011",
    "final_x": "3680381.63625",
    "final_y": "523800.355074",
    "longitude": "-90.07187006577261",
    "latitude": "29.934303147628842",
    "geocoded_column": {
      "latitude": "29.934303147628842",
      "longitude": "-90.07187006577261"
    }
  },
  {
    "service_request": "2022-932009",
    "request_type": "Abandoned Vehicles",
    "request_reason": "Abandoned/Junk Vehicles",
    "date_created": "2022-10-26T20:59:58.000",
    "date_modified": "2022-10-26T20:59:58.000",
    "request_status": "Pending",
    "responsible_agency": "Department of Public Works",
    "final_address": "1660 N Tonti St",
    "address_councildis": "D",
    "status": "Pending",
    "rowid": "932009",
    "final_x": "3680561.82703",
    "final_y": "539688.439626",
    "longitude": "-90.07074852350748",
    "latitude": "29.977984544417247",
    "geocoded_column": {
      "latitude": "29.977984544417247",
      "longitude": "-90.07074852350748"
    }
  },
  {
    "service_request": "2022-932008",
    "request_type": "Roads/Drainage",
    "request_reason": "Pothole",
    "date_created": "2022-10-26T20:58:59.000",
    "date_modified": "2022-10-26T20:58:59.000",
    "request_status": "Pending",
    "responsible_agency": "Department of Public Works",
    "final_address": "1100 BLK Terpsichore St",
    "address_councildis": "B",
    "status": "Pending",
    "rowid": "932008",
    "final_x": "3680173.14519",
    "final_y": "524578.305618",
    "longitude": "-90.07250124113298",
    "latitude": "29.936448564212586",
    "geocoded_column": {
      "latitude": "29.936448564212586",
      "longitude": "-90.07250124113298"
    }
  },
  {
    "service_request": "2022-932007",
    "request_type": "Abandoned Vehicles",
    "request_reason": "Abandoned/Junk Vehicles",
    "date_created": "2022-10-26T20:53:27.000",
    "date_modified": "2022-10-26T20:53:27.000",
    "request_status": "Pending",
    "responsible_agency": "Department of Public Works",
    "final_address": "1665 N Miro St",
    "address_councildis": "D",
    "status": "Pending",
    "rowid": "932007",
    "final_x": "3680807.97365",
    "final_y": "539543.474122",
    "longitude": "-90.06997615439509",
    "latitude": "29.977578479566894",
    "geocoded_column": {
      "latitude": "29.977578479566894",
      "longitude": "-90.06997615439509"
    }
  },
  {
    "service_request": "2022-932006",
    "request_type": "Property Maintenance",
    "request_reason": "Property Maintenance",
    "date_created": "2022-10-26T20:52:13.000",
    "date_modified": "2022-10-26T20:52:13.000",
    "request_status": "Pending",
    "responsible_agency": "Department of Code Enforcement",
    "final_address": "937 Fats Domino Ave",
    "address_councildis": "E",
    "status": "Pending",
    "rowid": "932006",
    "final_x": "3697942.42627",
    "final_y": "533287.40378",
    "longitude": "-90.01608720362415",
    "latitude": "29.959845944005593",
    "geocoded_column": {
      "latitude": "29.959845944005593",
      "longitude": "-90.01608720362415"
    }
  },
  {
    "service_request": "2022-932005",
    "request_type": "Abandoned Vehicles",
    "request_reason": "Abandoned/Junk Vehicles",
    "date_created": "2022-10-26T20:51:37.000",
    "date_modified": "2022-10-26T20:51:37.000",
    "request_status": "Pending",
    "responsible_agency": "Department of Public Works",
    "final_address": "1665 N Miro St",
    "address_councildis": "D",
    "status": "Pending",
    "rowid": "932005",
    "final_x": "3680807.97365",
    "final_y": "539543.474122",
    "longitude": "-90.06997615439509",
    "latitude": "29.977578479566894",
    "geocoded_column": {
      "latitude": "29.977578479566894",
      "longitude": "-90.06997615439509"
    }
  },
  {
    "service_request": "2022-932004",
    "request_type": "Property Maintenance",
    "request_reason": "Property Maintenance",
    "date_created": "2022-10-26T20:47:48.000",
    "date_modified": "2022-10-26T20:47:48.000",
    "request_status": "Pending",
    "responsible_agency": "Department of Code Enforcement",
    "final_address": "1018 Fats Domino Ave",
    "address_councildis": "E",
    "status": "Pending",
    "rowid": "932004",
    "final_x": "3697889.06064",
    "final_y": "533506.171396",
    "longitude": "-90.0162477788331",
    "latitude": "29.960449164082156",
    "geocoded_column": {
      "latitude": "29.960449164082156",
      "longitude": "-90.0162477788331"
    }
  },
  {
    "service_request": "2022-932003",
    "request_type": "Trash/Recycling",
    "request_reason": "Replace Trash Cart",
    "date_created": "2022-10-26T20:33:07.000",
    "date_modified": "2022-10-26T20:33:08.000",
    "request_status": "Pending",
    "responsible_agency": "Department of Sanitation",
    "final_address": "5317 Music St",
    "address_councildis": "D",
    "status": "Assigned to Contractor",
    "contractor": "Metro Disposal",
    "rowid": "932003",
    "final_x": "3685606.80418",
    "final_y": "552616.222166",
    "longitude": "-90.05435899845155",
    "latitude": "30.01337749276925",
    "geocoded_column": {
      "latitude": "30.01337749276925",
      "longitude": "-90.05435899845155"
    }
  },
  {
    "service_request": "2022-932002",
    "request_type": "Trash/Recycling",
    "request_reason": "MIssed Recycling Pick-Up",
    "date_created": "2022-10-26T20:32:01.000",
    "date_modified": "2022-10-26T20:32:02.000",
    "request_status": "Pending",
    "responsible_agency": "Department of Sanitation",
    "final_address": "1618 S Liberty St",
    "address_councildis": "B",
    "status": "Assigned to Contractor",
    "contractor": "Richards Disposal",
    "rowid": "932002",
    "final_x": "3676745.19873",
    "final_y": "526531.537982",
    "longitude": "-90.08325613022687",
    "latitude": "29.941922581934552",
    "geocoded_column": {
      "latitude": "29.941922581934552",
      "longitude": "-90.08325613022687"
    }
  },
  {
    "service_request": "2022-932001",
    "request_type": "Trash/Recycling",
    "request_reason": "Replace Trash Cart",
    "date_created": "2022-10-26T20:28:09.000",
    "date_modified": "2022-10-26T20:28:10.000",
    "request_status": "Pending",
    "responsible_agency": "Department of Sanitation",
    "final_address": "5110 Painters St",
    "address_councildis": "D",
    "status": "Assigned to Contractor",
    "contractor": "Metro Disposal",
    "rowid": "932001",
    "final_x": "3686038.45276",
    "final_y": "551628.626517",
    "longitude": "-90.05303008390773",
    "latitude": "30.01064871124885",
    "geocoded_column": {
      "latitude": "30.01064871124885",
      "longitude": "-90.05303008390773"
    }
  },
  {
    "service_request": "2022-932000",
    "request_type": "Trash/Recycling",
    "request_reason": "Missed Trash Pick-Up",
    "date_created": "2022-10-26T20:27:14.000",
    "date_modified": "2022-10-26T20:27:14.000",
    "request_status": "Pending",
    "responsible_agency": "Department of Sanitation",
    "final_address": "7930 Sycamore St",
    "address_councildis": "A",
    "status": "Assigned to Contractor",
    "contractor": "Richards Disposal",
    "rowid": "932000",
    "final_x": "3664709.90784",
    "final_y": "530572.133186",
    "longitude": "-90.12111928080861",
    "latitude": "29.953388464323652",
    "geocoded_column": {
      "latitude": "29.953388464323652",
      "longitude": "-90.12111928080861"
    }
  },
  {
    "service_request": "2022-931999",
    "request_type": "Trash/Recycling",
    "request_reason": "Replace Trash Cart",
    "date_created": "2022-10-26T20:13:12.000",
    "date_modified": "2022-10-26T20:13:13.000",
    "request_status": "Pending",
    "responsible_agency": "Department of Sanitation",
    "final_address": "3012 Delachaise St",
    "address_councildis": "B",
    "status": "Assigned to Contractor",
    "contractor": "Richards Disposal",
    "rowid": "931999",
    "final_x": "3671786.21729",
    "final_y": "526248.82483",
    "longitude": "-90.09892232913019",
    "latitude": "29.941293041127032",
    "geocoded_column": {
      "latitude": "29.941293041127032",
      "longitude": "-90.09892232913019"
    }
  },
  {
    "service_request": "2022-931998",
    "request_type": "Trash/Recycling",
    "request_reason": "Missed Trash Pick-Up",
    "date_created": "2022-10-26T19:52:44.000",
    "date_modified": "2022-10-26T19:52:45.000",
    "request_status": "Pending",
    "responsible_agency": "Department of Sanitation",
    "final_address": "8012 Panola St",
    "address_councildis": "A",
    "status": "Assigned to Contractor",
    "contractor": "Richards Disposal",
    "rowid": "931998",
    "final_x": "3664302.62477",
    "final_y": "530468.129538",
    "longitude": "-90.12240878314542",
    "latitude": "29.953114329355717",
    "geocoded_column": {
      "latitude": "29.953114329355717",
      "longitude": "-90.12240878314542"
    }
  },
  {
    "service_request": "2022-931997",
    "request_type": "Trash/Recycling",
    "request_reason": "Replace Trash Cart",
    "date_created": "2022-10-26T19:42:03.000",
    "date_modified": "2022-10-26T19:42:04.000",
    "request_status": "Pending",
    "responsible_agency": "Department of Sanitation",
    "final_address": "5941 Lafaye St",
    "address_councildis": "D",
    "status": "Assigned to Contractor",
    "contractor": "Metro Disposal",
    "rowid": "931997",
    "final_x": "3687187.35094",
    "final_y": "555208.331481",
    "longitude": "-90.04927354090181",
    "latitude": "30.02045623341242",
    "geocoded_column": {
      "latitude": "30.02045623341242",
      "longitude": "-90.04927354090181"
    }
  },
  {
    "service_request": "2022-931996",
    "request_type": "Trash/Recycling",
    "request_reason": "Replace Trash Cart",
    "date_created": "2022-10-26T19:38:44.000",
    "date_modified": "2022-10-26T19:38:44.000",
    "request_status": "Pending",
    "responsible_agency": "Department of Sanitation",
    "final_address": "1028 Burdette St",
    "address_councildis": "A",
    "status": "Assigned to Contractor",
    "contractor": "Richards Disposal",
    "rowid": "931996",
    "final_x": "3662456.47648",
    "final_y": "527307.691327",
    "longitude": "-90.1283430890142",
    "latitude": "29.944477655921556",
    "geocoded_column": {
      "latitude": "29.944477655921556",
      "longitude": "-90.1283430890142"
    }
  },
  {
    "service_request": "2022-931995",
    "request_type": "Trash/Recycling",
    "request_reason": "Order Trash Cart",
    "date_created": "2022-10-26T19:36:02.000",
    "date_modified": "2022-10-26T19:36:29.000",
    "request_status": "Pending",
    "responsible_agency": "Department of Sanitation",
    "final_address": "2144 Abundance St",
    "address_councildis": "D",
    "status": "Assigned to Contractor",
    "contractor": "Metro Disposal",
    "rowid": "931995",
    "final_x": "3684048.94716",
    "final_y": "543603.205518",
    "longitude": "-90.05959754574792",
    "latitude": "29.988642658214015",
    "geocoded_column": {
      "latitude": "29.988642658214015",
      "longitude": "-90.05959754574792"
    }
  },
  {
    "service_request": "2022-931994",
    "request_type": "Trash/Recycling",
    "request_reason": "Replace Trash Cart",
    "date_created": "2022-10-26T19:30:42.000",
    "date_modified": "2022-10-26T19:30:43.000",
    "request_status": "Pending",
    "responsible_agency": "Department of Sanitation",
    "final_address": "1946 Hope St",
    "address_councildis": "D",
    "status": "Assigned to Contractor",
    "contractor": "Metro Disposal",
    "rowid": "931994",
    "final_x": "3681723.8957",
    "final_y": "541939.178572",
    "longitude": "-90.0669997434105",
    "latitude": "29.98413803069105",
    "geocoded_column": {
      "latitude": "29.98413803069105",
      "longitude": "-90.0669997434105"
    }
  },
  {
    "service_request": "2022-931992",
    "request_type": "Trash/Recycling",
    "request_reason": "Request a Large Item Pick Up",
    "date_created": "2022-10-26T19:29:15.000",
    "date_modified": "2022-10-26T19:29:15.000",
    "request_status": "Pending",
    "responsible_agency": "Department of Sanitation",
    "final_address": "3016 Camp St",
    "address_councildis": "B",
    "status": "Assigned to Contractor",
    "contractor": "Richards Disposal",
    "rowid": "931992",
    "final_x": "3676051.48744",
    "final_y": "520568.318328",
    "longitude": "-90.08565132981009",
    "latitude": "29.925546466203624",
    "geocoded_column": {
      "latitude": "29.925546466203624",
      "longitude": "-90.08565132981009"
    }
  },
  {
    "service_request": "2022-931991",
    "request_type": "Trash/Recycling",
    "request_reason": "Replace Trash Cart",
    "date_created": "2022-10-26T19:12:58.000",
    "date_modified": "2022-10-26T19:12:58.000",
    "request_status": "Pending",
    "responsible_agency": "Department of Sanitation",
    "final_address": "502 N Solomon St",
    "address_councildis": "A",
    "status": "Assigned to Contractor",
    "contractor": "Richards Disposal",
    "rowid": "931991",
    "final_x": "3671579.66772",
    "final_y": "539896.818058",
    "longitude": "-90.09911031720584",
    "latitude": "29.97882659876444",
    "geocoded_column": {
      "latitude": "29.97882659876444",
      "longitude": "-90.09911031720584"
    }
  },
  {
    "service_request": "2022-931990",
    "request_type": "Traffic Signals/Signs/Striping/Streetlights",
    "request_reason": "Street Light Outage/Malfunction",
    "date_created": "2022-10-26T19:12:23.000",
    "date_modified": "2022-10-26T19:12:24.000",
    "request_status": "Pending",
    "responsible_agency": "Department of Public Works",
    "final_address": "2259 N Miro St",
    "address_councildis": "D",
    "status": "Pending",
    "contractor": "Legacy Professional Services",
    "rowid": "931990",
    "final_x": "3685277.5078",
    "final_y": "540442.095627",
    "longitude": "-90.05582823478989",
    "latitude": "29.97991311504171",
    "geocoded_column": {
      "latitude": "29.97991311504171",
      "longitude": "-90.05582823478989"
    }
  },
  {
    "service_request": "2022-931989",
    "request_type": "Trash/Recycling",
    "request_reason": "Missed Trash Pick-Up",
    "date_created": "2022-10-26T19:11:39.000",
    "date_modified": "2022-10-26T19:11:39.000",
    "request_status": "Pending",
    "responsible_agency": "Department of Sanitation",
    "final_address": "7911 Jeannette St",
    "address_councildis": "A",
    "status": "Assigned to Contractor",
    "contractor": "Richards Disposal",
    "rowid": "931989",
    "final_x": "3663202.66061",
    "final_y": "528727.407936",
    "longitude": "-90.12593992459634",
    "latitude": "29.9483598234777",
    "geocoded_column": {
      "latitude": "29.9483598234777",
      "longitude": "-90.12593992459634"
    }
  },
  {
    "service_request": "2022-931988",
    "request_type": "Traffic Signals/Signs/Striping/Streetlights",
    "request_reason": "Street Light Outage/Malfunction",
    "date_created": "2022-10-26T19:07:25.000",
    "date_modified": "2022-10-26T19:07:25.000",
    "request_status": "Pending",
    "responsible_agency": "Department of Public Works",
    "final_address": "PASTEUR BLVD & RAPIDES DR",
    "address_councildis": "D",
    "status": "Pending",
    "contractor": "Legacy Professional Services",
    "rowid": "931988",
    "final_x": "3682877.1",
    "final_y": "552971.98",
    "longitude": "-90.06297095231525",
    "latitude": "30.01443919258813",
    "geocoded_column": {
      "latitude": "30.01443919258813",
      "longitude": "-90.06297095231525"
    }
  },
  {
    "service_request": "2022-931987",
    "request_type": "Trash/Recycling",
    "request_reason": "Replace Trash Cart",
    "date_created": "2022-10-26T19:05:37.000",
    "date_modified": "2022-10-26T19:05:38.000",
    "request_status": "Pending",
    "responsible_agency": "Department of Sanitation",
    "final_address": "205 Warrington Dr",
    "address_councildis": "D",
    "status": "Assigned to Contractor",
    "contractor": "Metro Disposal",
    "rowid": "931987",
    "final_x": "3682684.43516",
    "final_y": "547035.171985",
    "longitude": "-90.0637875016947",
    "latitude": "29.998120983441552",
    "geocoded_column": {
      "latitude": "29.998120983441552",
      "longitude": "-90.0637875016947"
    }
  },
  {
    "service_request": "2022-931986",
    "request_type": "Trash/Recycling",
    "request_reason": "Order Recycling Cart",
    "date_created": "2022-10-26T19:02:48.000",
    "date_modified": "2022-10-26T19:02:48.000",
    "request_status": "Pending",
    "responsible_agency": "Department of Sanitation",
    "final_address": "312 Harney St",
    "address_councildis": "A",
    "status": "Pending",
    "rowid": "931986",
    "final_x": "3667134.26689",
    "final_y": "546781.977553",
    "longitude": "-90.11291901253558",
    "latitude": "29.99788935660045",
    "geocoded_column": {
      "latitude": "29.99788935660045",
      "longitude": "-90.11291901253558"
    }
  },
  {
    "service_request": "2022-931985",
    "request_type": "Trash/Recycling",
    "request_reason": "Order Trash Cart",
    "date_created": "2022-10-26T19:01:59.000",
    "date_modified": "2022-10-26T19:02:00.000",
    "request_status": "Pending",
    "responsible_agency": "Department of Sanitation",
    "final_address": "312 Harney St",
    "address_councildis": "A",
    "status": "Assigned to Contractor",
    "contractor": "Metro Disposal",
    "rowid": "931985",
    "final_x": "3667134.26689",
    "final_y": "546781.977553",
    "longitude": "-90.11291901253558",
    "latitude": "29.99788935660045",
    "geocoded_column": {
      "latitude": "29.99788935660045",
      "longitude": "-90.11291901253558"
    }
  },
  {
    "service_request": "2022-931984",
    "request_type": "Traffic Signals/Signs/Striping/Streetlights",
    "request_reason": "Street Light Outage/Malfunction",
    "date_created": "2022-10-26T19:00:34.000",
    "date_modified": "2022-10-26T19:00:35.000",
    "request_status": "Pending",
    "responsible_agency": "Department of Public Works",
    "final_address": "I 10 E & BULLARD EXIT",
    "address_councildis": "E",
    "status": "Pending",
    "contractor": "Legacy Professional Services",
    "rowid": "931984",
    "final_x": "3714104.9",
    "final_y": "564170.48",
    "longitude": "-89.96388474759569",
    "latitude": "30.044241681855407",
    "geocoded_column": {
      "latitude": "30.044241681855407",
      "longitude": "-89.96388474759569"
    }
  },
  {
    "service_request": "2022-931983",
    "request_type": "Trash/Recycling",
    "request_reason": "Missed Trash Pick-Up",
    "date_created": "2022-10-26T18:53:50.000",
    "date_modified": "2022-10-26T18:53:50.000",
    "request_status": "Pending",
    "responsible_agency": "Department of Sanitation",
    "final_address": "76 Versailles Blvd",
    "address_councildis": "B",
    "status": "Assigned to Contractor",
    "contractor": "Richards Disposal",
    "rowid": "931983",
    "final_x": "3667859.38644",
    "final_y": "530665.146434",
    "longitude": "-90.11117140524786",
    "latitude": "29.953552227979444",
    "geocoded_column": {
      "latitude": "29.953552227979444",
      "longitude": "-90.11117140524786"
    }
  },
  {
    "service_request": "2022-931982",
    "request_type": "Trash/Recycling",
    "request_reason": "Replace Trash Cart",
    "date_created": "2022-10-26T18:48:43.000",
    "date_modified": "2022-10-26T18:48:43.000",
    "request_status": "Pending",
    "responsible_agency": "Department of Sanitation",
    "final_address": "7421 Prytania St",
    "address_councildis": "A",
    "status": "Assigned to Contractor",
    "contractor": "Richards Disposal",
    "rowid": "931982",
    "final_x": "3661108.57197",
    "final_y": "523195.824123",
    "longitude": "-90.13273486698677",
    "latitude": "29.933210228661174",
    "geocoded_column": {
      "latitude": "29.933210228661174",
      "longitude": "-90.13273486698677"
    }
  },
  {
    "service_request": "2022-931981",
    "request_type": "Trash/Recycling",
    "request_reason": "Repair Trash Cart",
    "date_created": "2022-10-26T18:41:13.000",
    "date_modified": "2022-10-26T18:41:13.000",
    "request_status": "Pending",
    "responsible_agency": "Department of Sanitation",
    "final_address": "1846 N Dorgenois St",
    "address_councildis": "D",
    "status": "Assigned to Contractor",
    "contractor": "Metro Disposal",
    "rowid": "931981",
    "final_x": "3680972.34863",
    "final_y": "541136.606988",
    "longitude": "-90.06940150061035",
    "latitude": "29.981954055928462",
    "geocoded_column": {
      "latitude": "29.981954055928462",
      "longitude": "-90.06940150061035"
    }
  },
  {
    "service_request": "2022-931980",
    "request_type": "Trash/Recycling",
    "request_reason": "Repair Trash Cart",
    "date_created": "2022-10-26T18:36:27.000",
    "date_modified": "2022-10-26T18:36:28.000",
    "request_status": "Pending",
    "responsible_agency": "Department of Sanitation",
    "final_address": "3628 Frenchmen St",
    "address_councildis": "D",
    "status": "Assigned to Contractor",
    "contractor": "Metro Disposal",
    "rowid": "931980",
    "final_x": "3683754.12297",
    "final_y": "546044.562896",
    "longitude": "-90.06044313711568",
    "latitude": "29.995364531200448",
    "geocoded_column": {
      "latitude": "29.995364531200448",
      "longitude": "-90.06044313711568"
    }
  },
  {
    "service_request": "2022-931979",
    "request_type": "Trash/Recycling",
    "request_reason": "Repair Trash Cart",
    "date_created": "2022-10-26T18:34:29.000",
    "date_modified": "2022-10-26T18:34:29.000",
    "request_status": "Pending",
    "responsible_agency": "Department of Sanitation",
    "final_address": "2049 Lafreniere St",
    "address_councildis": "D",
    "status": "Assigned to Contractor",
    "contractor": "Metro Disposal",
    "rowid": "931979",
    "final_x": "3683315.87336",
    "final_y": "545540.425104",
    "longitude": "-90.06184519441204",
    "latitude": "29.993991711041648",
    "geocoded_column": {
      "latitude": "29.993991711041648",
      "longitude": "-90.06184519441204"
    }
  },
  {
    "service_request": "2022-931978",
    "request_type": "Trash/Recycling",
    "request_reason": "Missed Trash Pick-Up",
    "date_created": "2022-10-26T18:33:20.000",
    "date_modified": "2022-10-26T18:33:21.000",
    "request_status": "Pending",
    "responsible_agency": "Department of Sanitation",
    "final_address": "1709 Prytania St",
    "address_councildis": "B",
    "status": "Assigned to Contractor",
    "contractor": "Richards Disposal",
    "rowid": "931978",
    "final_x": "3679224.59707",
    "final_y": "524657.101948",
    "longitude": "-90.07549311217129",
    "latitude": "29.936693893441053",
    "geocoded_column": {
      "latitude": "29.936693893441053",
      "longitude": "-90.07549311217129"
    }
  },
  {
    "service_request": "2022-931977",
    "request_type": "Trash/Recycling",
    "request_reason": "Repair Trash Cart",
    "date_created": "2022-10-26T18:32:43.000",
    "date_modified": "2022-10-26T18:32:43.000",
    "request_status": "Pending",
    "responsible_agency": "Department of Sanitation",
    "final_address": "2531 Allen Toussaint Blvd",
    "address_councildis": "D",
    "status": "Assigned to Contractor",
    "contractor": "Metro Disposal",
    "rowid": "931977",
    "final_x": "3685883.9471",
    "final_y": "556020.795097",
    "longitude": "-90.05336321686038",
    "latitude": "30.022730305347686",
    "geocoded_column": {
      "latitude": "30.022730305347686",
      "longitude": "-90.05336321686038"
    }
  },
  {
    "service_request": "2022-931976",
    "request_type": "Parks & Parkways",
    "request_reason": "Request Tree Service (Right of Way/Public Property)",
    "date_created": "2022-10-26T18:29:11.000",
    "date_modified": "2022-10-26T18:29:11.000",
    "request_status": "Pending",
    "responsible_agency": "Department of Parks & Parkway",
    "final_address": "990 Harrison Ave",
    "address_councildis": "A",
    "status": "Pending",
    "rowid": "931976",
    "final_x": "3670687.81134",
    "final_y": "548861.697171",
    "longitude": "-90.10162278001488",
    "latitude": "30.003503313364025",
    "geocoded_column": {
      "latitude": "30.003503313364025",
      "longitude": "-90.10162278001488"
    }
  },
  {
    "service_request": "2022-931975",
    "request_type": "Property Maintenance",
    "request_reason": "Property Maintenance",
    "date_created": "2022-10-26T18:21:44.000",
    "date_modified": "2022-10-26T18:21:45.000",
    "request_status": "Pending",
    "responsible_agency": "Department of Code Enforcement",
    "final_address": "401 N Carrollton Ave",
    "address_councildis": "A",
    "status": "Pending",
    "rowid": "931975",
    "final_x": "3671482.24667",
    "final_y": "539704.336458",
    "longitude": "-90.0994245569996",
    "latitude": "29.978300224786608",
    "geocoded_column": {
      "latitude": "29.978300224786608",
      "longitude": "-90.0994245569996"
    }
  },
  {
    "service_request": "2022-931974",
    "request_type": "Trash/Recycling",
    "request_reason": "Replace Trash Cart",
    "date_created": "2022-10-26T18:20:50.000",
    "date_modified": "2022-10-26T18:20:51.000",
    "request_status": "Pending",
    "responsible_agency": "Department of Sanitation",
    "final_address": "2042 Camp St",
    "address_councildis": "B",
    "status": "Assigned to Contractor",
    "contractor": "Richards Disposal",
    "rowid": "931974",
    "final_x": "3679020.07976",
    "final_y": "522638.885882",
    "longitude": "-90.07620868668138",
    "latitude": "29.93115063477728",
    "geocoded_column": {
      "latitude": "29.93115063477728",
      "longitude": "-90.07620868668138"
    }
  },
  {
    "service_request": "2022-931973",
    "request_type": "Health Related Questions",
    "request_reason": "Noise Ordinance Complaint",
    "date_created": "2022-10-26T18:20:05.000",
    "date_modified": "2022-10-26T18:20:06.000",
    "request_status": "Pending",
    "responsible_agency": "Health Department",
    "final_address": "401 N Carrollton Ave",
    "address_councildis": "A",
    "status": "Pending",
    "rowid": "931973",
    "final_x": "3671482.24667",
    "final_y": "539704.336458",
    "longitude": "-90.0994245569996",
    "latitude": "29.978300224786608",
    "geocoded_column": {
      "latitude": "29.978300224786608",
      "longitude": "-90.0994245569996"
    }
  },
  {
    "service_request": "2022-931972",
    "request_type": "Trash/Recycling",
    "request_reason": "Dead Animal Pick Up",
    "date_created": "2022-10-26T18:15:40.000",
    "date_modified": "2022-10-26T18:15:41.000",
    "request_status": "Pending",
    "responsible_agency": "Department of Sanitation",
    "final_address": "6901 Argonne Blvd",
    "address_councildis": "A",
    "status": "Assigned to Contractor",
    "contractor": "Metro Disposal",
    "rowid": "931972",
    "final_x": "3670775.51284",
    "final_y": "553234.231447",
    "longitude": "-90.10119717754341",
    "latitude": "30.015523650335048",
    "geocoded_column": {
      "latitude": "30.015523650335048",
      "longitude": "-90.10119717754341"
    }
  },
  {
    "service_request": "2022-931971",
    "request_type": "Traffic Signals/Signs/Striping/Streetlights",
    "request_reason": "Street Light Outage/Malfunction",
    "date_created": "2022-10-26T18:12:59.000",
    "date_modified": "2022-10-26T18:13:00.000",
    "request_status": "Pending",
    "responsible_agency": "Department of Public Works",
    "final_address": "6601 Argonne Blvd",
    "address_councildis": "A",
    "status": "Pending",
    "contractor": "Legacy Professional Services",
    "rowid": "931971",
    "final_x": "3670597.55111",
    "final_y": "551253.951637",
    "longitude": "-90.1018267018107",
    "latitude": "30.010083841359968",
    "geocoded_column": {
      "latitude": "30.010083841359968",
      "longitude": "-90.1018267018107"
    }
  },
  {
    "service_request": "2022-931970",
    "request_type": "Trash/Recycling",
    "request_reason": "Replace Trash Cart",
    "date_created": "2022-10-26T18:12:03.000",
    "date_modified": "2022-10-26T18:12:58.000",
    "request_status": "Pending",
    "responsible_agency": "Department of Sanitation",
    "final_address": "2810 Bruxelles St",
    "address_councildis": "D",
    "status": "Assigned to Contractor",
    "contractor": "Metro Disposal",
    "rowid": "931970",
    "final_x": "3680276.03535",
    "final_y": "542693.120973",
    "longitude": "-90.07154665277822",
    "latitude": "29.986255026627674",
    "geocoded_column": {
      "latitude": "29.986255026627674",
      "longitude": "-90.07154665277822"
    }
  },
  {
    "service_request": "2022-931969",
    "request_type": "Trash/Recycling",
    "request_reason": "Repair Trash Cart",
    "date_created": "2022-10-26T17:55:05.000",
    "date_modified": "2022-10-26T17:55:06.000",
    "request_status": "Pending",
    "responsible_agency": "Department of Sanitation",
    "final_address": "101 Winthrop Pl",
    "address_councildis": "D",
    "status": "Assigned to Contractor",
    "contractor": "Metro Disposal",
    "rowid": "931969",
    "final_x": "3677750.12328",
    "final_y": "543775.868686",
    "longitude": "-90.07948761268956",
    "latitude": "29.989308445095325",
    "geocoded_column": {
      "latitude": "29.989308445095325",
      "longitude": "-90.07948761268956"
    }
  },
  {
    "service_request": "2022-931968",
    "request_type": "Trash/Recycling",
    "request_reason": "Repair Trash Cart",
    "date_created": "2022-10-26T17:52:21.000",
    "date_modified": "2022-10-26T17:52:22.000",
    "request_status": "Pending",
    "responsible_agency": "Department of Sanitation",
    "final_address": "6111 Franklin Ave",
    "address_councildis": "D",
    "status": "Assigned to Contractor",
    "contractor": "Metro Disposal",
    "rowid": "931968",
    "final_x": "3686472.06505",
    "final_y": "555659.600473",
    "longitude": "-90.05151767154186",
    "latitude": "30.021719076879",
    "geocoded_column": {
      "latitude": "30.021719076879",
      "longitude": "-90.05151767154186"
    }
  },
  {
    "service_request": "2022-931967",
    "request_type": "Trash/Recycling",
    "request_reason": "Repair Trash Cart",
    "date_created": "2022-10-26T17:49:44.000",
    "date_modified": "2022-10-26T17:49:45.000",
    "request_status": "Pending",
    "responsible_agency": "Department of Sanitation",
    "final_address": "1831 N Rampart St",
    "address_councildis": "C",
    "status": "Assigned to Contractor",
    "contractor": "Metro Disposal",
    "rowid": "931967",
    "final_x": "3683793.90562",
    "final_y": "535871.354247",
    "longitude": "-90.06067439675451",
    "latitude": "29.967390565375812",
    "geocoded_column": {
      "latitude": "29.967390565375812",
      "longitude": "-90.06067439675451"
    }
  },
  {
    "service_request": "2022-931966",
    "request_type": "Trash/Recycling",
    "request_reason": "Order Recycling Cart",
    "date_created": "2022-10-26T17:47:27.000",
    "date_modified": "2022-10-26T17:47:28.000",
    "request_status": "Pending",
    "responsible_agency": "Department of Sanitation",
    "final_address": "4628 De Montluzin St",
    "address_councildis": "D",
    "status": "Pending",
    "contractor": "Metro Disposal",
    "rowid": "931966",
    "final_x": "3687142.87529",
    "final_y": "549923.389524",
    "longitude": "-90.04960115365792",
    "latitude": "30.005925954875437",
    "geocoded_column": {
      "latitude": "30.005925954875437",
      "longitude": "-90.04960115365792"
    }
  },
  {
    "service_request": "2022-931965",
    "request_type": "Trash/Recycling",
    "request_reason": "Repair Trash Cart",
    "date_created": "2022-10-26T17:45:29.000",
    "date_modified": "2022-10-26T17:45:30.000",
    "request_status": "Pending",
    "responsible_agency": "Department of Sanitation",
    "final_address": "4628 De Montluzin St",
    "address_councildis": "D",
    "status": "Assigned to Contractor",
    "contractor": "Metro Disposal",
    "rowid": "931965",
    "final_x": "3687142.87529",
    "final_y": "549923.389524",
    "longitude": "-90.04960115365792",
    "latitude": "30.005925954875437",
    "geocoded_column": {
      "latitude": "30.005925954875437",
      "longitude": "-90.04960115365792"
    }
  },
  {
    "service_request": "2022-931964",
    "request_type": "Trash/Recycling",
    "request_reason": "Repair Trash Cart",
    "date_created": "2022-10-26T17:43:11.000",
    "date_modified": "2022-10-26T17:43:12.000",
    "request_status": "Pending",
    "responsible_agency": "Department of Sanitation",
    "final_address": "4944 Feliciana Dr",
    "address_councildis": "D",
    "status": "Assigned to Contractor",
    "contractor": "Metro Disposal",
    "rowid": "931964",
    "final_x": "3689926.52451",
    "final_y": "551728.098901",
    "longitude": "-90.04074265974688",
    "latitude": "30.010802197191765",
    "geocoded_column": {
      "latitude": "30.010802197191765",
      "longitude": "-90.04074265974688"
    }
  },
  {
    "service_request": "2022-931963",
    "request_type": "Trash/Recycling",
    "request_reason": "Missed Trash Pick-Up",
    "date_created": "2022-10-26T17:38:41.000",
    "date_modified": "2022-10-26T17:38:41.000",
    "request_status": "Pending",
    "responsible_agency": "Department of Sanitation",
    "final_address": "8011 Green St",
    "address_councildis": "A",
    "status": "Assigned to Contractor",
    "contractor": "Richards Disposal",
    "rowid": "931963",
    "final_x": "3663423.20602",
    "final_y": "529467.403585",
    "longitude": "-90.12521893355753",
    "latitude": "29.95038818138102",
    "geocoded_column": {
      "latitude": "29.95038818138102",
      "longitude": "-90.12521893355753"
    }
  },
  {
    "service_request": "2022-931962",
    "request_type": "Trash/Recycling",
    "request_reason": "Replace Trash Cart",
    "date_created": "2022-10-26T17:38:16.000",
    "date_modified": "2022-10-26T17:38:17.000",
    "request_status": "Pending",
    "responsible_agency": "Department of Sanitation",
    "final_address": "5921 Louis Xiv St",
    "address_councildis": "A",
    "status": "Assigned to Contractor",
    "contractor": "Metro Disposal",
    "rowid": "931962",
    "final_x": "3668138.55463",
    "final_y": "546952.237841",
    "longitude": "-90.10974073183978",
    "latitude": "29.998328063800955",
    "geocoded_column": {
      "latitude": "29.998328063800955",
      "longitude": "-90.10974073183978"
    }
  },
  {
    "service_request": "2022-931961",
    "request_type": "Trash/Recycling",
    "request_reason": "Repair Trash Cart",
    "date_created": "2022-10-26T17:36:35.000",
    "date_modified": "2022-10-26T17:36:36.000",
    "request_status": "Pending",
    "responsible_agency": "Department of Sanitation",
    "final_address": "4632 Mandeville St",
    "address_councildis": "D",
    "status": "Assigned to Contractor",
    "contractor": "Metro Disposal",
    "rowid": "931961",
    "final_x": "3684659.04239",
    "final_y": "549826.849044",
    "longitude": "-90.05745155196193",
    "latitude": "30.00573678501129",
    "geocoded_column": {
      "latitude": "30.00573678501129",
      "longitude": "-90.05745155196193"
    }
  },
  {
    "service_request": "2022-931960",
    "request_type": "Trash/Recycling",
    "request_reason": "Missed Trash Pick-Up",
    "date_created": "2022-10-26T17:32:48.000",
    "date_modified": "2022-10-26T17:32:49.000",
    "request_status": "Pending",
    "responsible_agency": "Department of Sanitation",
    "final_address": "1934 Foucher St",
    "address_councildis": "B",
    "status": "Assigned to Contractor",
    "contractor": "Richards Disposal",
    "rowid": "931960",
    "final_x": "3672965.40232",
    "final_y": "522567.842298",
    "longitude": "-90.09532497398654",
    "latitude": "29.931136552044457",
    "geocoded_column": {
      "latitude": "29.931136552044457",
      "longitude": "-90.09532497398654"
    }
  },
  {
    "service_request": "2022-931959",
    "request_type": "Trash/Recycling",
    "request_reason": "Order Trash Cart",
    "date_created": "2022-10-26T17:30:07.000",
    "date_modified": "2022-10-26T17:30:08.000",
    "request_status": "Pending",
    "responsible_agency": "Department of Sanitation",
    "final_address": "2440 Pressburg St",
    "address_councildis": "D",
    "status": "Assigned to Contractor",
    "contractor": "Metro Disposal",
    "rowid": "931959",
    "final_x": "3685437.57679",
    "final_y": "554665.369944",
    "longitude": "-90.054821428286",
    "latitude": "30.01901708938301",
    "geocoded_column": {
      "latitude": "30.01901708938301",
      "longitude": "-90.054821428286"
    }
  },
  {
    "service_request": "2022-931958",
    "request_type": "Trash/Recycling",
    "request_reason": "Repair Trash Cart",
    "date_created": "2022-10-26T17:29:29.000",
    "date_modified": "2022-10-26T17:29:30.000",
    "request_status": "Pending",
    "responsible_agency": "Department of Sanitation",
    "final_address": "3611 Kim O Gray Ave",
    "address_councildis": "D",
    "status": "Assigned to Contractor",
    "contractor": "Metro Disposal",
    "rowid": "931958",
    "final_x": "3693150.9976",
    "final_y": "545280.892303",
    "longitude": "-90.030786881812",
    "latitude": "29.99297433892858",
    "geocoded_column": {
      "latitude": "29.99297433892858",
      "longitude": "-90.030786881812"
    }
  },
  {
    "service_request": "2022-931957",
    "request_type": "Trash/Recycling",
    "request_reason": "Missed Trash Pick-Up",
    "date_created": "2022-10-26T17:27:26.000",
    "date_modified": "2022-10-26T17:27:27.000",
    "request_status": "Pending",
    "responsible_agency": "Department of Sanitation",
    "final_address": "7710 Spruce St, New Orleans, Louisiana, 70118",
    "address_councildis": "A",
    "status": "Assigned to Contractor",
    "contractor": "Richards Disposal",
    "rowid": "931957",
    "final_x": "3664840.9017",
    "final_y": "529502.147649",
    "longitude": "-90.12074141015833",
    "latitude": "29.95044253965382",
    "geocoded_column": {
      "latitude": "29.95044253965382",
      "longitude": "-90.12074141015833"
    }
  },
  {
    "service_request": "2022-931956",
    "request_type": "Trash/Recycling",
    "request_reason": "Order Trash Cart",
    "date_created": "2022-10-26T17:27:07.000",
    "date_modified": "2022-10-26T17:27:08.000",
    "request_status": "Pending",
    "responsible_agency": "Department of Sanitation",
    "final_address": "2502 Verbena St",
    "address_councildis": "D",
    "status": "Assigned to Contractor",
    "contractor": "Metro Disposal",
    "rowid": "931956",
    "final_x": "3686333.06262",
    "final_y": "547691.670866",
    "longitude": "-90.05223836538053",
    "latitude": "29.999814458735873",
    "geocoded_column": {
      "latitude": "29.999814458735873",
      "longitude": "-90.05223836538053"
    }
  },
  {
    "service_request": "2022-931955",
    "request_type": "Abandoned Vehicles",
    "request_reason": "Abandoned/Junk Vehicles",
    "date_created": "2022-10-26T17:23:10.000",
    "date_modified": "2022-10-26T17:23:11.000",
    "request_status": "Pending",
    "responsible_agency": "Department of Public Works",
    "final_address": "7136 Lamb Rd",
    "address_councildis": "D",
    "status": "Pending",
    "rowid": "931955",
    "final_x": "3697505.41354",
    "final_y": "557433.593563",
    "longitude": "-90.01659097920577",
    "latitude": "30.02625288927243",
    "geocoded_column": {
      "latitude": "30.02625288927243",
      "longitude": "-90.01659097920577"
    }
  },
  {
    "service_request": "2022-931953",
    "request_type": "Trash/Recycling",
    "request_reason": "Missed Trash Pick-Up",
    "date_created": "2022-10-26T17:22:17.000",
    "date_modified": "2022-10-26T17:22:18.000",
    "request_status": "Pending",
    "responsible_agency": "Department of Sanitation",
    "final_address": "7522 Jeannette St",
    "address_councildis": "A",
    "status": "Assigned to Contractor",
    "contractor": "Richards Disposal",
    "rowid": "931953",
    "final_x": "3664069.328",
    "final_y": "527748.667711",
    "longitude": "-90.12323612034218",
    "latitude": "29.945643463521094",
    "geocoded_column": {
      "latitude": "29.945643463521094",
      "longitude": "-90.12323612034218"
    }
  },
  {
    "service_request": "2022-931952",
    "request_type": "Trash/Recycling",
    "request_reason": "Request a Large Item Pick Up",
    "date_created": "2022-10-26T17:17:04.000",
    "date_modified": "2022-10-26T17:17:05.000",
    "request_status": "Pending",
    "responsible_agency": "Department of Sanitation",
    "final_address": "1936 N Tonti St",
    "address_councildis": "D",
    "status": "Assigned to Contractor",
    "contractor": "Metro Disposal",
    "rowid": "931952",
    "final_x": "3682358.36092",
    "final_y": "540510.494219",
    "longitude": "-90.06504570533599",
    "latitude": "29.980190353855214",
    "geocoded_column": {
      "latitude": "29.980190353855214",
      "longitude": "-90.06504570533599"
    }
  },
  {
    "service_request": "2022-931951",
    "request_type": "Trash/Recycling",
    "request_reason": "Repair Trash Cart",
    "date_created": "2022-10-26T17:15:04.000",
    "date_modified": "2022-10-26T17:15:05.000",
    "request_status": "Pending",
    "responsible_agency": "Department of Sanitation",
    "final_address": "4040 Clermont Dr",
    "address_councildis": "D",
    "status": "Assigned to Contractor",
    "contractor": "Metro Disposal",
    "rowid": "931951",
    "final_x": "3684871.66748",
    "final_y": "547307.663185",
    "longitude": "-90.05686848111422",
    "latitude": "29.998803421079884",
    "geocoded_column": {
      "latitude": "29.998803421079884",
      "longitude": "-90.05686848111422"
    }
  },
  {
    "service_request": "2022-931950",
    "request_type": "Trash/Recycling",
    "request_reason": "Missed Trash Pick-Up",
    "date_created": "2022-10-26T17:11:02.000",
    "date_modified": "2022-10-26T17:11:03.000",
    "request_status": "Pending",
    "responsible_agency": "Department of Sanitation",
    "final_address": "1039 S Clark St",
    "address_councildis": "B",
    "status": "Assigned to Contractor",
    "contractor": "Richards Disposal",
    "rowid": "931950",
    "final_x": "3670133.37594",
    "final_y": "533329.107268",
    "longitude": "-90.10390083240945",
    "latitude": "29.96081035245312",
    "geocoded_column": {
      "latitude": "29.96081035245312",
      "longitude": "-90.10390083240945"
    }
  },
  {
    "service_request": "2022-931949",
    "request_type": "Trash/Recycling",
    "request_reason": "MIssed Recycling Pick-Up",
    "date_created": "2022-10-26T17:09:10.000",
    "date_modified": "2022-10-26T17:09:11.000",
    "request_status": "Pending",
    "responsible_agency": "Department of Sanitation",
    "final_address": "4527 Croyden Ave",
    "address_councildis": "C",
    "status": "Assigned to Contractor",
    "contractor": "Richards Disposal",
    "rowid": "931949",
    "final_x": "3702189.13937",
    "final_y": "523964.281852",
    "longitude": "-90.00301892373895",
    "latitude": "29.934075734489756",
    "geocoded_column": {
      "latitude": "29.934075734489756",
      "longitude": "-90.00301892373895"
    }
  },
  {
    "service_request": "2022-931948",
    "request_type": "Trash/Recycling",
    "request_reason": "Repair Trash Cart",
    "date_created": "2022-10-26T17:06:10.000",
    "date_modified": "2022-10-26T17:06:11.000",
    "request_status": "Pending",
    "responsible_agency": "Department of Sanitation",
    "final_address": "4228 Rayne Dr",
    "address_councildis": "D",
    "status": "Assigned to Contractor",
    "contractor": "Metro Disposal",
    "rowid": "931948",
    "final_x": "3679716.00559",
    "final_y": "547717.882642",
    "longitude": "-90.07314101810485",
    "latitude": "30.000088294466295",
    "geocoded_column": {
      "latitude": "30.000088294466295",
      "longitude": "-90.07314101810485"
    }
  },
  {
    "service_request": "2022-931947",
    "request_type": "Trash/Recycling",
    "request_reason": "Missed Trash Pick-Up",
    "date_created": "2022-10-26T17:04:40.000",
    "date_modified": "2022-10-26T17:04:41.000",
    "request_status": "Pending",
    "responsible_agency": "Department of Sanitation",
    "final_address": "6325 S Robertson St",
    "address_councildis": "A",
    "status": "Assigned to Contractor",
    "contractor": "Richards Disposal",
    "rowid": "931947",
    "final_x": "3665587.74471",
    "final_y": "525193.649533",
    "longitude": "-90.11852748677317",
    "latitude": "29.93857380347427",
    "geocoded_column": {
      "latitude": "29.93857380347427",
      "longitude": "-90.11852748677317"
    }
  },
  {
    "service_request": "2022-931946",
    "request_type": "Trash/Recycling",
    "request_reason": "Repair Trash Cart",
    "date_created": "2022-10-26T17:01:03.000",
    "date_modified": "2022-10-26T17:01:03.000",
    "request_status": "Pending",
    "responsible_agency": "Department of Sanitation",
    "final_address": "4501 Mirabeau Ave",
    "address_councildis": "D",
    "status": "Assigned to Contractor",
    "contractor": "Metro Disposal",
    "rowid": "931946",
    "final_x": "3690617.9064",
    "final_y": "551525.126485",
    "longitude": "-90.03856556795037",
    "latitude": "30.010222634648166",
    "geocoded_column": {
      "latitude": "30.010222634648166",
      "longitude": "-90.03856556795037"
    }
  },
  {
    "service_request": "2022-931945",
    "request_type": "Trash/Recycling",
    "request_reason": "Repair Trash Cart",
    "date_created": "2022-10-26T16:59:48.000",
    "date_modified": "2022-10-26T16:59:49.000",
    "request_status": "Pending",
    "responsible_agency": "Department of Sanitation",
    "final_address": "315 Wallace Dr",
    "address_councildis": "D",
    "status": "Assigned to Contractor",
    "contractor": "Metro Disposal",
    "rowid": "931945",
    "final_x": "3682238.94389",
    "final_y": "547983.879058",
    "longitude": "-90.0651616333718",
    "latitude": "30.000743153226214",
    "geocoded_column": {
      "latitude": "30.000743153226214",
      "longitude": "-90.0651616333718"
    }
  },
  {
    "service_request": "2022-931944",
    "request_type": "Trash/Recycling",
    "request_reason": "Missed Trash Pick-Up",
    "date_created": "2022-10-26T16:59:39.000",
    "date_modified": "2022-10-26T16:59:40.000",
    "request_status": "Pending",
    "responsible_agency": "Department of Sanitation",
    "final_address": "7409 Spruce St",
    "address_councildis": "A",
    "status": "Assigned to Contractor",
    "contractor": "Richards Disposal",
    "rowid": "931944",
    "final_x": "3665199.88064",
    "final_y": "529277.096833",
    "longitude": "-90.1196154634946",
    "latitude": "29.94981327211562",
    "geocoded_column": {
      "latitude": "29.94981327211562",
      "longitude": "-90.1196154634946"
    }
  },
  {
    "service_request": "2022-931943",
    "request_type": "Abandoned Vehicles",
    "request_reason": "Abandoned/Junk Vehicles",
    "date_created": "2022-10-26T16:57:22.000",
    "date_modified": "2022-10-26T16:59:04.000",
    "request_status": "Pending",
    "responsible_agency": "Department of Public Works",
    "final_address": "4718 Cardenas Dr",
    "address_councildis": "E",
    "status": "Pending",
    "rowid": "931943",
    "final_x": "3713630.89842",
    "final_y": "556178.146202",
    "longitude": "-89.96568427890656",
    "latitude": "30.022281524617306",
    "geocoded_column": {
      "latitude": "30.022281524617306",
      "longitude": "-89.96568427890656"
    }
  },
  {
    "service_request": "2022-931942",
    "request_type": "Trash/Recycling",
    "request_reason": "MIssed Recycling Pick-Up",
    "date_created": "2022-10-26T16:56:58.000",
    "date_modified": "2022-10-26T16:56:59.000",
    "request_status": "Pending",
    "responsible_agency": "Department of Sanitation",
    "final_address": "917 Thalia St",
    "address_councildis": "B",
    "status": "Assigned to Contractor",
    "contractor": "Richards Disposal",
    "rowid": "931942",
    "final_x": "3681183.92591",
    "final_y": "525116.528957",
    "longitude": "-90.06929142583014",
    "latitude": "29.937897878712683",
    "geocoded_column": {
      "latitude": "29.937897878712683",
      "longitude": "-90.06929142583014"
    }
  },
  {
    "service_request": "2022-931941",
    "request_type": "Trash/Recycling",
    "request_reason": "Request a Large Item Pick Up",
    "date_created": "2022-10-26T16:56:20.000",
    "date_modified": "2022-10-26T16:56:23.000",
    "request_status": "Pending",
    "responsible_agency": "Department of Sanitation",
    "final_address": "3617 Cadillac St",
    "address_councildis": "D",
    "status": "Assigned to Contractor",
    "contractor": "Metro Disposal",
    "rowid": "931941",
    "final_x": "3677103.59413",
    "final_y": "545476.164176",
    "longitude": "-90.08147113532549",
    "latitude": "29.994003099980958",
    "geocoded_column": {
      "latitude": "29.994003099980958",
      "longitude": "-90.08147113532549"
    }
  },
  {
    "service_request": "2022-931940",
    "request_type": "Trash/Recycling",
    "request_reason": "Missed Trash Pick-Up",
    "date_created": "2022-10-26T16:54:34.000",
    "date_modified": "2022-10-26T16:54:34.000",
    "request_status": "Pending",
    "responsible_agency": "Department of Sanitation",
    "final_address": "1131 Rev. John Raphael, Jr. Way",
    "address_councildis": "B",
    "status": "Assigned to Contractor",
    "contractor": "Richards Disposal",
    "rowid": "931940",
    "final_x": "3677189.66222",
    "final_y": "528053.884031",
    "longitude": "-90.08180036750734",
    "latitude": "29.9460951889288",
    "geocoded_column": {
      "latitude": "29.9460951889288",
      "longitude": "-90.08180036750734"
    }
  },
  {
    "service_request": "2022-931939",
    "request_type": "Trash/Recycling",
    "request_reason": "Repair Trash Cart",
    "date_created": "2022-10-26T16:50:59.000",
    "date_modified": "2022-10-26T16:50:59.000",
    "request_status": "Pending",
    "responsible_agency": "Department of Sanitation",
    "final_address": "3617 Cadillac St",
    "address_councildis": "D",
    "status": "Assigned to Contractor",
    "contractor": "Metro Disposal",
    "rowid": "931939",
    "final_x": "3677103.59413",
    "final_y": "545476.164176",
    "longitude": "-90.08147113532549",
    "latitude": "29.994003099980958",
    "geocoded_column": {
      "latitude": "29.994003099980958",
      "longitude": "-90.08147113532549"
    }
  },
  {
    "service_request": "2022-931937",
    "request_type": "Trash/Recycling",
    "request_reason": "MIssed Recycling Pick-Up",
    "date_created": "2022-10-26T16:49:46.000",
    "date_modified": "2022-10-26T16:49:47.000",
    "request_status": "Pending",
    "responsible_agency": "Department of Sanitation",
    "final_address": "415 S Solomon St",
    "address_councildis": "A",
    "status": "Assigned to Contractor",
    "contractor": "Richards Disposal",
    "rowid": "931937",
    "final_x": "3669731.9483",
    "final_y": "537656.597768",
    "longitude": "-90.10502197789907",
    "latitude": "29.97272134404732",
    "geocoded_column": {
      "latitude": "29.97272134404732",
      "longitude": "-90.10502197789907"
    }
  },
  {
    "service_request": "2022-931936",
    "request_type": "Trash/Recycling",
    "request_reason": "Replace Trash Cart",
    "date_created": "2022-10-26T16:49:45.000",
    "date_modified": "2022-10-26T16:49:46.000",
    "request_status": "Pending",
    "responsible_agency": "Department of Sanitation",
    "final_address": "201 Ringold St",
    "address_councildis": "A",
    "status": "Assigned to Contractor",
    "contractor": "Metro Disposal",
    "rowid": "931936",
    "final_x": "3666896.30317",
    "final_y": "548572.760723",
    "longitude": "-90.11361052017838",
    "latitude": "30.002820359158296",
    "geocoded_column": {
      "latitude": "30.002820359158296",
      "longitude": "-90.11361052017838"
    }
  },
  {
    "service_request": "2022-931935",
    "request_type": "Trash/Recycling",
    "request_reason": "Return Trash Cart",
    "date_created": "2022-10-26T16:48:07.000",
    "date_modified": "2022-10-26T16:48:08.000",
    "request_status": "Pending",
    "responsible_agency": "Department of Sanitation",
    "final_address": "1515 Pauger St",
    "address_councildis": "C",
    "status": "Assigned to Contractor",
    "contractor": "Metro Disposal",
    "rowid": "931935",
    "final_x": "3683979.27637",
    "final_y": "535267.566726",
    "longitude": "-90.06011018120037",
    "latitude": "29.965724695782818",
    "geocoded_column": {
      "latitude": "29.965724695782818",
      "longitude": "-90.06011018120037"
    }
  },
  {
    "service_request": "2022-931934",
    "request_type": "Trash/Recycling",
    "request_reason": "Missed Trash Pick-Up",
    "date_created": "2022-10-26T16:47:04.000",
    "date_modified": "2022-10-26T16:47:04.000",
    "request_status": "Pending",
    "responsible_agency": "Department of Sanitation",
    "final_address": "1217 Jefferson Ave, New Orleans, Louisiana, 70115",
    "address_councildis": "B",
    "status": "Assigned to Contractor",
    "contractor": "Richards Disposal",
    "rowid": "931934",
    "final_x": "3667129.3145",
    "final_y": "519935.776504",
    "longitude": "-90.11383723932465",
    "latitude": "29.924071296624074",
    "geocoded_column": {
      "latitude": "29.924071296624074",
      "longitude": "-90.11383723932465"
    }
  },
  {
    "service_request": "2022-931933",
    "request_type": "Trash/Recycling",
    "request_reason": "Repair Trash Cart",
    "date_created": "2022-10-26T16:44:48.000",
    "date_modified": "2022-10-26T16:44:49.000",
    "request_status": "Pending",
    "responsible_agency": "Department of Sanitation",
    "final_address": "3335 Esplanade Ave",
    "address_councildis": "A",
    "status": "Assigned to Contractor",
    "contractor": "Metro Disposal",
    "rowid": "931933",
    "final_x": "3675838.57179",
    "final_y": "540850.604555",
    "longitude": "-90.08562627113058",
    "latitude": "29.98132235824818",
    "geocoded_column": {
      "latitude": "29.98132235824818",
      "longitude": "-90.08562627113058"
    }
  },
  {
    "service_request": "2022-931932",
    "request_type": "Trash/Recycling",
    "request_reason": "Repair Trash Cart",
    "date_created": "2022-10-26T16:42:12.000",
    "date_modified": "2022-10-26T16:42:13.000",
    "request_status": "Pending",
    "responsible_agency": "Department of Sanitation",
    "final_address": "3668 Metropolitan St",
    "address_councildis": "D",
    "status": "Assigned to Contractor",
    "contractor": "Metro Disposal",
    "rowid": "931932",
    "final_x": "3691624.87382",
    "final_y": "546159.608848",
    "longitude": "-90.03557618603443",
    "latitude": "29.995438103916232",
    "geocoded_column": {
      "latitude": "29.995438103916232",
      "longitude": "-90.03557618603443"
    }
  },
  {
    "service_request": "2022-931931",
    "request_type": "Trash/Recycling",
    "request_reason": "Repair Recycling Cart",
    "date_created": "2022-10-26T16:40:51.000",
    "date_modified": "2022-10-26T16:40:51.000",
    "request_status": "Pending",
    "responsible_agency": "Department of Sanitation",
    "final_address": "14 Thrush St",
    "address_councildis": "D",
    "status": "Pending",
    "rowid": "931931",
    "final_x": "3672363.12295",
    "final_y": "554947.782424",
    "longitude": "-90.09612259139847",
    "latitude": "30.020188266950363",
    "geocoded_column": {
      "latitude": "30.020188266950363",
      "longitude": "-90.09612259139847"
    }
  },
  {
    "service_request": "2022-931930",
    "request_type": "Roads/Drainage",
    "request_reason": "Street Flooding / Drainage",
    "date_created": "2022-10-26T16:39:31.000",
    "date_modified": "2022-10-26T16:39:31.000",
    "request_status": "Pending",
    "responsible_agency": "Department of Public Works",
    "final_address": "430 Eighth St",
    "address_councildis": "B",
    "status": "Pending",
    "rowid": "931930",
    "final_x": "3677146.4061",
    "final_y": "518593.796343",
    "longitude": "-90.08226305977496",
    "latitude": "29.920084341296338",
    "geocoded_column": {
      "latitude": "29.920084341296338",
      "longitude": "-90.08226305977496"
    }
  },
  {
    "service_request": "2022-931929",
    "request_type": "Trash/Recycling",
    "request_reason": "Repair Trash Cart",
    "date_created": "2022-10-26T16:38:46.000",
    "date_modified": "2022-10-26T16:38:47.000",
    "request_status": "Pending",
    "responsible_agency": "Department of Sanitation",
    "final_address": "2233 New York St",
    "address_councildis": "D",
    "status": "Assigned to Contractor",
    "contractor": "Metro Disposal",
    "rowid": "931929",
    "final_x": "3683723.39426",
    "final_y": "556679.405466",
    "longitude": "-90.06016693171364",
    "latitude": "30.024607425212682",
    "geocoded_column": {
      "latitude": "30.024607425212682",
      "longitude": "-90.06016693171364"
    }
  },
  {
    "service_request": "2022-931928",
    "request_type": "Trash/Recycling",
    "request_reason": "Repair Trash Cart",
    "date_created": "2022-10-26T16:38:12.000",
    "date_modified": "2022-10-26T16:38:13.000",
    "request_status": "Pending",
    "responsible_agency": "Department of Sanitation",
    "final_address": "1657 N Galvez St",
    "address_councildis": "D",
    "status": "Assigned to Contractor",
    "contractor": "Metro Disposal",
    "rowid": "931928",
    "final_x": "3681034.85263",
    "final_y": "539296.43457",
    "longitude": "-90.06926820148016",
    "latitude": "29.97689232643416",
    "geocoded_column": {
      "latitude": "29.97689232643416",
      "longitude": "-90.06926820148016"
    }
  },
  {
    "service_request": "2022-931927",
    "request_type": "Trash/Recycling",
    "request_reason": "Replace Trash Cart",
    "date_created": "2022-10-26T16:36:50.000",
    "date_modified": "2022-10-26T16:49:59.000",
    "request_status": "Pending",
    "responsible_agency": "Department of Sanitation",
    "final_address": "1938 Arts St",
    "address_councildis": "D",
    "contractor": "Metro Disposal",
    "rowid": "931927",
    "final_x": "3686909.41654",
    "final_y": "539715.375946",
    "longitude": "-90.05069969859217",
    "latitude": "29.977864763536445",
    "geocoded_column": {
      "latitude": "29.977864763536445",
      "longitude": "-90.05069969859217"
    }
  },
  {
    "service_request": "2022-931926",
    "request_type": "Trash/Recycling",
    "request_reason": "Repair Trash Cart",
    "date_created": "2022-10-26T16:36:27.000",
    "date_modified": "2022-10-26T16:36:28.000",
    "request_status": "Pending",
    "responsible_agency": "Department of Sanitation",
    "final_address": "7400 Onyx St",
    "address_councildis": "D",
    "status": "Assigned to Contractor",
    "contractor": "Metro Disposal",
    "rowid": "931926",
    "final_x": "3668850.50279",
    "final_y": "556044.055257",
    "longitude": "-90.10718434358414",
    "latitude": "30.02330644538243",
    "geocoded_column": {
      "latitude": "30.02330644538243",
      "longitude": "-90.10718434358414"
    }
  },
  {
    "service_request": "2022-931925",
    "request_type": "Trash/Recycling",
    "request_reason": "Request a Large Item Pick Up",
    "date_created": "2022-10-26T16:36:12.000",
    "date_modified": "2022-10-26T16:36:12.000",
    "request_status": "Pending",
    "responsible_agency": "Department of Sanitation",
    "final_address": "1501 Paula St",
    "address_councildis": "D",
    "status": "Assigned to Contractor",
    "contractor": "Metro Disposal",
    "rowid": "931925",
    "final_x": "3678781.98517",
    "final_y": "549349.256083",
    "longitude": "-90.07603508815741",
    "latitude": "30.004602203352512",
    "geocoded_column": {
      "latitude": "30.004602203352512",
      "longitude": "-90.07603508815741"
    }
  },
  {
    "service_request": "2022-931924",
    "request_type": "Trash/Recycling",
    "request_reason": "Repair Trash Cart",
    "date_created": "2022-10-26T16:33:54.000",
    "date_modified": "2022-10-26T16:33:55.000",
    "request_status": "Pending",
    "responsible_agency": "Department of Sanitation",
    "final_address": "3900 Clermont Dr",
    "address_councildis": "D",
    "status": "Assigned to Contractor",
    "contractor": "Metro Disposal",
    "rowid": "931924",
    "final_x": "3685173.82729",
    "final_y": "546783.790801",
    "longitude": "-90.05593240602661",
    "latitude": "29.997353701309212",
    "geocoded_column": {
      "latitude": "29.997353701309212",
      "longitude": "-90.05593240602661"
    }
  },
  {
    "service_request": "2022-931923",
    "request_type": "Trash/Recycling",
    "request_reason": "Missed Trash Pick-Up",
    "date_created": "2022-10-26T16:31:54.000",
    "date_modified": "2022-10-26T16:31:54.000",
    "request_status": "Pending",
    "responsible_agency": "Department of Sanitation",
    "final_address": "135 S Genois St",
    "address_councildis": "B",
    "status": "Assigned to Contractor",
    "contractor": "Richards Disposal",
    "rowid": "931923",
    "final_x": "3672362.65531",
    "final_y": "536946.027144",
    "longitude": "-90.09673791987728",
    "latitude": "29.97068971089754",
    "geocoded_column": {
      "latitude": "29.97068971089754",
      "longitude": "-90.09673791987728"
    }
  },
  {
    "service_request": "2022-931922",
    "request_type": "Trash/Recycling",
    "request_reason": "Missed Trash Pick-Up",
    "date_created": "2022-10-26T16:30:44.000",
    "date_modified": "2022-10-26T16:30:44.000",
    "request_status": "Pending",
    "responsible_agency": "Department of Sanitation",
    "final_address": "1709 Third St",
    "address_councildis": "B",
    "status": "Assigned to Contractor",
    "contractor": "Richards Disposal",
    "rowid": "931922",
    "final_x": "3676203.73614",
    "final_y": "523292.844091",
    "longitude": "-90.08507703494969",
    "latitude": "29.9330334674755",
    "geocoded_column": {
      "latitude": "29.9330334674755",
      "longitude": "-90.08507703494969"
    }
  },
  {
    "service_request": "2022-931921",
    "request_type": "Roads/Drainage",
    "request_reason": "WaterMain Break",
    "date_created": "2022-10-26T16:30:19.000",
    "date_modified": "2022-10-26T16:30:19.000",
    "request_status": "Closed",
    "responsible_agency": "Department of Public Works",
    "final_address": "3209 College Ct",
    "address_councildis": "B",
    "status": "Invalid Case",
    "rowid": "931921",
    "final_x": "3668626.48545",
    "final_y": "532072.790083",
    "longitude": "-90.10870171850571",
    "latitude": "29.957400265757716",
    "geocoded_column": {
      "latitude": "29.957400265757716",
      "longitude": "-90.10870171850571"
    }
  },
  {
    "service_request": "2022-931920",
    "request_type": "Trash/Recycling",
    "request_reason": "Replace Trash Cart",
    "date_created": "2022-10-26T16:29:43.000",
    "date_modified": "2022-10-26T16:52:06.000",
    "request_status": "Pending",
    "responsible_agency": "Department of Sanitation",
    "final_address": "2718 Vienna St",
    "address_councildis": "D",
    "contractor": "Metro Disposal",
    "rowid": "931920",
    "final_x": "3687298.4431",
    "final_y": "555212.920729",
    "longitude": "-90.04892236170048",
    "latitude": "30.020465428577005",
    "geocoded_column": {
      "latitude": "30.020465428577005",
      "longitude": "-90.04892236170048"
    }
  },
  {
    "service_request": "2022-931919",
    "request_type": "Trash/Recycling",
    "request_reason": "Replace Trash Cart",
    "date_created": "2022-10-26T16:26:34.000",
    "date_modified": "2022-10-26T16:26:35.000",
    "request_status": "Pending",
    "responsible_agency": "Department of Sanitation",
    "final_address": "2230 Chartres St",
    "address_councildis": "C",
    "status": "Assigned to Contractor",
    "contractor": "Metro Disposal",
    "rowid": "931919",
    "final_x": "3685447.63913",
    "final_y": "534498.091909",
    "longitude": "-90.05550025275237",
    "latitude": "29.96356396111524",
    "geocoded_column": {
      "latitude": "29.96356396111524",
      "longitude": "-90.05550025275237"
    }
  },
  {
    "service_request": "2022-931918",
    "request_type": "Trash/Recycling",
    "request_reason": "Replace Trash Cart",
    "date_created": "2022-10-26T16:23:55.000",
    "date_modified": "2022-10-26T16:23:56.000",
    "request_status": "Pending",
    "responsible_agency": "Department of Sanitation",
    "final_address": "2324 Mexico St",
    "address_councildis": "D",
    "status": "Assigned to Contractor",
    "contractor": "Metro Disposal",
    "rowid": "931918",
    "final_x": "3684449.13589",
    "final_y": "556180.528922",
    "longitude": "-90.05789126310663",
    "latitude": "30.023213506545517",
    "geocoded_column": {
      "latitude": "30.023213506545517",
      "longitude": "-90.05789126310663"
    }
  },
  {
    "service_request": "2022-931917",
    "request_type": "Trash/Recycling",
    "request_reason": "Repair Recycling Cart",
    "date_created": "2022-10-26T16:22:40.000",
    "date_modified": "2022-10-26T16:22:41.000",
    "request_status": "Pending",
    "responsible_agency": "Department of Sanitation",
    "final_address": "4079 Fairmont Dr",
    "address_councildis": "D",
    "status": "Pending",
    "rowid": "931917",
    "final_x": "3684640.35106",
    "final_y": "547460.769873",
    "longitude": "-90.05759382600802",
    "latitude": "29.999231492901135",
    "geocoded_column": {
      "latitude": "29.999231492901135",
      "longitude": "-90.05759382600802"
    }
  },
  {
    "service_request": "2022-931916",
    "request_type": "Traffic Signals/Signs/Striping/Streetlights",
    "request_reason": "Street Light Outage/Malfunction",
    "date_created": "2022-10-26T16:21:56.000",
    "date_modified": "2022-10-26T16:21:56.000",
    "request_status": "Pending",
    "responsible_agency": "Department of Public Works",
    "final_address": "2311 Holiday Dr",
    "address_councildis": "C",
    "status": "Pending",
    "contractor": "Legacy Professional Services",
    "rowid": "931916",
    "final_x": "3698793.88944",
    "final_y": "522869.502587",
    "longitude": "-90.01377733618406",
    "latitude": "29.931173421028447",
    "geocoded_column": {
      "latitude": "29.931173421028447",
      "longitude": "-90.01377733618406"
    }
  },
  {
    "service_request": "2022-931915",
    "request_type": "Traffic Signals/Signs/Striping/Streetlights",
    "request_reason": "Traffic Sign Missing/Damaged",
    "date_created": "2022-10-26T16:20:40.000",
    "date_modified": "2022-10-26T16:20:40.000",
    "request_status": "Pending",
    "responsible_agency": "Department of Public Works",
    "final_address": "3102 Fern St",
    "address_councildis": "B",
    "status": "Pending",
    "rowid": "931915",
    "final_x": "3667263.45434",
    "final_y": "533117.81434",
    "longitude": "-90.11297063245463",
    "latitude": "29.9603137245324",
    "geocoded_column": {
      "latitude": "29.9603137245324",
      "longitude": "-90.11297063245463"
    }
  },
  {
    "service_request": "2022-931914",
    "request_type": "Trash/Recycling",
    "request_reason": "Repair Recycling Cart",
    "date_created": "2022-10-26T16:19:24.000",
    "date_modified": "2022-10-26T16:19:25.000",
    "request_status": "Pending",
    "responsible_agency": "Department of Sanitation",
    "final_address": "4742 Music St",
    "address_councildis": "D",
    "status": "Pending",
    "rowid": "931914",
    "final_x": "3685545.2783",
    "final_y": "550542.605908",
    "longitude": "-90.05462649954268",
    "latitude": "30.00767769278262",
    "geocoded_column": {
      "latitude": "30.00767769278262",
      "longitude": "-90.05462649954268"
    }
  },
  {
    "service_request": "2022-931913",
    "request_type": "Traffic Signals/Signs/Striping/Streetlights",
    "request_reason": "Request for Stop Sign",
    "date_created": "2022-10-26T16:19:22.000",
    "date_modified": "2022-10-26T16:19:22.000",
    "request_status": "Pending",
    "responsible_agency": "Department of Public Works",
    "final_address": "PAUGER ST & N MIRO ST",
    "address_councildis": "D",
    "status": "Pending",
    "rowid": "931913",
    "final_x": "3683547.7",
    "final_y": "540267.78",
    "longitude": "-90.06129778642872",
    "latitude": "29.97948672381614",
    "geocoded_column": {
      "latitude": "29.97948672381614",
      "longitude": "-90.06129778642872"
    }
  },
  {
    "service_request": "2022-931912",
    "request_type": "Trash/Recycling",
    "request_reason": "Return Trash Cart",
    "date_created": "2022-10-26T16:18:38.000",
    "date_modified": "2022-10-26T16:19:45.000",
    "request_status": "Pending",
    "responsible_agency": "Department of Sanitation",
    "final_address": "1668 N Gayoso St",
    "address_councildis": "D",
    "status": "Assigned to Contractor",
    "contractor": "Metro Disposal",
    "rowid": "931912",
    "final_x": "3678610.89486",
    "final_y": "541258.730572",
    "longitude": "-90.07685587039056",
    "latitude": "29.982361265747738",
    "geocoded_column": {
      "latitude": "29.982361265747738",
      "longitude": "-90.07685587039056"
    }
  },
  {
    "service_request": "2022-931911",
    "request_type": "Trash/Recycling",
    "request_reason": "Repair Trash Cart",
    "date_created": "2022-10-26T16:17:53.000",
    "date_modified": "2022-10-26T16:17:53.000",
    "request_status": "Pending",
    "responsible_agency": "Department of Sanitation",
    "final_address": "6633 Memphis St",
    "address_councildis": "A",
    "status": "Assigned to Contractor",
    "contractor": "Metro Disposal",
    "rowid": "931911",
    "final_x": "3669676.93159",
    "final_y": "551592.601301",
    "longitude": "-90.10472381398091",
    "latitude": "30.011042182979512",
    "geocoded_column": {
      "latitude": "30.011042182979512",
      "longitude": "-90.10472381398091"
    }
  },
  {
    "service_request": "2022-931910",
    "request_type": "Roads/Drainage",
    "request_reason": "Man hole cover issue",
    "date_created": "2022-10-26T16:17:31.000",
    "date_modified": "2022-10-26T16:17:32.000",
    "request_status": "Pending",
    "responsible_agency": "Department of Public Works",
    "final_address": "LAPEYROUSE ST & PAUL MORPHY ST",
    "address_councildis": "D",
    "status": "Pending",
    "rowid": "931910",
    "final_x": "3678800.5",
    "final_y": "540388.28",
    "longitude": "-90.07628716568891",
    "latitude": "29.97996211043589",
    "geocoded_column": {
      "latitude": "29.97996211043589",
      "longitude": "-90.07628716568891"
    }
  },
  {
    "service_request": "2022-931909",
    "request_type": "Trash/Recycling",
    "request_reason": "Order Trash Cart",
    "date_created": "2022-10-26T16:15:39.000",
    "date_modified": "2022-10-26T16:15:40.000",
    "request_status": "Pending",
    "responsible_agency": "Department of Sanitation",
    "final_address": "3625 Dauphine St",
    "address_councildis": "C",
    "status": "Assigned to Contractor",
    "contractor": "Metro Disposal",
    "rowid": "931909",
    "final_x": "3690651.48656",
    "final_y": "534407.718405",
    "longitude": "-90.03907032911582",
    "latitude": "29.96315486886352",
    "geocoded_column": {
      "latitude": "29.96315486886352",
      "longitude": "-90.03907032911582"
    }
  },
  {
    "service_request": "2022-931908",
    "request_type": "Trash/Recycling",
    "request_reason": "Repair Trash Cart",
    "date_created": "2022-10-26T16:13:30.000",
    "date_modified": "2022-10-26T16:13:30.000",
    "request_status": "Pending",
    "responsible_agency": "Department of Sanitation",
    "final_address": "4514 Touro St",
    "address_councildis": "D",
    "status": "Assigned to Contractor",
    "contractor": "Metro Disposal",
    "rowid": "931908",
    "final_x": "3683147.65813",
    "final_y": "549265.795283",
    "longitude": "-90.06224601974547",
    "latitude": "30.00424027684482",
    "geocoded_column": {
      "latitude": "30.00424027684482",
      "longitude": "-90.06224601974547"
    }
  },
  {
    "service_request": "2022-931907",
    "request_type": "Property Maintenance",
    "request_reason": "Property Maintenance",
    "date_created": "2022-10-26T16:10:17.000",
    "date_modified": "2022-10-26T16:10:17.000",
    "request_status": "Pending",
    "responsible_agency": "Department of Code Enforcement",
    "final_address": "3138 N Claiborne Ave",
    "address_councildis": "D",
    "status": "Pending",
    "rowid": "931907",
    "final_x": "3689787.39011",
    "final_y": "537747.500552",
    "longitude": "-90.04168014781118",
    "latitude": "29.972364906993985",
    "geocoded_column": {
      "latitude": "29.972364906993985",
      "longitude": "-90.04168014781118"
    }
  },
  {
    "service_request": "2022-931906",
    "request_type": "Trash/Recycling",
    "request_reason": "Order Trash Cart",
    "date_created": "2022-10-26T16:08:32.000",
    "date_modified": "2022-10-26T16:08:33.000",
    "request_status": "Pending",
    "responsible_agency": "Department of Sanitation",
    "final_address": "2421 Chartres St",
    "address_councildis": "C",
    "status": "Assigned to Contractor",
    "contractor": "Metro Disposal",
    "rowid": "931906",
    "final_x": "3686094.0271",
    "final_y": "534616.664902",
    "longitude": "-90.05345484914878",
    "latitude": "29.963870159141283",
    "geocoded_column": {
      "latitude": "29.963870159141283",
      "longitude": "-90.05345484914878"
    }
  },
  {
    "service_request": "2022-931905",
    "request_type": "Trash/Recycling",
    "request_reason": "Replace Trash Cart",
    "date_created": "2022-10-26T16:07:02.000",
    "date_modified": "2022-10-26T16:07:03.000",
    "request_status": "Pending",
    "responsible_agency": "Department of Sanitation",
    "final_address": "4225 Van Ave, New Orleans, Louisiana, 70122",
    "address_councildis": "D",
    "status": "Assigned to Contractor",
    "contractor": "Metro Disposal",
    "rowid": "931905",
    "final_x": "3680091.97519",
    "final_y": "547980.854098",
    "longitude": "-90.07194416596029",
    "latitude": "30.000799997483913",
    "geocoded_column": {
      "latitude": "30.000799997483913",
      "longitude": "-90.07194416596029"
    }
  },
  {
    "service_request": "2022-931904",
    "request_type": "Property Maintenance",
    "request_reason": "Property Maintenance",
    "date_created": "2022-10-26T16:06:35.000",
    "date_modified": "2022-10-26T16:06:35.000",
    "request_status": "Pending",
    "responsible_agency": "Department of Code Enforcement",
    "final_address": "1405 Arts St",
    "address_councildis": "C",
    "status": "Pending",
    "rowid": "931904",
    "final_x": "3687146.95196",
    "final_y": "537643.741064",
    "longitude": "-90.05002276008075",
    "latitude": "29.97216118248314",
    "geocoded_column": {
      "latitude": "29.97216118248314",
      "longitude": "-90.05002276008075"
    }
  },
  {
    "service_request": "2022-931903",
    "request_type": "Trash/Recycling",
    "request_reason": "Replace Trash Cart",
    "date_created": "2022-10-26T16:05:48.000",
    "date_modified": "2022-10-26T16:05:49.000",
    "request_status": "Pending",
    "responsible_agency": "Department of Sanitation",
    "final_address": "5835 Vicksburg St, New Orleans, Louisiana, 70124",
    "address_councildis": "A",
    "status": "Assigned to Contractor",
    "contractor": "Metro Disposal",
    "rowid": "931903",
    "final_x": "3668866.83399",
    "final_y": "546226.9268",
    "longitude": "-90.10746460615896",
    "latitude": "29.996312304929944",
    "geocoded_column": {
      "latitude": "29.996312304929944",
      "longitude": "-90.10746460615896"
    }
  },
  {
    "service_request": "2022-931902",
    "request_type": "Trash/Recycling",
    "request_reason": "Repair Trash Cart",
    "date_created": "2022-10-26T16:05:07.000",
    "date_modified": "2022-10-26T16:05:08.000",
    "request_status": "Pending",
    "responsible_agency": "Department of Sanitation",
    "final_address": "5711 Chamberlain Dr",
    "address_councildis": "D",
    "status": "Assigned to Contractor",
    "contractor": "Metro Disposal",
    "rowid": "931902",
    "final_x": "3679455.19496",
    "final_y": "553639.910615",
    "longitude": "-90.07375928318652",
    "latitude": "30.01637963124232",
    "geocoded_column": {
      "latitude": "30.01637963124232",
      "longitude": "-90.07375928318652"
    }
  },
  {
    "service_request": "2022-931901",
    "request_type": "Trash/Recycling",
    "request_reason": "Missed Trash Pick-Up",
    "date_created": "2022-10-26T16:04:40.000",
    "date_modified": "2022-10-26T16:04:40.000",
    "request_status": "Pending",
    "responsible_agency": "Department of Sanitation",
    "final_address": "7933 Sycamore St",
    "address_councildis": "A",
    "status": "Assigned to Contractor",
    "contractor": "Richards Disposal",
    "rowid": "931901",
    "final_x": "3664725.34541",
    "final_y": "530657.88845",
    "longitude": "-90.1210676705796",
    "latitude": "29.953623814386084",
    "geocoded_column": {
      "latitude": "29.953623814386084",
      "longitude": "-90.1210676705796"
    }
  },
  {
    "service_request": "2022-931900",
    "request_type": "Trash/Recycling",
    "request_reason": "Replace Trash Cart",
    "date_created": "2022-10-26T16:02:28.000",
    "date_modified": "2022-10-26T16:02:29.000",
    "request_status": "Pending",
    "responsible_agency": "Department of Sanitation",
    "final_address": "2672 Mexico St",
    "address_councildis": "D",
    "status": "Assigned to Contractor",
    "contractor": "Metro Disposal",
    "rowid": "931900",
    "final_x": "3686989.09359",
    "final_y": "556393.05417",
    "longitude": "-90.04985804247096",
    "latitude": "30.023719888597274",
    "geocoded_column": {
      "latitude": "30.023719888597274",
      "longitude": "-90.04985804247096"
    }
  },
  {
    "service_request": "2022-931899",
    "request_type": "Trash/Recycling",
    "request_reason": "Repair Trash Cart",
    "date_created": "2022-10-26T16:01:38.000",
    "date_modified": "2022-10-26T16:01:39.000",
    "request_status": "Pending",
    "responsible_agency": "Department of Sanitation",
    "final_address": "846 Pontalba St",
    "address_councildis": "A",
    "status": "Assigned to Contractor",
    "contractor": "Metro Disposal",
    "rowid": "931899",
    "final_x": "3669100.18535",
    "final_y": "544325.013519",
    "longitude": "-90.10679177450189",
    "latitude": "29.991075831335397",
    "geocoded_column": {
      "latitude": "29.991075831335397",
      "longitude": "-90.10679177450189"
    }
  },
  {
    "service_request": "2022-931898",
    "request_type": "Trash/Recycling",
    "request_reason": "Replace Trash Cart",
    "date_created": "2022-10-26T16:01:12.000",
    "date_modified": "2022-10-26T16:01:12.000",
    "request_status": "Pending",
    "responsible_agency": "Department of Sanitation",
    "final_address": "4110 Clematis St, New Orleans, Louisiana, 70122",
    "address_councildis": "D",
    "status": "Assigned to Contractor",
    "contractor": "Metro Disposal",
    "rowid": "931898",
    "final_x": "3685172.05564",
    "final_y": "548019.131218",
    "longitude": "-90.05589449679658",
    "latitude": "30.000750497457854",
    "geocoded_column": {
      "latitude": "30.000750497457854",
      "longitude": "-90.05589449679658"
    }
  },
  {
    "service_request": "2022-931897",
    "request_type": "Roads/Drainage",
    "request_reason": "Damaged Sidewalk",
    "date_created": "2022-10-26T15:59:52.000",
    "date_modified": "2022-10-26T15:59:52.000",
    "request_status": "Pending",
    "responsible_agency": "Department of Public Works",
    "final_address": "3243 Pittari Pl",
    "address_councildis": "C",
    "status": "Pending",
    "rowid": "931897",
    "final_x": "3709641.01797",
    "final_y": "518723.526263",
    "longitude": "-89.979689301095",
    "latitude": "29.91942551225506",
    "geocoded_column": {
      "latitude": "29.91942551225506",
      "longitude": "-89.979689301095"
    }
  },
  {
    "service_request": "2022-931896",
    "request_type": "Trash/Recycling",
    "request_reason": "Order Recycling Cart",
    "date_created": "2022-10-26T15:59:42.000",
    "date_modified": "2022-10-26T15:59:42.000",
    "request_status": "Pending",
    "responsible_agency": "Department of Sanitation",
    "final_address": "1823 Ursulines Ave",
    "address_councildis": "D",
    "status": "Pending",
    "rowid": "931896",
    "final_x": "3680253.03938",
    "final_y": "536180.054087",
    "longitude": "-90.07184577384575",
    "latitude": "29.96834704643855",
    "geocoded_column": {
      "latitude": "29.96834704643855",
      "longitude": "-90.07184577384575"
    }
  },
  {
    "service_request": "2022-931895",
    "request_type": "Roads/Drainage",
    "request_reason": "Damaged Sidewalk",
    "date_created": "2022-10-26T15:56:55.000",
    "date_modified": "2022-10-26T15:56:55.000",
    "request_status": "Pending",
    "responsible_agency": "Department of Public Works",
    "final_address": "900 Howard Ave",
    "address_councildis": "B",
    "status": "Pending",
    "rowid": "931895",
    "final_x": "3679280.57096",
    "final_y": "527611.107455",
    "longitude": "-90.07521400248727",
    "latitude": "29.944814739164837",
    "geocoded_column": {
      "latitude": "29.944814739164837",
      "longitude": "-90.07521400248727"
    }
  },
  {
    "service_request": "2022-931894",
    "request_type": "Trash/Recycling",
    "request_reason": "Missed Trash Pick-Up",
    "date_created": "2022-10-26T15:56:08.000",
    "date_modified": "2022-10-26T15:56:09.000",
    "request_status": "Pending",
    "responsible_agency": "Department of Sanitation",
    "final_address": "1816 Wilton Dr",
    "address_councildis": "D",
    "status": "Assigned to Contractor",
    "contractor": "Metro Disposal",
    "rowid": "931894",
    "final_x": "3681308.97928",
    "final_y": "550818.718741",
    "longitude": "-90.06800056315733",
    "latitude": "30.008566213147578",
    "geocoded_column": {
      "latitude": "30.008566213147578",
      "longitude": "-90.06800056315733"
    }
  },
  {
    "service_request": "2022-931893",
    "request_type": "Trash/Recycling",
    "request_reason": "Repair Trash Cart",
    "date_created": "2022-10-26T15:55:14.000",
    "date_modified": "2022-10-26T15:55:14.000",
    "request_status": "Pending",
    "responsible_agency": "Department of Sanitation",
    "final_address": "3916 Mithra St",
    "address_councildis": "D",
    "status": "Assigned to Contractor",
    "contractor": "Metro Disposal",
    "rowid": "931893",
    "final_x": "3688536.05769",
    "final_y": "552884.857175",
    "longitude": "-90.04509458703801",
    "latitude": "30.01402591257516",
    "geocoded_column": {
      "latitude": "30.01402591257516",
      "longitude": "-90.04509458703801"
    }
  },
  {
    "service_request": "2022-931892",
    "request_type": "Trash/Recycling",
    "request_reason": "Order Trash Cart",
    "date_created": "2022-10-26T15:52:24.000",
    "date_modified": "2022-10-26T15:52:25.000",
    "request_status": "Pending",
    "responsible_agency": "Department of Sanitation",
    "final_address": "1245 Bartholomew St",
    "address_councildis": "D",
    "status": "Assigned to Contractor",
    "contractor": "Metro Disposal",
    "rowid": "931892",
    "final_x": "3692010.25513",
    "final_y": "535987.601927",
    "longitude": "-90.03472297234586",
    "latitude": "29.967456721856806",
    "geocoded_column": {
      "latitude": "29.967456721856806",
      "longitude": "-90.03472297234586"
    }
  },
  {
    "service_request": "2022-931891",
    "request_type": "Trash/Recycling",
    "request_reason": "Repair Trash Cart",
    "date_created": "2022-10-26T15:52:23.000",
    "date_modified": "2022-10-26T15:52:23.000",
    "request_status": "Pending",
    "responsible_agency": "Department of Sanitation",
    "final_address": "1345 Riviera Ave",
    "address_councildis": "D",
    "status": "Assigned to Contractor",
    "contractor": "Metro Disposal",
    "rowid": "931891",
    "final_x": "3677648.03483",
    "final_y": "550910.792469",
    "longitude": "-90.07956348077938",
    "latitude": "30.008930035257958",
    "geocoded_column": {
      "latitude": "30.008930035257958",
      "longitude": "-90.07956348077938"
    }
  },
  {
    "service_request": "2022-931890",
    "request_type": "Traffic Signals/Signs/Striping/Streetlights",
    "request_reason": "Traffic Sign Missing/Damaged",
    "date_created": "2022-10-26T15:51:10.000",
    "date_modified": "2022-10-26T15:51:11.000",
    "request_status": "Pending",
    "responsible_agency": "Department of Public Works",
    "final_address": "DANNEEL ST & VALENCE ST",
    "address_councildis": "B",
    "status": "Pending",
    "rowid": "931890",
    "final_x": "3669603.3",
    "final_y": "522181.58",
    "longitude": "-90.1059517837485",
    "latitude": "29.930173909177615",
    "geocoded_column": {
      "latitude": "29.930173909177615",
      "longitude": "-90.1059517837485"
    }
  },
  {
    "service_request": "2022-931889",
    "request_type": "Trash/Recycling",
    "request_reason": "Replace Trash Cart",
    "date_created": "2022-10-26T15:49:03.000",
    "date_modified": "2022-10-26T15:49:04.000",
    "request_status": "Pending",
    "responsible_agency": "Department of Sanitation",
    "final_address": "519 Philip St",
    "address_councildis": "B",
    "status": "Assigned to Contractor",
    "contractor": "Richards Disposal",
    "rowid": "931889",
    "final_x": "3679832.93039",
    "final_y": "520220.232952",
    "longitude": "-90.0737265581521",
    "latitude": "29.9244755846313",
    "geocoded_column": {
      "latitude": "29.9244755846313",
      "longitude": "-90.0737265581521"
    }
  },
  {
    "service_request": "2022-931888",
    "request_type": "Trash/Recycling",
    "request_reason": "Repair Trash Cart",
    "date_created": "2022-10-26T15:46:59.000",
    "date_modified": "2022-10-26T15:47:00.000",
    "request_status": "Pending",
    "responsible_agency": "Department of Sanitation",
    "final_address": "1827 N Galvez St",
    "address_councildis": "D",
    "status": "Assigned to Contractor",
    "contractor": "Metro Disposal",
    "rowid": "931888",
    "final_x": "3682435.7398",
    "final_y": "539845.97249",
    "longitude": "-90.06482454576934",
    "latitude": "29.978360795919837",
    "geocoded_column": {
      "latitude": "29.978360795919837",
      "longitude": "-90.06482454576934"
    }
  },
  {
    "service_request": "2022-931887",
    "request_type": "Trash/Recycling",
    "request_reason": "Replace Recycling Cart",
    "date_created": "2022-10-26T15:46:56.000",
    "date_modified": "2022-10-26T15:46:57.000",
    "request_status": "Pending",
    "responsible_agency": "Department of Sanitation",
    "final_address": "4060 Franklin Ave",
    "address_councildis": "D",
    "status": "Pending",
    "rowid": "931887",
    "final_x": "3686890.54178",
    "final_y": "548024.648338",
    "longitude": "-90.05046549216722",
    "latitude": "30.000712876513475",
    "geocoded_column": {
      "latitude": "30.000712876513475",
      "longitude": "-90.05046549216722"
    }
  },
  {
    "service_request": "2022-931886",
    "request_type": "Trash/Recycling",
    "request_reason": "Request a Large Item Pick Up",
    "date_created": "2022-10-26T15:45:55.000",
    "date_modified": "2022-10-26T15:45:56.000",
    "request_status": "Pending",
    "responsible_agency": "Department of Sanitation",
    "final_address": "2521 Milan St",
    "address_councildis": "B",
    "status": "Assigned to Contractor",
    "contractor": "Richards Disposal",
    "rowid": "931886",
    "final_x": "3671312.58043",
    "final_y": "524302.912252",
    "longitude": "-90.10048379586395",
    "latitude": "29.935956434280186",
    "geocoded_column": {
      "latitude": "29.935956434280186",
      "longitude": "-90.10048379586395"
    }
  },
  {
    "service_request": "2022-931885",
    "request_type": "Trash/Recycling",
    "request_reason": "Repair Trash Cart",
    "date_created": "2022-10-26T15:45:33.000",
    "date_modified": "2022-10-26T15:45:33.000",
    "request_status": "Pending",
    "responsible_agency": "Department of Sanitation",
    "final_address": "4060 Franklin Ave",
    "address_councildis": "D",
    "status": "Assigned to Contractor",
    "contractor": "Metro Disposal",
    "rowid": "931885",
    "final_x": "3686890.54178",
    "final_y": "548024.648338",
    "longitude": "-90.05046549216722",
    "latitude": "30.000712876513475",
    "geocoded_column": {
      "latitude": "30.000712876513475",
      "longitude": "-90.05046549216722"
    }
  },
  {
    "service_request": "2022-931884",
    "request_type": "Trash/Recycling",
    "request_reason": "Replace Trash Cart",
    "date_created": "2022-10-26T15:44:22.000",
    "date_modified": "2022-10-26T15:44:23.000",
    "request_status": "Pending",
    "responsible_agency": "Department of Sanitation",
    "final_address": "4026 Virgil Blvd",
    "address_councildis": "D",
    "status": "Assigned to Contractor",
    "contractor": "Metro Disposal",
    "rowid": "931884",
    "final_x": "3679706.80495",
    "final_y": "547221.355153",
    "longitude": "-90.0731873336981",
    "latitude": "29.998723298478243",
    "geocoded_column": {
      "latitude": "29.998723298478243",
      "longitude": "-90.0731873336981"
    }
  },