[
  {
    "service_request": "2023-1039833",
    "request_type": "Mosquito, Termite & Rodent Control",
    "request_reason": "Non-Rodent Complaint (Mice, Possums, Snakes)",
    "date_created": "2023-10-01T22:57:44.000",
    "date_modified": "2023-10-01T22:57:44.000",
    "request_status": "Pending",
    "responsible_agency": "Mosquito, Termite & Rodent Control Board",
    "final_address": "5970 Patton St",
    "address_councildis": "A",
    "status": "Pending",
    "rowid": "1039833",
    "final_x": "3664520.61415",
    "final_y": "518463.007926",
    "longitude": "-90.12212116104004",
    "latitude": "29.920097727838552",
    "geocoded_column": {
      "latitude": "29.920097727838552",
      "longitude": "-90.12212116104004"
    }
  },
  {
    "service_request": "2023-1039832",
    "request_type": "Property Maintenance",
    "request_reason": "Property Maintenance",
    "date_created": "2023-10-01T22:25:32.000",
    "date_modified": "2023-10-01T22:25:32.000",
    "request_status": "Pending",
    "responsible_agency": "Department of Code Enforcement",
    "final_address": "4645 Kendall Dr",
    "address_councildis": "D",
    "status": "Pending",
    "rowid": "1039832",
    "final_x": "3690501.80752",
    "final_y": "550693.675989",
    "longitude": "-90.03896203996844",
    "latitude": "30.00794005883105",
    "geocoded_column": {
      "latitude": "30.00794005883105",
      "longitude": "-90.03896203996844"
    }
  },
  {
    "service_request": "2023-1039830",
    "request_type": "Trash/Recycling",
    "request_reason": "Request a Large Item Pick Up",
    "date_created": "2023-10-01T21:59:16.000",
    "date_modified": "2023-10-01T21:59:17.000",
    "request_status": "Pending",
    "responsible_agency": "Department of Sanitation",
    "final_address": "3615 Louisiana Avenue Prkwy",
    "address_councildis": "B",
    "status": "Assigned to Contractor",
    "contractor": "Richards Disposal",
    "rowid": "1039830",
    "final_x": "3671519.47835",
    "final_y": "528292.407616",
    "longitude": "-90.09969501316901",
    "latitude": "29.94692012518076",
    "geocoded_column": {
      "latitude": "29.94692012518076",
      "longitude": "-90.09969501316901"
    }
  },
  {
    "service_request": "2023-1039829",
    "request_type": "Traffic Signals/Signs/Striping/Streetlights",
    "request_reason": "Street Name Sign Damaged or Missing",
    "date_created": "2023-10-01T21:51:52.000",
    "date_modified": "2023-10-01T21:51:52.000",
    "request_status": "Pending",
    "responsible_agency": "Department of Public Works",
    "final_address": "1131 General Pershing St",
    "address_councildis": "B",
    "status": "Pending",
    "rowid": "1039829",
    "final_x": "3671416.3778",
    "final_y": "519794.4046",
    "longitude": "-90.10030926903697",
    "latitude": "29.923556415029356",
    "geocoded_column": {
      "latitude": "29.923556415029356",
      "longitude": "-90.10030926903697"
    }
  },
  {
    "service_request": "2023-1039828",
    "request_type": "Roads/Drainage",
    "request_reason": "Pothole",
    "date_created": "2023-10-01T21:50:17.000",
    "date_modified": "2023-10-01T21:50:17.000",
    "request_status": "Pending",
    "responsible_agency": "Department of Public Works",
    "final_address": "4200 BLK Perrier St",
    "address_councildis": "B",
    "status": "Pending",
    "rowid": "1039828",
    "final_x": "3671500.64253",
    "final_y": "520125.882108",
    "longitude": "-90.1000320136845",
    "latitude": "29.924465378806524",
    "geocoded_column": {
      "latitude": "29.924465378806524",
      "longitude": "-90.1000320136845"
    }
  },
  {
    "service_request": "2023-1039827",
    "request_type": "Trash/Recycling",
    "request_reason": "Replace Trash Cart",
    "date_created": "2023-10-01T21:35:04.000",
    "date_modified": "2023-10-01T21:35:05.000",
    "request_status": "Pending",
    "responsible_agency": "Department of Sanitation",
    "final_address": "4617 Palmyra St",
    "address_councildis": "A",
    "status": "Assigned to Contractor",
    "contractor": "Richards Disposal",
    "rowid": "1039827",
    "final_x": "3668830.28692",
    "final_y": "539121.90881",
    "longitude": "-90.10782010514752",
    "latitude": "29.976777003030886",
    "geocoded_column": {
      "latitude": "29.976777003030886",
      "longitude": "-90.10782010514752"
    }
  },
  {
    "service_request": "2023-1039826",
    "request_type": "Trash/Recycling",
    "request_reason": "MIssed Recycling Pick-Up",
    "date_created": "2023-10-01T21:19:43.000",
    "date_modified": "2023-10-01T21:19:44.000",
    "request_status": "Pending",
    "responsible_agency": "Department of Sanitation",
    "final_address": "920 Cadiz St",
    "address_councildis": "B",
    "status": "Assigned to Contractor",
    "contractor": "Richards Disposal",
    "rowid": "1039826",
    "final_x": "3670237.55028",
    "final_y": "518902.628535",
    "longitude": "-90.10406060069539",
    "latitude": "29.921139141639816",
    "geocoded_column": {
      "latitude": "29.921139141639816",
      "longitude": "-90.10406060069539"
    }
  },
  {
    "service_request": "2023-1039825",
    "request_type": "Property Maintenance",
    "request_reason": "Property Maintenance",
    "date_created": "2023-10-01T21:15:14.000",
    "date_modified": "2023-10-01T21:15:14.000",
    "request_status": "Pending",
    "responsible_agency": "Department of Code Enforcement",
    "final_address": "REPUBLIC ST & ST DENIS ST",
    "address_councildis": "D",
    "status": "Pending",
    "rowid": "1039825",
    "final_x": "3680431.3",
    "final_y": "545940.68",
    "longitude": "-90.07094322037945",
    "latitude": "29.995179967981958",
    "geocoded_column": {
      "latitude": "29.995179967981958",
      "longitude": "-90.07094322037945"
    }
  },
  {
    "service_request": "2023-1039824",
    "request_type": "Trash/Recycling",
    "request_reason": "Replace Recycling Cart",
    "date_created": "2023-10-01T21:02:29.000",
    "date_modified": "2023-10-01T21:02:29.000",
    "request_status": "Pending",
    "responsible_agency": "Department of Sanitation",
    "final_address": "920 Cadiz St",
    "address_councildis": "B",
    "status": "Pending",
    "rowid": "1039824",
    "final_x": "3670237.55028",
    "final_y": "518902.628535",
    "longitude": "-90.10406060069539",
    "latitude": "29.921139141639816",
    "geocoded_column": {
      "latitude": "29.921139141639816",
      "longitude": "-90.10406060069539"
    }
  },
  {
    "service_request": "2023-1039823",
    "request_type": "Traffic Signals/Signs/Striping/Streetlights",
    "request_reason": "Street Light Outage/Malfunction",
    "date_created": "2023-10-01T20:29:32.000",
    "date_modified": "2023-10-01T20:29:32.000",
    "request_status": "Pending",
    "responsible_agency": "Department of Public Works",
    "final_address": "1820 Andry St A",
    "address_councildis": "E",
    "status": "Assigned to Contractor",
    "contractor": "Legacy Professional Services",
    "rowid": "1039823",
    "final_x": "3697900.70608",
    "final_y": "536766.227144",
    "longitude": "-90.01609266027646",
    "latitude": "29.96941278631156",
    "geocoded_column": {
      "latitude": "29.96941278631156",
      "longitude": "-90.01609266027646"
    }
  },
  {
    "service_request": "2023-1039822",
    "request_type": "Abandoned Vehicles",
    "request_reason": "Abandoned/Junk Vehicles",
    "date_created": "2023-10-01T20:28:27.000",
    "date_modified": "2023-10-01T20:28:27.000",
    "request_status": "Pending",
    "responsible_agency": "Department of Public Works",
    "final_address": "312 Eliza St",
    "address_councildis": "C",
    "status": "Pending",
    "rowid": "1039822",
    "final_x": "3686426.2493",
    "final_y": "529547.186113",
    "longitude": "-90.05258466300924",
    "latitude": "29.94992062746649",
    "geocoded_column": {
      "latitude": "29.94992062746649",
      "longitude": "-90.05258466300924"
    }
  },
  {
    "service_request": "2023-1039821",
    "request_type": "Traffic Signals/Signs/Striping/Streetlights",
    "request_reason": "Street Light Outage/Malfunction",
    "date_created": "2023-10-01T20:19:46.000",
    "date_modified": "2023-10-01T20:19:47.000",
    "request_status": "Pending",
    "responsible_agency": "Department of Public Works",
    "final_address": "820 Andry St",
    "address_councildis": "E",
    "status": "Assigned to Contractor",
    "contractor": "Legacy Professional Services",
    "rowid": "1039821",
    "final_x": "3696862.65687",
    "final_y": "533021.958916",
    "longitude": "-90.01950646759126",
    "latitude": "29.959150151598674",
    "geocoded_column": {
      "latitude": "29.959150151598674",
      "longitude": "-90.01950646759126"
    }
  },
  {
    "service_request": "2023-1039820",
    "request_type": "Roads/Drainage",
    "request_reason": "Catch Basin - Broken/Damage",
    "date_created": "2023-10-01T20:16:23.000",
    "date_modified": "2023-10-01T20:16:23.000",
    "request_status": "Pending",
    "responsible_agency": "Department of Public Works",
    "final_address": "715 Jena St",
    "address_councildis": "B",
    "status": "Pending",
    "rowid": "1039820",
    "final_x": "3670751.81927",
    "final_y": "518188.93631",
    "longitude": "-90.10246147903574",
    "latitude": "29.91916153400933",
    "geocoded_column": {
      "latitude": "29.91916153400933",
      "longitude": "-90.10246147903574"
    }
  },
  {
    "service_request": "2023-1039819",
    "request_type": "Roads/Drainage",
    "request_reason": "Catch Basin - Clogged",
    "date_created": "2023-10-01T20:14:07.000",
    "date_modified": "2023-10-01T20:14:07.000",
    "request_status": "Pending",
    "responsible_agency": "Department of Public Works",
    "final_address": "2411 Lark St",
    "address_councildis": "D",
    "status": "Pending",
    "rowid": "1039819",
    "final_x": "3684733.50293",
    "final_y": "557983.515803",
    "longitude": "-90.0569292641928",
    "latitude": "30.028162345465997",
    "geocoded_column": {
      "latitude": "30.028162345465997",
      "longitude": "-90.0569292641928"
    }
  },
  {
    "service_request": "2023-1039818",
    "request_type": "Roads/Drainage",
    "request_reason": "Street Subsidence (Sinking)",
    "date_created": "2023-10-01T19:50:25.000",
    "date_modified": "2023-10-01T19:50:25.000",
    "request_status": "Pending",
    "responsible_agency": "Department of Public Works",
    "final_address": "5000 BLK Pontchartrain Blvd",
    "address_councildis": "A",
    "status": "Pending",
    "rowid": "1039818",
    "final_x": "3666939.22776",
    "final_y": "540401.179812",
    "longitude": "-90.11374968077287",
    "latitude": "29.980350045854163",
    "geocoded_column": {
      "latitude": "29.980350045854163",
      "longitude": "-90.11374968077287"
    }
  },
  {
    "service_request": "2023-1039817",
    "request_type": "Trash/Recycling",
    "request_reason": "Request a Large Item Pick Up",
    "date_created": "2023-10-01T19:49:38.000",
    "date_modified": "2023-10-01T19:49:39.000",
    "request_status": "Pending",
    "responsible_agency": "Department of Sanitation",
    "final_address": "1110 Tennessee St",
    "address_councildis": "E",
    "status": "Assigned to Contractor",
    "contractor": "Waste Pro",
    "rowid": "1039817",
    "final_x": "3695675.9496",
    "final_y": "534515.037061",
    "longitude": "-90.02319987215128",
    "latitude": "29.963292949694488",
    "geocoded_column": {
      "latitude": "29.963292949694488",
      "longitude": "-90.02319987215128"
    }
  },
  {
    "service_request": "2023-1039816",
    "request_type": "Trash/Recycling",
    "request_reason": "Return Trash Cart",
    "date_created": "2023-10-01T19:24:30.000",
    "date_modified": "2023-10-01T19:24:31.000",
    "request_status": "Pending",
    "responsible_agency": "Department of Sanitation",
    "final_address": "1510 Governor Nicholls St",
    "address_councildis": "C",
    "status": "Assigned to Contractor",
    "contractor": "Richards Disposal",
    "rowid": "1039816",
    "final_x": "3681342.56661",
    "final_y": "535740.742279",
    "longitude": "-90.06842031370492",
    "latitude": "29.967106063088643",
    "geocoded_column": {
      "latitude": "29.967106063088643",
      "longitude": "-90.06842031370492"
    }
  },
  {
    "service_request": "2023-1039815",
    "request_type": "Trash/Recycling",
    "request_reason": "Order Recycling Cart",
    "date_created": "2023-10-01T19:20:41.000",
    "date_modified": "2023-10-01T19:20:41.000",
    "request_status": "Pending",
    "responsible_agency": "Department of Sanitation",
    "final_address": "1510 Governor Hall St, Gretna, Louisiana, 70053",
    "status": "Pending",
    "rowid": "1039815",
    "longitude": "0.0",
    "latitude": "0.0",
    "geocoded_column": {
      "latitude": "0.0",
      "longitude": "0.0"
    }
  },
  {
    "service_request": "2023-1039813",
    "request_type": "Abandoned Vehicles",
    "request_reason": "Abandoned/Junk Vehicles",
    "date_created": "2023-10-01T19:03:07.000",
    "date_modified": "2023-10-01T19:03:07.000",
    "request_status": "Pending",
    "responsible_agency": "Department of Public Works",
    "final_address": "4223 Palmyra St, New Orleans, Louisiana, 70119",
    "address_councildis": "A",
    "status": "Pending",
    "rowid": "1039813",
    "final_x": "3669968.23438",
    "final_y": "538240.477833",
    "longitude": "-90.10425596111345",
    "latitude": "29.974319850889085",
    "geocoded_column": {
      "latitude": "29.974319850889085",
      "longitude": "-90.10425596111345"
    }
  },
  {
    "service_request": "2023-1039812",
    "request_type": "Trash/Recycling",
    "request_reason": "Order Recycling Cart",
    "date_created": "2023-10-01T18:58:48.000",
    "date_modified": "2023-10-01T18:58:48.000",
    "request_status": "Pending",
    "responsible_agency": "Department of Sanitation",
    "status": "Pending",
    "rowid": "1039812",
    "longitude": "0.0",
    "latitude": "0.0",
    "geocoded_column": {
      "latitude": "0.0",
      "longitude": "0.0"
    }
  },
  {
    "service_request": "2023-1039810",
    "request_type": "Property Maintenance",
    "request_reason": "Property Maintenance",
    "date_created": "2023-10-01T18:40:08.000",
    "date_modified": "2023-10-01T18:40:08.000",
    "request_status": "Pending",
    "responsible_agency": "Department of Code Enforcement",
    "final_address": "4901 Cardenas Dr",
    "address_councildis": "E",
    "status": "Pending",
    "rowid": "1039810",
    "final_x": "3713656.21951",
    "final_y": "557293.050459",
    "longitude": "-89.96556222012688",
    "latitude": "30.025346239619385",
    "geocoded_column": {
      "latitude": "30.025346239619385",
      "longitude": "-89.96556222012688"
    }
  },
  {
    "service_request": "2023-1039809",
    "request_type": "Trash/Recycling",
    "request_reason": "Request a Large Item Pick Up",
    "date_created": "2023-10-01T18:32:43.000",
    "date_modified": "2023-10-01T18:32:44.000",
    "request_status": "Pending",
    "responsible_agency": "Department of Sanitation",
    "final_address": "1117 Dublin St",
    "address_councildis": "A",
    "status": "Assigned to Contractor",
    "contractor": "Richards Disposal",
    "rowid": "1039809",
    "final_x": "3661591.56723",
    "final_y": "528432.696064",
    "longitude": "-90.13103660388168",
    "latitude": "29.947596041274178",
    "geocoded_column": {
      "latitude": "29.947596041274178",
      "longitude": "-90.13103660388168"
    }
  },
  {
    "service_request": "2023-1039808",
    "request_type": "Trash/Recycling",
    "request_reason": "Request a Large Item Pick Up",
    "date_created": "2023-10-01T18:30:18.000",
    "date_modified": "2023-10-01T18:30:19.000",
    "request_status": "Pending",
    "responsible_agency": "Department of Sanitation",
    "final_address": "3109 jefferson avenue",
    "address_councildis": "B",
    "status": "Assigned to Contractor",
    "contractor": "Richards Disposal",
    "rowid": "1039808",
    "final_x": "3668575.30721",
    "final_y": "526700.508926",
    "longitude": "-90.10904457947177",
    "latitude": "29.94262974978033",
    "geocoded_column": {
      "latitude": "29.94262974978033",
      "longitude": "-90.10904457947177"
    }
  },
  {
    "service_request": "2023-1039807",
    "request_type": "Abandoned Vehicles",
    "request_reason": "Abandoned/Junk Vehicles",
    "date_created": "2023-10-01T18:19:43.000",
    "date_modified": "2023-10-01T18:25:06.000",
    "request_status": "Pending",
    "responsible_agency": "Department of Public Works",
    "final_address": "2723 S Miro St",
    "address_councildis": "B",
    "status": "Pending",
    "rowid": "1039807",
    "final_x": "3672142.08487",
    "final_y": "528526.286848",
    "longitude": "-90.09772124776747",
    "latitude": "29.947544770253263",
    "geocoded_column": {
      "latitude": "29.947544770253263",
      "longitude": "-90.09772124776747"
    }
  },
  {
    "service_request": "2023-1039806",
    "request_type": "Trash/Recycling",
    "request_reason": "Replace Trash Cart",
    "date_created": "2023-10-01T18:19:08.000",
    "date_modified": "2023-10-01T18:19:09.000",
    "request_status": "Pending",
    "responsible_agency": "Department of Sanitation",
    "final_address": "379 Broadway St",
    "address_councildis": "A",
    "status": "Assigned to Contractor",
    "contractor": "Richards Disposal",
    "rowid": "1039806",
    "final_x": "3661969.83546",
    "final_y": "523108.048379",
    "longitude": "-90.13001881034904",
    "latitude": "29.932944031216223",
    "geocoded_column": {
      "latitude": "29.932944031216223",
      "longitude": "-90.13001881034904"
    }
  },
  {
    "service_request": "2023-1039805",
    "request_type": "Property Maintenance",
    "request_reason": "Property Maintenance",
    "date_created": "2023-10-01T18:14:19.000",
    "date_modified": "2023-10-01T18:14:19.000",
    "request_status": "Pending",
    "responsible_agency": "Department of Code Enforcement",
    "final_address": "1200 BLK Leboeuf St",
    "address_councildis": "C",
    "status": "Pending",
    "rowid": "1039805",
    "final_x": "3689715.39153",
    "final_y": "526865.701306",
    "longitude": "-90.0422947453701",
    "latitude": "29.942445964226888",
    "geocoded_column": {
      "latitude": "29.942445964226888",
      "longitude": "-90.0422947453701"
    }
  },
  {
    "service_request": "2023-1039804",
    "request_type": "Abandoned Vehicles",
    "request_reason": "Abandoned/Junk Vehicles",
    "date_created": "2023-10-01T18:12:21.000",
    "date_modified": "2023-10-01T18:12:21.000",
    "request_status": "Pending",
    "responsible_agency": "Department of Public Works",
    "final_address": "2723 S Miro St",
    "address_councildis": "B",
    "status": "Pending",
    "rowid": "1039804",
    "final_x": "3672142.08487",
    "final_y": "528526.286848",
    "longitude": "-90.09772124776747",
    "latitude": "29.947544770253263",
    "geocoded_column": {
      "latitude": "29.947544770253263",
      "longitude": "-90.09772124776747"
    }
  },
  {
    "service_request": "2023-1039803",
    "request_type": "Roads/Drainage",
    "request_reason": "Pothole",
    "date_created": "2023-10-01T18:04:37.000",
    "date_modified": "2023-10-01T18:04:37.000",
    "request_status": "Pending",
    "responsible_agency": "Department of Public Works",
    "final_address": "1220 Thayer St",
    "address_councildis": "C",
    "status": "Pending",
    "rowid": "1039803",
    "final_x": "3689443.45539",
    "final_y": "526909.011838",
    "longitude": "-90.04315176715076",
    "latitude": "29.942573475466236",
    "geocoded_column": {
      "latitude": "29.942573475466236",
      "longitude": "-90.04315176715076"
    }
  },
  {
    "service_request": "2023-1039802",
    "request_type": "Roads/Drainage",
    "request_reason": "WaterMain Break",
    "date_created": "2023-10-01T17:54:58.000",
    "date_modified": "2023-10-01T17:54:58.000",
    "request_status": "Pending",
    "responsible_agency": "Department of Public Works",
    "final_address": "829 Sister St",
    "address_councildis": "E",
    "status": "Pending",
    "rowid": "1039802",
    "final_x": "3694461.35709",
    "final_y": "533734.951685",
    "longitude": "-90.02706348277889",
    "latitude": "29.961186119817235",
    "geocoded_column": {
      "latitude": "29.961186119817235",
      "longitude": "-90.02706348277889"
    }
  },
  {
    "service_request": "2023-1039801",
    "request_type": "Abandoned Vehicles",
    "request_reason": "Abandoned/Junk Vehicles",
    "date_created": "2023-10-01T17:54:36.000",
    "date_modified": "2023-10-01T17:54:36.000",
    "request_status": "Pending",
    "responsible_agency": "Department of Public Works",
    "final_address": "1200 Leboeuf St",
    "address_councildis": "C",
    "status": "Pending",
    "rowid": "1039801",
    "final_x": "3689665.00969",
    "final_y": "527143.045951",
    "longitude": "-90.04244394692897",
    "latitude": "29.94321012815356",
    "geocoded_column": {
      "latitude": "29.94321012815356",
      "longitude": "-90.04244394692897"
    }
  },
  {
    "service_request": "2023-1039800",
    "request_type": "Roads/Drainage",
    "request_reason": "Street Subsidence (Sinking)",
    "date_created": "2023-10-01T17:51:33.000",
    "date_modified": "2023-10-01T17:51:33.000",
    "request_status": "Pending",
    "responsible_agency": "Department of Public Works",
    "status": "Pending",
    "rowid": "1039800",
    "longitude": "0.0",
    "latitude": "0.0",
    "geocoded_column": {
      "latitude": "0.0",
      "longitude": "0.0"
    }
  },
  {
    "service_request": "2023-1039798",
    "request_type": "Traffic Signals/Signs/Striping/Streetlights",
    "request_reason": "Street Name Sign Damaged or Missing",
    "date_created": "2023-10-01T17:32:50.000",
    "date_modified": "2023-10-01T17:32:50.000",
    "request_status": "Pending",
    "responsible_agency": "Department of Public Works",
    "final_address": "6410 Louisville St",
    "address_councildis": "A",
    "status": "Pending",
    "rowid": "1039798",
    "final_x": "3667948.59604",
    "final_y": "550236.777236",
    "longitude": "-90.11023005731896",
    "latitude": "30.007364983596077",
    "geocoded_column": {
      "latitude": "30.007364983596077",
      "longitude": "-90.11023005731896"
    }
  },
  {
    "service_request": "2023-1039797",
    "request_type": "Trash/Recycling",
    "request_reason": "Request a Large Item Pick Up",
    "date_created": "2023-10-01T17:28:51.000",
    "date_modified": "2023-10-01T17:28:52.000",
    "request_status": "Pending",
    "responsible_agency": "Department of Sanitation",
    "final_address": "2133 Onzaga St",
    "address_councildis": "D",
    "status": "Assigned to Contractor",
    "contractor": "IV Waste",
    "rowid": "1039797",
    "final_x": "3680807.52955",
    "final_y": "539353.582346",
    "longitude": "-90.06998416948773",
    "latitude": "29.97705635655137",
    "geocoded_column": {
      "latitude": "29.97705635655137",
      "longitude": "-90.06998416948773"
    }
  },
  {
    "service_request": "2023-1039796",
    "request_type": "Trash/Recycling",
    "request_reason": "Order Trash Cart",
    "date_created": "2023-10-01T17:27:45.000",
    "date_modified": "2023-10-01T17:27:46.000",
    "request_status": "Pending",
    "responsible_agency": "Department of Sanitation",
    "final_address": "7304 Plum St",
    "address_councildis": "A",
    "status": "Assigned to Contractor",
    "contractor": "Richards Disposal",
    "rowid": "1039796",
    "final_x": "3664029.21364",
    "final_y": "526968.166462",
    "longitude": "-90.12338879679001",
    "latitude": "29.943498500159254",
    "geocoded_column": {
      "latitude": "29.943498500159254",
      "longitude": "-90.12338879679001"
    }
  },
  {
    "service_request": "2023-1039795",
    "request_type": "Roads/Drainage",
    "request_reason": "Pothole",
    "date_created": "2023-10-01T17:17:41.000",
    "date_modified": "2023-10-01T17:17:41.000",
    "request_status": "Pending",
    "responsible_agency": "Department of Public Works",
    "final_address": "1520 Soniat St",
    "address_councildis": "B",
    "status": "Pending",
    "rowid": "1039795",
    "final_x": "3668354.97806",
    "final_y": "520640.520761",
    "longitude": "-90.10994448904981",
    "latitude": "29.92597319487051",
    "geocoded_column": {
      "latitude": "29.92597319487051",
      "longitude": "-90.10994448904981"
    }
  },
  {
    "service_request": "2023-1039794",
    "request_type": "Abandoned Vehicles",
    "request_reason": "Abandoned/Junk Vehicles",
    "date_created": "2023-10-01T17:06:30.000",
    "date_modified": "2023-10-01T17:06:30.000",
    "request_status": "Pending",
    "responsible_agency": "Department of Public Works",
    "final_address": "530 S Telemachus St",
    "address_councildis": "B",
    "status": "Pending",
    "rowid": "1039794",
    "final_x": "3671267.24257",
    "final_y": "535863.245511",
    "longitude": "-90.10023417346142",
    "latitude": "29.96774488546382",
    "geocoded_column": {
      "latitude": "29.96774488546382",
      "longitude": "-90.10023417346142"
    }
  },
  {
    "service_request": "2023-1039793",
    "request_type": "Abandoned Vehicles",
    "request_reason": "Abandoned/Junk Vehicles",
    "date_created": "2023-10-01T17:05:02.000",
    "date_modified": "2023-10-01T17:05:02.000",
    "request_status": "Pending",
    "responsible_agency": "Department of Public Works",
    "final_address": "530 S Telemachus St",
    "address_councildis": "B",
    "status": "Pending",
    "rowid": "1039793",
    "final_x": "3671267.24257",
    "final_y": "535863.245511",
    "longitude": "-90.10023417346142",
    "latitude": "29.96774488546382",
    "geocoded_column": {
      "latitude": "29.96774488546382",
      "longitude": "-90.10023417346142"
    }
  },
  {
    "service_request": "2023-1039792",
    "request_type": "Trash/Recycling",
    "request_reason": "Replace Trash Cart",
    "date_created": "2023-10-01T16:19:36.000",
    "date_modified": "2023-10-01T16:19:37.000",
    "request_status": "Pending",
    "responsible_agency": "Department of Sanitation",
    "final_address": "3718 Constance St",
    "address_councildis": "B",
    "status": "Assigned to Contractor",
    "contractor": "Richards Disposal",
    "rowid": "1039792",
    "final_x": "3673611.79867",
    "final_y": "518684.029623",
    "longitude": "-90.09341705495027",
    "latitude": "29.92043809668896",
    "geocoded_column": {
      "latitude": "29.92043809668896",
      "longitude": "-90.09341705495027"
    }
  },
  {
    "service_request": "2023-1039791",
    "request_type": "Roads/Drainage",
    "request_reason": "Pothole",
    "date_created": "2023-10-01T15:59:45.000",
    "date_modified": "2023-10-01T15:59:45.000",
    "request_status": "Pending",
    "responsible_agency": "Department of Public Works",
    "final_address": "1509 Upperline St",
    "address_councildis": "B",
    "status": "Pending",
    "rowid": "1039791",
    "final_x": "3669127.65575",
    "final_y": "520479.239608",
    "longitude": "-90.10751081191844",
    "latitude": "29.925507016314405",
    "geocoded_column": {
      "latitude": "29.925507016314405",
      "longitude": "-90.10751081191844"
    }
  },
  {
    "service_request": "2023-1039790",
    "request_type": "Traffic Signals/Signs/Striping/Streetlights",
    "request_reason": "Street Light Outage/Malfunction",
    "date_created": "2023-10-01T15:58:42.000",
    "date_modified": "2023-10-01T15:58:42.000",
    "request_status": "Pending",
    "responsible_agency": "Department of Public Works",
    "final_address": "6300 Arts St",
    "address_councildis": "D",
    "status": "Assigned to Contractor",
    "contractor": "Legacy Professional Services",
    "rowid": "1039790",
    "final_x": "3685533.97666",
    "final_y": "556360.830362",
    "longitude": "-90.0544570486002",
    "latitude": "30.023676021089237",
    "geocoded_column": {
      "latitude": "30.023676021089237",
      "longitude": "-90.0544570486002"
    }
  },
  {
    "service_request": "2023-1039789",
    "request_type": "Traffic Signals/Signs/Striping/Streetlights",
    "request_reason": "Street Light Outage/Malfunction",
    "date_created": "2023-10-01T15:57:20.000",
    "date_modified": "2023-10-01T15:57:21.000",
    "request_status": "Pending",
    "responsible_agency": "Department of Public Works",
    "final_address": "6300 Arts St",
    "address_councildis": "D",
    "status": "Assigned to Contractor",
    "contractor": "Legacy Professional Services",
    "rowid": "1039789",
    "final_x": "3685533.97666",
    "final_y": "556360.830362",
    "longitude": "-90.0544570486002",
    "latitude": "30.023676021089237",
    "geocoded_column": {
      "latitude": "30.023676021089237",
      "longitude": "-90.0544570486002"
    }
  },
  {
    "service_request": "2023-1039788",
    "request_type": "Trash/Recycling",
    "request_reason": "Request a Large Item Pick Up",
    "date_created": "2023-10-01T15:51:44.000",
    "date_modified": "2023-10-01T15:51:45.000",
    "request_status": "Pending",
    "responsible_agency": "Department of Sanitation",
    "final_address": "7231 Queensway Dr",
    "address_councildis": "E",
    "status": "Assigned to Contractor",
    "contractor": "Waste Pro",
    "rowid": "1039788",
    "final_x": "3718653.9285",
    "final_y": "570295.845159",
    "longitude": "-89.9492741141066",
    "latitude": "30.060933632641994",
    "geocoded_column": {
      "latitude": "30.060933632641994",
      "longitude": "-89.9492741141066"
    }
  },
  {
    "service_request": "2023-1039786",
    "request_type": "Roads/Drainage",
    "request_reason": "Pothole",
    "date_created": "2023-10-01T15:45:02.000",
    "date_modified": "2023-10-01T15:45:02.000",
    "request_status": "Pending",
    "responsible_agency": "Department of Public Works",
    "final_address": "4216 Chestnut St",
    "address_councildis": "B",
    "status": "Pending",
    "rowid": "1039786",
    "final_x": "3671574.31393",
    "final_y": "519539.203703",
    "longitude": "-90.09981939416457",
    "latitude": "29.922850019854593",
    "geocoded_column": {
      "latitude": "29.922850019854593",
      "longitude": "-90.09981939416457"
    }
  },
  {
    "service_request": "2023-1039785",
    "request_type": "Roads/Drainage",
    "request_reason": "Pothole",
    "date_created": "2023-10-01T15:35:35.000",
    "date_modified": "2023-10-01T15:35:35.000",
    "request_status": "Pending",
    "responsible_agency": "Department of Public Works",
    "final_address": "1315 Peniston St",
    "address_councildis": "B",
    "status": "Pending",
    "rowid": "1039785",
    "final_x": "3673101.31451",
    "final_y": "520423.11276",
    "longitude": "-90.09496908964098",
    "latitude": "29.925235197927364",
    "geocoded_column": {
      "latitude": "29.925235197927364",
      "longitude": "-90.09496908964098"
    }
  },
  {
    "service_request": "2023-1039784",
    "request_type": "Roads/Drainage",
    "request_reason": "Pothole",
    "date_created": "2023-10-01T15:33:55.000",
    "date_modified": "2023-10-01T15:33:55.000",
    "request_status": "Pending",
    "responsible_agency": "Department of Public Works",
    "final_address": "4738 Pitt St",
    "address_councildis": "B",
    "status": "Pending",
    "rowid": "1039784",
    "final_x": "3669528.70951",
    "final_y": "520393.63052",
    "longitude": "-90.10624769936872",
    "latitude": "29.925259815022585",
    "geocoded_column": {
      "latitude": "29.925259815022585",
      "longitude": "-90.10624769936872"
    }
  },
  {
    "service_request": "2023-1039783",
    "request_type": "Roads/Drainage",
    "request_reason": "Pothole",
    "date_created": "2023-10-01T15:31:26.000",
    "date_modified": "2023-10-01T15:31:26.000",
    "request_status": "Pending",
    "responsible_agency": "Department of Public Works",
    "final_address": "1421 Constantinople St",
    "address_councildis": "B",
    "status": "Pending",
    "rowid": "1039783",
    "final_x": "3672433.24257",
    "final_y": "520667.657465",
    "longitude": "-90.09706965638372",
    "latitude": "29.925927453713577",
    "geocoded_column": {
      "latitude": "29.925927453713577",
      "longitude": "-90.09706965638372"
    }
  },
  {
    "service_request": "2023-1039782",
    "request_type": "Roads/Drainage",
    "request_reason": "Pothole",
    "date_created": "2023-10-01T15:25:05.000",
    "date_modified": "2023-10-01T15:25:05.000",
    "request_status": "Pending",
    "responsible_agency": "Department of Public Works",
    "final_address": "1312 Milan St",
    "address_councildis": "B",
    "status": "Pending",
    "rowid": "1039782",
    "final_x": "3671625.82823",
    "final_y": "520286.919608",
    "longitude": "-90.09963137110304",
    "latitude": "29.92490447494246",
    "geocoded_column": {
      "latitude": "29.92490447494246",
      "longitude": "-90.09963137110304"
    }
  },
  {
    "service_request": "2023-1039781",
    "request_type": "Roads/Drainage",
    "request_reason": "Pothole",
    "date_created": "2023-10-01T15:16:04.000",
    "date_modified": "2023-10-01T15:16:04.000",
    "request_status": "Pending",
    "responsible_agency": "Department of Public Works",
    "final_address": "1423 General Pershing St",
    "address_councildis": "B",
    "status": "Pending",
    "rowid": "1039781",
    "final_x": "3671330.69185",
    "final_y": "520571.244024",
    "longitude": "-90.1005533659415",
    "latitude": "29.925695010510914",
    "geocoded_column": {
      "latitude": "29.925695010510914",
      "longitude": "-90.1005533659415"
    }
  },
  {
    "service_request": "2023-1039780",
    "request_type": "Trash/Recycling",
    "request_reason": "Order Recycling Cart",
    "date_created": "2023-10-01T14:42:09.000",
    "date_modified": "2023-10-01T14:42:09.000",
    "request_status": "Pending",
    "responsible_agency": "Department of Sanitation",
    "final_address": "4903 Iberville St",
    "address_councildis": "A",
    "status": "Pending",
    "rowid": "1039780",
    "final_x": "3668765.02151",
    "final_y": "540729.505035",
    "longitude": "-90.10797193780134",
    "latitude": "29.98119926875621",
    "geocoded_column": {
      "latitude": "29.98119926875621",
      "longitude": "-90.10797193780134"
    }
  },
  {
    "service_request": "2023-1039779",
    "request_type": "Trash/Recycling",
    "request_reason": "Return Recycling Cart",
    "date_created": "2023-10-01T14:39:04.000",
    "date_modified": "2023-10-01T14:39:04.000",
    "request_status": "Pending",
    "responsible_agency": "Department of Sanitation",
    "final_address": "4100 Laurel St",
    "address_councildis": "B",
    "status": "Pending",
    "rowid": "1039779",
    "final_x": "3672179.00993",
    "final_y": "518112.600374",
    "longitude": "-90.09795915336038",
    "latitude": "29.918909401977565",
    "geocoded_column": {
      "latitude": "29.918909401977565",
      "longitude": "-90.09795915336038"
    }
  },
  {
    "service_request": "2023-1039778",
    "request_type": "Traffic Signals/Signs/Striping/Streetlights",
    "request_reason": "Street Light Outage/Malfunction",
    "date_created": "2023-10-01T14:23:08.000",
    "date_modified": "2023-10-01T14:23:09.000",
    "request_status": "Pending",
    "responsible_agency": "Department of Public Works",
    "final_address": "BERKLEY DR & MANSFIELD AVE",
    "address_councildis": "C",
    "status": "Assigned to Contractor",
    "contractor": "Legacy Professional Services",
    "rowid": "1039778",
    "final_x": "3709049.7",
    "final_y": "517969.58",
    "longitude": "-89.98158385302145",
    "latitude": "29.9173716180973",
    "geocoded_column": {
      "latitude": "29.9173716180973",
      "longitude": "-89.98158385302145"
    }
  },
  {
    "service_request": "2023-1039777",
    "request_type": "Trash/Recycling",
    "request_reason": "Request a Large Item Pick Up",
    "date_created": "2023-10-01T14:12:54.000",
    "date_modified": "2023-10-01T14:12:55.000",
    "request_status": "Pending",
    "responsible_agency": "Department of Sanitation",
    "final_address": "1436 Elysian Fields Ave",
    "address_councildis": "C",
    "status": "Assigned to Contractor",
    "contractor": "IV Waste",
    "rowid": "1039777",
    "final_x": "3684796.55804",
    "final_y": "537704.707912",
    "longitude": "-90.05744354070043",
    "latitude": "29.972400992041294",
    "geocoded_column": {
      "latitude": "29.972400992041294",
      "longitude": "-90.05744354070043"
    }
  },
  {
    "service_request": "2023-1039776",
    "request_type": "Trash/Recycling",
    "request_reason": "Replace Recycling Cart",
    "date_created": "2023-10-01T13:48:13.000",
    "date_modified": "2023-10-01T13:48:13.000",
    "request_status": "Pending",
    "responsible_agency": "Department of Sanitation",
    "final_address": "7721 Belfast St",
    "address_councildis": "A",
    "status": "Pending",
    "rowid": "1039776",
    "final_x": "3666637.38177",
    "final_y": "531478.200771",
    "longitude": "-90.1150026982204",
    "latitude": "29.955823644445253",
    "geocoded_column": {
      "latitude": "29.955823644445253",
      "longitude": "-90.1150026982204"
    }
  },
  {
    "service_request": "2023-1039775",
    "request_type": "Trash/Recycling",
    "request_reason": "Replace Trash Cart",
    "date_created": "2023-10-01T13:45:48.000",
    "date_modified": "2023-10-01T13:45:48.000",
    "request_status": "Pending",
    "responsible_agency": "Department of Sanitation",
    "final_address": "7721 Belfast St",
    "address_councildis": "A",
    "status": "Assigned to Contractor",
    "contractor": "Richards Disposal",
    "rowid": "1039775",
    "final_x": "3666637.38177",
    "final_y": "531478.200771",
    "longitude": "-90.1150026982204",
    "latitude": "29.955823644445253",
    "geocoded_column": {
      "latitude": "29.955823644445253",
      "longitude": "-90.1150026982204"
    }
  },
  {
    "service_request": "2023-1039774",
    "request_type": "Abandoned Vehicles",
    "request_reason": "Abandoned/Junk Vehicles",
    "date_created": "2023-10-01T13:45:41.000",
    "date_modified": "2023-10-01T13:45:41.000",
    "request_status": "Pending",
    "responsible_agency": "Department of Public Works",
    "final_address": "1102 Valence St, New Orleans, Louisiana, 70115",
    "address_councildis": "B",
    "status": "Pending",
    "rowid": "1039774",
    "final_x": "3669814.65114",
    "final_y": "519454.991735",
    "longitude": "-90.10537682290095",
    "latitude": "29.922670433598512",
    "geocoded_column": {
      "latitude": "29.922670433598512",
      "longitude": "-90.10537682290095"
    }
  },
  {
    "service_request": "2023-1039773",
    "request_type": "Traffic Signals/Signs/Striping/Streetlights",
    "request_reason": "Street Light Outage/Malfunction",
    "date_created": "2023-10-01T13:44:53.000",
    "date_modified": "2023-10-01T13:44:53.000",
    "request_status": "Pending",
    "responsible_agency": "Department of Public Works",
    "final_address": "5945 Memphis St",
    "address_councildis": "A",
    "status": "Assigned to Contractor",
    "contractor": "Legacy Professional Services",
    "rowid": "1039773",
    "final_x": "3669246.90497",
    "final_y": "546928.432081",
    "longitude": "-90.10624025274686",
    "latitude": "29.998230015938244",
    "geocoded_column": {
      "latitude": "29.998230015938244",
      "longitude": "-90.10624025274686"
    }
  },
  {
    "service_request": "2023-1039772",
    "request_type": "Property Maintenance",
    "request_reason": "Property Maintenance",
    "date_created": "2023-10-01T13:44:22.000",
    "date_modified": "2023-10-01T13:44:22.000",
    "request_status": "Pending",
    "responsible_agency": "Department of Code Enforcement",
    "final_address": "1102 Valence St, New Orleans, Louisiana, 70115",
    "address_councildis": "B",
    "status": "Pending",
    "rowid": "1039772",
    "final_x": "3669814.65114",
    "final_y": "519454.991735",
    "longitude": "-90.10537682290095",
    "latitude": "29.922670433598512",
    "geocoded_column": {
      "latitude": "29.922670433598512",
      "longitude": "-90.10537682290095"
    }
  },
  {
    "service_request": "2023-1039771",
    "request_type": "Property Maintenance",
    "request_reason": "Property Maintenance",
    "date_created": "2023-10-01T13:43:10.000",
    "date_modified": "2023-10-01T13:43:10.000",
    "request_status": "Pending",
    "responsible_agency": "Department of Code Enforcement",
    "final_address": "1102 Valence St, New Orleans, Louisiana, 70115",
    "address_councildis": "B",
    "status": "Pending",
    "rowid": "1039771",
    "final_x": "3669814.65114",
    "final_y": "519454.991735",
    "longitude": "-90.10537682290095",
    "latitude": "29.922670433598512",
    "geocoded_column": {
      "latitude": "29.922670433598512",
      "longitude": "-90.10537682290095"
    }
  },
  {
    "service_request": "2023-1039769",
    "request_type": "Roads/Drainage",
    "request_reason": "Pothole",
    "date_created": "2023-10-01T13:26:31.000",
    "date_modified": "2023-10-01T13:26:31.000",
    "request_status": "Pending",
    "responsible_agency": "Department of Public Works",
    "final_address": "6034 Pitt St",
    "address_councildis": "A",
    "status": "Pending",
    "rowid": "1039769",
    "final_x": "3664975.2768",
    "final_y": "521175.853177",
    "longitude": "-90.12059537206552",
    "latitude": "29.927543978068122",
    "geocoded_column": {
      "latitude": "29.927543978068122",
      "longitude": "-90.12059537206552"
    }
  },
  {
    "service_request": "2023-1039768",
    "request_type": "Roads/Drainage",
    "request_reason": "Pothole",
    "date_created": "2023-10-01T13:20:26.000",
    "date_modified": "2023-10-01T13:20:26.000",
    "request_status": "Pending",
    "responsible_agency": "Department of Public Works",
    "final_address": "6030 Chestnut St",
    "address_councildis": "A",
    "status": "Pending",
    "rowid": "1039768",
    "final_x": "3664661.37773",
    "final_y": "519852.51884",
    "longitude": "-90.1216304547064",
    "latitude": "29.923914355909606",
    "geocoded_column": {
      "latitude": "29.923914355909606",
      "longitude": "-90.1216304547064"
    }
  },
  {
    "service_request": "2023-1039767",
    "request_type": "Roads/Drainage",
    "request_reason": "Pothole",
    "date_created": "2023-10-01T13:14:21.000",
    "date_modified": "2023-10-01T13:14:21.000",
    "request_status": "Pending",
    "responsible_agency": "Department of Public Works",
    "final_address": "6021 Magazine St",
    "address_councildis": "A",
    "status": "Pending",
    "rowid": "1039767",
    "final_x": "3664521.56852",
    "final_y": "519313.657527",
    "longitude": "-90.12208976495486",
    "latitude": "29.92243672062294",
    "geocoded_column": {
      "latitude": "29.92243672062294",
      "longitude": "-90.12208976495486"
    }
  },
  {
    "service_request": "2023-1039766",
    "request_type": "Trash/Recycling",
    "request_reason": "Repair Recycling Cart",
    "date_created": "2023-10-01T13:11:28.000",
    "date_modified": "2023-10-01T13:11:28.000",
    "request_status": "Pending",
    "responsible_agency": "Department of Sanitation",
    "final_address": "325 22Nd St",
    "address_councildis": "A",
    "status": "Pending",
    "rowid": "1039766",
    "final_x": "3664990.98349",
    "final_y": "549387.008467",
    "longitude": "-90.11960246612641",
    "latitude": "30.00511488942905",
    "geocoded_column": {
      "latitude": "30.00511488942905",
      "longitude": "-90.11960246612641"
    }
  },
  {
    "service_request": "2023-1039765",
    "request_type": "Trash/Recycling",
    "request_reason": "Missed Trash Pick-Up",
    "date_created": "2023-10-01T13:06:26.000",
    "date_modified": "2023-10-01T13:06:27.000",
    "request_status": "Pending",
    "responsible_agency": "Department of Sanitation",
    "final_address": "213 Helena St",
    "address_councildis": "A",
    "status": "Assigned to Contractor",
    "contractor": "Richards Disposal",
    "rowid": "1039765",
    "final_x": "3668539.15476",
    "final_y": "540986.318283",
    "longitude": "-90.10867666040778",
    "latitude": "29.981912057845687",
    "geocoded_column": {
      "latitude": "29.981912057845687",
      "longitude": "-90.10867666040778"
    }
  },
  {
    "service_request": "2023-1039764",
    "request_type": "Trash/Recycling",
    "request_reason": "Request a Large Item Pick Up",
    "date_created": "2023-10-01T12:24:44.000",
    "date_modified": "2023-10-01T12:24:44.000",
    "request_status": "Pending",
    "responsible_agency": "Department of Sanitation",
    "final_address": "13135 Cherbourg St",
    "address_councildis": "E",
    "status": "Assigned to Contractor",
    "contractor": "Waste Pro",
    "rowid": "1039764",
    "final_x": "3724712.84761",
    "final_y": "561284.82275",
    "longitude": "-89.93047099899937",
    "latitude": "30.03595445023929",
    "geocoded_column": {
      "latitude": "30.03595445023929",
      "longitude": "-89.93047099899937"
    }
  },
  {
    "service_request": "2023-1039763",
    "request_type": "Traffic Signals/Signs/Striping/Streetlights",
    "request_reason": "Street Light Outage/Malfunction",
    "date_created": "2023-10-01T12:03:50.000",
    "date_modified": "2023-10-01T12:03:51.000",
    "request_status": "Pending",
    "responsible_agency": "Department of Public Works",
    "final_address": "7832 Lafourche St",
    "address_councildis": "E",
    "status": "Assigned to Contractor",
    "contractor": "Legacy Professional Services",
    "rowid": "1039763",
    "final_x": "3709685.13803",
    "final_y": "566299.272355",
    "longitude": "-89.97777345907953",
    "latitude": "30.050239505840572",
    "geocoded_column": {
      "latitude": "30.050239505840572",
      "longitude": "-89.97777345907953"
    }
  },
  {
    "service_request": "2023-1039762",
    "request_type": "Trash/Recycling",
    "request_reason": "Request a Large Item Pick Up",
    "date_created": "2023-10-01T12:01:42.000",
    "date_modified": "2023-10-01T12:01:43.000",
    "request_status": "Pending",
    "responsible_agency": "Department of Sanitation",
    "final_address": "419 40Th St",
    "address_councildis": "A",
    "status": "Assigned to Contractor",
    "contractor": "IV Waste",
    "rowid": "1039762",
    "final_x": "3664901.37088",
    "final_y": "553418.939415",
    "longitude": "-90.11975066450154",
    "latitude": "30.016203906580778",
    "geocoded_column": {
      "latitude": "30.016203906580778",
      "longitude": "-90.11975066450154"
    }
  },
  {
    "service_request": "2023-1039761",
    "request_type": "Trash/Recycling",
    "request_reason": "Missed Trash Pick-Up",
    "date_created": "2023-10-01T12:00:08.000",
    "date_modified": "2023-10-01T12:00:09.000",
    "request_status": "Pending",
    "responsible_agency": "Department of Sanitation",
    "final_address": "725 St James St",
    "address_councildis": "B",
    "status": "Assigned to Contractor",
    "contractor": "Richards Disposal",
    "rowid": "1039761",
    "final_x": "3681137.01122",
    "final_y": "522120.590458",
    "longitude": "-90.06954385976285",
    "latitude": "29.92966146145437",
    "geocoded_column": {
      "latitude": "29.92966146145437",
      "longitude": "-90.06954385976285"
    }
  },
  {
    "service_request": "2023-1039760",
    "request_type": "Roads/Drainage",
    "request_reason": "Pothole",
    "date_created": "2023-10-01T11:42:07.000",
    "date_modified": "2023-10-01T11:42:07.000",
    "request_status": "Pending",
    "responsible_agency": "Department of Public Works",
    "final_address": "1212 Joseph St",
    "address_councildis": "A",
    "status": "Pending",
    "rowid": "1039760",
    "final_x": "3666402.38599",
    "final_y": "520329.90636",
    "longitude": "-90.11611868770781",
    "latitude": "29.92517628250779",
    "geocoded_column": {
      "latitude": "29.92517628250779",
      "longitude": "-90.11611868770781"
    }
  },
  {
    "service_request": "2023-1039759",
    "request_type": "Roads/Drainage",
    "request_reason": "Pothole",
    "date_created": "2023-10-01T11:38:09.000",
    "date_modified": "2023-10-01T11:38:09.000",
    "request_status": "Pending",
    "responsible_agency": "Department of Public Works",
    "final_address": "1212 Joseph St",
    "address_councildis": "A",
    "status": "Pending",
    "rowid": "1039759",
    "final_x": "3666402.38599",
    "final_y": "520329.90636",
    "longitude": "-90.11611868770781",
    "latitude": "29.92517628250779",
    "geocoded_column": {
      "latitude": "29.92517628250779",
      "longitude": "-90.11611868770781"
    }
  },
  {
    "service_request": "2023-1039758",
    "request_type": "Roads/Drainage",
    "request_reason": "Pothole",
    "date_created": "2023-10-01T10:44:56.000",
    "date_modified": "2023-10-01T10:44:56.000",
    "request_status": "Pending",
    "responsible_agency": "Department of Public Works",
    "final_address": "2230 Sere St",
    "address_councildis": "D",
    "status": "Pending",
    "rowid": "1039758",
    "final_x": "3684731.09071",
    "final_y": "545883.480144",
    "longitude": "-90.0573626633846",
    "latitude": "29.994891733355193",
    "geocoded_column": {
      "latitude": "29.994891733355193",
      "longitude": "-90.0573626633846"
    }
  },
  {
    "service_request": "2023-1039757",
    "request_type": "Roads/Drainage",
    "request_reason": "Pothole",
    "date_created": "2023-10-01T10:44:39.000",
    "date_modified": "2023-10-01T10:44:39.000",
    "request_status": "Pending",
    "responsible_agency": "Department of Public Works",
    "final_address": "2230 Sere St",
    "address_councildis": "D",
    "status": "Pending",
    "rowid": "1039757",
    "final_x": "3684731.09071",
    "final_y": "545883.480144",
    "longitude": "-90.0573626633846",
    "latitude": "29.994891733355193",
    "geocoded_column": {
      "latitude": "29.994891733355193",
      "longitude": "-90.0573626633846"
    }
  },
  {
    "service_request": "2023-1039756",
    "request_type": "Trash/Recycling",
    "request_reason": "Order Recycling Cart",
    "date_created": "2023-10-01T10:29:03.000",
    "date_modified": "2023-10-01T10:29:03.000",
    "request_status": "Pending",
    "responsible_agency": "Department of Sanitation",
    "final_address": "3857 Jena St",
    "address_councildis": "B",
    "status": "Pending",
    "rowid": "1039756",
    "final_x": "3669771.83137",
    "final_y": "528896.797376",
    "longitude": "-90.10519254093268",
    "latitude": "29.948633620568273",
    "geocoded_column": {
      "latitude": "29.948633620568273",
      "longitude": "-90.10519254093268"
    }
  },
  {
    "service_request": "2023-1039755",
    "request_type": "Trash/Recycling",
    "request_reason": "Replace Trash Cart",
    "date_created": "2023-10-01T10:26:13.000",
    "date_modified": "2023-10-01T10:26:13.000",
    "request_status": "Pending",
    "responsible_agency": "Department of Sanitation",
    "final_address": "7710 Dorsett Dr",
    "address_councildis": "E",
    "status": "Assigned to Contractor",
    "contractor": "Waste Pro",
    "rowid": "1039755",
    "final_x": "3712607.2604",
    "final_y": "567640.529892",
    "longitude": "-89.96848728339911",
    "latitude": "30.053832041532385",
    "geocoded_column": {
      "latitude": "30.053832041532385",
      "longitude": "-89.96848728339911"
    }
  },
  {
    "service_request": "2023-1039754",
    "request_type": "Trash/Recycling",
    "request_reason": "Request a Large Item Pick Up",
    "date_created": "2023-10-01T10:17:19.000",
    "date_modified": "2023-10-01T10:17:20.000",
    "request_status": "Pending",
    "responsible_agency": "Department of Sanitation",
    "final_address": "311 Spencer Ave",
    "address_councildis": "A",
    "status": "Assigned to Contractor",
    "contractor": "IV Waste",
    "rowid": "1039754",
    "final_x": "3665334.31245",
    "final_y": "553706.261463",
    "longitude": "-90.11837312739662",
    "latitude": "30.016981326187015",
    "geocoded_column": {
      "latitude": "30.016981326187015",
      "longitude": "-90.11837312739662"
    }
  },
  {
    "service_request": "2023-1039753",
    "request_type": "Trash/Recycling",
    "request_reason": "Request a Large Item Pick Up",
    "date_created": "2023-10-01T10:14:51.000",
    "date_modified": "2023-10-01T10:14:51.000",
    "request_status": "Pending",
    "responsible_agency": "Department of Sanitation",
    "final_address": "5919 West End Blvd",
    "address_councildis": "A",
    "status": "Assigned to Contractor",
    "contractor": "IV Waste",
    "rowid": "1039753",
    "final_x": "3666518.69415",
    "final_y": "547315.600017",
    "longitude": "-90.11484567719323",
    "latitude": "29.99937464808035",
    "geocoded_column": {
      "latitude": "29.99937464808035",
      "longitude": "-90.11484567719323"
    }
  },
  {
    "service_request": "2023-1039752",
    "request_type": "Trash/Recycling",
    "request_reason": "Order Trash Cart",
    "date_created": "2023-10-01T10:14:40.000",
    "date_modified": "2023-10-01T10:14:41.000",
    "request_status": "Pending",
    "responsible_agency": "Department of Sanitation",
    "final_address": "8509 Sycamore St",
    "address_councildis": "A",
    "status": "Assigned to Contractor",
    "contractor": "Richards Disposal",
    "rowid": "1039752",
    "final_x": "3663226.76039",
    "final_y": "532025.120771",
    "longitude": "-90.12575409842984",
    "latitude": "29.957426769839387",
    "geocoded_column": {
      "latitude": "29.957426769839387",
      "longitude": "-90.12575409842984"
    }
  },
  {
    "service_request": "2023-1039751",
    "request_type": "Property Maintenance",
    "request_reason": "Property Maintenance",
    "date_created": "2023-10-01T10:13:34.000",
    "date_modified": "2023-10-01T10:13:34.000",
    "request_status": "Pending",
    "responsible_agency": "Department of Code Enforcement",
    "final_address": " & BALDWIN ST",
    "address_councildis": "D",
    "status": "Pending",
    "rowid": "1039751",
    "final_x": "3687880.8",
    "final_y": "560035.64",
    "longitude": "-90.04691121641319",
    "latitude": "30.03370814054373",
    "geocoded_column": {
      "latitude": "30.03370814054373",
      "longitude": "-90.04691121641319"
    }
  },
  {
    "service_request": "2023-1039750",
    "request_type": "Abandoned Vehicles",
    "request_reason": "Vehicle Blocking Your Driveway",
    "date_created": "2023-10-01T10:04:07.000",
    "date_modified": "2023-10-01T10:04:07.000",
    "request_status": "Pending",
    "responsible_agency": "Department of Public Works",
    "final_address": "4134 Annunciation St",
    "address_councildis": "B",
    "status": "Pending",
    "rowid": "1039750",
    "final_x": "3671975.82804",
    "final_y": "517801.141046",
    "longitude": "-90.09861108863142",
    "latitude": "29.918059009576517",
    "geocoded_column": {
      "latitude": "29.918059009576517",
      "longitude": "-90.09861108863142"
    }
  },
  {
    "service_request": "2023-1039749",
    "request_type": "Traffic Signals/Signs/Striping/Streetlights",
    "request_reason": "Traffic Signal Malfunctioning/Damaged",
    "date_created": "2023-10-01T09:57:14.000",
    "date_modified": "2023-10-01T09:57:14.000",
    "request_status": "Pending",
    "responsible_agency": "Department of Public Works",
    "final_address": "5726 St Charles Ave",
    "address_councildis": "A",
    "status": "Pending",
    "rowid": "1039749",
    "final_x": "3666288.55757",
    "final_y": "522017.200314",
    "longitude": "-90.1164214428881",
    "latitude": "29.929819131740146",
    "geocoded_column": {
      "latitude": "29.929819131740146",
      "longitude": "-90.1164214428881"
    }
  },
  {
    "service_request": "2023-1039748",
    "request_type": "Roads/Drainage",
    "request_reason": "Damaged Sidewalk",
    "date_created": "2023-10-01T09:56:33.000",
    "date_modified": "2023-10-01T09:56:33.000",
    "request_status": "Pending",
    "responsible_agency": "Department of Public Works",
    "final_address": "4100 BLK Camp St",
    "address_councildis": "B",
    "status": "Pending",
    "rowid": "1039748",
    "final_x": "3671946.7522",
    "final_y": "519238.392085",
    "longitude": "-90.09865398189187",
    "latitude": "29.922011854179697",
    "geocoded_column": {
      "latitude": "29.922011854179697",
      "longitude": "-90.09865398189187"
    }
  },
  {
    "service_request": "2023-1039747",
    "request_type": "Trash/Recycling",
    "request_reason": "Request a Large Item Pick Up",
    "date_created": "2023-10-01T09:39:26.000",
    "date_modified": "2023-10-01T09:39:27.000",
    "request_status": "Pending",
    "responsible_agency": "Department of Sanitation",
    "final_address": "31 Honeysuckle Ln",
    "address_councildis": "E",
    "status": "Assigned to Contractor",
    "contractor": "Waste Pro",
    "rowid": "1039747",
    "final_x": "3713101.01355",
    "final_y": "568474.356453",
    "longitude": "-89.96689523863546",
    "latitude": "30.05610854322975",
    "geocoded_column": {
      "latitude": "30.05610854322975",
      "longitude": "-89.96689523863546"
    }
  },
  {
    "service_request": "2023-1039745",
    "request_type": "Trash/Recycling",
    "request_reason": "Replace Trash Cart",
    "date_created": "2023-10-01T09:14:10.000",
    "date_modified": "2023-10-01T09:14:11.000",
    "request_status": "Pending",
    "responsible_agency": "Department of Sanitation",
    "final_address": "4525 S Galvez St",
    "address_councildis": "B",
    "status": "Assigned to Contractor",
    "contractor": "Richards Disposal",
    "rowid": "1039745",
    "final_x": "3669571.38612",
    "final_y": "527527.398655",
    "longitude": "-90.10587175084154",
    "latitude": "29.944874126346154",
    "geocoded_column": {
      "latitude": "29.944874126346154",
      "longitude": "-90.10587175084154"
    }
  },
  {
    "service_request": "2023-1039744",
    "request_type": "Traffic Signals/Signs/Striping/Streetlights",
    "request_reason": "Request for Stop Sign",
    "date_created": "2023-10-01T09:10:05.000",
    "date_modified": "2023-10-01T09:10:05.000",
    "request_status": "Pending",
    "responsible_agency": "Department of Public Works",
    "final_address": "3063 Grand-Route St John St",
    "address_councildis": "A",
    "status": "Pending",
    "rowid": "1039744",
    "final_x": "3676654.37723",
    "final_y": "540366.011019",
    "longitude": "-90.08306628306927",
    "latitude": "29.97996544192313",
    "geocoded_column": {
      "latitude": "29.97996544192313",
      "longitude": "-90.08306628306927"
    }
  },
  {
    "service_request": "2023-1039743",
    "request_type": "Roads/Drainage",
    "request_reason": "Street Subsidence (Sinking)",
    "date_created": "2023-10-01T09:09:33.000",
    "date_modified": "2023-10-01T09:09:33.000",
    "request_status": "Pending",
    "responsible_agency": "Department of Public Works",
    "final_address": "1029 Port St",
    "address_councildis": "C",
    "status": "Pending",
    "rowid": "1039743",
    "final_x": "3687396.0767",
    "final_y": "536185.994503",
    "longitude": "-90.04928757534358",
    "latitude": "29.968145215056435",
    "geocoded_column": {
      "latitude": "29.968145215056435",
      "longitude": "-90.04928757534358"
    }
  },
  {
    "service_request": "2023-1039742",
    "request_type": "Roads/Drainage",
    "request_reason": "Pothole",
    "date_created": "2023-10-01T09:07:48.000",
    "date_modified": "2023-10-01T09:07:48.000",
    "request_status": "Pending",
    "responsible_agency": "Department of Public Works",
    "final_address": "3500 BLK Coliseum St",
    "address_councildis": "B",
    "status": "Pending",
    "rowid": "1039742",
    "final_x": "3673973.75307",
    "final_y": "520335.973551",
    "longitude": "-90.09221805301377",
    "latitude": "29.924969637995684",
    "geocoded_column": {
      "latitude": "29.924969637995684",
      "longitude": "-90.09221805301377"
    }
  },
  {
    "service_request": "2023-1039741",
    "request_type": "Roads/Drainage",
    "request_reason": "Pothole",
    "date_created": "2023-10-01T09:03:34.000",
    "date_modified": "2023-10-01T09:03:34.000",
    "request_status": "Pending",
    "responsible_agency": "Department of Public Works",
    "final_address": "1298 Constantinople St",
    "address_councildis": "B",
    "status": "Pending",
    "rowid": "1039741",
    "final_x": "3672375.36027",
    "final_y": "520191.329336",
    "longitude": "-90.0972685943304",
    "latitude": "29.92461942099233",
    "geocoded_column": {
      "latitude": "29.92461942099233",
      "longitude": "-90.0972685943304"
    }
  },
  {
    "service_request": "2023-1039740",
    "request_type": "Roads/Drainage",
    "request_reason": "Pothole",
    "date_created": "2023-10-01T09:03:28.000",
    "date_modified": "2023-10-01T09:03:28.000",
    "request_status": "Pending",
    "responsible_agency": "Department of Public Works",
    "final_address": "1298 Constantinople St",
    "address_councildis": "B",
    "status": "Pending",
    "rowid": "1039740",
    "final_x": "3672375.36027",
    "final_y": "520191.329336",
    "longitude": "-90.0972685943304",
    "latitude": "29.92461942099233",
    "geocoded_column": {
      "latitude": "29.92461942099233",
      "longitude": "-90.0972685943304"
    }
  },
  {
    "service_request": "2023-1039739",
    "request_type": "Traffic Signals/Signs/Striping/Streetlights",
    "request_reason": "Traffic Signal Malfunctioning/Damaged",
    "date_created": "2023-10-01T09:02:15.000",
    "date_modified": "2023-10-01T09:02:15.000",
    "request_status": "Pending",
    "responsible_agency": "Department of Public Works",
    "final_address": "BUNDY RD & LAKE FOREST BLVD",
    "address_councildis": "E",
    "status": "Pending",
    "rowid": "1039739",
    "final_x": "3708214.2",
    "final_y": "558529.28",
    "longitude": "-89.9827119934669",
    "latitude": "30.028922880634006",
    "geocoded_column": {
      "latitude": "30.028922880634006",
      "longitude": "-89.9827119934669"
    }
  },
  {
    "service_request": "2023-1039738",
    "request_type": "Roads/Drainage",
    "request_reason": "Road Shoulder Repair",
    "date_created": "2023-10-01T08:49:37.000",
    "date_modified": "2023-10-01T08:49:37.000",
    "request_status": "Pending",
    "responsible_agency": "Department of Public Works",
    "final_address": "4934 Prytania St",
    "address_councildis": "B",
    "status": "Pending",
    "rowid": "1039738",
    "final_x": "3668756.67706",
    "final_y": "520104.602936",
    "longitude": "-90.10869452018675",
    "latitude": "29.924487791871304",
    "geocoded_column": {
      "latitude": "29.924487791871304",
      "longitude": "-90.10869452018675"
    }
  },
  {
    "service_request": "2023-1039737",
    "request_type": "Trash/Recycling",
    "request_reason": "MIssed Recycling Pick-Up",
    "date_created": "2023-10-01T08:46:42.000",
    "date_modified": "2023-10-01T08:46:43.000",
    "request_status": "Pending",
    "responsible_agency": "Department of Sanitation",
    "final_address": "3535 Broadway St",
    "address_councildis": "B",
    "status": "Assigned to Contractor",
    "contractor": "Richards Disposal",
    "rowid": "1039737",
    "final_x": "3668928.37338",
    "final_y": "533484.118148",
    "longitude": "-90.10770077508288",
    "latitude": "29.961272076759236",
    "geocoded_column": {
      "latitude": "29.961272076759236",
      "longitude": "-90.10770077508288"
    }
  },
  {
    "service_request": "2023-1039736",
    "request_type": "Roads/Drainage",
    "request_reason": "Pothole",
    "date_created": "2023-10-01T08:44:54.000",
    "date_modified": "2023-10-01T08:44:54.000",
    "request_status": "Pending",
    "responsible_agency": "Department of Public Works",
    "final_address": "1298 Constantinople St",
    "address_councildis": "B",
    "status": "Pending",
    "rowid": "1039736",
    "final_x": "3672375.36027",
    "final_y": "520191.329336",
    "longitude": "-90.0972685943304",
    "latitude": "29.92461942099233",
    "geocoded_column": {
      "latitude": "29.92461942099233",
      "longitude": "-90.0972685943304"
    }
  },
  {
    "service_request": "2023-1039735",
    "request_type": "Mosquito, Termite & Rodent Control",
    "request_reason": "Non-Rodent Complaint (Mice, Possums, Snakes)",
    "date_created": "2023-10-01T08:41:35.000",
    "date_modified": "2023-10-01T08:41:35.000",
    "request_status": "Pending",
    "responsible_agency": "Mosquito, Termite & Rodent Control Board",
    "final_address": "2014 Frenchmen St",
    "address_councildis": "D",
    "status": "Pending",
    "rowid": "1039735",
    "final_x": "3684281.82517",
    "final_y": "539720.817354",
    "longitude": "-90.05899834217095",
    "latitude": "29.97796033882498",
    "geocoded_column": {
      "latitude": "29.97796033882498",
      "longitude": "-90.05899834217095"
    }
  },
  {
    "service_request": "2023-1039734",
    "request_type": "Traffic Signals/Signs/Striping/Streetlights",
    "request_reason": "Street Light Knocked Down/Leaning",
    "date_created": "2023-10-01T08:28:45.000",
    "date_modified": "2023-10-01T08:28:46.000",
    "request_status": "Pending",
    "responsible_agency": "Department of Public Works",
    "final_address": "5726 St Charles Ave",
    "address_councildis": "A",
    "status": "Pending",
    "contractor": "Legacy Professional Services",
    "rowid": "1039734",
    "final_x": "3666288.55757",
    "final_y": "522017.200314",
    "longitude": "-90.1164214428881",
    "latitude": "29.929819131740146",
    "geocoded_column": {
      "latitude": "29.929819131740146",
      "longitude": "-90.1164214428881"
    }
  },
  {
    "service_request": "2023-1039733",
    "request_type": "Traffic Signals/Signs/Striping/Streetlights",
    "request_reason": "Street Light Knocked Down/Leaning",
    "date_created": "2023-10-01T08:26:38.000",
    "date_modified": "2023-10-01T08:26:39.000",
    "request_status": "Pending",
    "responsible_agency": "Department of Public Works",
    "final_address": "5726 St Charles Ave",
    "address_councildis": "A",
    "status": "Pending",
    "contractor": "Legacy Professional Services",
    "rowid": "1039733",
    "final_x": "3666288.55757",
    "final_y": "522017.200314",
    "longitude": "-90.1164214428881",
    "latitude": "29.929819131740146",
    "geocoded_column": {
      "latitude": "29.929819131740146",
      "longitude": "-90.1164214428881"
    }
  },
  {
    "service_request": "2023-1039732",
    "request_type": "Roads/Drainage",
    "request_reason": "Pothole",
    "date_created": "2023-10-01T08:20:13.000",
    "date_modified": "2023-10-01T08:20:13.000",
    "request_status": "Pending",
    "responsible_agency": "Department of Public Works",
    "final_address": "1727 Bordeaux St",
    "address_councildis": "B",
    "status": "Pending",
    "rowid": "1039732",
    "final_x": "3669423.18746",
    "final_y": "521314.262521",
    "longitude": "-90.10654968566124",
    "latitude": "29.92779436673298",
    "geocoded_column": {
      "latitude": "29.92779436673298",
      "longitude": "-90.10654968566124"
    }
  },
  {
    "service_request": "2023-1039731",
    "request_type": "Roads/Drainage",
    "request_reason": "Street Subsidence (Sinking)",
    "date_created": "2023-10-01T08:15:50.000",
    "date_modified": "2023-10-01T08:15:50.000",
    "request_status": "Pending",
    "responsible_agency": "Department of Public Works",
    "final_address": "1829 Bordeaux St",
    "address_councildis": "B",
    "status": "Pending",
    "rowid": "1039731",
    "final_x": "3669329.725",
    "final_y": "521672.549241",
    "longitude": "-90.1068326189762",
    "latitude": "29.92878229206484",
    "geocoded_column": {
      "latitude": "29.92878229206484",
      "longitude": "-90.1068326189762"
    }
  },
  {
    "service_request": "2023-1039730",
    "request_type": "Property Maintenance",
    "request_reason": "Property Maintenance",
    "date_created": "2023-10-01T08:11:51.000",
    "date_modified": "2023-10-01T08:11:51.000",
    "request_status": "Pending",
    "responsible_agency": "Department of Code Enforcement",
    "final_address": "1704 Gentilly Blvd",
    "address_councildis": "D",
    "status": "Pending",
    "rowid": "1039730",
    "final_x": "3678658.71035",
    "final_y": "541529.097292",
    "longitude": "-90.07669548037256",
    "latitude": "29.98310323849235",
    "geocoded_column": {
      "latitude": "29.98310323849235",
      "longitude": "-90.07669548037256"
    }
  },
  {
    "service_request": "2023-1039729",
    "request_type": "Roads/Drainage",
    "request_reason": "Pothole",
    "date_created": "2023-10-01T08:10:58.000",
    "date_modified": "2023-10-01T08:10:58.000",
    "request_status": "Pending",
    "responsible_agency": "Department of Public Works",
    "final_address": "4739 Dryades St",
    "address_councildis": "B",
    "status": "Pending",
    "rowid": "1039729",
    "final_x": "3669310.42426",
    "final_y": "521851.683194",
    "longitude": "-90.10688749493693",
    "latitude": "29.92927542130942",
    "geocoded_column": {
      "latitude": "29.92927542130942",
      "longitude": "-90.10688749493693"
    }
  },
  {
    "service_request": "2023-1039727",
    "request_type": "Trash/Recycling",
    "request_reason": "Order Trash Cart",
    "date_created": "2023-10-01T08:03:39.000",
    "date_modified": "2023-10-01T08:03:40.000",
    "request_status": "Pending",
    "responsible_agency": "Department of Sanitation",
    "final_address": "1129 Lowerline St",
    "address_councildis": "A",
    "status": "Assigned to Contractor",
    "contractor": "Richards Disposal",
    "rowid": "1039727",
    "final_x": "3663644.79885",
    "final_y": "526701.583166",
    "longitude": "-90.1246113786",
    "latitude": "29.942776637243345",
    "geocoded_column": {
      "latitude": "29.942776637243345",
      "longitude": "-90.1246113786"
    }
  },
  {
    "service_request": "2023-1039726",
    "request_type": "Trash/Recycling",
    "request_reason": "Request a Large Item Pick Up",
    "date_created": "2023-10-01T08:03:22.000",
    "date_modified": "2023-10-01T08:03:23.000",
    "request_status": "Pending",
    "responsible_agency": "Department of Sanitation",
    "final_address": "4848 Eastview Dr",
    "address_councildis": "E",
    "status": "Assigned to Contractor",
    "contractor": "Waste Pro",
    "rowid": "1039726",
    "final_x": "3704976.11012",
    "final_y": "556033.546457",
    "longitude": "-89.99303640942786",
    "latitude": "30.022165132281128",
    "geocoded_column": {
      "latitude": "30.022165132281128",
      "longitude": "-89.99303640942786"
    }
  },
  {
    "service_request": "2023-1039725",
    "request_type": "Roads/Drainage",
    "request_reason": "Pothole",
    "date_created": "2023-10-01T07:34:29.000",
    "date_modified": "2023-10-01T07:34:29.000",
    "request_status": "Pending",
    "responsible_agency": "Department of Public Works",
    "final_address": "5368 St Bernard Ave",
    "address_councildis": "D",
    "status": "Pending",
    "rowid": "1039725",
    "final_x": "3676753.1572",
    "final_y": "551954.776214",
    "longitude": "-90.08235468867035",
    "latitude": "30.011827510663093",
    "geocoded_column": {
      "latitude": "30.011827510663093",
      "longitude": "-90.08235468867035"
    }
  },
  {
    "service_request": "2023-1039724",
    "request_type": "Mosquito, Termite & Rodent Control",
    "request_reason": "Non-Rodent Complaint (Mice, Possums, Snakes)",
    "date_created": "2023-10-01T06:06:19.000",
    "date_modified": "2023-10-01T06:06:19.000",
    "request_status": "Pending",
    "responsible_agency": "Mosquito, Termite & Rodent Control Board",
    "final_address": "3116 Blair St",
    "address_councildis": "C",
    "status": "Pending",
    "rowid": "1039724",
    "final_x": "3709557.90379",
    "final_y": "519345.676407",
    "longitude": "-89.97992845295894",
    "latitude": "29.921138906718017",
    "geocoded_column": {
      "latitude": "29.921138906718017",
      "longitude": "-89.97992845295894"
    }
  },
  {
    "service_request": "2023-1039723",
    "request_type": "Roads/Drainage",
    "request_reason": "Street Flooding / Drainage",
    "date_created": "2023-10-01T00:17:30.000",
    "date_modified": "2023-10-01T00:17:30.000",
    "request_status": "Pending",
    "responsible_agency": "Department of Public Works",
    "final_address": "5600 BLK Lewis Rd",
    "address_councildis": "D",
    "status": "Pending",
    "rowid": "1039723",
    "final_x": "3695092.74298",
    "final_y": "556017.852647",
    "longitude": "-90.02426580040489",
    "latitude": "30.022436151724982",
    "geocoded_column": {
      "latitude": "30.022436151724982",
      "longitude": "-90.02426580040489"
    }
  },
  {
    "service_request": "2023-1039721",
    "request_type": "Mayor's Request",
    "request_reason": "Requests to the Mayor",
    "date_created": "2023-09-30T23:54:59.000",
    "date_modified": "2023-09-30T23:54:59.000",
    "request_status": "Pending",
    "responsible_agency": "Executive Office of the Mayor",
    "final_address": "8217 Panola St",
    "address_councildis": "A",
    "status": "Pending",
    "rowid": "1039721",
    "final_x": "3663740.33421",
    "final_y": "531080.636546",
    "longitude": "-90.12416385078288",
    "latitude": "29.95481485253596",
    "geocoded_column": {
      "latitude": "29.95481485253596",
      "longitude": "-90.12416385078288"
    }
  },
  {
    "service_request": "2023-1039720",
    "request_type": "Trash/Recycling",
    "request_reason": "Request a Large Item Pick Up",
    "date_created": "2023-09-30T21:48:09.000",
    "date_modified": "2023-09-30T21:48:10.000",
    "request_status": "Pending",
    "responsible_agency": "Department of Sanitation",
    "final_address": "4515 S Johnson St",
    "address_councildis": "B",
    "status": "Assigned to Contractor",
    "contractor": "Richards Disposal",
    "rowid": "1039720",
    "final_x": "3669684.01716",
    "final_y": "527200.219775",
    "longitude": "-90.10552720839407",
    "latitude": "29.94397117274045",
    "geocoded_column": {
      "latitude": "29.94397117274045",
      "longitude": "-90.10552720839407"
    }
  },
  {
    "service_request": "2023-1039719",
    "request_type": "Roads/Drainage",
    "request_reason": "Pothole",
    "date_created": "2023-09-30T21:24:33.000",
    "date_modified": "2023-09-30T21:24:33.000",
    "request_status": "Pending",
    "responsible_agency": "Department of Public Works",
    "final_address": "1217 Foucher St",
    "address_councildis": "B",
    "status": "Pending",
    "rowid": "1039719",
    "final_x": "3674050.86318",
    "final_y": "519817.288376",
    "longitude": "-90.09199237897313",
    "latitude": "29.923541123641915",
    "geocoded_column": {
      "latitude": "29.923541123641915",
      "longitude": "-90.09199237897313"
    }
  },
  {
    "service_request": "2023-1039718",
    "request_type": "Roads/Drainage",
    "request_reason": "Pothole",
    "date_created": "2023-09-30T21:19:44.000",
    "date_modified": "2023-09-30T21:19:44.000",
    "request_status": "Pending",
    "responsible_agency": "Department of Public Works",
    "final_address": "1200 BLK Amelia St",
    "address_councildis": "B",
    "status": "Pending",
    "rowid": "1039718",
    "final_x": "3673521.46558",
    "final_y": "519660.816109",
    "longitude": "-90.09366883741032",
    "latitude": "29.923126634409968",
    "geocoded_column": {
      "latitude": "29.923126634409968",
      "longitude": "-90.09366883741032"
    }
  },
  {
    "service_request": "2023-1039716",
    "request_type": "Trash/Recycling",
    "request_reason": "Replace Trash Cart",
    "date_created": "2023-09-30T20:50:46.000",
    "date_modified": "2023-09-30T20:50:46.000",
    "request_status": "Pending",
    "responsible_agency": "Department of Sanitation",
    "final_address": "1628 Charlton Dr",
    "address_councildis": "D",
    "status": "Assigned to Contractor",
    "contractor": "IV Waste",
    "rowid": "1039716",
    "final_x": "3680296.74632",
    "final_y": "550697.407508",
    "longitude": "-90.07120275152468",
    "latitude": "30.008263347305686",
    "geocoded_column": {
      "latitude": "30.008263347305686",
      "longitude": "-90.07120275152468"
    }
  },
  {
    "service_request": "2023-1039714",
    "request_type": "Trash/Recycling",
    "request_reason": "Replace Trash Cart",
    "date_created": "2023-09-30T19:07:59.000",
    "date_modified": "2023-09-30T19:07:59.000",
    "request_status": "Pending",
    "responsible_agency": "Department of Sanitation",
    "final_address": "5800 Abbey Dr",
    "address_councildis": "C",
    "status": "Assigned to Contractor",
    "contractor": "Richards Disposal",
    "rowid": "1039714",
    "final_x": "3705164.31678",
    "final_y": "521027.621433",
    "longitude": "-89.99373486267139",
    "latitude": "29.925905632800717",
    "geocoded_column": {
      "latitude": "29.925905632800717",
      "longitude": "-89.99373486267139"
    }
  },
  {
    "service_request": "2023-1039713",
    "request_type": "Abandoned Vehicles",
    "request_reason": "Vehicle Blocking Your Driveway",
    "date_created": "2023-09-30T19:01:55.000",
    "date_modified": "2023-09-30T19:01:55.000",
    "request_status": "Pending",
    "responsible_agency": "Department of Public Works",
    "final_address": "3116 De Soto St",
    "address_councildis": "A",
    "status": "Pending",
    "rowid": "1039713",
    "final_x": "3676238.45851",
    "final_y": "539833.867402",
    "longitude": "-90.08439824740583",
    "latitude": "29.97851470208163",
    "geocoded_column": {
      "latitude": "29.97851470208163",
      "longitude": "-90.08439824740583"
    }
  },
  {
    "service_request": "2023-1039712",
    "request_type": "Trash/Recycling",
    "request_reason": "Replace Trash Cart",
    "date_created": "2023-09-30T18:59:27.000",
    "date_modified": "2023-09-30T18:59:27.000",
    "request_status": "Pending",
    "responsible_agency": "Department of Sanitation",
    "final_address": "4530 Eden St",
    "address_councildis": "B",
    "status": "Assigned to Contractor",
    "contractor": "Richards Disposal",
    "rowid": "1039712",
    "final_x": "3669486.22503",
    "final_y": "530886.020162",
    "longitude": "-90.10602704980334",
    "latitude": "29.954111745737343",
    "geocoded_column": {
      "latitude": "29.954111745737343",
      "longitude": "-90.10602704980334"
    }
  },
  {
    "service_request": "2023-1039711",
    "request_type": "Trash/Recycling",
    "request_reason": "Request a Large Item Pick Up",
    "date_created": "2023-09-30T18:34:32.000",
    "date_modified": "2023-09-30T18:34:32.000",
    "request_status": "Pending",
    "responsible_agency": "Department of Sanitation",
    "final_address": "1501 Richland Rd",
    "address_councildis": "C",
    "status": "Assigned to Contractor",
    "contractor": "Richards Disposal",
    "rowid": "1039711",
    "final_x": "3697873.7457",
    "final_y": "525713.278077",
    "longitude": "-90.01657892913082",
    "latitude": "29.939021925886188",
    "geocoded_column": {
      "latitude": "29.939021925886188",
      "longitude": "-90.01657892913082"
    }
  },
  {
    "service_request": "2023-1039710",
    "request_type": "Trash/Recycling",
    "request_reason": "Start Trash Service",
    "date_created": "2023-09-30T18:31:55.000",
    "date_modified": "2023-09-30T18:31:56.000",
    "request_status": "Pending",
    "responsible_agency": "Department of Sanitation",
    "final_address": "2247 Oretha Castle Haley Blvd",
    "address_councildis": "B",
    "status": "Assigned to Contractor",
    "contractor": "Richards Disposal",
    "rowid": "1039710",
    "final_x": "3676484.88923",
    "final_y": "524538.115132",
    "longitude": "-90.08414659577234",
    "latitude": "29.936449130697834",
    "geocoded_column": {
      "latitude": "29.936449130697834",
      "longitude": "-90.08414659577234"
    }
  },
  {
    "service_request": "2023-1039709",
    "request_type": "Roads/Drainage",
    "request_reason": "Catch Basin - Clogged",
    "date_created": "2023-09-30T18:24:43.000",
    "date_modified": "2023-09-30T18:24:43.000",
    "request_status": "Pending",
    "responsible_agency": "Department of Public Works",
    "final_address": "828 Orange St",
    "address_councildis": "B",
    "status": "Pending",
    "rowid": "1039709",
    "final_x": "3680952.53122",
    "final_y": "523242.741307",
    "longitude": "-90.07008717613348",
    "latitude": "29.932752599929227",
    "geocoded_column": {
      "latitude": "29.932752599929227",
      "longitude": "-90.07008717613348"
    }
  },
  {
    "service_request": "2023-1039708",
    "request_type": "Roads/Drainage",
    "request_reason": "Pothole",
    "date_created": "2023-09-30T18:24:24.000",
    "date_modified": "2023-09-30T18:24:24.000",
    "request_status": "Pending",
    "responsible_agency": "Department of Public Works",
    "final_address": "1421 Constantinople St",
    "address_councildis": "B",
    "status": "Pending",
    "rowid": "1039708",
    "final_x": "3672433.24257",
    "final_y": "520667.657465",
    "longitude": "-90.09706965638372",
    "latitude": "29.925927453713577",
    "geocoded_column": {
      "latitude": "29.925927453713577",
      "longitude": "-90.09706965638372"
    }
  },
  {
    "service_request": "2023-1039707",
    "request_type": "Roads/Drainage",
    "request_reason": "Debris in Roadway",
    "date_created": "2023-09-30T18:11:24.000",
    "date_modified": "2023-09-30T18:11:24.000",
    "request_status": "Pending",
    "responsible_agency": "Department of Public Works",
    "final_address": "5335 Burgundy St",
    "address_councildis": "E",
    "status": "Pending",
    "rowid": "1039707",
    "final_x": "3696909.41283",
    "final_y": "533244.696324",
    "longitude": "-90.01935075891498",
    "latitude": "29.959761126486516",
    "geocoded_column": {
      "latitude": "29.959761126486516",
      "longitude": "-90.01935075891498"
    }
  },
  {
    "service_request": "2023-1039706",
    "request_type": "Trash/Recycling",
    "request_reason": "Replace Trash Cart",
    "date_created": "2023-09-30T17:50:05.000",
    "date_modified": "2023-09-30T17:50:06.000",
    "request_status": "Pending",
    "responsible_agency": "Department of Sanitation",
    "final_address": "1410 Cambronne St",
    "address_councildis": "A",
    "status": "Assigned to Contractor",
    "contractor": "Richards Disposal",
    "rowid": "1039706",
    "final_x": "3661684.09658",
    "final_y": "529725.405505",
    "longitude": "-90.13070161221907",
    "latitude": "29.95114790788566",
    "geocoded_column": {
      "latitude": "29.95114790788566",
      "longitude": "-90.13070161221907"
    }
  },
  {
    "service_request": "2023-1039705",
    "request_type": "Graffiti Removal",
    "request_reason": "Graffiti Removal",
    "date_created": "2023-09-30T16:52:57.000",
    "date_modified": "2023-09-30T16:52:57.000",
    "request_status": "Pending",
    "responsible_agency": "Department of Code Enforcement",
    "final_address": "235 Basin St",
    "address_councildis": "C",
    "status": "Pending",
    "rowid": "1039705",
    "final_x": "3680145.39413",
    "final_y": "532352.858819",
    "longitude": "-90.0723187357695",
    "latitude": "29.95782682226525",
    "geocoded_column": {
      "latitude": "29.95782682226525",
      "longitude": "-90.0723187357695"
    }
  },
  {
    "service_request": "2023-1039704",
    "request_type": "Mosquito, Termite & Rodent Control",
    "request_reason": "Mosquito Complaint",
    "date_created": "2023-09-30T16:52:48.000",
    "date_modified": "2023-09-30T16:52:48.000",
    "request_status": "Pending",
    "responsible_agency": "Mosquito, Termite & Rodent Control Board",
    "final_address": "2301 Royal St",
    "address_councildis": "C",
    "status": "Pending",
    "rowid": "1039704",
    "final_x": "3685560.74306",
    "final_y": "534931.392134",
    "longitude": "-90.05512781927891",
    "latitude": "29.96475191817577",
    "geocoded_column": {
      "latitude": "29.96475191817577",
      "longitude": "-90.05512781927891"
    }
  },
  {
    "service_request": "2023-1039703",
    "request_type": "Graffiti Removal",
    "request_reason": "Graffiti Removal",
    "date_created": "2023-09-30T16:52:07.000",
    "date_modified": "2023-09-30T16:52:07.000",
    "request_status": "Pending",
    "responsible_agency": "Department of Code Enforcement",
    "final_address": "237 Basin St",
    "address_councildis": "C",
    "status": "Pending",
    "rowid": "1039703",
    "final_x": "3680172.49256",
    "final_y": "532376.167043",
    "longitude": "-90.07223235666983",
    "latitude": "29.95789009194436",
    "geocoded_column": {
      "latitude": "29.95789009194436",
      "longitude": "-90.07223235666983"
    }
  },
  {
    "service_request": "2023-1039702",
    "request_type": "Trash/Recycling",
    "request_reason": "Repair Recycling Cart",
    "date_created": "2023-09-30T16:50:21.000",
    "date_modified": "2023-09-30T16:50:21.000",
    "request_status": "Pending",
    "responsible_agency": "Department of Sanitation",
    "final_address": "2842 Mercedes Blvd",
    "address_councildis": "C",
    "status": "Pending",
    "rowid": "1039702",
    "final_x": "3698057.67907",
    "final_y": "520722.881273",
    "longitude": "-90.01617934098225",
    "latitude": "29.925294240685155",
    "geocoded_column": {
      "latitude": "29.925294240685155",
      "longitude": "-90.01617934098225"
    }
  },
  {
    "service_request": "2023-1039701",
    "request_type": "Trash/Recycling",
    "request_reason": "Order Trash Cart",
    "date_created": "2023-09-30T16:47:51.000",
    "date_modified": "2023-09-30T16:47:52.000",
    "request_status": "Pending",
    "responsible_agency": "Department of Sanitation",
    "final_address": "2301 Royal St",
    "address_councildis": "C",
    "status": "Assigned to Contractor",
    "contractor": "IV Waste",
    "rowid": "1039701",
    "final_x": "3685560.74306",
    "final_y": "534931.392134",
    "longitude": "-90.05512781927891",
    "latitude": "29.96475191817577",
    "geocoded_column": {
      "latitude": "29.96475191817577",
      "longitude": "-90.05512781927891"
    }
  },
  {
    "service_request": "2023-1039700",
    "request_type": "Roads/Drainage",
    "request_reason": "Pothole",
    "date_created": "2023-09-30T16:39:30.000",
    "date_modified": "2023-09-30T16:39:30.000",
    "request_status": "Pending",
    "responsible_agency": "Department of Public Works",
    "final_address": "4916 Carondelet St",
    "address_councildis": "B",
    "status": "Pending",
    "rowid": "1039700",
    "final_x": "3668888.81063",
    "final_y": "521012.255673",
    "longitude": "-90.10824678520471",
    "latitude": "29.926979664804104",
    "geocoded_column": {
      "latitude": "29.926979664804104",
      "longitude": "-90.10824678520471"
    }
  },
  {
    "service_request": "2023-1039699",
    "request_type": "Trash/Recycling",
    "request_reason": "Replace Trash Cart",
    "date_created": "2023-09-30T16:35:37.000",
    "date_modified": "2023-09-30T16:35:38.000",
    "request_status": "Pending",
    "responsible_agency": "Department of Sanitation",
    "final_address": "1925 Orleans Ave",
    "address_councildis": "D",
    "status": "Assigned to Contractor",
    "contractor": "Richards Disposal",
    "rowid": "1039699",
    "final_x": "3679141.87631",
    "final_y": "535326.062726",
    "longitude": "-90.07538448678316",
    "latitude": "29.96603245203055",
    "geocoded_column": {
      "latitude": "29.96603245203055",
      "longitude": "-90.07538448678316"
    }
  },
  {
    "service_request": "2023-1039698",
    "request_type": "Trash/Recycling",
    "request_reason": "Missed Trash Pick-Up",
    "date_created": "2023-09-30T16:31:27.000",
    "date_modified": "2023-09-30T16:31:27.000",
    "request_status": "Pending",
    "responsible_agency": "Department of Sanitation",
    "final_address": "224 Helena St",
    "address_councildis": "A",
    "status": "Assigned to Contractor",
    "contractor": "Richards Disposal",
    "rowid": "1039698",
    "final_x": "3668642.93658",
    "final_y": "540997.727307",
    "longitude": "-90.10834848174765",
    "latitude": "29.98194037845772",
    "geocoded_column": {
      "latitude": "29.98194037845772",
      "longitude": "-90.10834848174765"
    }
  },
  {
    "service_request": "2023-1039697",
    "request_type": "Trash/Recycling",
    "request_reason": "Replace Trash Cart",
    "date_created": "2023-09-30T16:23:14.000",
    "date_modified": "2023-09-30T16:23:15.000",
    "request_status": "Pending",
    "responsible_agency": "Department of Sanitation",
    "final_address": "8315 Birch St",
    "address_councildis": "A",
    "status": "Assigned to Contractor",
    "contractor": "Richards Disposal",
    "rowid": "1039697",
    "final_x": "3662288.8169",
    "final_y": "530036.666753",
    "longitude": "-90.1287818651578",
    "latitude": "29.951986310339947",
    "geocoded_column": {
      "latitude": "29.951986310339947",
      "longitude": "-90.1287818651578"
    }
  },
  {
    "service_request": "2023-1039696",
    "request_type": "Abandoned Vehicles",
    "request_reason": "Vehicle Blocking Your Driveway",
    "date_created": "2023-09-30T16:22:17.000",
    "date_modified": "2023-09-30T16:22:17.000",
    "request_status": "Pending",
    "responsible_agency": "Department of Public Works",
    "final_address": "924 N Miro St",
    "address_councildis": "D",
    "status": "Pending",
    "rowid": "1039696",
    "final_x": "3678678.48795",
    "final_y": "536634.076359",
    "longitude": "-90.07680255806316",
    "latitude": "29.969643022895063",
    "geocoded_column": {
      "latitude": "29.969643022895063",
      "longitude": "-90.07680255806316"
    }
  },
  {
    "service_request": "2023-1039695",
    "request_type": "Roads/Drainage",
    "request_reason": "Pothole",
    "date_created": "2023-09-30T16:15:54.000",
    "date_modified": "2023-09-30T16:15:54.000",
    "request_status": "Pending",
    "responsible_agency": "Department of Public Works",
    "final_address": "4630 St Charles Ave",
    "address_councildis": "B",
    "status": "Pending",
    "rowid": "1039695",
    "final_x": "3669824.55719",
    "final_y": "520628.244792",
    "longitude": "-90.10530586201752",
    "latitude": "29.925896214610017",
    "geocoded_column": {
      "latitude": "29.925896214610017",
      "longitude": "-90.10530586201752"
    }
  },
  {
    "service_request": "2023-1039694",
    "request_type": "Roads/Drainage",
    "request_reason": "Pothole",
    "date_created": "2023-09-30T16:10:53.000",
    "date_modified": "2023-09-30T16:10:53.000",
    "request_status": "Pending",
    "responsible_agency": "Department of Public Works",
    "final_address": "1407 Valence St",
    "address_councildis": "B",
    "status": "Pending",
    "rowid": "1039694",
    "final_x": "3669839.25287",
    "final_y": "520292.863992",
    "longitude": "-90.10527081865904",
    "latitude": "29.924973591096933",
    "geocoded_column": {
      "latitude": "29.924973591096933",
      "longitude": "-90.10527081865904"
    }
  },
  {
    "service_request": "2023-1039693",
    "request_type": "Trash/Recycling",
    "request_reason": "Request a Large Item Pick Up",
    "date_created": "2023-09-30T16:09:53.000",
    "date_modified": "2023-09-30T16:09:54.000",
    "request_status": "Pending",
    "responsible_agency": "Department of Sanitation",
    "final_address": "204 David St",
    "address_councildis": "A",
    "status": "Assigned to Contractor",
    "contractor": "Richards Disposal",
    "rowid": "1039693",
    "final_x": "3671230.34631",
    "final_y": "538876.753225",
    "longitude": "-90.10024827958794",
    "latitude": "29.97603210787383",
    "geocoded_column": {
      "latitude": "29.97603210787383",
      "longitude": "-90.10024827958794"
    }
  },
  {
    "service_request": "2023-1039692",
    "request_type": "Roads/Drainage",
    "request_reason": "Pothole",
    "date_created": "2023-09-30T16:07:59.000",
    "date_modified": "2023-09-30T16:07:59.000",
    "request_status": "Pending",
    "responsible_agency": "Department of Public Works",
    "final_address": "4314 Pitt St",
    "address_councildis": "B",
    "status": "Pending",
    "rowid": "1039692",
    "final_x": "3671181.83662",
    "final_y": "520562.776248",
    "longitude": "-90.10102354544037",
    "latitude": "29.92567612958479",
    "geocoded_column": {
      "latitude": "29.92567612958479",
      "longitude": "-90.10102354544037"
    }
  },
  {
    "service_request": "2023-1039691",
    "request_type": "Abandoned Vehicles",
    "request_reason": "Abandoned/Junk Vehicles",
    "date_created": "2023-09-30T15:59:42.000",
    "date_modified": "2023-09-30T15:59:42.000",
    "request_status": "Pending",
    "responsible_agency": "Department of Public Works",
    "final_address": "24 Fontainebleau Dr",
    "address_councildis": "A",
    "status": "Pending",
    "rowid": "1039691",
    "final_x": "3665854.8018",
    "final_y": "531571.603011",
    "longitude": "-90.11747069234227",
    "latitude": "29.956103326580706",
    "geocoded_column": {
      "latitude": "29.956103326580706",
      "longitude": "-90.11747069234227"
    }
  },
  {
    "service_request": "2023-1039690",
    "request_type": "Trash/Recycling",
    "request_reason": "MIssed Recycling Pick-Up",
    "date_created": "2023-09-30T15:35:58.000",
    "date_modified": "2023-09-30T15:35:59.000",
    "request_status": "Pending",
    "responsible_agency": "Department of Sanitation",
    "final_address": "7544 Plum St",
    "address_councildis": "A",
    "status": "Assigned to Contractor",
    "contractor": "Richards Disposal",
    "rowid": "1039690",
    "final_x": "3663594.91661",
    "final_y": "527316.303935",
    "longitude": "-90.12474839841894",
    "latitude": "29.944468369454647",
    "geocoded_column": {
      "latitude": "29.944468369454647",
      "longitude": "-90.12474839841894"
    }
  },
  {
    "service_request": "2023-1039689",
    "request_type": "Trash/Recycling",
    "request_reason": "Replace Trash Cart",
    "date_created": "2023-09-30T15:34:31.000",
    "date_modified": "2023-09-30T15:34:32.000",
    "request_status": "Pending",
    "responsible_agency": "Department of Sanitation",
    "final_address": "16 Yellowstone Dr",
    "address_councildis": "C",
    "status": "Assigned to Contractor",
    "contractor": "Richards Disposal",
    "rowid": "1039689",
    "final_x": "3699855.31408",
    "final_y": "517963.996534",
    "longitude": "-90.01060534390935",
    "latitude": "29.91765131032599",
    "geocoded_column": {
      "latitude": "29.91765131032599",
      "longitude": "-90.01060534390935"
    }
  },
  {
    "service_request": "2023-1039688",
    "request_type": "Roads/Drainage",
    "request_reason": "Pothole",
    "date_created": "2023-09-30T15:34:03.000",
    "date_modified": "2023-09-30T15:34:03.000",
    "request_status": "Pending",
    "responsible_agency": "Department of Public Works",
    "final_address": "1427 Marengo St",
    "address_councildis": "B",
    "status": "Pending",
    "rowid": "1039688",
    "final_x": "3672082.76878",
    "final_y": "520617.256888",
    "longitude": "-90.09817771598593",
    "latitude": "29.92579926099956",
    "geocoded_column": {
      "latitude": "29.92579926099956",
      "longitude": "-90.09817771598593"
    }
  },
  {
    "service_request": "2023-1039687",
    "request_type": "Trash/Recycling",
    "request_reason": "Request a Large Item Pick Up",
    "date_created": "2023-09-30T15:32:35.000",
    "date_modified": "2023-09-30T15:32:36.000",
    "request_status": "Pending",
    "responsible_agency": "Department of Sanitation",
    "final_address": "2900 Prytania St",
    "address_councildis": "B",
    "status": "Assigned to Contractor",
    "contractor": "Richards Disposal",
    "rowid": "1039687",
    "final_x": "3675775.83061",
    "final_y": "521754.409274",
    "longitude": "-90.08648075266153",
    "latitude": "29.9288160826935",
    "geocoded_column": {
      "latitude": "29.9288160826935",
      "longitude": "-90.08648075266153"
    }
  },
  {
    "service_request": "2023-1039685",
    "request_type": "Roads/Drainage",
    "request_reason": "Pothole",
    "date_created": "2023-09-30T15:05:53.000",
    "date_modified": "2023-09-30T15:05:53.000",
    "request_status": "Pending",
    "responsible_agency": "Department of Public Works",
    "final_address": "1410 Robert St",
    "address_councildis": "B",
    "status": "Pending",
    "rowid": "1039685",
    "final_x": "3668631.73274",
    "final_y": "520265.722552",
    "longitude": "-90.10908349401839",
    "latitude": "29.924934490959814",
    "geocoded_column": {
      "latitude": "29.924934490959814",
      "longitude": "-90.10908349401839"
    }
  },
  {
    "service_request": "2023-1039684",
    "request_type": "Property Maintenance",
    "request_reason": "Property Maintenance",
    "date_created": "2023-09-30T15:01:32.000",
    "date_modified": "2023-09-30T15:01:32.000",
    "request_status": "Pending",
    "responsible_agency": "Department of Code Enforcement",
    "final_address": "4931 Pitt St",
    "address_councildis": "B",
    "status": "Pending",
    "rowid": "1039684",
    "final_x": "3668796.0898",
    "final_y": "520447.14892",
    "longitude": "-90.10855854931276",
    "latitude": "29.92542852632386",
    "geocoded_column": {
      "latitude": "29.92542852632386",
      "longitude": "-90.10855854931276"
    }
  },
  {
    "service_request": "2023-1039683",
    "request_type": "Trash/Recycling",
    "request_reason": "Order Recycling Cart",
    "date_created": "2023-09-30T15:01:19.000",
    "date_modified": "2023-09-30T15:01:19.000",
    "request_status": "Pending",
    "responsible_agency": "Department of Sanitation",
    "final_address": "2 Neron Pl",
    "address_councildis": "A",
    "status": "Pending",
    "rowid": "1039683",
    "final_x": "3664751.73684",
    "final_y": "531004.744706",
    "longitude": "-90.12097274905189",
    "latitude": "29.954576788651202",
    "geocoded_column": {
      "latitude": "29.954576788651202",
      "longitude": "-90.12097274905189"
    }
  },
  {
    "service_request": "2023-1039681",
    "request_type": "Trash/Recycling",
    "request_reason": "MIssed Recycling Pick-Up",
    "date_created": "2023-09-30T14:48:32.000",
    "date_modified": "2023-09-30T14:48:33.000",
    "request_status": "Pending",
    "responsible_agency": "Department of Sanitation",
    "final_address": "7933 Hampson St",
    "address_councildis": "A",
    "status": "Assigned to Contractor",
    "contractor": "Richards Disposal",
    "rowid": "1039681",
    "final_x": "3661201.28256",
    "final_y": "526782.756734",
    "longitude": "-90.13232349471072",
    "latitude": "29.943070488443226",
    "geocoded_column": {
      "latitude": "29.943070488443226",
      "longitude": "-90.13232349471072"
    }
  },
  {
    "service_request": "2023-1039680",
    "request_type": "Property Maintenance",
    "request_reason": "Property Maintenance",
    "date_created": "2023-09-30T14:25:27.000",
    "date_modified": "2023-09-30T14:25:27.000",
    "request_status": "Pending",
    "responsible_agency": "Department of Code Enforcement",
    "final_address": "4173 Toulouse St",
    "address_councildis": "A",
    "status": "Pending",
    "rowid": "1039680",
    "final_x": "3671760.41172",
    "final_y": "540143.925899",
    "longitude": "-90.09853104745832",
    "latitude": "29.97950070681229",
    "geocoded_column": {
      "latitude": "29.97950070681229",
      "longitude": "-90.09853104745832"
    }
  },