[
  {
    "service_request": "2025-1239461",
    "request_type": "Streetlights",
    "request_reason": "Streetlight Outage/Malfunction",
    "date_created": "2025-11-11T22:28:58.000",
    "date_modified": "2025-11-11T22:29:00.000",
    "request_status": "Pending",
    "responsible_agency": "Department of Public Works",
    "final_address": "2405 Jackson Ave",
    "address_councildis": "B",
    "status": "Pending",
    "rowid": "1239461",
    "final_x": "3675628.55387",
    "final_y": "526674.122686",
    "longitude": "-90.08677671950309",
    "latitude": "29.94234809287261",
    "geocoded_column": {
      "latitude": "29.94234809287261",
      "longitude": "-90.08677671950309"
    }
  },
  {
    "service_request": "2025-1239460",
    "request_type": "Trash/Recycling",
    "request_reason": "Request a Large Item Pick Up",
    "date_created": "2025-11-11T21:20:14.000",
    "date_modified": "2025-11-11T21:20:16.000",
    "request_status": "Pending",
    "responsible_agency": "Department of Sanitation",
    "final_address": "422 Lowerline St",
    "address_councildis": "A",
    "status": "Assigned to Contractor",
    "contractor": "IV Waste",
    "rowid": "1239460",
    "final_x": "3661738.88851",
    "final_y": "524097.462332",
    "longitude": "-90.1307151137995",
    "latitude": "29.935671274687156",
    "geocoded_column": {
      "latitude": "29.935671274687156",
      "longitude": "-90.1307151137995"
    }
  },
  {
    "service_request": "2025-1239459",
    "request_type": "Property Maintenance",
    "request_reason": "Property Maintenance",
    "date_created": "2025-11-11T21:16:22.000",
    "date_modified": "2025-11-11T21:16:25.000",
    "request_status": "Pending",
    "responsible_agency": "Department of Code Enforcement",
    "final_address": "220 S Murat St",
    "address_councildis": "A",
    "status": "Pending",
    "rowid": "1239459",
    "final_x": "3669362.18772",
    "final_y": "538890.354762",
    "longitude": "-90.1061480231579",
    "latitude": "29.976124654389633",
    "geocoded_column": {
      "latitude": "29.976124654389633",
      "longitude": "-90.1061480231579"
    }
  },
  {
    "service_request": "2025-1239458",
    "request_type": "Property Maintenance",
    "request_reason": "Property Maintenance",
    "date_created": "2025-11-11T21:12:38.000",
    "date_modified": "2025-11-11T21:12:45.000",
    "request_status": "Pending",
    "responsible_agency": "Department of Code Enforcement",
    "final_address": "1829 S Rendon St",
    "address_councildis": "B",
    "status": "Pending",
    "rowid": "1239458",
    "final_x": "3669351.96705",
    "final_y": "530353.190018",
    "longitude": "-90.10646899786057",
    "latitude": "29.952650591177893",
    "geocoded_column": {
      "latitude": "29.952650591177893",
      "longitude": "-90.10646899786057"
    }
  },
  {
    "service_request": "2025-1239457",
    "request_type": "Streetlights",
    "request_reason": "Streetlight Outage/Malfunction",
    "date_created": "2025-11-11T21:05:24.000",
    "date_modified": "2025-11-11T21:05:26.000",
    "request_status": "Pending",
    "responsible_agency": "Department of Public Works",
    "final_address": "4455 St Roch Ave",
    "address_councildis": "D",
    "status": "Pending",
    "rowid": "1239457",
    "final_x": "3685509.4943",
    "final_y": "549404.783379",
    "longitude": "-90.05477966199493",
    "latitude": "30.004550191757556",
    "geocoded_column": {
      "latitude": "30.004550191757556",
      "longitude": "-90.05477966199493"
    }
  },
  {
    "service_request": "2025-1239456",
    "request_type": "Parks & Parkways",
    "request_reason": "Park Maintenance/Clean Up",
    "date_created": "2025-11-11T20:59:16.000",
    "date_modified": "2025-11-11T20:59:17.000",
    "request_status": "Pending",
    "responsible_agency": "Department of Parks & Parkway",
    "final_address": "3301 Royal St",
    "address_councildis": "C",
    "status": "Pending",
    "rowid": "1239456",
    "final_x": "3689507.60585",
    "final_y": "534299.647045",
    "longitude": "-90.04268640237082",
    "latitude": "29.962893187662416",
    "geocoded_column": {
      "latitude": "29.962893187662416",
      "longitude": "-90.04268640237082"
    }
  },
  {
    "service_request": "2025-1239455",
    "request_type": "Trash/Recycling",
    "request_reason": "Request a Large Item Pick Up",
    "date_created": "2025-11-11T20:54:40.000",
    "date_modified": "2025-11-11T20:54:42.000",
    "request_status": "Pending",
    "responsible_agency": "Department of Sanitation",
    "final_address": "3755 Red Oak Ct",
    "address_councildis": "C",
    "status": "Assigned to Contractor",
    "contractor": "Richards Disposal",
    "rowid": "1239455",
    "final_x": "3703626.77188",
    "final_y": "514055.89285",
    "longitude": "-89.99884470891139",
    "latitude": "29.90678511255242",
    "geocoded_column": {
      "latitude": "29.90678511255242",
      "longitude": "-89.99884470891139"
    }
  },
  {
    "service_request": "2025-1239454",
    "request_type": "Abandoned Vehicles",
    "request_reason": "Abandoned/Junk Vehicles",
    "date_created": "2025-11-11T20:41:22.000",
    "date_modified": "2025-11-11T20:41:25.000",
    "request_status": "Pending",
    "responsible_agency": "Department of Public Works",
    "final_address": "5300 Laurel St",
    "address_councildis": "B",
    "status": "Pending",
    "rowid": "1239454",
    "final_x": "3667335.05908",
    "final_y": "517834.474486",
    "longitude": "-90.11325840228281",
    "latitude": "29.918287354970477",
    "geocoded_column": {
      "latitude": "29.918287354970477",
      "longitude": "-90.11325840228281"
    }
  },
  {
    "service_request": "2025-1239453",
    "request_type": "Trash/Recycling",
    "request_reason": "Illegal Dumping",
    "date_created": "2025-11-11T20:14:25.000",
    "date_modified": "2025-11-11T20:14:27.000",
    "request_status": "Pending",
    "responsible_agency": "Department of Sanitation",
    "final_address": "1822 Martin Luther King, Jr. Blvd",
    "address_councildis": "B",
    "status": "Pending",
    "rowid": "1239453",
    "final_x": "3678228.85352",
    "final_y": "526099.462526",
    "longitude": "-90.07858685645488",
    "latitude": "29.94068992731041",
    "geocoded_column": {
      "latitude": "29.94068992731041",
      "longitude": "-90.07858685645488"
    }
  },
  {
    "service_request": "2025-1239452",
    "request_type": "Streetlights",
    "request_reason": "Streetlight Outage/Malfunction",
    "date_created": "2025-11-11T19:47:33.000",
    "date_modified": "2025-11-11T19:47:34.000",
    "request_status": "Pending",
    "responsible_agency": "Department of Public Works",
    "final_address": "1633 Rivertree Ct",
    "address_councildis": "C",
    "status": "Pending",
    "rowid": "1239452",
    "final_x": "3701438.9514",
    "final_y": "524729.020732",
    "longitude": "-90.00535924254439",
    "latitude": "29.936202427129846",
    "geocoded_column": {
      "latitude": "29.936202427129846",
      "longitude": "-90.00535924254439"
    }
  },
  {
    "service_request": "2025-1239451",
    "request_type": "Trash/Recycling",
    "request_reason": "Order Trash Cart",
    "date_created": "2025-11-11T19:42:23.000",
    "date_modified": "2025-11-11T19:42:25.000",
    "request_status": "Pending",
    "responsible_agency": "Department of Sanitation",
    "final_address": "4931 Pitt St",
    "address_councildis": "B",
    "status": "Assigned to Contractor",
    "contractor": "IV Waste",
    "rowid": "1239451",
    "final_x": "3668803.92622",
    "final_y": "520423.639608",
    "longitude": "-90.10853460535127",
    "latitude": "29.925363652857364",
    "geocoded_column": {
      "latitude": "29.925363652857364",
      "longitude": "-90.10853460535127"
    }
  },
  {
    "service_request": "2025-1239450",
    "request_type": "Streetlights",
    "request_reason": "Streetlight Outage/Malfunction",
    "date_created": "2025-11-11T19:39:00.000",
    "date_modified": "2025-11-11T19:39:02.000",
    "request_status": "Pending",
    "responsible_agency": "Department of Public Works",
    "final_address": "1633 Rivertree Ct",
    "address_councildis": "C",
    "status": "Pending",
    "rowid": "1239450",
    "final_x": "3701438.9514",
    "final_y": "524729.020732",
    "longitude": "-90.00535924254439",
    "latitude": "29.936202427129846",
    "geocoded_column": {
      "latitude": "29.936202427129846",
      "longitude": "-90.00535924254439"
    }
  },
  {
    "service_request": "2025-1239449",
    "request_type": "Trash/Recycling",
    "request_reason": "Return Recycling Cart",
    "date_created": "2025-11-11T19:16:54.000",
    "date_modified": "2025-11-11T19:16:56.000",
    "request_status": "Pending",
    "responsible_agency": "Department of Sanitation",
    "final_address": "4850 Redwood St",
    "address_councildis": "E",
    "status": "Pending",
    "rowid": "1239449",
    "final_x": "3712350.46424",
    "final_y": "556791.048538",
    "longitude": "-89.96970704724926",
    "latitude": "30.02400872498034",
    "geocoded_column": {
      "latitude": "30.02400872498034",
      "longitude": "-89.96970704724926"
    }
  },
  {
    "service_request": "2025-1239448",
    "request_type": "Property Maintenance",
    "request_reason": "Property Maintenance",
    "date_created": "2025-11-11T19:11:57.000",
    "date_modified": "2025-11-11T19:11:59.000",
    "request_status": "Pending",
    "responsible_agency": "Department of Code Enforcement",
    "final_address": "9123 Colapissa St",
    "address_councildis": "A",
    "status": "Pending",
    "rowid": "1239448",
    "final_x": "3663879.9296",
    "final_y": "535884.308423",
    "longitude": "-90.12356291516927",
    "latitude": "29.96801932835046",
    "geocoded_column": {
      "latitude": "29.96801932835046",
      "longitude": "-90.12356291516927"
    }
  },
  {
    "service_request": "2025-1239447",
    "request_type": "Trash/Recycling",
    "request_reason": "Replace Trash Cart",
    "date_created": "2025-11-11T19:11:17.000",
    "date_modified": "2025-11-11T19:11:19.000",
    "request_status": "Pending",
    "responsible_agency": "Department of Sanitation",
    "final_address": "7901 Edward St",
    "address_councildis": "E",
    "status": "Assigned to Contractor",
    "contractor": "Waste Pro",
    "rowid": "1239447",
    "final_x": "3700760.34922",
    "final_y": "561697.403551",
    "longitude": "-90.00614978728349",
    "latitude": "30.03787346592275",
    "geocoded_column": {
      "latitude": "30.03787346592275",
      "longitude": "-90.00614978728349"
    }
  },
  {
    "service_request": "2025-1239446",
    "request_type": "Roads and Streets",
    "request_reason": "Sidewalk Damaged or Missing",
    "date_created": "2025-11-11T19:10:01.000",
    "date_modified": "2025-11-11T19:10:03.000",
    "request_status": "Pending",
    "responsible_agency": "Department of Public Works",
    "final_address": "3400 BLK Saint Charles Ave",
    "address_councildis": "B",
    "status": "Pending",
    "rowid": "1239446",
    "final_x": "3674003.09815",
    "final_y": "521478.561817",
    "longitude": "-90.09208634907417",
    "latitude": "29.928110513650335",
    "geocoded_column": {
      "latitude": "29.928110513650335",
      "longitude": "-90.09208634907417"
    }
  },
  {
    "service_request": "2025-1239445",
    "request_type": "Trash/Recycling",
    "request_reason": "Request a Large Item Pick Up",
    "date_created": "2025-11-11T19:07:21.000",
    "date_modified": "2025-11-11T19:07:23.000",
    "request_status": "Pending",
    "responsible_agency": "Department of Sanitation",
    "final_address": "7901 Edward St",
    "address_councildis": "E",
    "status": "Assigned to Contractor",
    "contractor": "Waste Pro",
    "rowid": "1239445",
    "final_x": "3700760.34922",
    "final_y": "561697.403551",
    "longitude": "-90.00614978728349",
    "latitude": "30.03787346592275",
    "geocoded_column": {
      "latitude": "30.03787346592275",
      "longitude": "-90.00614978728349"
    }
  },
  {
    "service_request": "2025-1239444",
    "request_type": "Roads and Streets",
    "request_reason": "Street Subsidence (Sinking)",
    "date_created": "2025-11-11T18:56:00.000",
    "date_modified": "2025-11-11T18:56:02.000",
    "request_status": "Pending",
    "responsible_agency": "Sewerage & Water Board",
    "final_address": "1201 Belleville St",
    "address_councildis": "C",
    "status": "Pending",
    "rowid": "1239444",
    "final_x": "3687678.93468",
    "final_y": "527149.771711",
    "longitude": "-90.04871423036943",
    "latitude": "29.94328999567539",
    "geocoded_column": {
      "latitude": "29.94328999567539",
      "longitude": "-90.04871423036943"
    }
  },
  {
    "service_request": "2025-1239443",
    "request_type": "Roads and Streets",
    "request_reason": "Street Subsidence (Sinking)",
    "date_created": "2025-11-11T18:52:37.000",
    "date_modified": "2025-11-11T18:52:39.000",
    "request_status": "Pending",
    "responsible_agency": "Sewerage & Water Board",
    "final_address": "1201 Belleville St",
    "address_councildis": "C",
    "status": "Pending",
    "rowid": "1239443",
    "final_x": "3687678.93468",
    "final_y": "527149.771711",
    "longitude": "-90.04871423036943",
    "latitude": "29.94328999567539",
    "geocoded_column": {
      "latitude": "29.94328999567539",
      "longitude": "-90.04871423036943"
    }
  },
  {
    "service_request": "2025-1239442",
    "request_type": "Streetlights",
    "request_reason": "Streetlight Outage/Malfunction",
    "date_created": "2025-11-11T18:49:57.000",
    "date_modified": "2025-11-11T18:49:58.000",
    "request_status": "Pending",
    "responsible_agency": "Department of Public Works",
    "final_address": "7000 BLK Warfield St",
    "address_councildis": "E",
    "status": "Pending",
    "rowid": "1239442",
    "final_x": "3700957.7096",
    "final_y": "552812.008665",
    "longitude": "-90.00585139668182",
    "latitude": "30.01343576175947",
    "geocoded_column": {
      "latitude": "30.01343576175947",
      "longitude": "-90.00585139668182"
    }
  },
  {
    "service_request": "2025-1239441",
    "request_type": "Streetlights",
    "request_reason": "Streetlight Knocked Down/Leaning",
    "date_created": "2025-11-11T18:49:00.000",
    "date_modified": "2025-11-11T18:49:02.000",
    "request_status": "Pending",
    "responsible_agency": "Department of Public Works",
    "final_address": "7000 BLK Warfield St",
    "address_councildis": "E",
    "status": "Pending",
    "rowid": "1239441",
    "final_x": "3700957.7096",
    "final_y": "552812.008665",
    "longitude": "-90.00585139668182",
    "latitude": "30.01343576175947",
    "geocoded_column": {
      "latitude": "30.01343576175947",
      "longitude": "-90.00585139668182"
    }
  },
  {
    "service_request": "2025-1239440",
    "request_type": "Graffiti Removal",
    "request_reason": "Graffiti Removal",
    "date_created": "2025-11-11T18:47:51.000",
    "date_modified": "2025-11-11T18:47:52.000",
    "request_status": "Pending",
    "responsible_agency": "Department of Code Enforcement",
    "final_address": "1815 Painters St",
    "address_councildis": "D",
    "status": "Pending",
    "rowid": "1239440",
    "final_x": "3687382.76706",
    "final_y": "539226.189642",
    "longitude": "-90.04922201133215",
    "latitude": "29.976505095860176",
    "geocoded_column": {
      "latitude": "29.976505095860176",
      "longitude": "-90.04922201133215"
    }
  },
  {
    "service_request": "2025-1239439",
    "request_type": "Streetlights",
    "request_reason": "Streetlight Outage/Malfunction",
    "date_created": "2025-11-11T18:47:42.000",
    "date_modified": "2025-11-11T18:47:43.000",
    "request_status": "Pending",
    "responsible_agency": "Department of Public Works",
    "final_address": "7000 BLK Warfield St",
    "address_councildis": "E",
    "status": "Pending",
    "rowid": "1239439",
    "final_x": "3700957.7096",
    "final_y": "552812.008665",
    "longitude": "-90.00585139668182",
    "latitude": "30.01343576175947",
    "geocoded_column": {
      "latitude": "30.01343576175947",
      "longitude": "-90.00585139668182"
    }
  },
  {
    "service_request": "2025-1239438",
    "request_type": "Streetlights",
    "request_reason": "Streetlight Outage/Malfunction",
    "date_created": "2025-11-11T18:46:13.000",
    "date_modified": "2025-11-11T18:46:15.000",
    "request_status": "Pending",
    "responsible_agency": "Department of Public Works",
    "final_address": "7000 BLK Warfield St",
    "address_councildis": "E",
    "status": "Pending",
    "rowid": "1239438",
    "final_x": "3700957.7096",
    "final_y": "552812.008665",
    "longitude": "-90.00585139668182",
    "latitude": "30.01343576175947",
    "geocoded_column": {
      "latitude": "30.01343576175947",
      "longitude": "-90.00585139668182"
    }
  },
  {
    "service_request": "2025-1239437",
    "request_type": "Mosquito, Termite & Rodent Control",
    "request_reason": "Rodent Complaint (Mice & Rats)",
    "date_created": "2025-11-11T18:45:09.000",
    "date_modified": "2025-11-11T18:45:11.000",
    "request_status": "Pending",
    "responsible_agency": "Mosquito, Termite & Rodent Control Board",
    "final_address": "922 Charbonnet St",
    "address_councildis": "E",
    "status": "Pending",
    "rowid": "1239437",
    "final_x": "3698410.3793",
    "final_y": "533004.47002",
    "longitude": "-90.01461980317758",
    "latitude": "29.959053176444797",
    "geocoded_column": {
      "latitude": "29.959053176444797",
      "longitude": "-90.01461980317758"
    }
  },
  {
    "service_request": "2025-1239436",
    "request_type": "Streetlights",
    "request_reason": "Streetlight Outage/Malfunction",
    "date_created": "2025-11-11T18:44:07.000",
    "date_modified": "2025-11-11T18:44:10.000",
    "request_status": "Pending",
    "responsible_agency": "Department of Public Works",
    "final_address": "7000 BLK Warfield St",
    "address_councildis": "E",
    "status": "Pending",
    "rowid": "1239436",
    "final_x": "3700957.7096",
    "final_y": "552812.008665",
    "longitude": "-90.00585139668182",
    "latitude": "30.01343576175947",
    "geocoded_column": {
      "latitude": "30.01343576175947",
      "longitude": "-90.00585139668182"
    }
  },
  {
    "service_request": "2025-1239435",
    "request_type": "Mosquito, Termite & Rodent Control",
    "request_reason": "Rodent Complaint (Mice & Rats)",
    "date_created": "2025-11-11T18:42:28.000",
    "date_modified": "2025-11-11T18:42:32.000",
    "request_status": "Pending",
    "responsible_agency": "Mosquito, Termite & Rodent Control Board",
    "final_address": "907 Charbonnet St",
    "address_councildis": "E",
    "status": "Pending",
    "rowid": "1239435",
    "final_x": "3698499.75536",
    "final_y": "532935.242372",
    "longitude": "-90.01434009376521",
    "latitude": "29.958859996379196",
    "geocoded_column": {
      "latitude": "29.958859996379196",
      "longitude": "-90.01434009376521"
    }
  },
  {
    "service_request": "2025-1239434",
    "request_type": "Roads and Streets",
    "request_reason": "Pothole",
    "date_created": "2025-11-11T18:39:47.000",
    "date_modified": "2025-11-11T18:39:48.000",
    "request_status": "Pending",
    "responsible_agency": "Department of Public Works",
    "final_address": "4900 Calliope St",
    "address_councildis": "B",
    "status": "Pending",
    "rowid": "1239434",
    "final_x": "3669359.74042",
    "final_y": "533224.651524",
    "longitude": "-90.10634736419664",
    "latitude": "29.960545935310396",
    "geocoded_column": {
      "latitude": "29.960545935310396",
      "longitude": "-90.10634736419664"
    }
  },
  {
    "service_request": "2025-1239433",
    "request_type": "Mosquito, Termite & Rodent Control",
    "request_reason": "Rodent Complaint (Mice & Rats)",
    "date_created": "2025-11-11T18:39:37.000",
    "date_modified": "2025-11-11T18:39:40.000",
    "request_status": "Pending",
    "responsible_agency": "Mosquito, Termite & Rodent Control Board",
    "final_address": "926 Charbonnet St",
    "address_councildis": "E",
    "status": "Pending",
    "rowid": "1239433",
    "final_x": "3698424.26788",
    "final_y": "533039.192324",
    "longitude": "-90.01457468483525",
    "latitude": "29.959148210945834",
    "geocoded_column": {
      "latitude": "29.959148210945834",
      "longitude": "-90.01457468483525"
    }
  },
  {
    "service_request": "2025-1239432",
    "request_type": "Trash/Recycling",
    "request_reason": "Illegal Dumping",
    "date_created": "2025-11-11T18:31:08.000",
    "date_modified": "2025-11-11T18:31:10.000",
    "request_status": "Pending",
    "responsible_agency": "Department of Sanitation",
    "final_address": "2655 N Rocheblave St",
    "address_councildis": "D",
    "status": "Pending",
    "rowid": "1239432",
    "final_x": "3686945.25135",
    "final_y": "541315.393292",
    "longitude": "-90.05052994562675",
    "latitude": "29.98226314287364",
    "geocoded_column": {
      "latitude": "29.98226314287364",
      "longitude": "-90.05052994562675"
    }
  },
  {
    "service_request": "2025-1239431",
    "request_type": "Trash/Recycling",
    "request_reason": "Replace Trash Cart",
    "date_created": "2025-11-11T18:25:25.000",
    "date_modified": "2025-11-11T18:25:27.000",
    "request_status": "Pending",
    "responsible_agency": "Department of Sanitation",
    "final_address": "2831 Audubon St",
    "address_councildis": "B",
    "status": "Assigned to Contractor",
    "contractor": "IV Waste",
    "rowid": "1239431",
    "final_x": "3667694.17434",
    "final_y": "531295.870018",
    "longitude": "-90.11167184375363",
    "latitude": "29.955291355719048",
    "geocoded_column": {
      "latitude": "29.955291355719048",
      "longitude": "-90.11167184375363"
    }
  },
  {
    "service_request": "2025-1239430",
    "request_type": "Trash/Recycling",
    "request_reason": "Repair Recycling Cart",
    "date_created": "2025-11-11T17:51:20.000",
    "date_modified": "2025-11-11T17:51:22.000",
    "request_status": "Pending",
    "responsible_agency": "Department of Sanitation",
    "final_address": "1612 S Carrollton Ave",
    "address_councildis": "A",
    "status": "Pending",
    "rowid": "1239430",
    "final_x": "3663001.96013",
    "final_y": "529549.261249",
    "longitude": "-90.12654629258496",
    "latitude": "29.950625469242826",
    "geocoded_column": {
      "latitude": "29.950625469242826",
      "longitude": "-90.12654629258496"
    }
  },
  {
    "service_request": "2025-1239429",
    "request_type": "Trash/Recycling",
    "request_reason": "Request a Large Item Pick Up",
    "date_created": "2025-11-11T17:38:54.000",
    "date_modified": "2025-11-11T17:38:56.000",
    "request_status": "Pending",
    "responsible_agency": "Department of Sanitation",
    "final_address": "2941 Hudson St",
    "address_councildis": "C",
    "status": "Assigned to Contractor",
    "contractor": "Richards Disposal",
    "rowid": "1239429",
    "final_x": "3694170.35254",
    "final_y": "520212.68172",
    "longitude": "-90.0284686887166",
    "latitude": "29.924013661679744",
    "geocoded_column": {
      "latitude": "29.924013661679744",
      "longitude": "-90.0284686887166"
    }
  },
  {
    "service_request": "2025-1239428",
    "request_type": "Abandoned Vehicles",
    "request_reason": "Abandoned/Junk Vehicles",
    "date_created": "2025-11-11T17:22:13.000",
    "date_modified": "2025-11-11T17:22:15.000",
    "request_status": "Pending",
    "responsible_agency": "Department of Public Works",
    "final_address": "2800 Upperline St",
    "address_councildis": "B",
    "status": "Pending",
    "rowid": "1239428",
    "final_x": "3669167.51578",
    "final_y": "524989.592701",
    "longitude": "-90.10723263481977",
    "latitude": "29.937907871185672",
    "geocoded_column": {
      "latitude": "29.937907871185672",
      "longitude": "-90.10723263481977"
    }
  },
  {
    "service_request": "2025-1239427",
    "request_type": "Trash/Recycling",
    "request_reason": "Request a Large Item Pick Up",
    "date_created": "2025-11-11T17:03:07.000",
    "date_modified": "2025-11-11T17:03:08.000",
    "request_status": "Pending",
    "responsible_agency": "Department of Sanitation",
    "final_address": "7005 Memphis St",
    "address_councildis": "A",
    "status": "Assigned to Contractor",
    "contractor": "IV Waste",
    "rowid": "1239427",
    "final_x": "3669872.7371",
    "final_y": "553979.170968",
    "longitude": "-90.10402429071874",
    "latitude": "30.017598631641224",
    "geocoded_column": {
      "latitude": "30.017598631641224",
      "longitude": "-90.10402429071874"
    }
  },
  {
    "service_request": "2025-1239426",
    "request_type": "Streetlights",
    "request_reason": "Streetlight Outage/Malfunction",
    "date_created": "2025-11-11T17:00:42.000",
    "date_modified": "2025-11-11T17:00:44.000",
    "request_status": "Pending",
    "responsible_agency": "Department of Public Works",
    "final_address": "5221 E Idlewood Ct",
    "address_councildis": "E",
    "status": "Pending",
    "rowid": "1239426",
    "final_x": "3716803.57701",
    "final_y": "559871.888029",
    "longitude": "-89.95551917213042",
    "latitude": "30.032333333048925",
    "geocoded_column": {
      "latitude": "30.032333333048925",
      "longitude": "-89.95551917213042"
    }
  },
  {
    "service_request": "2025-1239425",
    "request_type": "Trash/Recycling",
    "request_reason": "Request a Large Item Pick Up",
    "date_created": "2025-11-11T16:58:10.000",
    "date_modified": "2025-11-11T16:58:11.000",
    "request_status": "Pending",
    "responsible_agency": "Department of Sanitation",
    "final_address": "4653 Warren Dr",
    "address_councildis": "E",
    "status": "Assigned to Contractor",
    "contractor": "Waste Pro",
    "rowid": "1239425",
    "final_x": "3713580.894",
    "final_y": "555768.660505",
    "longitude": "-89.96585772025627",
    "latitude": "30.02115724139116",
    "geocoded_column": {
      "latitude": "30.02115724139116",
      "longitude": "-89.96585772025627"
    }
  },
  {
    "service_request": "2025-1239424",
    "request_type": "Trash/Recycling",
    "request_reason": "Request a Large Item Pick Up",
    "date_created": "2025-11-11T16:58:07.000",
    "date_modified": "2025-11-11T16:58:09.000",
    "request_status": "Pending",
    "responsible_agency": "Department of Sanitation",
    "final_address": "2911 Chippewa St",
    "address_councildis": "B",
    "status": "Assigned to Contractor",
    "contractor": "IV Waste",
    "rowid": "1239424",
    "final_x": "3677355.43867",
    "final_y": "519258.267639",
    "longitude": "-90.08158033109234",
    "latitude": "29.921905145571607",
    "geocoded_column": {
      "latitude": "29.921905145571607",
      "longitude": "-90.08158033109234"
    }
  },
  {
    "service_request": "2025-1239423",
    "request_type": "Trash/Recycling",
    "request_reason": "Request a Large Item Pick Up",
    "date_created": "2025-11-11T16:55:15.000",
    "date_modified": "2025-11-11T16:55:17.000",
    "request_status": "Pending",
    "responsible_agency": "Department of Sanitation",
    "final_address": "4738 W Adams Ct",
    "address_councildis": "E",
    "status": "Assigned to Contractor",
    "contractor": "Waste Pro",
    "rowid": "1239423",
    "final_x": "3718460.2949",
    "final_y": "557025.97385",
    "longitude": "-89.95039242961158",
    "latitude": "30.024453332370257",
    "geocoded_column": {
      "latitude": "30.024453332370257",
      "longitude": "-89.95039242961158"
    }
  },
  {
    "service_request": "2025-1239422",
    "request_type": "Trash/Recycling",
    "request_reason": "Replace Trash Cart",
    "date_created": "2025-11-11T16:48:47.000",
    "date_modified": "2025-11-11T16:48:49.000",
    "request_status": "Pending",
    "responsible_agency": "Department of Sanitation",
    "final_address": "4112 Magazine St",
    "address_councildis": "B",
    "status": "Assigned to Contractor",
    "contractor": "IV Waste",
    "rowid": "1239422",
    "final_x": "3672035.78587",
    "final_y": "518840.687351",
    "longitude": "-90.09838646944863",
    "latitude": "29.920915654664906",
    "geocoded_column": {
      "latitude": "29.920915654664906",
      "longitude": "-90.09838646944863"
    }
  },
  {
    "service_request": "2025-1239421",
    "request_type": "Roads and Streets",
    "request_reason": "Street Subsidence (Sinking)",
    "date_created": "2025-11-11T16:46:13.000",
    "date_modified": "2025-11-11T16:46:15.000",
    "request_status": "Pending",
    "responsible_agency": "Sewerage & Water Board",
    "final_address": "8640 Apricot St",
    "address_councildis": "A",
    "status": "Pending",
    "rowid": "1239421",
    "final_x": "3664262.27463",
    "final_y": "534003.352517",
    "longitude": "-90.12241822523563",
    "latitude": "29.9628362127895",
    "geocoded_column": {
      "latitude": "29.9628362127895",
      "longitude": "-90.12241822523563"
    }
  },
  {
    "service_request": "2025-1239420",
    "request_type": "Trash/Recycling",
    "request_reason": "Order Recycling Cart",
    "date_created": "2025-11-11T16:41:52.000",
    "date_modified": "2025-11-11T16:41:55.000",
    "request_status": "Pending",
    "responsible_agency": "Department of Sanitation",
    "final_address": "5934 Music St",
    "address_councildis": "D",
    "status": "Pending",
    "rowid": "1239420",
    "final_x": "3685279.21916",
    "final_y": "554978.141208",
    "longitude": "-90.05531075971456",
    "latitude": "30.019881952569666",
    "geocoded_column": {
      "latitude": "30.019881952569666",
      "longitude": "-90.05531075971456"
    }
  },
  {
    "service_request": "2025-1239419",
    "request_type": "Trash/Recycling",
    "request_reason": "Request a Large Item Pick Up",
    "date_created": "2025-11-11T16:30:47.000",
    "date_modified": "2025-11-11T16:30:49.000",
    "request_status": "Pending",
    "responsible_agency": "Department of Sanitation",
    "final_address": "7718 Belfast St",
    "address_councildis": "A",
    "status": "Assigned to Contractor",
    "contractor": "IV Waste",
    "rowid": "1239419",
    "final_x": "3666594.42785",
    "final_y": "531394.049347",
    "longitude": "-90.11514115718226",
    "latitude": "29.955593511279886",
    "geocoded_column": {
      "latitude": "29.955593511279886",
      "longitude": "-90.11514115718226"
    }
  },
  {
    "service_request": "2025-1239418",
    "request_type": "Trash/Recycling",
    "request_reason": "Request a Large Item Pick Up",
    "date_created": "2025-11-11T16:30:44.000",
    "date_modified": "2025-11-11T16:30:45.000",
    "request_status": "Pending",
    "responsible_agency": "Department of Sanitation",
    "final_address": "3640 Utah St",
    "address_councildis": "C",
    "status": "Assigned to Contractor",
    "contractor": "Richards Disposal",
    "rowid": "1239418",
    "final_x": "3695441.47165",
    "final_y": "517974.34879",
    "longitude": "-90.02453694260973",
    "latitude": "29.917819139605193",
    "geocoded_column": {
      "latitude": "29.917819139605193",
      "longitude": "-90.02453694260973"
    }
  },
  {
    "service_request": "2025-1239417",
    "request_type": "Trash/Recycling",
    "request_reason": "Request a Large Item Pick Up",
    "date_created": "2025-11-11T16:23:01.000",
    "date_modified": "2025-11-11T16:23:02.000",
    "request_status": "Pending",
    "responsible_agency": "Department of Sanitation",
    "final_address": "2227 Odin St",
    "address_councildis": "D",
    "status": "Assigned to Contractor",
    "contractor": "IV Waste",
    "rowid": "1239417",
    "final_x": "3683940.00124",
    "final_y": "553107.349527",
    "longitude": "-90.059607959909",
    "latitude": "30.014778964512548",
    "geocoded_column": {
      "latitude": "30.014778964512548",
      "longitude": "-90.059607959909"
    }
  },
  {
    "service_request": "2025-1239416",
    "request_type": "Trash/Recycling",
    "request_reason": "Request a Large Item Pick Up",
    "date_created": "2025-11-11T16:18:04.000",
    "date_modified": "2025-11-11T16:18:07.000",
    "request_status": "Pending",
    "responsible_agency": "Department of Sanitation",
    "final_address": "7918 Spruce St",
    "address_councildis": "A",
    "status": "Assigned to Contractor",
    "contractor": "IV Waste",
    "rowid": "1239416",
    "final_x": "3664285.813",
    "final_y": "529999.387073",
    "longitude": "-90.1224775083034",
    "latitude": "29.951825927884688",
    "geocoded_column": {
      "latitude": "29.951825927884688",
      "longitude": "-90.1224775083034"
    }
  },
  {
    "service_request": "2025-1239415",
    "request_type": "Trash/Recycling",
    "request_reason": "Request a Large Item Pick Up",
    "date_created": "2025-11-11T16:12:11.000",
    "date_modified": "2025-11-11T16:12:13.000",
    "request_status": "Pending",
    "responsible_agency": "Department of Sanitation",
    "final_address": "4315 Sybil St",
    "address_councildis": "D",
    "status": "Assigned to Contractor",
    "contractor": "IV Waste",
    "rowid": "1239415",
    "final_x": "3679189.226",
    "final_y": "548246.434706",
    "longitude": "-90.07478680237249",
    "latitude": "30.00155754437153",
    "geocoded_column": {
      "latitude": "30.00155754437153",
      "longitude": "-90.07478680237249"
    }
  },
  {
    "service_request": "2025-1239414",
    "request_type": "Trash/Recycling",
    "request_reason": "Replace Trash Cart",
    "date_created": "2025-11-11T15:50:58.000",
    "date_modified": "2025-11-11T15:50:59.000",
    "request_status": "Pending",
    "responsible_agency": "Department of Sanitation",
    "final_address": "1315 Behrman Ave",
    "address_councildis": "C",
    "status": "Assigned to Contractor",
    "contractor": "Richards Disposal",
    "rowid": "1239414",
    "final_x": "3691332.66179",
    "final_y": "526495.52019",
    "longitude": "-90.03720189536423",
    "latitude": "29.941377889202858",
    "geocoded_column": {
      "latitude": "29.941377889202858",
      "longitude": "-90.03720189536423"
    }
  },
  {
    "service_request": "2025-1239413",
    "request_type": "Property Maintenance",
    "request_reason": "Property Maintenance",
    "date_created": "2025-11-11T15:50:50.000",
    "date_modified": "2025-11-11T15:50:52.000",
    "request_status": "Pending",
    "responsible_agency": "Department of Code Enforcement",
    "final_address": "16082 Chef Menteur Hwy",
    "address_councildis": "E",
    "status": "Pending",
    "rowid": "1239413",
    "final_x": "3736886.31322",
    "final_y": "564580.623201",
    "longitude": "-89.89187025890476",
    "latitude": "30.044601080024563",
    "geocoded_column": {
      "latitude": "30.044601080024563",
      "longitude": "-89.89187025890476"
    }
  },
  {
    "service_request": "2025-1239412",
    "request_type": "Roads and Streets",
    "request_reason": "Push-up/Pavement Expansion",
    "date_created": "2025-11-11T15:50:41.000",
    "date_modified": "2025-11-11T15:50:42.000",
    "request_status": "Pending",
    "responsible_agency": "Department of Public Works",
    "final_address": "7400 BLK Leake Ave",
    "address_councildis": "A",
    "status": "Pending",
    "rowid": "1239412",
    "final_x": "3660818.63436",
    "final_y": "523661.673265",
    "longitude": "-90.13363478828873",
    "latitude": "29.934499517609563",
    "geocoded_column": {
      "latitude": "29.934499517609563",
      "longitude": "-90.13363478828873"
    }
  },
  {
    "service_request": "2025-1239411",
    "request_type": "Trash/Recycling",
    "request_reason": "Replace Trash Cart",
    "date_created": "2025-11-11T15:46:59.000",
    "date_modified": "2025-11-11T15:47:01.000",
    "request_status": "Pending",
    "responsible_agency": "Department of Sanitation",
    "final_address": "3622 Elysian Fields Ave",
    "address_councildis": "D",
    "status": "Assigned to Contractor",
    "contractor": "IV Waste",
    "rowid": "1239411",
    "final_x": "3684069.07682",
    "final_y": "546035.678416",
    "longitude": "-90.05944854228746",
    "latitude": "29.995330477953733",
    "geocoded_column": {
      "latitude": "29.995330477953733",
      "longitude": "-90.05944854228746"
    }
  },
  {
    "service_request": "2025-1239410",
    "request_type": "Streetlights",
    "request_reason": "Streetlight Knocked Down/Leaning",
    "date_created": "2025-11-11T15:37:45.000",
    "date_modified": "2025-11-11T15:45:20.000",
    "request_status": "Pending",
    "responsible_agency": "Department of Public Works",
    "final_address": "3318 N Claiborne Ave",
    "address_councildis": "D",
    "status": "Pending",
    "rowid": "1239410",
    "final_x": "3690441.1688",
    "final_y": "537588.518216",
    "longitude": "-90.03962107712043",
    "latitude": "29.971907481270417",
    "geocoded_column": {
      "latitude": "29.971907481270417",
      "longitude": "-90.03962107712043"
    }
  },
  {
    "service_request": "2025-1239409",
    "request_type": "Trash/Recycling",
    "request_reason": "Missed Trash Pick-Up",
    "date_created": "2025-11-11T15:28:45.000",
    "date_modified": "2025-11-11T15:28:48.000",
    "request_status": "Pending",
    "responsible_agency": "Department of Sanitation",
    "final_address": "6 Shoal Creek Dr",
    "address_councildis": "C",
    "status": "Assigned to Contractor",
    "contractor": "Richards Disposal",
    "rowid": "1239409",
    "final_x": "3720277.04204",
    "final_y": "512220.066481",
    "longitude": "-89.94636561804207",
    "latitude": "29.901193539169025",
    "geocoded_column": {
      "latitude": "29.901193539169025",
      "longitude": "-89.94636561804207"
    }
  },
  {
    "service_request": "2025-1239408",
    "request_type": "Streetlights",
    "request_reason": "Streetlight Outage/Malfunction",
    "date_created": "2025-11-11T15:24:17.000",
    "date_modified": "2025-11-11T15:24:20.000",
    "request_status": "Pending",
    "responsible_agency": "Department of Public Works",
    "final_address": "11252 King Richard Dr",
    "address_councildis": "E",
    "status": "Pending",
    "rowid": "1239408",
    "final_x": "3717214.85695",
    "final_y": "556395.39273",
    "longitude": "-89.95435172530449",
    "latitude": "30.0227607576018",
    "geocoded_column": {
      "latitude": "30.0227607576018",
      "longitude": "-89.95435172530449"
    }
  },
  {
    "service_request": "2025-1239407",
    "request_type": "Utility Poles",
    "request_reason": "Wires Sagging/Hanging Low",
    "date_created": "2025-11-11T15:19:21.000",
    "date_modified": "2025-11-11T15:19:24.000",
    "request_status": "Pending",
    "responsible_agency": "Utility Company Collective",
    "final_address": "6315 S Rocheblave St",
    "address_councildis": "A",
    "status": "Pending",
    "rowid": "1239407",
    "final_x": "3667338.72724",
    "final_y": "528958.339648",
    "longitude": "-90.1128728368482",
    "latitude": "29.94887432511642",
    "geocoded_column": {
      "latitude": "29.94887432511642",
      "longitude": "-90.1128728368482"
    }
  },
  {
    "service_request": "2025-1239406",
    "request_type": "Streetlights",
    "request_reason": "Streetlight Outage/Malfunction",
    "date_created": "2025-11-11T15:18:35.000",
    "date_modified": "2025-11-11T15:18:36.000",
    "request_status": "Pending",
    "responsible_agency": "Department of Public Works",
    "final_address": "1111 Canal St",
    "address_councildis": "C",
    "status": "Pending",
    "rowid": "1239406",
    "final_x": "3679986.71823",
    "final_y": "531707.587395",
    "longitude": "-90.07284220329849",
    "latitude": "29.956057344840524",
    "geocoded_column": {
      "latitude": "29.956057344840524",
      "longitude": "-90.07284220329849"
    }
  },
  {
    "service_request": "2025-1239405",
    "request_type": "Roads and Streets",
    "request_reason": "Pothole",
    "date_created": "2025-11-11T15:17:33.000",
    "date_modified": "2025-11-11T15:17:35.000",
    "request_status": "Pending",
    "responsible_agency": "Department of Public Works",
    "final_address": "13200 Dwyer Blvd",
    "address_councildis": "E",
    "status": "Pending",
    "rowid": "1239405",
    "final_x": "3724377.48985",
    "final_y": "561303.82659",
    "longitude": "-89.93153004245288",
    "latitude": "30.036017988145748",
    "geocoded_column": {
      "latitude": "30.036017988145748",
      "longitude": "-89.93153004245288"
    }
  },
  {
    "service_request": "2025-1239404",
    "request_type": "Streetlights",
    "request_reason": "Streetlight Knocked Down/Leaning",
    "date_created": "2025-11-11T15:13:45.000",
    "date_modified": "2025-11-11T15:13:46.000",
    "request_status": "Pending",
    "responsible_agency": "Department of Public Works",
    "final_address": "1610 Allen Toussaint Blvd",
    "address_councildis": "D",
    "status": "Pending",
    "rowid": "1239404",
    "final_x": "3679122.13621",
    "final_y": "555269.311065",
    "longitude": "-90.07475505755605",
    "latitude": "30.020869953757085",
    "geocoded_column": {
      "latitude": "30.020869953757085",
      "longitude": "-90.07475505755605"
    }
  },
  {
    "service_request": "2025-1239403",
    "request_type": "Property Maintenance",
    "request_reason": "Property Maintenance",
    "date_created": "2025-11-11T15:11:06.000",
    "date_modified": "2025-11-11T15:11:07.000",
    "request_status": "Pending",
    "responsible_agency": "Department of Code Enforcement",
    "final_address": "1438 Strand Ct",
    "address_councildis": "E",
    "status": "Pending",
    "rowid": "1239403",
    "final_x": "3699858.9112",
    "final_y": "534748.29863",
    "longitude": "-90.0099821310415",
    "latitude": "29.96380216419895",
    "geocoded_column": {
      "latitude": "29.96380216419895",
      "longitude": "-90.0099821310415"
    }
  },
  {
    "service_request": "2025-1239402",
    "request_type": "Trash/Recycling",
    "request_reason": "MIssed Recycling Pick-Up",
    "date_created": "2025-11-11T15:10:03.000",
    "date_modified": "2025-11-11T16:04:03.000",
    "case_close_date": "2025-11-11T10:04:03.000",
    "request_status": "Closed",
    "responsible_agency": "Department of Sanitation",
    "final_address": "6241 Perlita Dr",
    "address_councildis": "D",
    "status": "Invalid Request",
    "contractor": "IV Waste",
    "contractor_action": "Invalid",
    "rowid": "1239402",
    "final_x": "3678364.50613",
    "final_y": "555982.588441",
    "longitude": "-90.07712424099958",
    "latitude": "30.022854067032547",
    "geocoded_column": {
      "latitude": "30.022854067032547",
      "longitude": "-90.07712424099958"
    }
  },
  {
    "service_request": "2025-1239401",
    "request_type": "Trash/Recycling",
    "request_reason": "Order Recycling Cart",
    "date_created": "2025-11-11T15:06:42.000",
    "date_modified": "2025-11-11T15:06:44.000",
    "request_status": "Pending",
    "responsible_agency": "Department of Sanitation",
    "final_address": "430 Ninth St",
    "address_councildis": "B",
    "status": "Pending",
    "rowid": "1239401",
    "final_x": "3676866.34433",
    "final_y": "518463.876598",
    "longitude": "-90.0831515553132",
    "latitude": "29.919735508882507",
    "geocoded_column": {
      "latitude": "29.919735508882507",
      "longitude": "-90.0831515553132"
    }
  },
  {
    "service_request": "2025-1239400",
    "request_type": "Trash/Recycling",
    "request_reason": "Order Trash Cart",
    "date_created": "2025-11-11T15:06:27.000",
    "date_modified": "2025-11-11T15:06:28.000",
    "request_status": "Pending",
    "responsible_agency": "Department of Sanitation",
    "final_address": "2106 Pace Blvd",
    "address_councildis": "C",
    "status": "Assigned to Contractor",
    "contractor": "Richards Disposal",
    "rowid": "1239400",
    "final_x": "3694531.92784",
    "final_y": "522637.567802",
    "longitude": "-90.02724007941165",
    "latitude": "29.930669947783397",
    "geocoded_column": {
      "latitude": "29.930669947783397",
      "longitude": "-90.02724007941165"
    }
  },
  {
    "service_request": "2025-1239399",
    "request_type": "Trash/Recycling",
    "request_reason": "Request a Large Item Pick Up",
    "date_created": "2025-11-11T15:04:52.000",
    "date_modified": "2025-11-11T15:04:53.000",
    "request_status": "Pending",
    "responsible_agency": "Department of Sanitation",
    "final_address": "11424 Maxine Dr",
    "address_councildis": "E",
    "status": "Assigned to Contractor",
    "contractor": "Waste Pro",
    "rowid": "1239399",
    "final_x": "3718718.83359",
    "final_y": "560693.091678",
    "longitude": "-89.94943555562234",
    "latitude": "30.034527848454513",
    "geocoded_column": {
      "latitude": "30.034527848454513",
      "longitude": "-89.94943555562234"
    }
  },
  {
    "service_request": "2025-1239398",
    "request_type": "Abandoned Vehicles",
    "request_reason": "Abandoned/Junk Vehicles",
    "date_created": "2025-11-11T14:56:42.000",
    "date_modified": "2025-11-11T14:57:28.000",
    "request_status": "Pending",
    "responsible_agency": "Department of Public Works",
    "final_address": "2617 Toulouse St",
    "address_councildis": "D",
    "status": "Inspected",
    "rowid": "1239398",
    "final_x": "3676806.56629",
    "final_y": "536368.424071",
    "longitude": "-90.08272341156503",
    "latitude": "29.96896888047123",
    "geocoded_column": {
      "latitude": "29.96896888047123",
      "longitude": "-90.08272341156503"
    }
  },
  {
    "service_request": "2025-1239397",
    "request_type": "Trash/Recycling",
    "request_reason": "Repair Trash Cart",
    "date_created": "2025-11-11T14:56:38.000",
    "date_modified": "2025-11-11T14:56:40.000",
    "request_status": "Pending",
    "responsible_agency": "Department of Sanitation",
    "final_address": "8601 Oak St",
    "address_councildis": "A",
    "status": "Assigned to Contractor",
    "contractor": "IV Waste",
    "rowid": "1239397",
    "final_x": "3660636.13114",
    "final_y": "529631.878337",
    "longitude": "-90.13401367466253",
    "latitude": "29.950920940301675",
    "geocoded_column": {
      "latitude": "29.950920940301675",
      "longitude": "-90.13401367466253"
    }
  },
  {
    "service_request": "2025-1239396",
    "request_type": "Abandoned Vehicles",
    "request_reason": "Abandoned/Junk Vehicles",
    "date_created": "2025-11-11T14:54:30.000",
    "date_modified": "2025-11-11T14:57:18.000",
    "request_status": "Pending",
    "responsible_agency": "Department of Public Works",
    "final_address": "500 BLK Pacific Ave",
    "address_councildis": "C",
    "status": "Inspected",
    "rowid": "1239396",
    "final_x": "3688496.23878",
    "final_y": "529672.401073",
    "longitude": "-90.04604432367705",
    "latitude": "29.95020114427108",
    "geocoded_column": {
      "latitude": "29.95020114427108",
      "longitude": "-90.04604432367705"
    }
  },
  {
    "service_request": "2025-1239395",
    "request_type": "Trash/Recycling",
    "request_reason": "Replace Trash Cart",
    "date_created": "2025-11-11T14:53:57.000",
    "date_modified": "2025-11-11T14:53:59.000",
    "request_status": "Pending",
    "responsible_agency": "Department of Sanitation",
    "final_address": "7707 Jeannette St",
    "address_councildis": "A",
    "status": "Assigned to Contractor",
    "contractor": "IV Waste",
    "rowid": "1239395",
    "final_x": "3663696.75245",
    "final_y": "528274.35936",
    "longitude": "-90.12439495721364",
    "latitude": "29.947099760619817",
    "geocoded_column": {
      "latitude": "29.947099760619817",
      "longitude": "-90.12439495721364"
    }
  },
  {
    "service_request": "2025-1239394",
    "request_type": "Trash/Recycling",
    "request_reason": "Request a Large Item Pick Up",
    "date_created": "2025-11-11T14:53:22.000",
    "date_modified": "2025-11-11T16:35:35.000",
    "request_status": "Pending",
    "responsible_agency": "Department of Sanitation",
    "final_address": "10320 Flossmoor Dr",
    "address_councildis": "E",
    "status": "Assigned to Contractor",
    "contractor": "Waste Pro",
    "rowid": "1239394",
    "final_x": "3710099.38232",
    "final_y": "563827.740513",
    "longitude": "-89.97655669075003",
    "latitude": "30.043430306562854",
    "geocoded_column": {
      "latitude": "30.043430306562854",
      "longitude": "-89.97655669075003"
    }
  },
  {
    "service_request": "2025-1239393",
    "request_type": "Trash/Recycling",
    "request_reason": "Request a Large Item Pick Up",
    "date_created": "2025-11-11T14:52:32.000",
    "date_modified": "2025-11-11T14:52:33.000",
    "request_status": "Pending",
    "responsible_agency": "Department of Sanitation",
    "final_address": "10320 Flossmoor Dr",
    "address_councildis": "E",
    "status": "Assigned to Contractor",
    "contractor": "Waste Pro",
    "rowid": "1239393",
    "final_x": "3710099.38232",
    "final_y": "563827.740513",
    "longitude": "-89.97655669075003",
    "latitude": "30.043430306562854",
    "geocoded_column": {
      "latitude": "30.043430306562854",
      "longitude": "-89.97655669075003"
    }
  },
  {
    "service_request": "2025-1239392",
    "request_type": "Trash/Recycling",
    "request_reason": "Request a Large Item Pick Up",
    "date_created": "2025-11-11T14:51:06.000",
    "date_modified": "2025-11-11T14:51:08.000",
    "request_status": "Pending",
    "responsible_agency": "Department of Sanitation",
    "final_address": "5353 Perrier St",
    "address_councildis": "B",
    "status": "Assigned to Contractor",
    "contractor": "IV Waste",
    "rowid": "1239392",
    "final_x": "3667230.41421",
    "final_y": "520102.297272",
    "longitude": "-90.11351250634239",
    "latitude": "29.924526217147832",
    "geocoded_column": {
      "latitude": "29.924526217147832",
      "longitude": "-90.11351250634239"
    }
  },
  {
    "service_request": "2025-1239391",
    "request_type": "Trash/Recycling",
    "request_reason": "Request a Large Item Pick Up",
    "date_created": "2025-11-11T14:41:11.000",
    "date_modified": "2025-11-11T14:41:13.000",
    "request_status": "Pending",
    "responsible_agency": "Department of Sanitation",
    "final_address": "11006 S Hardy St",
    "address_councildis": "E",
    "status": "Assigned to Contractor",
    "contractor": "Waste Pro",
    "rowid": "1239391",
    "final_x": "3713322.46194",
    "final_y": "561784.576927",
    "longitude": "-89.96644752914594",
    "latitude": "30.03770709834258",
    "geocoded_column": {
      "latitude": "30.03770709834258",
      "longitude": "-89.96644752914594"
    }
  },
  {
    "service_request": "2025-1239390",
    "request_type": "Trash/Recycling",
    "request_reason": "Request a Large Item Pick Up",
    "date_created": "2025-11-11T14:38:51.000",
    "date_modified": "2025-11-11T14:38:53.000",
    "request_status": "Pending",
    "responsible_agency": "Department of Sanitation",
    "final_address": "509 Elmira Ave",
    "address_councildis": "C",
    "status": "Assigned to Contractor",
    "contractor": "Richards Disposal",
    "rowid": "1239390",
    "final_x": "3688158.98575",
    "final_y": "529805.890049",
    "longitude": "-90.04710445660841",
    "latitude": "29.95057860695841",
    "geocoded_column": {
      "latitude": "29.95057860695841",
      "longitude": "-90.04710445660841"
    }
  },
  {
    "service_request": "2025-1239389",
    "request_type": "Roads and Streets",
    "request_reason": "Sidewalk Damaged or Missing",
    "date_created": "2025-11-11T14:35:36.000",
    "date_modified": "2025-11-11T14:35:38.000",
    "request_status": "Pending",
    "responsible_agency": "Department of Public Works",
    "final_address": "5423 Magazine St",
    "address_councildis": "A",
    "status": "Pending",
    "rowid": "1239389",
    "final_x": "3666565.02241",
    "final_y": "518839.287479",
    "longitude": "-90.11565529866175",
    "latitude": "29.921072798383307",
    "geocoded_column": {
      "latitude": "29.921072798383307",
      "longitude": "-90.11565529866175"
    }
  },
  {
    "service_request": "2025-1239388",
    "request_type": "Trash/Recycling",
    "request_reason": "Order Trash Cart",
    "date_created": "2025-11-11T14:33:32.000",
    "date_modified": "2025-11-11T14:33:33.000",
    "request_status": "Pending",
    "responsible_agency": "Department of Sanitation",
    "final_address": "2558 Orleans Ave",
    "address_councildis": "D",
    "status": "Assigned to Contractor",
    "contractor": "IV Waste",
    "rowid": "1239388",
    "final_x": "3677241.15771",
    "final_y": "536588.602183",
    "longitude": "-90.08134334472344",
    "latitude": "29.969561245664302",
    "geocoded_column": {
      "latitude": "29.969561245664302",
      "longitude": "-90.08134334472344"
    }
  },
  {
    "service_request": "2025-1239387",
    "request_type": "Abandoned Vehicles",
    "request_reason": "Abandoned/Junk Vehicles",
    "date_created": "2025-11-11T14:33:15.000",
    "date_modified": "2025-11-11T14:33:17.000",
    "request_status": "Pending",
    "responsible_agency": "Department of Public Works",
    "final_address": "812 Jackson Ave",
    "address_councildis": "B",
    "status": "Pending",
    "rowid": "1239387",
    "final_x": "3679415.24328",
    "final_y": "521289.115513",
    "longitude": "-90.07500800045602",
    "latitude": "29.927427281535476",
    "geocoded_column": {
      "latitude": "29.927427281535476",
      "longitude": "-90.07500800045602"
    }
  },
  {
    "service_request": "2025-1239386",
    "request_type": "Trash/Recycling",
    "request_reason": "Order Trash Cart",
    "date_created": "2025-11-11T14:20:46.000",
    "date_modified": "2025-11-11T14:20:49.000",
    "request_status": "Pending",
    "responsible_agency": "Department of Sanitation",
    "final_address": "3620 Republic St",
    "address_councildis": "D",
    "status": "Assigned to Contractor",
    "contractor": "IV Waste",
    "rowid": "1239386",
    "final_x": "3680379.40271",
    "final_y": "545743.714256",
    "longitude": "-90.07111401234872",
    "latitude": "29.994639953929937",
    "geocoded_column": {
      "latitude": "29.994639953929937",
      "longitude": "-90.07111401234872"
    }
  },
  {
    "service_request": "2025-1239385",
    "request_type": "Roads and Streets",
    "request_reason": "Pothole",
    "date_created": "2025-11-11T14:18:51.000",
    "date_modified": "2025-11-11T14:18:53.000",
    "request_status": "Pending",
    "responsible_agency": "Department of Public Works",
    "final_address": "12 Christopher Ct",
    "address_councildis": "E",
    "status": "Pending",
    "rowid": "1239385",
    "final_x": "3716668.85125",
    "final_y": "570517.047143",
    "longitude": "-89.9555404206866",
    "latitude": "30.061607626131252",
    "geocoded_column": {
      "latitude": "30.061607626131252",
      "longitude": "-89.9555404206866"
    }
  },
  {
    "service_request": "2025-1239384",
    "request_type": "Property Maintenance",
    "request_reason": "Property Maintenance",
    "date_created": "2025-11-11T14:17:22.000",
    "date_modified": "2025-11-11T14:17:23.000",
    "request_status": "Pending",
    "responsible_agency": "Department of Code Enforcement",
    "final_address": "2229 Lapeyrouse St",
    "address_councildis": "D",
    "status": "Pending",
    "rowid": "1239384",
    "final_x": "3680303.84597",
    "final_y": "539266.103434",
    "longitude": "-90.07157800637901",
    "latitude": "29.97683108010197",
    "geocoded_column": {
      "latitude": "29.97683108010197",
      "longitude": "-90.07157800637901"
    }
  },
  {
    "service_request": "2025-1239383",
    "request_type": "Safety & Permits",
    "request_reason": "Licenses & Permits",
    "date_created": "2025-11-11T14:16:40.000",
    "date_modified": "2025-11-11T14:16:42.000",
    "request_status": "Pending",
    "responsible_agency": "Safety and Permits",
    "final_address": "4511 Knight Dr",
    "address_councildis": "E",
    "status": "Pending",
    "rowid": "1239383",
    "final_x": "3708346.486",
    "final_y": "554159.302232",
    "longitude": "-89.98245677715242",
    "latitude": "30.016902858339122",
    "geocoded_column": {
      "latitude": "30.016902858339122",
      "longitude": "-89.98245677715242"
    }
  },
  {
    "service_request": "2025-1239382",
    "request_type": "Streetlights",
    "request_reason": "Streetlight Outage/Malfunction",
    "date_created": "2025-11-11T14:14:18.000",
    "date_modified": "2025-11-11T14:15:43.000",
    "request_status": "Pending",
    "responsible_agency": "Department of Public Works",
    "final_address": "CHEF MENTEUR HWY & GAWAIN DR",
    "address_councildis": "E",
    "status": "Pending",
    "rowid": "1239382",
    "final_x": "3707222.5",
    "final_y": "553283.48",
    "longitude": "-89.98604061162287",
    "latitude": "30.01453107297759",
    "geocoded_column": {
      "latitude": "30.01453107297759",
      "longitude": "-89.98604061162287"
    }
  },
  {
    "service_request": "2025-1239381",
    "request_type": "Trash/Recycling",
    "request_reason": "Damaged Caused By Contractor",
    "date_created": "2025-11-11T14:14:17.000",
    "date_modified": "2025-11-11T14:14:19.000",
    "request_status": "Pending",
    "responsible_agency": "Department of Sanitation",
    "final_address": "4320 Paris Ave",
    "address_councildis": "D",
    "status": "Assigned to Contractor",
    "contractor": "IV Waste",
    "rowid": "1239381",
    "final_x": "3679318.98907",
    "final_y": "548291.588434",
    "longitude": "-90.07437530085815",
    "latitude": "30.001677781440804",
    "geocoded_column": {
      "latitude": "30.001677781440804",
      "longitude": "-90.07437530085815"
    }
  },
  {
    "service_request": "2025-1239380",
    "request_type": "Trash/Recycling",
    "request_reason": "Replace Trash Cart",
    "date_created": "2025-11-11T14:11:52.000",
    "date_modified": "2025-11-11T14:13:32.000",
    "request_status": "Pending",
    "responsible_agency": "Department of Sanitation",
    "final_address": "2042 Benefit St",
    "address_councildis": "D",
    "status": "Assigned to Contractor",
    "contractor": "IV Waste",
    "rowid": "1239380",
    "final_x": "3683257.55253",
    "final_y": "544280.366607",
    "longitude": "-90.06207358161232",
    "latitude": "29.990528777100327",
    "geocoded_column": {
      "latitude": "29.990528777100327",
      "longitude": "-90.06207358161232"
    }
  },
  {
    "service_request": "2025-1239379",
    "request_type": "Trash/Recycling",
    "request_reason": "Request a Large Item Pick Up",
    "date_created": "2025-11-11T14:11:39.000",
    "date_modified": "2025-11-11T14:11:41.000",
    "request_status": "Pending",
    "responsible_agency": "Department of Sanitation",
    "final_address": "8032 Gus St",
    "address_councildis": "E",
    "status": "Assigned to Contractor",
    "contractor": "Waste Pro",
    "rowid": "1239379",
    "final_x": "3703269.05911",
    "final_y": "563216.248288",
    "longitude": "-89.99816576993643",
    "latitude": "30.041969556196637",
    "geocoded_column": {
      "latitude": "30.041969556196637",
      "longitude": "-89.99816576993643"
    }
  },
  {
    "service_request": "2025-1239378",
    "request_type": "Trash/Recycling",
    "request_reason": "Request a Large Item Pick Up",
    "date_created": "2025-11-11T14:10:43.000",
    "date_modified": "2025-11-11T14:10:44.000",
    "request_status": "Pending",
    "responsible_agency": "Department of Sanitation",
    "final_address": "2238 Octavia St",
    "address_councildis": "A",
    "status": "Assigned to Contractor",
    "contractor": "IV Waste",
    "rowid": "1239378",
    "final_x": "3667525.90497",
    "final_y": "524035.669052",
    "longitude": "-90.11244744390633",
    "latitude": "29.935333085488466",
    "geocoded_column": {
      "latitude": "29.935333085488466",
      "longitude": "-90.11244744390633"
    }
  },
  {
    "service_request": "2025-1239377",
    "request_type": "Roads and Streets",
    "request_reason": "Sidewalk Damaged or Missing",
    "date_created": "2025-11-11T14:10:30.000",
    "date_modified": "2025-11-11T14:10:31.000",
    "request_status": "Pending",
    "responsible_agency": "Department of Public Works",
    "final_address": "4153 Orleans Ave",
    "address_councildis": "A",
    "status": "Pending",
    "rowid": "1239377",
    "final_x": "3672284.06183",
    "final_y": "540619.120587",
    "longitude": "-90.09686095202986",
    "latitude": "29.980791803234826",
    "geocoded_column": {
      "latitude": "29.980791803234826",
      "longitude": "-90.09686095202986"
    }
  },
  {
    "service_request": "2025-1239376",
    "request_type": "Road Striping",
    "request_reason": "Lane Striping or other Pavement Markings",
    "date_created": "2025-11-11T14:09:49.000",
    "date_modified": "2025-11-11T14:18:53.000",
    "request_status": "Pending",
    "responsible_agency": "Department of Public Works",
    "final_address": "3606 Magazine St",
    "address_councildis": "B",
    "status": "Pending",
    "rowid": "1239376",
    "final_x": "3674111.20449",
    "final_y": "519225.929655",
    "longitude": "-90.09182212913626",
    "latitude": "29.921913279284052",
    "geocoded_column": {
      "latitude": "29.921913279284052",
      "longitude": "-90.09182212913626"
    }
  },
  {
    "service_request": "2025-1239375",
    "request_type": "Trash/Recycling",
    "request_reason": "Request a Large Item Pick Up",
    "date_created": "2025-11-11T14:08:50.000",
    "date_modified": "2025-11-11T14:08:52.000",
    "request_status": "Pending",
    "responsible_agency": "Department of Sanitation",
    "final_address": "5713 Constance St",
    "address_councildis": "A",
    "status": "Assigned to Contractor",
    "contractor": "IV Waste",
    "rowid": "1239375",
    "final_x": "3665642.70656",
    "final_y": "518700.141303",
    "longitude": "-90.1185713039261",
    "latitude": "29.920717108476044",
    "geocoded_column": {
      "latitude": "29.920717108476044",
      "longitude": "-90.1185713039261"
    }
  },
  {
    "service_request": "2025-1239374",
    "request_type": "Trash/Recycling",
    "request_reason": "Illegal Dumping",
    "date_created": "2025-11-11T14:07:50.000",
    "date_modified": "2025-11-11T14:07:52.000",
    "request_status": "Pending",
    "responsible_agency": "Department of Sanitation",
    "final_address": "2455 N Rocheblave St",
    "address_councildis": "D",
    "status": "Pending",
    "rowid": "1239374",
    "final_x": "3685539.23855",
    "final_y": "541202.508172",
    "longitude": "-90.05497478812273",
    "latitude": "29.981995955262825",
    "geocoded_column": {
      "latitude": "29.981995955262825",
      "longitude": "-90.05497478812273"
    }
  },
  {
    "service_request": "2025-1239373",
    "request_type": "Trash/Recycling",
    "request_reason": "Request a Large Item Pick Up",
    "date_created": "2025-11-11T14:07:06.000",
    "date_modified": "2025-11-11T14:07:09.000",
    "request_status": "Pending",
    "responsible_agency": "Department of Sanitation",
    "final_address": "1209 Charbonnet St",
    "address_councildis": "E",
    "status": "Assigned to Contractor",
    "contractor": "Waste Pro",
    "rowid": "1239373",
    "final_x": "3698791.80996",
    "final_y": "534109.939845",
    "longitude": "-90.01337513447697",
    "latitude": "29.962080749245455",
    "geocoded_column": {
      "latitude": "29.962080749245455",
      "longitude": "-90.01337513447697"
    }
  },
  {
    "service_request": "2025-1239372",
    "request_type": "Property Maintenance",
    "request_reason": "Property Maintenance",
    "date_created": "2025-11-11T14:00:54.000",
    "date_modified": "2025-11-11T14:00:55.000",
    "request_status": "Pending",
    "responsible_agency": "Department of Code Enforcement",
    "final_address": "2455 N Rocheblave St",
    "address_councildis": "D",
    "status": "Pending",
    "rowid": "1239372",
    "final_x": "3685539.23855",
    "final_y": "541202.508172",
    "longitude": "-90.05497478812273",
    "latitude": "29.981995955262825",
    "geocoded_column": {
      "latitude": "29.981995955262825",
      "longitude": "-90.05497478812273"
    }
  },
  {
    "service_request": "2025-1239371",
    "request_type": "Trash/Recycling",
    "request_reason": "Repair Trash Cart",
    "date_created": "2025-11-11T14:00:22.000",
    "date_modified": "2025-11-11T14:00:24.000",
    "request_status": "Pending",
    "responsible_agency": "Department of Sanitation",
    "final_address": "8924 Oleander St",
    "address_councildis": "A",
    "status": "Assigned to Contractor",
    "contractor": "IV Waste",
    "rowid": "1239371",
    "final_x": "3664515.17562",
    "final_y": "535669.159175",
    "longitude": "-90.12156396191776",
    "latitude": "29.96740928194433",
    "geocoded_column": {
      "latitude": "29.96740928194433",
      "longitude": "-90.12156396191776"
    }
  },
  {
    "service_request": "2025-1239370",
    "request_type": "Abandoned Vehicles",
    "request_reason": "Abandoned/Junk Vehicles",
    "date_created": "2025-11-11T13:57:43.000",
    "date_modified": "2025-11-11T13:59:12.000",
    "request_status": "Pending",
    "responsible_agency": "Department of Public Works",
    "final_address": "932 Lowerline St",
    "address_councildis": "A",
    "status": "Inspected",
    "rowid": "1239370",
    "final_x": "3663208.77978",
    "final_y": "526195.736958",
    "longitude": "-90.12600482870685",
    "latitude": "29.941398361400907",
    "geocoded_column": {
      "latitude": "29.941398361400907",
      "longitude": "-90.12600482870685"
    }
  },
  {
    "service_request": "2025-1239369",
    "request_type": "Trash/Recycling",
    "request_reason": "Illegal Dumping",
    "date_created": "2025-11-11T13:54:47.000",
    "date_modified": "2025-11-11T13:55:26.000",
    "request_status": "Pending",
    "responsible_agency": "Department of Sanitation",
    "final_address": "1727 Bordeaux St",
    "address_councildis": "B",
    "status": "Pending",
    "rowid": "1239369",
    "final_x": "3669423.18746",
    "final_y": "521314.262521",
    "longitude": "-90.10654968566124",
    "latitude": "29.92779436673298",
    "geocoded_column": {
      "latitude": "29.92779436673298",
      "longitude": "-90.10654968566124"
    }
  },
  {
    "service_request": "2025-1239368",
    "request_type": "Utility Poles",
    "request_reason": "Wires Sagging/Hanging Low",
    "date_created": "2025-11-11T13:54:25.000",
    "date_modified": "2025-11-11T13:58:46.000",
    "request_status": "Pending",
    "responsible_agency": "Utility Company Collective",
    "final_address": "1727 Bordeaux St",
    "address_councildis": "B",
    "status": "Pending",
    "rowid": "1239368",
    "final_x": "3669423.18746",
    "final_y": "521314.262521",
    "longitude": "-90.10654968566124",
    "latitude": "29.92779436673298",
    "geocoded_column": {
      "latitude": "29.92779436673298",
      "longitude": "-90.10654968566124"
    }
  },
  {
    "service_request": "2025-1239367",
    "request_type": "Streetlights",
    "request_reason": "Streetlight Outage/Malfunction",
    "date_created": "2025-11-11T13:52:36.000",
    "date_modified": "2025-11-11T13:52:37.000",
    "request_status": "Pending",
    "responsible_agency": "Department of Public Works",
    "final_address": "4562 Gallier Dr",
    "address_councildis": "D",
    "status": "Pending",
    "rowid": "1239367",
    "final_x": "3692070.05283",
    "final_y": "551406.767125",
    "longitude": "-90.03398195503156",
    "latitude": "30.009851991903787",
    "geocoded_column": {
      "latitude": "30.009851991903787",
      "longitude": "-90.03398195503156"
    }
  },
  {
    "service_request": "2025-1239366",
    "request_type": "Parks & Parkways",
    "request_reason": "Request Tree Service (Right of Way/Public Property)",
    "date_created": "2025-11-11T13:51:47.000",
    "date_modified": "2025-11-11T22:30:11.000",
    "request_status": "Pending",
    "responsible_agency": "Department of Parks & Parkway",
    "final_address": "10000 BLK Morrison Rd",
    "address_councildis": "E",
    "status": "Pending",
    "rowid": "1239366",
    "final_x": "3709538.99296",
    "final_y": "563956.268857",
    "longitude": "-89.97832293869196",
    "latitude": "30.04380194123472",
    "geocoded_column": {
      "latitude": "30.04380194123472",
      "longitude": "-89.97832293869196"
    }
  },
  {
    "service_request": "2025-1239365",
    "request_type": "Trash/Recycling",
    "request_reason": "Request a Large Item Pick Up",
    "date_created": "2025-11-11T13:49:55.000",
    "date_modified": "2025-11-11T13:49:56.000",
    "request_status": "Pending",
    "responsible_agency": "Department of Sanitation",
    "final_address": "2438 Acacia St",
    "address_councildis": "D",
    "status": "Assigned to Contractor",
    "contractor": "IV Waste",
    "rowid": "1239365",
    "final_x": "3685806.52988",
    "final_y": "545970.565712",
    "longitude": "-90.05396240797914",
    "latitude": "29.995098214570472",
    "geocoded_column": {
      "latitude": "29.995098214570472",
      "longitude": "-90.05396240797914"
    }
  },
  {
    "service_request": "2025-1239364",
    "request_type": "Trash/Recycling",
    "request_reason": "Request a Large Item Pick Up",
    "date_created": "2025-11-11T13:46:36.000",
    "date_modified": "2025-11-11T13:46:38.000",
    "request_status": "Pending",
    "responsible_agency": "Department of Sanitation",
    "final_address": "13810 PierreS Ct",
    "address_councildis": "E",
    "status": "Assigned to Contractor",
    "contractor": "Waste Pro",
    "rowid": "1239364",
    "final_x": "3725314.60006",
    "final_y": "570383.559079",
    "longitude": "-89.92821677828411",
    "latitude": "30.06095190906467",
    "geocoded_column": {
      "latitude": "30.06095190906467",
      "longitude": "-89.92821677828411"
    }
  },
  {
    "service_request": "2025-1239363",
    "request_type": "Trash/Recycling",
    "request_reason": "Request a Large Item Pick Up",
    "date_created": "2025-11-11T13:45:50.000",
    "date_modified": "2025-11-11T13:45:51.000",
    "request_status": "Pending",
    "responsible_agency": "Department of Sanitation",
    "final_address": "3120 Lancaster St",
    "address_councildis": "C",
    "status": "Assigned to Contractor",
    "contractor": "Richards Disposal",
    "rowid": "1239363",
    "final_x": "3710049.73598",
    "final_y": "519074.213687",
    "longitude": "-89.97838610610995",
    "latitude": "29.920376496841197",
    "geocoded_column": {
      "latitude": "29.920376496841197",
      "longitude": "-89.97838610610995"
    }
  },
  {
    "service_request": "2025-1239361",
    "request_type": "Trash/Recycling",
    "request_reason": "Request a Large Item Pick Up",
    "date_created": "2025-11-11T13:44:44.000",
    "date_modified": "2025-11-11T13:44:45.000",
    "request_status": "Pending",
    "responsible_agency": "Department of Sanitation",
    "final_address": "2311 Killdeer St",
    "address_councildis": "D",
    "status": "Assigned to Contractor",
    "contractor": "IV Waste",
    "rowid": "1239361",
    "final_x": "3684197.21506",
    "final_y": "557633.748187",
    "longitude": "-90.05863619491832",
    "latitude": "30.02721702963286",
    "geocoded_column": {
      "latitude": "30.02721702963286",
      "longitude": "-90.05863619491832"
    }
  },
  {
    "service_request": "2025-1239360",
    "request_type": "Trash/Recycling",
    "request_reason": "Order Trash Cart",
    "date_created": "2025-11-11T13:44:10.000",
    "date_modified": "2025-11-11T13:44:12.000",
    "request_status": "Pending",
    "responsible_agency": "Department of Sanitation",
    "final_address": "428 Bouny St",
    "address_councildis": "C",
    "status": "Assigned to Contractor",
    "contractor": "Richards Disposal",
    "rowid": "1239360",
    "final_x": "3686076.54364",
    "final_y": "529872.925697",
    "longitude": "-90.05367735731996",
    "latitude": "29.950827043475023",
    "geocoded_column": {
      "latitude": "29.950827043475023",
      "longitude": "-90.05367735731996"
    }
  },
  {
    "service_request": "2025-1239359",
    "request_type": "Safety & Permits",
    "request_reason": "Zoning Enforcement",
    "date_created": "2025-11-11T13:44:07.000",
    "date_modified": "2025-11-11T13:44:10.000",
    "request_status": "Pending",
    "responsible_agency": "Safety and Permits",
    "final_address": "S SARATOGA ST & JEFFERSON AVE",
    "address_councildis": "B",
    "status": "Pending",
    "rowid": "1239359",
    "final_x": "3667630.6",
    "final_y": "522602.78",
    "longitude": "-90.11216513057431",
    "latitude": "29.93139003053911",
    "geocoded_column": {
      "latitude": "29.93139003053911",
      "longitude": "-90.11216513057431"
    }
  },
  {
    "service_request": "2025-1239358",
    "request_type": "Parks & Parkways",
    "request_reason": "Request Tree Service (Right of Way/Public Property)",
    "date_created": "2025-11-11T13:38:22.000",
    "date_modified": "2025-11-11T13:38:24.000",
    "request_status": "Pending",
    "responsible_agency": "Department of Parks & Parkway",
    "final_address": "4841 Canal St",
    "address_councildis": "A",
    "status": "Pending",
    "rowid": "1239358",
    "final_x": "3668666.16058",
    "final_y": "540309.511179",
    "longitude": "-90.10829836857972",
    "latitude": "29.980047334396573",
    "geocoded_column": {
      "latitude": "29.980047334396573",
      "longitude": "-90.10829836857972"
    }
  },
  {
    "service_request": "2025-1239357",
    "request_type": "General Services",
    "request_reason": "General Service Request",
    "date_created": "2025-11-11T13:37:02.000",
    "date_modified": "2025-11-11T14:17:58.000",
    "case_close_date": "2025-11-11T08:17:57.000",
    "request_status": "Closed",
    "responsible_agency": "Orleans Parish Communication District",
    "final_address": "829 Fourth St",
    "address_councildis": "B",
    "status": "Question Answered.",
    "rowid": "1239357",
    "final_x": "3677825.40546",
    "final_y": "520296.371",
    "longitude": "-90.08006100306547",
    "latitude": "29.924745467949304",
    "geocoded_column": {
      "latitude": "29.924745467949304",
      "longitude": "-90.08006100306547"
    }
  },
  {
    "service_request": "2025-1239356",
    "request_type": "Trash/Recycling",
    "request_reason": "Request a Large Item Pick Up",
    "date_created": "2025-11-11T13:36:07.000",
    "date_modified": "2025-11-11T13:36:09.000",
    "request_status": "Pending",
    "responsible_agency": "Department of Sanitation",
    "final_address": "1480 Sere St",
    "address_councildis": "D",
    "status": "Assigned to Contractor",
    "contractor": "IV Waste",
    "rowid": "1239356",
    "final_x": "3678781.53678",
    "final_y": "545404.254288",
    "longitude": "-90.07617324296267",
    "latitude": "29.993754859897525",
    "geocoded_column": {
      "latitude": "29.993754859897525",
      "longitude": "-90.07617324296267"
    }
  },
  {
    "service_request": "2025-1239355",
    "request_type": "Trash/Recycling",
    "request_reason": "Illegal Dumping",
    "date_created": "2025-11-11T13:35:59.000",
    "date_modified": "2025-11-11T13:37:44.000",
    "request_status": "Pending",
    "responsible_agency": "Department of Sanitation",
    "final_address": "4413 Flite St",
    "address_councildis": "D",
    "status": "Pending",
    "rowid": "1239355",
    "final_x": "3696454.26858",
    "final_y": "552508.186774",
    "longitude": "-90.02009082832146",
    "latitude": "30.012743054458358",
    "geocoded_column": {
      "latitude": "30.012743054458358",
      "longitude": "-90.02009082832146"
    }
  },
  {
    "service_request": "2025-1239354",
    "request_type": "Trash/Recycling",
    "request_reason": "Illegal Dumping",
    "date_created": "2025-11-11T13:35:55.000",
    "date_modified": "2025-11-11T13:35:57.000",
    "request_status": "Pending",
    "responsible_agency": "Department of Sanitation",
    "final_address": "7861 Sail St",
    "address_councildis": "E",
    "status": "Pending",
    "rowid": "1239354",
    "final_x": "3719922.09234",
    "final_y": "574275.192938",
    "longitude": "-89.94511313279678",
    "latitude": "30.0718329858278",
    "geocoded_column": {
      "latitude": "30.0718329858278",
      "longitude": "-89.94511313279678"
    }
  },
  {
    "service_request": "2025-1239353",
    "request_type": "Parks & Parkways",
    "request_reason": "Request Tree Service (Right of Way/Public Property)",
    "date_created": "2025-11-11T13:34:26.000",
    "date_modified": "2025-11-11T13:34:28.000",
    "request_status": "Pending",
    "responsible_agency": "Department of Parks & Parkway",
    "final_address": "2905 St Bernard Ave",
    "address_councildis": "D",
    "status": "Pending",
    "rowid": "1239353",
    "final_x": "3679642.83688",
    "final_y": "542950.589389",
    "longitude": "-90.07353774051242",
    "latitude": "29.986982132013598",
    "geocoded_column": {
      "latitude": "29.986982132013598",
      "longitude": "-90.07353774051242"
    }
  },
  {
    "service_request": "2025-1239352",
    "request_type": "Trash/Recycling",
    "request_reason": "Request a Large Item Pick Up",
    "date_created": "2025-11-11T13:33:00.000",
    "date_modified": "2025-11-11T13:33:02.000",
    "request_status": "Pending",
    "responsible_agency": "Department of Sanitation",
    "final_address": "3018 Constance St",
    "address_councildis": "B",
    "status": "Assigned to Contractor",
    "contractor": "IV Waste",
    "rowid": "1239352",
    "final_x": "3676463.41166",
    "final_y": "519938.616056",
    "longitude": "-90.08437267728647",
    "latitude": "29.923802648951373",
    "geocoded_column": {
      "latitude": "29.923802648951373",
      "longitude": "-90.08437267728647"
    }
  },
  {
    "service_request": "2025-1239351",
    "request_type": "Trash/Recycling",
    "request_reason": "Request a Large Item Pick Up",
    "date_created": "2025-11-11T13:32:05.000",
    "date_modified": "2025-11-11T13:32:07.000",
    "request_status": "Pending",
    "responsible_agency": "Department of Sanitation",
    "final_address": "4517 Mendez St",
    "address_councildis": "D",
    "status": "Assigned to Contractor",
    "contractor": "IV Waste",
    "rowid": "1239351",
    "final_x": "3690425.93372",
    "final_y": "553928.102744",
    "longitude": "-90.03908632733653",
    "latitude": "30.016835892750905",
    "geocoded_column": {
      "latitude": "30.016835892750905",
      "longitude": "-90.03908632733653"
    }
  },
  {
    "service_request": "2025-1239350",
    "request_type": "Abandoned Vehicles",
    "request_reason": "Abandoned/Junk Vehicles",
    "date_created": "2025-11-11T13:31:22.000",
    "date_modified": "2025-11-11T14:24:38.000",
    "request_status": "Pending",
    "responsible_agency": "Department of Public Works",
    "final_address": "VIRGILIAN ST & S LAVERNE ST",
    "address_councildis": "D",
    "status": "Inspected",
    "rowid": "1239350",
    "final_x": "3697250.8",
    "final_y": "555523.18",
    "longitude": "-90.0174648473444",
    "latitude": "30.02100802174686",
    "geocoded_column": {
      "latitude": "30.02100802174686",
      "longitude": "-90.0174648473444"
    }
  },
  {
    "service_request": "2025-1239349",
    "request_type": "Abandoned Vehicles",
    "request_reason": "Abandoned/Junk Vehicles",
    "date_created": "2025-11-11T13:22:18.000",
    "date_modified": "2025-11-11T13:22:55.000",
    "request_status": "Pending",
    "responsible_agency": "Department of Public Works",
    "final_address": "2000 BLK Sere St",
    "address_councildis": "D",
    "status": "Pending",
    "rowid": "1239349",
    "final_x": "3683279.62291",
    "final_y": "545801.879641",
    "longitude": "-90.06195054045158",
    "latitude": "29.994711723923476",
    "geocoded_column": {
      "latitude": "29.994711723923476",
      "longitude": "-90.06195054045158"
    }
  },
  {
    "service_request": "2025-1239348",
    "request_type": "Trash/Recycling",
    "request_reason": "Request a Large Item Pick Up",
    "date_created": "2025-11-11T13:21:20.000",
    "date_modified": "2025-11-11T13:21:22.000",
    "request_status": "Pending",
    "responsible_agency": "Department of Sanitation",
    "final_address": "629 N Murat St",
    "address_councildis": "A",
    "status": "Assigned to Contractor",
    "contractor": "IV Waste",
    "rowid": "1239348",
    "final_x": "3670916.33774",
    "final_y": "541049.472396",
    "longitude": "-90.10116622145631",
    "latitude": "29.982015635587437",
    "geocoded_column": {
      "latitude": "29.982015635587437",
      "longitude": "-90.10116622145631"
    }
  },
  {
    "service_request": "2025-1239347",
    "request_type": "Trash/Recycling",
    "request_reason": "Order Recycling Cart",
    "date_created": "2025-11-11T13:18:17.000",
    "date_modified": "2025-11-11T13:18:20.000",
    "request_status": "Pending",
    "responsible_agency": "Department of Sanitation",
    "final_address": "1908 Dumaine St",
    "address_councildis": "D",
    "status": "Pending",
    "rowid": "1239347",
    "final_x": "3679533.51413",
    "final_y": "535645.520646",
    "longitude": "-90.07413661869084",
    "latitude": "29.966899024035296",
    "geocoded_column": {
      "latitude": "29.966899024035296",
      "longitude": "-90.07413661869084"
    }
  },
  {
    "service_request": "2025-1239346",
    "request_type": "Trash/Recycling",
    "request_reason": "Order Second Trash Cart",
    "date_created": "2025-11-11T13:14:58.000",
    "date_modified": "2025-11-11T13:16:38.000",
    "request_status": "Pending",
    "responsible_agency": "Department of Sanitation",
    "final_address": "1521 Annunciation St",
    "address_councildis": "B",
    "status": "Assigned to Contractor",
    "contractor": "IV Waste",
    "rowid": "1239346",
    "final_x": "3680782.3965",
    "final_y": "523506.946811",
    "longitude": "-90.07061508612496",
    "latitude": "29.933484234229155",
    "geocoded_column": {
      "latitude": "29.933484234229155",
      "longitude": "-90.07061508612496"
    }
  },
  {
    "service_request": "2025-1239345",
    "request_type": "Abandoned Vehicles",
    "request_reason": "Abandoned/Junk Vehicles",
    "date_created": "2025-11-11T13:12:38.000",
    "date_modified": "2025-11-11T13:12:40.000",
    "request_status": "Pending",
    "responsible_agency": "Department of Public Works",
    "final_address": "1633 Deslonde St",
    "address_councildis": "E",
    "status": "Pending",
    "rowid": "1239345",
    "final_x": "3696012.28944",
    "final_y": "536528.341511",
    "longitude": "-90.02206499794615",
    "latitude": "29.968818242625066",
    "geocoded_column": {
      "latitude": "29.968818242625066",
      "longitude": "-90.02206499794615"
    }
  },
  {
    "service_request": "2025-1239344",
    "request_type": "Abandoned Vehicles",
    "request_reason": "Abandoned/Junk Vehicles",
    "date_created": "2025-11-11T13:08:42.000",
    "date_modified": "2025-11-11T13:09:58.000",
    "request_status": "Pending",
    "responsible_agency": "Department of Public Works",
    "final_address": "4621 St Charles Ave",
    "address_councildis": "B",
    "status": "Inspected",
    "rowid": "1239344",
    "final_x": "3669901.84154",
    "final_y": "520823.682809",
    "longitude": "-90.1050552842891",
    "latitude": "29.926431329162618",
    "geocoded_column": {
      "latitude": "29.926431329162618",
      "longitude": "-90.1050552842891"
    }
  },
  {
    "service_request": "2025-1239343",
    "request_type": "Trash/Recycling",
    "request_reason": "Missed Trash Pick-Up",
    "date_created": "2025-11-11T13:07:49.000",
    "date_modified": "2025-11-11T14:04:20.000",
    "case_close_date": "2025-11-11T08:04:19.000",
    "request_status": "Closed",
    "responsible_agency": "Department of Sanitation",
    "final_address": "1222 N Miro St",
    "address_councildis": "D",
    "status": "Invalid Request",
    "contractor": "IV Waste",
    "contractor_action": "Invalid",
    "rowid": "1239343",
    "final_x": "3679343.23976",
    "final_y": "537497.609224",
    "longitude": "-90.07467325746383",
    "latitude": "29.971997380998392",
    "geocoded_column": {
      "latitude": "29.971997380998392",
      "longitude": "-90.07467325746383"
    }
  },
  {
    "service_request": "2025-1239342",
    "request_type": "Trash/Recycling",
    "request_reason": "Return Trash Cart",
    "date_created": "2025-11-11T13:05:56.000",
    "date_modified": "2025-11-11T13:05:58.000",
    "request_status": "Pending",
    "responsible_agency": "Department of Sanitation",
    "final_address": "4801 Cardenas Dr",
    "address_councildis": "E",
    "status": "Assigned to Contractor",
    "contractor": "Waste Pro",
    "rowid": "1239342",
    "final_x": "3713735.63864",
    "final_y": "556539.511962",
    "longitude": "-89.96533969716495",
    "latitude": "30.02327169989071",
    "geocoded_column": {
      "latitude": "30.02327169989071",
      "longitude": "-89.96533969716495"
    }
  },
  {
    "service_request": "2025-1239341",
    "request_type": "Trash/Recycling",
    "request_reason": "Request a Large Item Pick Up",
    "date_created": "2025-11-11T13:00:33.000",
    "date_modified": "2025-11-11T13:00:38.000",
    "request_status": "Pending",
    "responsible_agency": "Department of Sanitation",
    "final_address": "6000 Eastover Dr",
    "address_councildis": "E",
    "status": "Assigned to Contractor",
    "contractor": "Waste Pro",
    "rowid": "1239341",
    "final_x": "3719006.6974",
    "final_y": "565431.132386",
    "longitude": "-89.94834489854064",
    "latitude": "30.04754596522158",
    "geocoded_column": {
      "latitude": "30.04754596522158",
      "longitude": "-89.94834489854064"
    }
  },
  {
    "service_request": "2025-1239340",
    "request_type": "Trash/Recycling",
    "request_reason": "Request a Large Item Pick Up",
    "date_created": "2025-11-11T12:55:48.000",
    "date_modified": "2025-11-11T12:55:50.000",
    "request_status": "Pending",
    "responsible_agency": "Department of Sanitation",
    "final_address": "5455 Marais St",
    "address_councildis": "E",
    "status": "Assigned to Contractor",
    "contractor": "Waste Pro",
    "rowid": "1239340",
    "final_x": "3697698.52963",
    "final_y": "534251.010373",
    "longitude": "-90.01682240979383",
    "latitude": "29.962503227215628",
    "geocoded_column": {
      "latitude": "29.962503227215628",
      "longitude": "-90.01682240979383"
    }
  },
  {
    "service_request": "2025-1239339",
    "request_type": "Trash/Recycling",
    "request_reason": "Replace Trash Cart",
    "date_created": "2025-11-11T12:54:52.000",
    "date_modified": "2025-11-11T12:54:54.000",
    "request_status": "Pending",
    "responsible_agency": "Department of Sanitation",
    "final_address": "1229 Mazant St",
    "address_councildis": "D",
    "status": "Assigned to Contractor",
    "contractor": "IV Waste",
    "rowid": "1239339",
    "final_x": "3692291.3151",
    "final_y": "535798.133383",
    "longitude": "-90.03384216914868",
    "latitude": "29.966926988664596",
    "geocoded_column": {
      "latitude": "29.966926988664596",
      "longitude": "-90.03384216914868"
    }
  },
  {
    "service_request": "2025-1239338",
    "request_type": "Trash/Recycling",
    "request_reason": "Order Recycling Cart",
    "date_created": "2025-11-11T12:54:23.000",
    "date_modified": "2025-11-11T12:54:25.000",
    "request_status": "Pending",
    "responsible_agency": "Department of Sanitation",
    "final_address": "1229 Mazant St",
    "address_councildis": "D",
    "status": "Pending",
    "rowid": "1239338",
    "final_x": "3692291.3151",
    "final_y": "535798.133383",
    "longitude": "-90.03384216914868",
    "latitude": "29.966926988664596",
    "geocoded_column": {
      "latitude": "29.966926988664596",
      "longitude": "-90.03384216914868"
    }
  },
  {
    "service_request": "2025-1239337",
    "request_type": "Trash/Recycling",
    "request_reason": "Illegal Dumping",
    "date_created": "2025-11-11T12:48:22.000",
    "date_modified": "2025-11-11T12:48:24.000",
    "request_status": "Pending",
    "responsible_agency": "Department of Sanitation",
    "final_address": "2600 BLK Elysian Fields Ave",
    "address_councildis": "D",
    "status": "Pending",
    "rowid": "1239337",
    "final_x": "3684638.48272",
    "final_y": "541767.950044",
    "longitude": "-90.05779992066294",
    "latitude": "29.983578322398532",
    "geocoded_column": {
      "latitude": "29.983578322398532",
      "longitude": "-90.05779992066294"
    }
  },
  {
    "service_request": "2025-1239336",
    "request_type": "Abandoned Vehicles",
    "request_reason": "Abandoned/Junk Vehicles",
    "date_created": "2025-11-11T12:46:10.000",
    "date_modified": "2025-11-11T12:46:11.000",
    "request_status": "Pending",
    "responsible_agency": "Department of Public Works",
    "final_address": "3309 Martin Luther King, Jr. Blvd",
    "address_councildis": "B",
    "status": "Pending",
    "rowid": "1239336",
    "final_x": "3674103.58516",
    "final_y": "528845.508032",
    "longitude": "-90.0915170968364",
    "latitude": "29.94836421709694",
    "geocoded_column": {
      "latitude": "29.94836421709694",
      "longitude": "-90.0915170968364"
    }
  },
  {
    "service_request": "2025-1239335",
    "request_type": "Trash/Recycling",
    "request_reason": "Request a Large Item Pick Up",
    "date_created": "2025-11-11T12:45:47.000",
    "date_modified": "2025-11-11T12:45:52.000",
    "request_status": "Pending",
    "responsible_agency": "Department of Sanitation",
    "final_address": "5140 Norgate Dr",
    "address_councildis": "E",
    "status": "Assigned to Contractor",
    "contractor": "Waste Pro",
    "rowid": "1239335",
    "final_x": "3707429.22692",
    "final_y": "557237.108187",
    "longitude": "-89.98524049825426",
    "latitude": "30.0253953314112",
    "geocoded_column": {
      "latitude": "30.0253953314112",
      "longitude": "-89.98524049825426"
    }
  },
  {
    "service_request": "2025-1239334",
    "request_type": "Parks & Parkways",
    "request_reason": "Request Tree Service (Right of Way/Public Property)",
    "date_created": "2025-11-11T12:42:31.000",
    "date_modified": "2025-11-11T12:42:33.000",
    "request_status": "Pending",
    "responsible_agency": "Department of Parks & Parkway",
    "final_address": "3422 Louisiana Avenue Prkwy",
    "address_councildis": "B",
    "status": "Pending",
    "rowid": "1239334",
    "final_x": "3671634.23943",
    "final_y": "527671.873663",
    "longitude": "-90.09935376895379",
    "latitude": "29.94521046210719",
    "geocoded_column": {
      "latitude": "29.94521046210719",
      "longitude": "-90.09935376895379"
    }
  },
  {
    "service_request": "2025-1239333",
    "request_type": "Abandoned Vehicles",
    "request_reason": "Abandoned/Junk Vehicles",
    "date_created": "2025-11-11T12:40:34.000",
    "date_modified": "2025-11-11T12:40:36.000",
    "request_status": "Pending",
    "responsible_agency": "Department of Public Works",
    "final_address": "129 S Bernadotte St",
    "address_councildis": "A",
    "status": "Pending",
    "rowid": "1239333",
    "final_x": "3668580.57428",
    "final_y": "539902.004618",
    "longitude": "-90.10858244379673",
    "latitude": "29.978929344742312",
    "geocoded_column": {
      "latitude": "29.978929344742312",
      "longitude": "-90.10858244379673"
    }
  },
  {
    "service_request": "2025-1239332",
    "request_type": "General Services",
    "request_reason": "General Service Request",
    "date_created": "2025-11-11T12:35:41.000",
    "date_modified": "2025-11-11T12:38:31.000",
    "case_close_date": "2025-11-11T06:38:27.000",
    "request_status": "Closed",
    "responsible_agency": "Orleans Parish Communication District",
    "final_address": "6220 Freret St",
    "address_councildis": "A",
    "status": "Question Answered.",
    "rowid": "1239332",
    "final_x": "3665733.71892",
    "final_y": "524645.390204",
    "longitude": "-90.11808498670464",
    "latitude": "29.93706200929093",
    "geocoded_column": {
      "latitude": "29.93706200929093",
      "longitude": "-90.11808498670464"
    }
  },
  {
    "service_request": "2025-1239331",
    "request_type": "Roads and Streets",
    "request_reason": "Pothole",
    "date_created": "2025-11-11T12:35:20.000",
    "date_modified": "2025-11-11T12:35:22.000",
    "request_status": "Pending",
    "responsible_agency": "Department of Public Works",
    "final_address": "240 Decatur St",
    "address_councildis": "C",
    "status": "Pending",
    "rowid": "1239331",
    "final_x": "3682286.45756",
    "final_y": "530787.225666",
    "longitude": "-90.06561257362986",
    "latitude": "29.953456899877665",
    "geocoded_column": {
      "latitude": "29.953456899877665",
      "longitude": "-90.06561257362986"
    }
  },
  {
    "service_request": "2025-1239330",
    "request_type": "Trash/Recycling",
    "request_reason": "Repair Trash Cart",
    "date_created": "2025-11-11T12:34:07.000",
    "date_modified": "2025-11-11T12:34:08.000",
    "request_status": "Pending",
    "responsible_agency": "Department of Sanitation",
    "final_address": "3241 Vincennes Pl",
    "address_councildis": "A",
    "status": "Assigned to Contractor",
    "contractor": "IV Waste",
    "rowid": "1239330",
    "final_x": "3667760.62791",
    "final_y": "528176.918976",
    "longitude": "-90.11156701801136",
    "latitude": "29.94671330902512",
    "geocoded_column": {
      "latitude": "29.94671330902512",
      "longitude": "-90.11156701801136"
    }
  },
  {
    "service_request": "2025-1239329",
    "request_type": "Trash/Recycling",
    "request_reason": "Order Trash Cart",
    "date_created": "2025-11-11T12:28:41.000",
    "date_modified": "2025-11-11T12:28:42.000",
    "request_status": "Pending",
    "responsible_agency": "Department of Sanitation",
    "final_address": "2116 Delachaise St",
    "address_councildis": "B",
    "status": "Assigned to Contractor",
    "contractor": "IV Waste",
    "rowid": "1239329",
    "final_x": "3673028.92379",
    "final_y": "523155.955451",
    "longitude": "-90.095104381695",
    "latitude": "29.932751785811245",
    "geocoded_column": {
      "latitude": "29.932751785811245",
      "longitude": "-90.095104381695"
    }
  },
  {
    "service_request": "2025-1239328",
    "request_type": "Trash/Recycling",
    "request_reason": "Order Recycling Cart",
    "date_created": "2025-11-11T12:28:21.000",
    "date_modified": "2025-11-11T12:28:23.000",
    "request_status": "Pending",
    "responsible_agency": "Department of Sanitation",
    "final_address": "7550 Branch Dr",
    "address_councildis": "E",
    "status": "Pending",
    "rowid": "1239328",
    "final_x": "3714991.91506",
    "final_y": "568277.014885",
    "longitude": "-89.96092596548338",
    "latitude": "30.055503797408562",
    "geocoded_column": {
      "latitude": "30.055503797408562",
      "longitude": "-89.96092596548338"
    }
  },
  {
    "service_request": "2025-1239327",
    "request_type": "Streetlights",
    "request_reason": "Streetlight Outage/Malfunction",
    "date_created": "2025-11-11T12:26:56.000",
    "date_modified": "2025-11-11T12:26:59.000",
    "request_status": "Pending",
    "responsible_agency": "Department of Public Works",
    "final_address": "2012 Alabo St",
    "address_councildis": "E",
    "status": "Pending",
    "rowid": "1239327",
    "final_x": "3699806.70397",
    "final_y": "537040.316168",
    "longitude": "-90.01006340808868",
    "latitude": "29.97010604693325",
    "geocoded_column": {
      "latitude": "29.97010604693325",
      "longitude": "-90.01006340808868"
    }
  },
  {
    "service_request": "2025-1239326",
    "request_type": "Streetlights",
    "request_reason": "Streetlight Outage/Malfunction",
    "date_created": "2025-11-11T12:18:53.000",
    "date_modified": "2025-11-11T12:18:55.000",
    "request_status": "Pending",
    "responsible_agency": "Department of Public Works",
    "final_address": "1 Alabo St",
    "address_councildis": "E",
    "status": "Pending",
    "rowid": "1239326",
    "final_x": "3698415.11965",
    "final_y": "532231.993091",
    "longitude": "-90.01463290714997",
    "latitude": "29.9569289887195",
    "geocoded_column": {
      "latitude": "29.9569289887195",
      "longitude": "-90.01463290714997"
    }
  },
  {
    "service_request": "2025-1239325",
    "request_type": "Trash/Recycling",
    "request_reason": "Request a Large Item Pick Up",
    "date_created": "2025-11-11T12:17:04.000",
    "date_modified": "2025-11-11T12:17:06.000",
    "request_status": "Pending",
    "responsible_agency": "Department of Sanitation",
    "final_address": "4330 Majestic Oaks Dr",
    "address_councildis": "D",
    "status": "Assigned to Contractor",
    "contractor": "Waste Pro",
    "rowid": "1239325",
    "final_x": "3697895.28151",
    "final_y": "552029.622678",
    "longitude": "-90.0155554318317",
    "latitude": "30.011381693203884",
    "geocoded_column": {
      "latitude": "30.011381693203884",
      "longitude": "-90.0155554318317"
    }
  },
  {
    "service_request": "2025-1239324",
    "request_type": "Trash/Recycling",
    "request_reason": "Return Trash Cart",
    "date_created": "2025-11-11T12:13:09.000",
    "date_modified": "2025-11-11T12:13:11.000",
    "request_status": "Pending",
    "responsible_agency": "Department of Sanitation",
    "final_address": "2536 Bristol Pl",
    "address_councildis": "C",
    "status": "Assigned to Contractor",
    "contractor": "Richards Disposal",
    "rowid": "1239324",
    "final_x": "3702677.51114",
    "final_y": "521605.660793",
    "longitude": "-90.00156370662987",
    "latitude": "29.927574747977847",
    "geocoded_column": {
      "latitude": "29.927574747977847",
      "longitude": "-90.00156370662987"
    }
  },
  {
    "service_request": "2025-1239323",
    "request_type": "Trash/Recycling",
    "request_reason": "Repair Trash Cart",
    "date_created": "2025-11-11T12:11:24.000",
    "date_modified": "2025-11-11T12:11:26.000",
    "request_status": "Pending",
    "responsible_agency": "Department of Sanitation",
    "final_address": "4519 Majestic Oaks Dr",
    "address_councildis": "D",
    "status": "Assigned to Contractor",
    "contractor": "Waste Pro",
    "rowid": "1239323",
    "final_x": "3697943.79971",
    "final_y": "553195.540631",
    "longitude": "-90.01535977415654",
    "latitude": "30.01458599418889",
    "geocoded_column": {
      "latitude": "30.01458599418889",
      "longitude": "-90.01535977415654"
    }
  },
  {
    "service_request": "2025-1239322",
    "request_type": "Trash/Recycling",
    "request_reason": "Request a Large Item Pick Up",
    "date_created": "2025-11-11T12:07:49.000",
    "date_modified": "2025-11-11T12:07:51.000",
    "request_status": "Pending",
    "responsible_agency": "Department of Sanitation",
    "final_address": "4528 Majestic Oaks Dr",
    "address_councildis": "D",
    "status": "Assigned to Contractor",
    "contractor": "Waste Pro",
    "rowid": "1239322",
    "final_x": "3697737.05757",
    "final_y": "553274.461079",
    "longitude": "-90.0160101077438",
    "latitude": "30.01480953266178",
    "geocoded_column": {
      "latitude": "30.01480953266178",
      "longitude": "-90.0160101077438"
    }
  },