[
  {
    "service_request": "2025-1228190",
    "request_type": "Trash/Recycling",
    "request_reason": "Order Second Trash Cart",
    "date_created": "2025-09-22T23:27:47.000",
    "date_modified": "2025-09-22T23:27:49.000",
    "request_status": "Pending",
    "responsible_agency": "Department of Sanitation",
    "final_address": "4858 Ken Ct",
    "address_councildis": "C",
    "status": "Assigned to Contractor",
    "contractor": "Richards Disposal",
    "rowid": "1228190",
    "final_x": "3702215.20765",
    "final_y": "518558.344887",
    "longitude": "-90.00313474927131",
    "latitude": "29.919210446905453",
    "geocoded_column": {
      "latitude": "29.919210446905453",
      "longitude": "-90.00313474927131"
    }
  },
  {
    "service_request": "2025-1228189",
    "request_type": "Roads and Streets",
    "request_reason": "Pothole",
    "date_created": "2025-09-22T23:20:10.000",
    "date_modified": "2025-09-22T23:20:12.000",
    "request_status": "Pending",
    "responsible_agency": "Department of Public Works",
    "final_address": "620 Gallier St",
    "address_councildis": "C",
    "status": "Pending",
    "rowid": "1228189",
    "final_x": "3690011.15888",
    "final_y": "533968.947141",
    "longitude": "-90.0411080278378",
    "latitude": "29.961968272940652",
    "geocoded_column": {
      "latitude": "29.961968272940652",
      "longitude": "-90.0411080278378"
    }
  },
  {
    "service_request": "2025-1228188",
    "request_type": "Abandoned Vehicles",
    "request_reason": "Abandoned/Junk Vehicles",
    "date_created": "2025-09-22T22:51:22.000",
    "date_modified": "2025-09-22T22:51:25.000",
    "request_status": "Pending",
    "responsible_agency": "Department of Public Works",
    "final_address": "4223 Prytania St",
    "address_councildis": "B",
    "status": "Pending",
    "rowid": "1228188",
    "final_x": "3671399.51367",
    "final_y": "520409.625336",
    "longitude": "-90.10034160563772",
    "latitude": "29.925248574635784",
    "geocoded_column": {
      "latitude": "29.925248574635784",
      "longitude": "-90.10034160563772"
    }
  },
  {
    "service_request": "2025-1228187",
    "request_type": "Trash/Recycling",
    "request_reason": "Order Recycling Cart",
    "date_created": "2025-09-22T22:32:38.000",
    "date_modified": "2025-09-22T22:32:39.000",
    "request_status": "Pending",
    "responsible_agency": "Department of Sanitation",
    "final_address": "510 Cherokee St",
    "address_councildis": "A",
    "status": "Pending",
    "rowid": "1228187",
    "final_x": "3661935.99443",
    "final_y": "525232.914877",
    "longitude": "-90.1300552013969",
    "latitude": "29.938787720293",
    "geocoded_column": {
      "latitude": "29.938787720293",
      "longitude": "-90.1300552013969"
    }
  },
  {
    "service_request": "2025-1228186",
    "request_type": "Trash/Recycling",
    "request_reason": "Request a Large Item Pick Up",
    "date_created": "2025-09-22T22:26:39.000",
    "date_modified": "2025-09-22T22:26:41.000",
    "request_status": "Pending",
    "responsible_agency": "Department of Sanitation",
    "final_address": "10900 Roger Dr",
    "address_councildis": "E",
    "status": "Assigned to Contractor",
    "contractor": "Waste Pro",
    "rowid": "1228186",
    "final_x": "3711926.30475",
    "final_y": "563227.913184",
    "longitude": "-89.9708054414871",
    "latitude": "30.041721415282215",
    "geocoded_column": {
      "latitude": "30.041721415282215",
      "longitude": "-89.9708054414871"
    }
  },
  {
    "service_request": "2025-1228185",
    "request_type": "Property Maintenance",
    "request_reason": "Property Maintenance",
    "date_created": "2025-09-22T21:54:40.000",
    "date_modified": "2025-09-22T21:54:42.000",
    "request_status": "Pending",
    "responsible_agency": "Department of Code Enforcement",
    "final_address": "2303 Winthrop St",
    "address_councildis": "E",
    "status": "Pending",
    "rowid": "1228185",
    "final_x": "3700422.89207",
    "final_y": "537964.791945",
    "longitude": "-90.00808366875181",
    "latitude": "29.972628440161152",
    "geocoded_column": {
      "latitude": "29.972628440161152",
      "longitude": "-90.00808366875181"
    }
  },
  {
    "service_request": "2025-1228184",
    "request_type": "Property Maintenance",
    "request_reason": "Property Maintenance",
    "date_created": "2025-09-22T21:51:25.000",
    "date_modified": "2025-09-22T21:51:28.000",
    "request_status": "Pending",
    "responsible_agency": "Department of Code Enforcement",
    "final_address": "2303 Winthrop St",
    "address_councildis": "E",
    "status": "Pending",
    "rowid": "1228184",
    "final_x": "3700422.89207",
    "final_y": "537964.791945",
    "longitude": "-90.00808366875181",
    "latitude": "29.972628440161152",
    "geocoded_column": {
      "latitude": "29.972628440161152",
      "longitude": "-90.00808366875181"
    }
  },
  {
    "service_request": "2025-1228183",
    "request_type": "Abandoned Vehicles",
    "request_reason": "Abandoned/Junk Vehicles",
    "date_created": "2025-09-22T21:27:31.000",
    "date_modified": "2025-09-22T21:27:32.000",
    "request_status": "Pending",
    "responsible_agency": "Department of Public Works",
    "final_address": "7439 Garfield St",
    "address_councildis": "A",
    "status": "Pending",
    "rowid": "1228183",
    "final_x": "3661333.04378",
    "final_y": "523900.435964",
    "longitude": "-90.13200289894604",
    "latitude": "29.93514122039415",
    "geocoded_column": {
      "latitude": "29.93514122039415",
      "longitude": "-90.13200289894604"
    }
  },
  {
    "service_request": "2025-1228182",
    "request_type": "Trash/Recycling",
    "request_reason": "Repair Trash Cart",
    "date_created": "2025-09-22T21:26:43.000",
    "date_modified": "2025-09-22T21:26:45.000",
    "request_status": "Pending",
    "responsible_agency": "Department of Sanitation",
    "final_address": "2202 General Pershing St",
    "address_councildis": "B",
    "status": "Assigned to Contractor",
    "contractor": "IV Waste",
    "rowid": "1228182",
    "final_x": "3670943.517",
    "final_y": "523100.679163",
    "longitude": "-90.10168973696801",
    "latitude": "29.932661594396585",
    "geocoded_column": {
      "latitude": "29.932661594396585",
      "longitude": "-90.10168973696801"
    }
  },
  {
    "service_request": "2025-1228181",
    "request_type": "Property Maintenance",
    "request_reason": "Property Maintenance",
    "date_created": "2025-09-22T21:16:05.000",
    "date_modified": "2025-09-22T21:16:07.000",
    "request_status": "Pending",
    "responsible_agency": "Department of Code Enforcement",
    "final_address": "32 Honeysuckle Ln",
    "address_councildis": "E",
    "status": "Pending",
    "rowid": "1228181",
    "final_x": "3713100.32606",
    "final_y": "568455.486373",
    "longitude": "-89.96689812292428",
    "latitude": "30.05605668077827",
    "geocoded_column": {
      "latitude": "30.05605668077827",
      "longitude": "-89.96689812292428"
    }
  },
  {
    "service_request": "2025-1228180",
    "request_type": "Mosquito, Termite & Rodent Control",
    "request_reason": "Rodent Complaint (Mice & Rats)",
    "date_created": "2025-09-22T21:09:56.000",
    "date_modified": "2025-09-22T21:09:59.000",
    "request_status": "Pending",
    "responsible_agency": "Mosquito, Termite & Rodent Control Board",
    "final_address": "5957 Tchoupitoulas St",
    "address_councildis": "A",
    "status": "Pending",
    "rowid": "1228180",
    "final_x": "3664355.88935",
    "final_y": "517499.75807",
    "longitude": "-90.12267324573159",
    "latitude": "29.917453877618993",
    "geocoded_column": {
      "latitude": "29.917453877618993",
      "longitude": "-90.12267324573159"
    }
  },
  {
    "service_request": "2025-1228179",
    "request_type": "Streetlights",
    "request_reason": "Streetlight Outage/Malfunction",
    "date_created": "2025-09-22T20:37:07.000",
    "date_modified": "2025-09-22T20:37:09.000",
    "request_status": "Pending",
    "responsible_agency": "Department of Public Works",
    "final_address": "3801 Chartres St",
    "address_councildis": "C",
    "status": "Pending",
    "rowid": "1228179",
    "final_x": "3690811.91753",
    "final_y": "533641.856453",
    "longitude": "-90.03859103663157",
    "latitude": "29.96104403249561",
    "geocoded_column": {
      "latitude": "29.96104403249561",
      "longitude": "-90.03859103663157"
    }
  },
  {
    "service_request": "2025-1228178",
    "request_type": "Trash/Recycling",
    "request_reason": "Damaged Caused By Contractor",
    "date_created": "2025-09-22T20:25:34.000",
    "date_modified": "2025-09-22T20:25:38.000",
    "request_status": "Pending",
    "responsible_agency": "Department of Sanitation",
    "final_address": "4801 Laurel St",
    "address_councildis": "B",
    "status": "Assigned to Contractor",
    "contractor": "IV Waste",
    "rowid": "1228178",
    "final_x": "3669626.92078",
    "final_y": "517945.173622",
    "longitude": "-90.10602046222944",
    "latitude": "29.918524442129325",
    "geocoded_column": {
      "latitude": "29.918524442129325",
      "longitude": "-90.10602046222944"
    }
  },
  {
    "service_request": "2025-1228177",
    "request_type": "Trash/Recycling",
    "request_reason": "Missed Trash Pick-Up",
    "date_created": "2025-09-22T19:58:21.000",
    "date_modified": "2025-09-22T19:58:23.000",
    "request_status": "Pending",
    "responsible_agency": "Department of Sanitation",
    "final_address": "1928 Bienville Ave",
    "address_councildis": "B",
    "status": "Assigned to Contractor",
    "contractor": "IV Waste",
    "rowid": "1228177",
    "final_x": "3678064.67285",
    "final_y": "533947.869381",
    "longitude": "-90.07883391799749",
    "latitude": "29.962275361733166",
    "geocoded_column": {
      "latitude": "29.962275361733166",
      "longitude": "-90.07883391799749"
    }
  },
  {
    "service_request": "2025-1228176",
    "request_type": "Property Maintenance",
    "request_reason": "Property Maintenance",
    "date_created": "2025-09-22T19:55:37.000",
    "date_modified": "2025-09-22T19:55:39.000",
    "request_status": "Pending",
    "responsible_agency": "Department of Code Enforcement",
    "final_address": "4788 Charlene Dr",
    "address_councildis": "E",
    "status": "Pending",
    "rowid": "1228176",
    "final_x": "3707809.44555",
    "final_y": "555877.659993",
    "longitude": "-89.98408965582159",
    "latitude": "30.021645073467777",
    "geocoded_column": {
      "latitude": "30.021645073467777",
      "longitude": "-89.98408965582159"
    }
  },
  {
    "service_request": "2025-1228175",
    "request_type": "Trash/Recycling",
    "request_reason": "Request a Large Item Pick Up",
    "date_created": "2025-09-22T19:50:38.000",
    "date_modified": "2025-09-22T19:50:40.000",
    "request_status": "Pending",
    "responsible_agency": "Department of Sanitation",
    "final_address": "8521 Morrison Rd",
    "address_councildis": "E",
    "status": "Assigned to Contractor",
    "contractor": "Waste Pro",
    "rowid": "1228175",
    "final_x": "3704443.51031",
    "final_y": "561369.103262",
    "longitude": "-89.99452229678239",
    "latitude": "30.036852954107587",
    "geocoded_column": {
      "latitude": "30.036852954107587",
      "longitude": "-89.99452229678239"
    }
  },
  {
    "service_request": "2025-1228174",
    "request_type": "Abandoned Vehicles",
    "request_reason": "Abandoned/Junk Vehicles",
    "date_created": "2025-09-22T19:50:06.000",
    "date_modified": "2025-09-22T19:50:08.000",
    "request_status": "Pending",
    "responsible_agency": "Department of Public Works",
    "final_address": "814 N Dorgenois St",
    "address_councildis": "D",
    "status": "Pending",
    "rowid": "1228174",
    "final_x": "3677478.27803",
    "final_y": "536968.405576",
    "longitude": "-90.08058138455218",
    "latitude": "29.970598449192412",
    "geocoded_column": {
      "latitude": "29.970598449192412",
      "longitude": "-90.08058138455218"
    }
  },
  {
    "service_request": "2025-1228173",
    "request_type": "Property Maintenance",
    "request_reason": "Property Maintenance",
    "date_created": "2025-09-22T19:48:16.000",
    "date_modified": "2025-09-22T19:48:18.000",
    "request_status": "Pending",
    "responsible_agency": "Department of Code Enforcement",
    "final_address": "4691 Arthur Dr",
    "address_councildis": "E",
    "status": "Pending",
    "rowid": "1228173",
    "final_x": "3707795.4147",
    "final_y": "555157.185305",
    "longitude": "-89.9841607939076",
    "latitude": "30.019664502321678",
    "geocoded_column": {
      "latitude": "30.019664502321678",
      "longitude": "-89.9841607939076"
    }
  },
  {
    "service_request": "2025-1228172",
    "request_type": "Trash/Recycling",
    "request_reason": "Damaged Caused By Contractor",
    "date_created": "2025-09-22T19:38:14.000",
    "date_modified": "2025-09-22T19:38:17.000",
    "request_status": "Pending",
    "responsible_agency": "Department of Sanitation",
    "final_address": "7916 Nelson St",
    "address_councildis": "A",
    "status": "Assigned to Contractor",
    "contractor": "IV Waste",
    "rowid": "1228172",
    "final_x": "3665567.52672",
    "final_y": "531384.066435",
    "longitude": "-90.11838409173271",
    "latitude": "29.955596040854758",
    "geocoded_column": {
      "latitude": "29.955596040854758",
      "longitude": "-90.11838409173271"
    }
  },
  {
    "service_request": "2025-1228171",
    "request_type": "Property Maintenance",
    "request_reason": "Property Maintenance",
    "date_created": "2025-09-22T19:29:44.000",
    "date_modified": "2025-09-22T19:29:46.000",
    "request_status": "Pending",
    "responsible_agency": "Department of Code Enforcement",
    "final_address": "1241 N Claiborne Ave",
    "address_councildis": "D",
    "status": "Pending",
    "rowid": "1228171",
    "final_x": "3681019.84283",
    "final_y": "536437.953543",
    "longitude": "-90.06941519028909",
    "latitude": "29.969032946519558",
    "geocoded_column": {
      "latitude": "29.969032946519558",
      "longitude": "-90.06941519028909"
    }
  },
  {
    "service_request": "2025-1228170",
    "request_type": "Parks & Parkways",
    "request_reason": "Request Tree Service (Right of Way/Public Property)",
    "date_created": "2025-09-22T19:07:55.000",
    "date_modified": "2025-09-22T19:07:57.000",
    "request_status": "Pending",
    "responsible_agency": "Department of Parks & Parkway",
    "final_address": "5418 Fontainebleau Dr",
    "address_councildis": "A",
    "status": "Pending",
    "rowid": "1228170",
    "final_x": "3668906.24743",
    "final_y": "529607.821249",
    "longitude": "-90.10790155433614",
    "latitude": "29.95061418587703",
    "geocoded_column": {
      "latitude": "29.95061418587703",
      "longitude": "-90.10790155433614"
    }
  },
  {
    "service_request": "2025-1228169",
    "request_type": "Trash/Recycling",
    "request_reason": "Damaged Caused By Contractor",
    "date_created": "2025-09-22T19:06:33.000",
    "date_modified": "2025-09-22T19:06:34.000",
    "request_status": "Pending",
    "responsible_agency": "Department of Sanitation",
    "final_address": "2439 Danbury Dr",
    "address_councildis": "C",
    "status": "Assigned to Contractor",
    "contractor": "Richards Disposal",
    "rowid": "1228169",
    "final_x": "3703716.08023",
    "final_y": "522008.38553",
    "longitude": "-89.99827040933401",
    "latitude": "29.928648869006345",
    "geocoded_column": {
      "latitude": "29.928648869006345",
      "longitude": "-89.99827040933401"
    }
  },
  {
    "service_request": "2025-1228168",
    "request_type": "Parks & Parkways",
    "request_reason": "Request Tree Service (Right of Way/Public Property)",
    "date_created": "2025-09-22T18:33:46.000",
    "date_modified": "2025-09-22T18:33:47.000",
    "request_status": "Pending",
    "responsible_agency": "Department of Parks & Parkway",
    "final_address": "1008 Dublin St",
    "address_councildis": "A",
    "status": "Pending",
    "rowid": "1228168",
    "final_x": "3661258.78944",
    "final_y": "528185.496704",
    "longitude": "-90.13209550112308",
    "latitude": "29.946925918940146",
    "geocoded_column": {
      "latitude": "29.946925918940146",
      "longitude": "-90.13209550112308"
    }
  },
  {
    "service_request": "2025-1228167",
    "request_type": "Parks & Parkways",
    "request_reason": "Request Tree Service (Right of Way/Public Property)",
    "date_created": "2025-09-22T18:28:36.000",
    "date_modified": "2025-09-22T18:28:38.000",
    "request_status": "Pending",
    "responsible_agency": "Department of Parks & Parkway",
    "final_address": "7400 Fieldston Rd",
    "address_councildis": "E",
    "status": "Pending",
    "rowid": "1228167",
    "final_x": "3700641.00356",
    "final_y": "559915.356189",
    "longitude": "-90.00659215483287",
    "latitude": "30.03297732895083",
    "geocoded_column": {
      "latitude": "30.03297732895083",
      "longitude": "-90.00659215483287"
    }
  },
  {
    "service_request": "2025-1228166",
    "request_type": "Trash/Recycling",
    "request_reason": "Missed Trash Pick-Up",
    "date_created": "2025-09-22T18:24:39.000",
    "date_modified": "2025-09-22T18:24:40.000",
    "request_status": "Pending",
    "responsible_agency": "Department of Sanitation",
    "final_address": "5445 Grand Bayou Dr, New Orleans, Louisiana, 70129",
    "address_councildis": "E",
    "status": "Assigned to Contractor",
    "contractor": "Waste Pro",
    "rowid": "1228166",
    "final_x": "3725782.70931",
    "final_y": "563918.063905",
    "longitude": "-89.9269879519494",
    "latitude": "30.043158715755137",
    "geocoded_column": {
      "latitude": "30.043158715755137",
      "longitude": "-89.9269879519494"
    }
  },
  {
    "service_request": "2025-1228165",
    "request_type": "Parks & Parkways",
    "request_reason": "Request Tree Service (Right of Way/Public Property)",
    "date_created": "2025-09-22T18:16:44.000",
    "date_modified": "2025-09-22T18:16:46.000",
    "request_status": "Pending",
    "responsible_agency": "Department of Parks & Parkway",
    "final_address": "7411 Fieldston Rd",
    "address_councildis": "E",
    "status": "Pending",
    "rowid": "1228165",
    "final_x": "3700778.46429",
    "final_y": "560031.969309",
    "longitude": "-90.00615350072945",
    "latitude": "30.033293592707338",
    "geocoded_column": {
      "latitude": "30.033293592707338",
      "longitude": "-90.00615350072945"
    }
  },
  {
    "service_request": "2025-1228164",
    "request_type": "Street and Traffic Signs",
    "request_reason": "Street Name Sign Damaged or Missing",
    "date_created": "2025-09-22T18:00:46.000",
    "date_modified": "2025-09-22T18:00:48.000",
    "request_status": "Pending",
    "responsible_agency": "Department of Public Works",
    "final_address": "7411 Fieldston Rd",
    "address_councildis": "E",
    "status": "Pending",
    "rowid": "1228164",
    "final_x": "3700778.46429",
    "final_y": "560031.969309",
    "longitude": "-90.00615350072945",
    "latitude": "30.033293592707338",
    "geocoded_column": {
      "latitude": "30.033293592707338",
      "longitude": "-90.00615350072945"
    }
  },
  {
    "service_request": "2025-1228163",
    "request_type": "Trash/Recycling",
    "request_reason": "Return Trash Cart",
    "date_created": "2025-09-22T17:52:48.000",
    "date_modified": "2025-09-22T17:52:50.000",
    "request_status": "Pending",
    "responsible_agency": "Department of Sanitation",
    "final_address": "6714 Fleur-De-Lis Dr",
    "address_councildis": "A",
    "status": "Assigned to Contractor",
    "contractor": "IV Waste",
    "rowid": "1228163",
    "final_x": "3665360.10375",
    "final_y": "552853.828887",
    "longitude": "-90.11832019652661",
    "latitude": "30.01463668338922",
    "geocoded_column": {
      "latitude": "30.01463668338922",
      "longitude": "-90.11832019652661"
    }
  },
  {
    "service_request": "2025-1228162",
    "request_type": "Trash/Recycling",
    "request_reason": "Order Recycling Cart",
    "date_created": "2025-09-22T17:50:44.000",
    "date_modified": "2025-09-22T17:50:45.000",
    "request_status": "Pending",
    "responsible_agency": "Department of Sanitation",
    "final_address": "3424 Elysian Fields Ave",
    "address_councildis": "D",
    "status": "Pending",
    "rowid": "1228162",
    "final_x": "3684168.96546",
    "final_y": "545352.611344",
    "longitude": "-90.05915699855933",
    "latitude": "29.9934492333845",
    "geocoded_column": {
      "latitude": "29.9934492333845",
      "longitude": "-90.05915699855933"
    }
  },
  {
    "service_request": "2025-1228161",
    "request_type": "Trash/Recycling",
    "request_reason": "Repair Recycling Cart",
    "date_created": "2025-09-22T17:48:42.000",
    "date_modified": "2025-09-22T17:48:44.000",
    "request_status": "Pending",
    "responsible_agency": "Department of Sanitation",
    "final_address": "3422 Elysian Fields Ave",
    "address_councildis": "D",
    "status": "Pending",
    "rowid": "1228161",
    "final_x": "3684168.28962",
    "final_y": "545330.309455",
    "longitude": "-90.05915991680946",
    "latitude": "29.99338793180409",
    "geocoded_column": {
      "latitude": "29.99338793180409",
      "longitude": "-90.05915991680946"
    }
  },
  {
    "service_request": "2025-1228160",
    "request_type": "Trash/Recycling",
    "request_reason": "Order Recycling Cart",
    "date_created": "2025-09-22T17:48:34.000",
    "date_modified": "2025-09-22T17:48:36.000",
    "request_status": "Pending",
    "responsible_agency": "Department of Sanitation",
    "final_address": "6714 Fleur-De-Lis Dr",
    "address_councildis": "A",
    "status": "Pending",
    "rowid": "1228160",
    "final_x": "3665360.10375",
    "final_y": "552853.828887",
    "longitude": "-90.11832019652661",
    "latitude": "30.01463668338922",
    "geocoded_column": {
      "latitude": "30.01463668338922",
      "longitude": "-90.11832019652661"
    }
  },
  {
    "service_request": "2025-1228159",
    "request_type": "Trash/Recycling",
    "request_reason": "Missed Trash Pick-Up",
    "date_created": "2025-09-22T17:48:03.000",
    "date_modified": "2025-09-22T17:48:05.000",
    "request_status": "Pending",
    "responsible_agency": "Department of Sanitation",
    "final_address": "208 Chartres St, New Orleans, Louisiana, 70130",
    "address_councildis": "C",
    "status": "Assigned to Contractor",
    "contractor": "IV Waste",
    "rowid": "1228159",
    "final_x": "3681800.4758",
    "final_y": "530837.645698",
    "longitude": "-90.0671453372047",
    "latitude": "29.95361031318125",
    "geocoded_column": {
      "latitude": "29.95361031318125",
      "longitude": "-90.0671453372047"
    }
  },
  {
    "service_request": "2025-1228158",
    "request_type": "Property Maintenance",
    "request_reason": "Property Maintenance",
    "date_created": "2025-09-22T17:44:21.000",
    "date_modified": "2025-09-22T17:44:22.000",
    "request_status": "Pending",
    "responsible_agency": "Department of Code Enforcement",
    "final_address": "6312 Lafaye St",
    "address_councildis": "D",
    "status": "Pending",
    "rowid": "1228158",
    "final_x": "3686980.45046",
    "final_y": "556543.52553",
    "longitude": "-90.04988002736266",
    "latitude": "30.02413389507457",
    "geocoded_column": {
      "latitude": "30.02413389507457",
      "longitude": "-90.04988002736266"
    }
  },
  {
    "service_request": "2025-1228157",
    "request_type": "Street and Traffic Signs",
    "request_reason": "Additional Signage Request",
    "date_created": "2025-09-22T17:41:35.000",
    "date_modified": "2025-09-22T17:41:37.000",
    "request_status": "Pending",
    "responsible_agency": "Department of Public Works",
    "final_address": "1137 Dale Ct",
    "address_councildis": "A",
    "status": "Pending",
    "rowid": "1228157",
    "final_x": "3669948.0617",
    "final_y": "545023.147215",
    "longitude": "-90.10408986643974",
    "latitude": "29.99297047590886",
    "geocoded_column": {
      "latitude": "29.99297047590886",
      "longitude": "-90.10408986643974"
    }
  },
  {
    "service_request": "2025-1228156",
    "request_type": "Trash/Recycling",
    "request_reason": "Repair Recycling Cart",
    "date_created": "2025-09-22T17:36:42.000",
    "date_modified": "2025-09-22T17:36:44.000",
    "request_status": "Pending",
    "responsible_agency": "Department of Sanitation",
    "final_address": "1137 Dale Ct",
    "address_councildis": "A",
    "status": "Pending",
    "rowid": "1228156",
    "final_x": "3669948.0617",
    "final_y": "545023.147215",
    "longitude": "-90.10408986643974",
    "latitude": "29.99297047590886",
    "geocoded_column": {
      "latitude": "29.99297047590886",
      "longitude": "-90.10408986643974"
    }
  },
  {
    "service_request": "2025-1228155",
    "request_type": "Trash/Recycling",
    "request_reason": "Return Recycling Cart",
    "date_created": "2025-09-22T17:28:58.000",
    "date_modified": "2025-09-22T17:29:00.000",
    "request_status": "Pending",
    "responsible_agency": "Department of Sanitation",
    "final_address": "1714 Audubon St",
    "address_councildis": "A",
    "status": "Pending",
    "rowid": "1228155",
    "final_x": "3665468.74132",
    "final_y": "527969.694527",
    "longitude": "-90.11881029831396",
    "latitude": "29.94621050473401",
    "geocoded_column": {
      "latitude": "29.94621050473401",
      "longitude": "-90.11881029831396"
    }
  },
  {
    "service_request": "2025-1228154",
    "request_type": "Property Maintenance",
    "request_reason": "Property Maintenance",
    "date_created": "2025-09-22T17:28:17.000",
    "date_modified": "2025-09-22T17:28:19.000",
    "request_status": "Pending",
    "responsible_agency": "Department of Code Enforcement",
    "final_address": "4850 Lynhuber Dr",
    "address_councildis": "D",
    "status": "Pending",
    "rowid": "1228154",
    "final_x": "3697909.49872",
    "final_y": "554976.346264",
    "longitude": "-90.01540343306156",
    "latitude": "30.019483620809968",
    "geocoded_column": {
      "latitude": "30.019483620809968",
      "longitude": "-90.01540343306156"
    }
  },
  {
    "service_request": "2025-1228153",
    "request_type": "General Services",
    "request_reason": "General Service Request",
    "date_created": "2025-09-22T17:26:30.000",
    "date_modified": "2025-09-22T17:26:32.000",
    "request_status": "Pending",
    "responsible_agency": "Orleans Parish Communication District",
    "final_address": "1800 BLK Gentilly Blvd",
    "address_councildis": "A",
    "status": "Pending",
    "rowid": "1228153",
    "final_x": "3678928.9341",
    "final_y": "543011.78253",
    "longitude": "-90.07579057877304",
    "latitude": "29.98717195449063",
    "geocoded_column": {
      "latitude": "29.98717195449063",
      "longitude": "-90.07579057877304"
    }
  },
  {
    "service_request": "2025-1228152",
    "request_type": "Trash/Recycling",
    "request_reason": "Replace Trash Cart",
    "date_created": "2025-09-22T17:26:14.000",
    "date_modified": "2025-09-22T17:26:15.000",
    "request_status": "Pending",
    "responsible_agency": "Department of Sanitation",
    "final_address": "1714 Audubon St",
    "address_councildis": "A",
    "status": "Assigned to Contractor",
    "contractor": "IV Waste",
    "rowid": "1228152",
    "final_x": "3665468.74132",
    "final_y": "527969.694527",
    "longitude": "-90.11881029831396",
    "latitude": "29.94621050473401",
    "geocoded_column": {
      "latitude": "29.94621050473401",
      "longitude": "-90.11881029831396"
    }
  },
  {
    "service_request": "2025-1228151",
    "request_type": "Property Maintenance",
    "request_reason": "Property Maintenance",
    "date_created": "2025-09-22T17:21:26.000",
    "date_modified": "2025-09-22T17:21:33.000",
    "request_status": "Pending",
    "responsible_agency": "Department of Code Enforcement",
    "final_address": "1800 BLK Gentilly Blvd",
    "address_councildis": "A",
    "status": "Pending",
    "rowid": "1228151",
    "final_x": "3678928.9341",
    "final_y": "543011.78253",
    "longitude": "-90.07579057877304",
    "latitude": "29.98717195449063",
    "geocoded_column": {
      "latitude": "29.98717195449063",
      "longitude": "-90.07579057877304"
    }
  },
  {
    "service_request": "2025-1228150",
    "request_type": "Trash/Recycling",
    "request_reason": "Replace Trash Cart",
    "date_created": "2025-09-22T17:14:14.000",
    "date_modified": "2025-09-22T17:14:15.000",
    "request_status": "Pending",
    "responsible_agency": "Department of Sanitation",
    "final_address": "3357 Desaix Blvd",
    "address_councildis": "D",
    "status": "Assigned to Contractor",
    "contractor": "IV Waste",
    "rowid": "1228150",
    "final_x": "3677161.38024",
    "final_y": "543738.152654",
    "longitude": "-90.08134858414756",
    "latitude": "29.989222440294636",
    "geocoded_column": {
      "latitude": "29.989222440294636",
      "longitude": "-90.08134858414756"
    }
  },
  {
    "service_request": "2025-1228149",
    "request_type": "Trash/Recycling",
    "request_reason": "Repair Recycling Cart",
    "date_created": "2025-09-22T17:11:49.000",
    "date_modified": "2025-09-22T17:11:50.000",
    "request_status": "Pending",
    "responsible_agency": "Department of Sanitation",
    "final_address": "3357 Desaix Blvd",
    "address_councildis": "D",
    "status": "Pending",
    "rowid": "1228149",
    "final_x": "3677161.38024",
    "final_y": "543738.152654",
    "longitude": "-90.08134858414756",
    "latitude": "29.989222440294636",
    "geocoded_column": {
      "latitude": "29.989222440294636",
      "longitude": "-90.08134858414756"
    }
  },
  {
    "service_request": "2025-1228148",
    "request_type": "Trash/Recycling",
    "request_reason": "Request a Large Item Pick Up",
    "date_created": "2025-09-22T17:05:51.000",
    "date_modified": "2025-09-22T17:05:53.000",
    "request_status": "Pending",
    "responsible_agency": "Department of Sanitation",
    "final_address": "401 Elmira Ave",
    "address_councildis": "C",
    "status": "Assigned to Contractor",
    "contractor": "Richards Disposal",
    "rowid": "1228148",
    "final_x": "3688188.60598",
    "final_y": "530288.369409",
    "longitude": "-90.04699382929253",
    "latitude": "29.95190434538229",
    "geocoded_column": {
      "latitude": "29.95190434538229",
      "longitude": "-90.04699382929253"
    }
  },
  {
    "service_request": "2025-1228147",
    "request_type": "Trash/Recycling",
    "request_reason": "Replace Trash Cart",
    "date_created": "2025-09-22T17:01:47.000",
    "date_modified": "2025-09-22T17:01:48.000",
    "request_status": "Pending",
    "responsible_agency": "Department of Sanitation",
    "final_address": "2606 Valence St",
    "address_councildis": "B",
    "status": "Assigned to Contractor",
    "contractor": "IV Waste",
    "rowid": "1228147",
    "final_x": "3669334.51476",
    "final_y": "524351.203644",
    "longitude": "-90.10672697864742",
    "latitude": "29.936147592298326",
    "geocoded_column": {
      "latitude": "29.936147592298326",
      "longitude": "-90.10672697864742"
    }
  },
  {
    "service_request": "2025-1228146",
    "request_type": "Trash/Recycling",
    "request_reason": "Request a Large Item Pick Up",
    "date_created": "2025-09-22T17:00:33.000",
    "date_modified": "2025-09-22T17:00:35.000",
    "request_status": "Pending",
    "responsible_agency": "Department of Sanitation",
    "final_address": "997 Walker St",
    "address_councildis": "A",
    "status": "Assigned to Contractor",
    "contractor": "IV Waste",
    "rowid": "1228146",
    "final_x": "3671457.76756",
    "final_y": "553854.022359",
    "longitude": "-90.09902046661846",
    "latitude": "30.017207664889575",
    "geocoded_column": {
      "latitude": "30.017207664889575",
      "longitude": "-90.09902046661846"
    }
  },
  {
    "service_request": "2025-1228145",
    "request_type": "Trash/Recycling",
    "request_reason": "Replace Trash Cart",
    "date_created": "2025-09-22T17:00:23.000",
    "date_modified": "2025-09-22T17:00:25.000",
    "request_status": "Pending",
    "responsible_agency": "Department of Sanitation",
    "final_address": "7560 Lehigh St",
    "address_councildis": "E",
    "status": "Assigned to Contractor",
    "contractor": "Waste Pro",
    "rowid": "1228145",
    "final_x": "3710692.74078",
    "final_y": "565357.004002",
    "longitude": "-89.97462413484244",
    "latitude": "30.04761583399487",
    "geocoded_column": {
      "latitude": "30.04761583399487",
      "longitude": "-89.97462413484244"
    }
  },
  {
    "service_request": "2025-1228144",
    "request_type": "Trash/Recycling",
    "request_reason": "Request a Large Item Pick Up",
    "date_created": "2025-09-22T17:00:05.000",
    "date_modified": "2025-09-22T17:00:07.000",
    "request_status": "Pending",
    "responsible_agency": "Department of Sanitation",
    "final_address": "2240 Frenchmen St",
    "address_councildis": "D",
    "status": "Assigned to Contractor",
    "contractor": "IV Waste",
    "rowid": "1228144",
    "final_x": "3684203.73257",
    "final_y": "540654.539595",
    "longitude": "-90.05921219388814",
    "latitude": "29.980530135378046",
    "geocoded_column": {
      "latitude": "29.980530135378046",
      "longitude": "-90.05921219388814"
    }
  },
  {
    "service_request": "2025-1228143",
    "request_type": "Trash/Recycling",
    "request_reason": "Request a Large Item Pick Up",
    "date_created": "2025-09-22T16:58:03.000",
    "date_modified": "2025-09-22T16:58:06.000",
    "request_status": "Pending",
    "responsible_agency": "Department of Sanitation",
    "final_address": "7049 Barrington Ct",
    "address_councildis": "E",
    "status": "Assigned to Contractor",
    "contractor": "Waste Pro",
    "rowid": "1228143",
    "final_x": "3714077.21592",
    "final_y": "565141.818466",
    "longitude": "-89.96393555284101",
    "latitude": "30.046913378542364",
    "geocoded_column": {
      "latitude": "30.046913378542364",
      "longitude": "-89.96393555284101"
    }
  },
  {
    "service_request": "2025-1228142",
    "request_type": "Trash/Recycling",
    "request_reason": "Damaged Caused By Contractor",
    "date_created": "2025-09-22T16:56:48.000",
    "date_modified": "2025-09-22T16:56:50.000",
    "request_status": "Pending",
    "responsible_agency": "Department of Sanitation",
    "final_address": "4850 Redwood St",
    "address_councildis": "E",
    "status": "Assigned to Contractor",
    "contractor": "Waste Pro",
    "rowid": "1228142",
    "final_x": "3712350.46424",
    "final_y": "556791.048538",
    "longitude": "-89.96970704724926",
    "latitude": "30.02400872498034",
    "geocoded_column": {
      "latitude": "30.02400872498034",
      "longitude": "-89.96970704724926"
    }
  },
  {
    "service_request": "2025-1228141",
    "request_type": "Trash/Recycling",
    "request_reason": "Repair Recycling Cart",
    "date_created": "2025-09-22T16:53:48.000",
    "date_modified": "2025-09-22T16:53:51.000",
    "request_status": "Pending",
    "responsible_agency": "Department of Sanitation",
    "final_address": "6344 Vicksburg St",
    "address_councildis": "A",
    "status": "Pending",
    "rowid": "1228141",
    "final_x": "3669018.88174",
    "final_y": "549664.105748",
    "longitude": "-90.106868078062",
    "latitude": "30.005758880276648",
    "geocoded_column": {
      "latitude": "30.005758880276648",
      "longitude": "-90.106868078062"
    }
  },
  {
    "service_request": "2025-1228140",
    "request_type": "Streetlights",
    "request_reason": "Streetlight Outage/Malfunction",
    "date_created": "2025-09-22T16:52:15.000",
    "date_modified": "2025-09-22T16:52:18.000",
    "request_status": "Pending",
    "responsible_agency": "Department of Public Works",
    "final_address": "4334 Macarthur Blvd",
    "address_councildis": "C",
    "status": "Pending",
    "rowid": "1228140",
    "final_x": "3699818.3633",
    "final_y": "520471.197432",
    "longitude": "-90.01063062289457",
    "latitude": "29.924546427985838",
    "geocoded_column": {
      "latitude": "29.924546427985838",
      "longitude": "-90.01063062289457"
    }
  },
  {
    "service_request": "2025-1228139",
    "request_type": "Trash/Recycling",
    "request_reason": "Replace Trash Cart",
    "date_created": "2025-09-22T16:52:09.000",
    "date_modified": "2025-09-22T16:52:10.000",
    "request_status": "Pending",
    "responsible_agency": "Department of Sanitation",
    "final_address": "6344 Vicksburg St",
    "address_councildis": "A",
    "status": "Assigned to Contractor",
    "contractor": "IV Waste",
    "rowid": "1228139",
    "final_x": "3669018.88174",
    "final_y": "549664.105748",
    "longitude": "-90.106868078062",
    "latitude": "30.005758880276648",
    "geocoded_column": {
      "latitude": "30.005758880276648",
      "longitude": "-90.106868078062"
    }
  },
  {
    "service_request": "2025-1228138",
    "request_type": "Trash/Recycling",
    "request_reason": "Request a Large Item Pick Up",
    "date_created": "2025-09-22T16:51:47.000",
    "date_modified": "2025-09-22T16:51:48.000",
    "request_status": "Pending",
    "responsible_agency": "Department of Sanitation",
    "final_address": "2913 Edith Weston Pl",
    "address_councildis": "D",
    "status": "Assigned to Contractor",
    "contractor": "IV Waste",
    "rowid": "1228138",
    "final_x": "3692939.72509",
    "final_y": "542849.653325",
    "longitude": "-90.03154150308893",
    "latitude": "29.986295914783593",
    "geocoded_column": {
      "latitude": "29.986295914783593",
      "longitude": "-90.03154150308893"
    }
  },
  {
    "service_request": "2025-1228137",
    "request_type": "Abandoned Vehicles",
    "request_reason": "Abandoned/Junk Vehicles",
    "date_created": "2025-09-22T16:51:07.000",
    "date_modified": "2025-09-22T16:51:08.000",
    "request_status": "Pending",
    "responsible_agency": "Department of Public Works",
    "final_address": "2400 Somerset Dr",
    "address_councildis": "C",
    "status": "Pending",
    "rowid": "1228137",
    "final_x": "3702957.99735",
    "final_y": "522243.239482",
    "longitude": "-90.0006548778803",
    "latitude": "29.929318900978416",
    "geocoded_column": {
      "latitude": "29.929318900978416",
      "longitude": "-90.0006548778803"
    }
  },
  {
    "service_request": "2025-1228136",
    "request_type": "Property Maintenance",
    "request_reason": "Property Maintenance",
    "date_created": "2025-09-22T16:51:03.000",
    "date_modified": "2025-09-22T16:51:05.000",
    "request_status": "Pending",
    "responsible_agency": "Department of Code Enforcement",
    "final_address": "8532 Cohn St",
    "address_councildis": "A",
    "status": "Pending",
    "rowid": "1228136",
    "final_x": "3662337.62541",
    "final_y": "531297.698498",
    "longitude": "-90.12858588560752",
    "latitude": "29.955452329710724",
    "geocoded_column": {
      "latitude": "29.955452329710724",
      "longitude": "-90.12858588560752"
    }
  },
  {
    "service_request": "2025-1228135",
    "request_type": "Property Maintenance",
    "request_reason": "Property Maintenance",
    "date_created": "2025-09-22T16:48:18.000",
    "date_modified": "2025-09-22T16:48:20.000",
    "request_status": "Pending",
    "responsible_agency": "Department of Code Enforcement",
    "final_address": "1826 Leonidas St",
    "address_councildis": "A",
    "status": "Pending",
    "rowid": "1228135",
    "final_x": "3662169.78784",
    "final_y": "531295.147266",
    "longitude": "-90.12911594332162",
    "latitude": "29.955450165808376",
    "geocoded_column": {
      "latitude": "29.955450165808376",
      "longitude": "-90.12911594332162"
    }
  },
  {
    "service_request": "2025-1228134",
    "request_type": "Streetlights",
    "request_reason": "Streetlight Outage/Malfunction",
    "date_created": "2025-09-22T16:45:44.000",
    "date_modified": "2025-09-22T16:45:46.000",
    "request_status": "Pending",
    "responsible_agency": "Department of Public Works",
    "final_address": "4334 Macarthur Blvd",
    "address_councildis": "C",
    "status": "Pending",
    "rowid": "1228134",
    "final_x": "3699818.3633",
    "final_y": "520471.197432",
    "longitude": "-90.01063062289457",
    "latitude": "29.924546427985838",
    "geocoded_column": {
      "latitude": "29.924546427985838",
      "longitude": "-90.01063062289457"
    }
  },
  {
    "service_request": "2025-1228133",
    "request_type": "Trash/Recycling",
    "request_reason": "Order Recycling Cart",
    "date_created": "2025-09-22T16:45:00.000",
    "date_modified": "2025-09-22T16:45:01.000",
    "request_status": "Pending",
    "responsible_agency": "Department of Sanitation",
    "final_address": "4218 Coliseum St",
    "address_councildis": "B",
    "status": "Pending",
    "rowid": "1228133",
    "final_x": "3671551.74657",
    "final_y": "519794.32172",
    "longitude": "-90.09988196180308",
    "latitude": "29.92355218102684",
    "geocoded_column": {
      "latitude": "29.92355218102684",
      "longitude": "-90.09988196180308"
    }
  },
  {
    "service_request": "2025-1228132",
    "request_type": "Property Maintenance",
    "request_reason": "Property Maintenance",
    "date_created": "2025-09-22T16:39:27.000",
    "date_modified": "2025-09-22T16:39:28.000",
    "request_status": "Pending",
    "responsible_agency": "Department of Code Enforcement",
    "final_address": "1825 Leonidas St",
    "address_councildis": "A",
    "status": "Pending",
    "rowid": "1228132",
    "final_x": "3662225.68711",
    "final_y": "531240.596418",
    "longitude": "-90.12894124329024",
    "latitude": "29.95529855314243",
    "geocoded_column": {
      "latitude": "29.95529855314243",
      "longitude": "-90.12894124329024"
    }
  },
  {
    "service_request": "2025-1228131",
    "request_type": "Drainage",
    "request_reason": "Catch Basin Not Draining",
    "date_created": "2025-09-22T16:39:13.000",
    "date_modified": "2025-09-22T16:39:15.000",
    "request_status": "Pending",
    "responsible_agency": "Sewerage & Water Board",
    "final_address": "2520 Ap Tureaud Ave",
    "address_councildis": "D",
    "status": "Pending",
    "rowid": "1228131",
    "final_x": "3681498.25884",
    "final_y": "541404.55182",
    "longitude": "-90.06773107879522",
    "latitude": "29.982674849013087",
    "geocoded_column": {
      "latitude": "29.982674849013087",
      "longitude": "-90.06773107879522"
    }
  },
  {
    "service_request": "2025-1228130",
    "request_type": "Trash/Recycling",
    "request_reason": "Request a Large Item Pick Up",
    "date_created": "2025-09-22T16:38:06.000",
    "date_modified": "2025-09-22T16:38:09.000",
    "request_status": "Pending",
    "responsible_agency": "Department of Sanitation",
    "final_address": "7661 Wave Dr",
    "address_councildis": "E",
    "status": "Assigned to Contractor",
    "contractor": "Waste Pro",
    "rowid": "1228130",
    "final_x": "3714906.95352",
    "final_y": "568974.38167",
    "longitude": "-89.9611681134045",
    "latitude": "30.057424067034063",
    "geocoded_column": {
      "latitude": "30.057424067034063",
      "longitude": "-89.9611681134045"
    }
  },
  {
    "service_request": "2025-1228129",
    "request_type": "Drainage",
    "request_reason": "Catch Basin Not Draining",
    "date_created": "2025-09-22T16:36:07.000",
    "date_modified": "2025-09-22T16:36:09.000",
    "request_status": "Pending",
    "responsible_agency": "Sewerage & Water Board",
    "final_address": "2522 Ap Tureaud Ave",
    "address_councildis": "D",
    "status": "Pending",
    "rowid": "1228129",
    "final_x": "3681499.33173",
    "final_y": "541418.421004",
    "longitude": "-90.06772720622953",
    "latitude": "29.982712951833253",
    "geocoded_column": {
      "latitude": "29.982712951833253",
      "longitude": "-90.06772720622953"
    }
  },
  {
    "service_request": "2025-1228128",
    "request_type": "Property Maintenance",
    "request_reason": "Property Maintenance",
    "date_created": "2025-09-22T16:22:58.000",
    "date_modified": "2025-09-22T16:23:01.000",
    "request_status": "Pending",
    "responsible_agency": "Department of Code Enforcement",
    "final_address": "2706 Aubry St",
    "address_councildis": "D",
    "status": "Pending",
    "rowid": "1228128",
    "final_x": "3679371.77653",
    "final_y": "541281.07726",
    "longitude": "-90.07445185777287",
    "latitude": "29.982399747732515",
    "geocoded_column": {
      "latitude": "29.982399747732515",
      "longitude": "-90.07445185777287"
    }
  },
  {
    "service_request": "2025-1228127",
    "request_type": "Drainage",
    "request_reason": "Catch Basin Not Draining",
    "date_created": "2025-09-22T16:11:00.000",
    "date_modified": "2025-09-22T16:11:02.000",
    "request_status": "Pending",
    "responsible_agency": "Sewerage & Water Board",
    "final_address": "600 BLK Powder St",
    "address_councildis": "C",
    "status": "Pending",
    "rowid": "1228127",
    "final_x": "3686096.0825",
    "final_y": "529150.290897",
    "longitude": "-90.05364114616225",
    "latitude": "29.948839444033787",
    "geocoded_column": {
      "latitude": "29.948839444033787",
      "longitude": "-90.05364114616225"
    }
  },
  {
    "service_request": "2025-1228126",
    "request_type": "Parks & Parkways",
    "request_reason": "Request Tree Service (Right of Way/Public Property)",
    "date_created": "2025-09-22T16:10:02.000",
    "date_modified": "2025-09-22T16:11:03.000",
    "request_status": "Pending",
    "responsible_agency": "Department of Parks & Parkway",
    "final_address": "841 Iberville St",
    "address_councildis": "C",
    "status": "Pending",
    "rowid": "1228126",
    "final_x": "3680922.06331",
    "final_y": "531450.138563",
    "longitude": "-90.06989766891395",
    "latitude": "29.95532112238663",
    "geocoded_column": {
      "latitude": "29.95532112238663",
      "longitude": "-90.06989766891395"
    }
  },
  {
    "service_request": "2025-1228125",
    "request_type": "Trash/Recycling",
    "request_reason": "Request a Large Item Pick Up",
    "date_created": "2025-09-22T15:58:45.000",
    "date_modified": "2025-09-22T15:58:46.000",
    "request_status": "Pending",
    "responsible_agency": "Department of Sanitation",
    "final_address": "2015 S Salcedo St",
    "address_councildis": "B",
    "status": "Assigned to Contractor",
    "contractor": "IV Waste",
    "rowid": "1228125",
    "final_x": "3669510.72462",
    "final_y": "529534.490497",
    "longitude": "-90.10599540096428",
    "latitude": "29.95039476083416",
    "geocoded_column": {
      "latitude": "29.95039476083416",
      "longitude": "-90.10599540096428"
    }
  },
  {
    "service_request": "2025-1228124",
    "request_type": "Trash/Recycling",
    "request_reason": "Request a Large Item Pick Up",
    "date_created": "2025-09-22T15:58:17.000",
    "date_modified": "2025-09-22T15:58:19.000",
    "request_status": "Pending",
    "responsible_agency": "Department of Sanitation",
    "final_address": "11140 Woodvine Ln",
    "address_councildis": "E",
    "status": "Assigned to Contractor",
    "contractor": "Waste Pro",
    "rowid": "1228124",
    "final_x": "3716218.03666",
    "final_y": "559596.455645",
    "longitude": "-89.9573799524483",
    "latitude": "30.03159535108372",
    "geocoded_column": {
      "latitude": "30.03159535108372",
      "longitude": "-89.9573799524483"
    }
  },
  {
    "service_request": "2025-1228123",
    "request_type": "Trash/Recycling",
    "request_reason": "Order Trash Cart",
    "date_created": "2025-09-22T15:54:50.000",
    "date_modified": "2025-09-22T15:54:52.000",
    "request_status": "Pending",
    "responsible_agency": "Department of Sanitation",
    "final_address": "2720 Burgundy St",
    "address_councildis": "C",
    "status": "Assigned to Contractor",
    "contractor": "IV Waste",
    "rowid": "1228123",
    "final_x": "3687390.77673",
    "final_y": "535529.891718",
    "longitude": "-90.04932753120492",
    "latitude": "29.966341324427752",
    "geocoded_column": {
      "latitude": "29.966341324427752",
      "longitude": "-90.04932753120492"
    }
  },
  {
    "service_request": "2025-1228122",
    "request_type": "Trash/Recycling",
    "request_reason": "Request a Large Item Pick Up",
    "date_created": "2025-09-22T15:53:50.000",
    "date_modified": "2025-09-22T15:53:52.000",
    "request_status": "Pending",
    "responsible_agency": "Department of Sanitation",
    "final_address": "408 Pacific Ave",
    "address_councildis": "C",
    "status": "Assigned to Contractor",
    "contractor": "Richards Disposal",
    "rowid": "1228122",
    "final_x": "3688567.78825",
    "final_y": "530210.317569",
    "longitude": "-90.04579932400766",
    "latitude": "29.951678019538313",
    "geocoded_column": {
      "latitude": "29.951678019538313",
      "longitude": "-90.04579932400766"
    }
  },
  {
    "service_request": "2025-1228121",
    "request_type": "Trash/Recycling",
    "request_reason": "Request a Large Item Pick Up",
    "date_created": "2025-09-22T15:53:31.000",
    "date_modified": "2025-09-22T15:53:33.000",
    "request_status": "Pending",
    "responsible_agency": "Department of Sanitation",
    "final_address": "7866 Briarwood Dr",
    "address_councildis": "E",
    "status": "Assigned to Contractor",
    "contractor": "Waste Pro",
    "rowid": "1228121",
    "final_x": "3716450.67896",
    "final_y": "572039.62884",
    "longitude": "-89.9561722105788",
    "latitude": "30.065801303726",
    "geocoded_column": {
      "latitude": "30.065801303726",
      "longitude": "-89.9561722105788"
    }
  },
  {
    "service_request": "2025-1228120",
    "request_type": "Trash/Recycling",
    "request_reason": "Order Recycling Cart",
    "date_created": "2025-09-22T15:49:34.000",
    "date_modified": "2025-09-22T15:49:36.000",
    "request_status": "Pending",
    "responsible_agency": "Department of Sanitation",
    "final_address": "5953 Jamison St",
    "address_councildis": "D",
    "status": "Pending",
    "rowid": "1228120",
    "final_x": "3696475.40573",
    "final_y": "553571.948183",
    "longitude": "-90.01998552467907",
    "latitude": "30.015667332437484",
    "geocoded_column": {
      "latitude": "30.015667332437484",
      "longitude": "-90.01998552467907"
    }
  },
  {
    "service_request": "2025-1228119",
    "request_type": "Property Maintenance",
    "request_reason": "Property Maintenance",
    "date_created": "2025-09-22T15:47:57.000",
    "date_modified": "2025-09-22T15:47:59.000",
    "request_status": "Pending",
    "responsible_agency": "Department of Code Enforcement",
    "final_address": "5920 E Filmore Ave",
    "address_councildis": "D",
    "status": "Pending",
    "rowid": "1228119",
    "final_x": "3696262.88938",
    "final_y": "553029.370135",
    "longitude": "-90.02067661481115",
    "latitude": "30.01418214272523",
    "geocoded_column": {
      "latitude": "30.01418214272523",
      "longitude": "-90.02067661481115"
    }
  },
  {
    "service_request": "2025-1228118",
    "request_type": "Trash/Recycling",
    "request_reason": "Request a Large Item Pick Up",
    "date_created": "2025-09-22T15:46:56.000",
    "date_modified": "2025-09-22T15:46:58.000",
    "request_status": "Pending",
    "responsible_agency": "Department of Sanitation",
    "final_address": "3708 Preston Pl",
    "address_councildis": "C",
    "status": "Assigned to Contractor",
    "contractor": "Richards Disposal",
    "rowid": "1228118",
    "final_x": "3708492.66558",
    "final_y": "517395.232437",
    "longitude": "-89.98336343777682",
    "latitude": "29.915810419512944",
    "geocoded_column": {
      "latitude": "29.915810419512944",
      "longitude": "-89.98336343777682"
    }
  },
  {
    "service_request": "2025-1228117",
    "request_type": "Trash/Recycling",
    "request_reason": "Request a Large Item Pick Up",
    "date_created": "2025-09-22T15:46:50.000",
    "date_modified": "2025-09-22T15:46:52.000",
    "request_status": "Pending",
    "responsible_agency": "Department of Sanitation",
    "final_address": "806 Opelousas Ave",
    "address_councildis": "C",
    "status": "Assigned to Contractor",
    "contractor": "Richards Disposal",
    "rowid": "1228117",
    "final_x": "3687901.85539",
    "final_y": "529190.67392",
    "longitude": "-90.0479381307274",
    "latitude": "29.94889490713998",
    "geocoded_column": {
      "latitude": "29.94889490713998",
      "longitude": "-90.0479381307274"
    }
  },
  {
    "service_request": "2025-1228116",
    "request_type": "Property Maintenance",
    "request_reason": "Property Maintenance",
    "date_created": "2025-09-22T15:46:22.000",
    "date_modified": "2025-09-22T15:46:24.000",
    "request_status": "Pending",
    "responsible_agency": "Department of Code Enforcement",
    "final_address": "4319 Downman Rd",
    "address_councildis": "D",
    "status": "Pending",
    "rowid": "1228116",
    "final_x": "3696166.96355",
    "final_y": "553008.246039",
    "longitude": "-90.02098045508204",
    "latitude": "30.01412708064865",
    "geocoded_column": {
      "latitude": "30.01412708064865",
      "longitude": "-90.02098045508204"
    }
  },
  {
    "service_request": "2025-1228115",
    "request_type": "Trash/Recycling",
    "request_reason": "Request a Large Item Pick Up",
    "date_created": "2025-09-22T15:45:26.000",
    "date_modified": "2025-09-22T15:45:28.000",
    "request_status": "Pending",
    "responsible_agency": "Department of Sanitation",
    "final_address": "4675 Werner Dr",
    "address_councildis": "E",
    "status": "Assigned to Contractor",
    "contractor": "Waste Pro",
    "rowid": "1228115",
    "final_x": "3704842.48657",
    "final_y": "554932.973592",
    "longitude": "-89.99349928597245",
    "latitude": "30.019143278689437",
    "geocoded_column": {
      "latitude": "30.019143278689437",
      "longitude": "-89.99349928597245"
    }
  },
  {
    "service_request": "2025-1228114",
    "request_type": "Trash/Recycling",
    "request_reason": "Request a Large Item Pick Up",
    "date_created": "2025-09-22T15:44:44.000",
    "date_modified": "2025-09-22T15:44:46.000",
    "request_status": "Pending",
    "responsible_agency": "Department of Sanitation",
    "final_address": "10211 Castlewood Dr",
    "address_councildis": "E",
    "status": "Assigned to Contractor",
    "contractor": "Waste Pro",
    "rowid": "1228114",
    "final_x": "3709125.63608",
    "final_y": "564621.561185",
    "longitude": "-89.97960447375605",
    "latitude": "30.04564466266418",
    "geocoded_column": {
      "latitude": "30.04564466266418",
      "longitude": "-89.97960447375605"
    }
  },
  {
    "service_request": "2025-1228113",
    "request_type": "Trash/Recycling",
    "request_reason": "Request a Large Item Pick Up",
    "date_created": "2025-09-22T15:42:22.000",
    "date_modified": "2025-09-22T15:42:24.000",
    "request_status": "Pending",
    "responsible_agency": "Department of Sanitation",
    "final_address": "5432 Music St",
    "address_councildis": "D",
    "status": "Assigned to Contractor",
    "contractor": "IV Waste",
    "rowid": "1228113",
    "final_x": "3685464.55926",
    "final_y": "553070.774359",
    "longitude": "-90.05479239184324",
    "latitude": "30.014631709697756",
    "geocoded_column": {
      "latitude": "30.014631709697756",
      "longitude": "-90.05479239184324"
    }
  },
  {
    "service_request": "2025-1228112",
    "request_type": "Trash/Recycling",
    "request_reason": "Request a Large Item Pick Up",
    "date_created": "2025-09-22T15:42:01.000",
    "date_modified": "2025-09-22T15:42:03.000",
    "request_status": "Pending",
    "responsible_agency": "Department of Sanitation",
    "final_address": "2613 Columbus St",
    "address_councildis": "D",
    "status": "Assigned to Contractor",
    "contractor": "IV Waste",
    "rowid": "1228112",
    "final_x": "3678557.08264",
    "final_y": "539681.696714",
    "longitude": "-90.07708044596058",
    "latitude": "29.978026591250625",
    "geocoded_column": {
      "latitude": "29.978026591250625",
      "longitude": "-90.07708044596058"
    }
  },
  {
    "service_request": "2025-1228111",
    "request_type": "Trash/Recycling",
    "request_reason": "Request a Large Item Pick Up",
    "date_created": "2025-09-22T15:40:58.000",
    "date_modified": "2025-09-22T15:41:00.000",
    "request_status": "Pending",
    "responsible_agency": "Department of Sanitation",
    "final_address": "7231 Bullard Ave",
    "address_councildis": "E",
    "status": "Assigned to Contractor",
    "contractor": "Waste Pro",
    "rowid": "1228111",
    "final_x": "3714229.70514",
    "final_y": "566038.006179",
    "longitude": "-89.9634197475214",
    "latitude": "30.04937251843217",
    "geocoded_column": {
      "latitude": "30.04937251843217",
      "longitude": "-89.9634197475214"
    }
  },
  {
    "service_request": "2025-1228110",
    "request_type": "Trash/Recycling",
    "request_reason": "Dead Animal Pick Up",
    "date_created": "2025-09-22T15:40:22.000",
    "date_modified": "2025-09-22T15:40:24.000",
    "request_status": "Pending",
    "responsible_agency": "Department of Sanitation",
    "final_address": "522 Pelican Ave",
    "address_councildis": "C",
    "status": "Assigned to Contractor",
    "contractor": "Richards Disposal",
    "rowid": "1228110",
    "final_x": "3687071.77705",
    "final_y": "530810.193346",
    "longitude": "-90.05050179090793",
    "latitude": "29.95337360958347",
    "geocoded_column": {
      "latitude": "29.95337360958347",
      "longitude": "-90.05050179090793"
    }
  },
  {
    "service_request": "2025-1228109",
    "request_type": "Trash/Recycling",
    "request_reason": "Replace Trash Cart",
    "date_created": "2025-09-22T15:39:27.000",
    "date_modified": "2025-09-22T15:39:29.000",
    "request_status": "Pending",
    "responsible_agency": "Department of Sanitation",
    "final_address": "841 N Hennessey St",
    "address_councildis": "A",
    "status": "Assigned to Contractor",
    "contractor": "IV Waste",
    "rowid": "1228109",
    "final_x": "3672041.81531",
    "final_y": "541328.031116",
    "longitude": "-90.09760192782669",
    "latitude": "29.982748250589434",
    "geocoded_column": {
      "latitude": "29.982748250589434",
      "longitude": "-90.09760192782669"
    }
  },
  {
    "service_request": "2025-1228108",
    "request_type": "Trash/Recycling",
    "request_reason": "Repair Trash Cart",
    "date_created": "2025-09-22T15:37:01.000",
    "date_modified": "2025-09-22T15:40:16.000",
    "request_status": "Pending",
    "responsible_agency": "Department of Sanitation",
    "final_address": "6048 Warrington Dr",
    "address_councildis": "D",
    "status": "Assigned to Contractor",
    "contractor": "IV Waste",
    "rowid": "1228108",
    "final_x": "3680654.41858",
    "final_y": "555056.896281",
    "longitude": "-90.06992089244811",
    "latitude": "30.020239524117812",
    "geocoded_column": {
      "latitude": "30.020239524117812",
      "longitude": "-90.06992089244811"
    }
  },
  {
    "service_request": "2025-1228107",
    "request_type": "Trash/Recycling",
    "request_reason": "Illegal Dumping",
    "date_created": "2025-09-22T15:35:08.000",
    "date_modified": "2025-09-22T15:35:10.000",
    "request_status": "Pending",
    "responsible_agency": "Department of Sanitation",
    "final_address": "3223 Joliet St",
    "address_councildis": "A",
    "status": "Pending",
    "rowid": "1228107",
    "final_x": "3665857.95552",
    "final_y": "534716.396166",
    "longitude": "-90.11735535362348",
    "latitude": "29.964750383778764",
    "geocoded_column": {
      "latitude": "29.964750383778764",
      "longitude": "-90.11735535362348"
    }
  },
  {
    "service_request": "2025-1228106",
    "request_type": "Trash/Recycling",
    "request_reason": "Request a Large Item Pick Up",
    "date_created": "2025-09-22T15:27:25.000",
    "date_modified": "2025-09-22T15:27:26.000",
    "request_status": "Pending",
    "responsible_agency": "Department of Sanitation",
    "final_address": "1710 Cambronne St",
    "address_councildis": "A",
    "status": "Assigned to Contractor",
    "contractor": "IV Waste",
    "rowid": "1228106",
    "final_x": "3662389.12141",
    "final_y": "530506.482498",
    "longitude": "-90.12844955020033",
    "latitude": "29.953275252440363",
    "geocoded_column": {
      "latitude": "29.953275252440363",
      "longitude": "-90.12844955020033"
    }
  },
  {
    "service_request": "2025-1228105",
    "request_type": "Trash/Recycling",
    "request_reason": "Request a Large Item Pick Up",
    "date_created": "2025-09-22T15:27:22.000",
    "date_modified": "2025-09-22T15:27:30.000",
    "request_status": "Pending",
    "responsible_agency": "Department of Sanitation",
    "final_address": "620 Opelousas Ave Apt 205",
    "address_councildis": "C",
    "status": "Assigned to Contractor",
    "contractor": "Richards Disposal",
    "rowid": "1228105",
    "final_x": "3687453.75663",
    "final_y": "529243.882433",
    "longitude": "-90.04935108553944",
    "latitude": "29.9490550266023",
    "geocoded_column": {
      "latitude": "29.9490550266023",
      "longitude": "-90.04935108553944"
    }
  },
  {
    "service_request": "2025-1228104",
    "request_type": "Abandoned Vehicles",
    "request_reason": "Abandoned/Junk Vehicles",
    "date_created": "2025-09-22T15:25:48.000",
    "date_modified": "2025-09-22T15:25:50.000",
    "request_status": "Pending",
    "responsible_agency": "Department of Public Works",
    "final_address": "2412 Bradish Aly",
    "address_councildis": "B",
    "status": "Pending",
    "rowid": "1228104",
    "final_x": "3675229.73685",
    "final_y": "532967.470148",
    "longitude": "-90.08781989663274",
    "latitude": "29.959664631904527",
    "geocoded_column": {
      "latitude": "29.959664631904527",
      "longitude": "-90.08781989663274"
    }
  },
  {
    "service_request": "2025-1228103",
    "request_type": "Trash/Recycling",
    "request_reason": "Request a Large Item Pick Up",
    "date_created": "2025-09-22T15:25:30.000",
    "date_modified": "2025-09-22T15:25:32.000",
    "request_status": "Pending",
    "responsible_agency": "Department of Sanitation",
    "final_address": "7696 Pineridge St",
    "address_councildis": "E",
    "status": "Assigned to Contractor",
    "contractor": "Waste Pro",
    "rowid": "1228103",
    "final_x": "3718656.87141",
    "final_y": "572279.330345",
    "longitude": "-89.94918907509778",
    "latitude": "30.06638728993822",
    "geocoded_column": {
      "latitude": "30.06638728993822",
      "longitude": "-89.94918907509778"
    }
  },
  {
    "service_request": "2025-1228102",
    "request_type": "Trash/Recycling",
    "request_reason": "Request a Large Item Pick Up",
    "date_created": "2025-09-22T15:23:24.000",
    "date_modified": "2025-09-22T15:23:26.000",
    "request_status": "Pending",
    "responsible_agency": "Department of Sanitation",
    "final_address": "708 Lizardi St",
    "address_councildis": "E",
    "status": "Assigned to Contractor",
    "contractor": "Waste Pro",
    "rowid": "1228102",
    "final_x": "3696093.33136",
    "final_y": "532728.76314",
    "longitude": "-90.02194639281011",
    "latitude": "29.958368199294362",
    "geocoded_column": {
      "latitude": "29.958368199294362",
      "longitude": "-90.02194639281011"
    }
  },
  {
    "service_request": "2025-1228100",
    "request_type": "Roads and Streets",
    "request_reason": "Pothole",
    "date_created": "2025-09-22T15:21:00.000",
    "date_modified": "2025-09-22T15:21:02.000",
    "request_status": "Pending",
    "responsible_agency": "Department of Public Works",
    "final_address": "420 S St Patrick St",
    "address_councildis": "A",
    "status": "Pending",
    "rowid": "1228100",
    "final_x": "3668308.85441",
    "final_y": "538711.515273",
    "longitude": "-90.10948080178234",
    "latitude": "29.975663883068",
    "geocoded_column": {
      "latitude": "29.975663883068",
      "longitude": "-90.10948080178234"
    }
  },
  {
    "service_request": "2025-1228101",
    "request_type": "Property Maintenance",
    "request_reason": "Property Maintenance",
    "date_created": "2025-09-22T15:21:00.000",
    "date_modified": "2025-09-22T15:21:02.000",
    "request_status": "Pending",
    "responsible_agency": "Department of Code Enforcement",
    "final_address": "539 S Tonti St",
    "address_councildis": "B",
    "status": "Pending",
    "rowid": "1228101",
    "final_x": "3675253.24673",
    "final_y": "532846.000452",
    "longitude": "-90.08774982733823",
    "latitude": "29.959329928290494",
    "geocoded_column": {
      "latitude": "29.959329928290494",
      "longitude": "-90.08774982733823"
    }
  },
  {
    "service_request": "2025-1228099",
    "request_type": "Utility Poles",
    "request_reason": "Wires Sagging/Hanging Low",
    "date_created": "2025-09-22T15:19:38.000",
    "date_modified": "2025-09-22T15:20:21.000",
    "request_status": "Pending",
    "responsible_agency": "Utility Company Collective",
    "final_address": "6100 BLK Dreux Ave",
    "address_councildis": "D",
    "status": "Pending",
    "rowid": "1228099",
    "final_x": "3697067.63601",
    "final_y": "553911.519589",
    "longitude": "-90.01810204188406",
    "latitude": "30.01658234773718",
    "geocoded_column": {
      "latitude": "30.01658234773718",
      "longitude": "-90.01810204188406"
    }
  },
  {
    "service_request": "2025-1228098",
    "request_type": "Utility Poles",
    "request_reason": "Utility Pole Down",
    "date_created": "2025-09-22T15:14:15.000",
    "date_modified": "2025-09-22T15:33:44.000",
    "request_status": "Pending",
    "responsible_agency": "Utility Company Collective",
    "final_address": "3100 BLK Desaix Blvd",
    "address_councildis": "D",
    "status": "Pending",
    "rowid": "1228098",
    "final_x": "3678390.80493",
    "final_y": "543586.982496",
    "longitude": "-90.07747042381772",
    "latitude": "29.98876978158354",
    "geocoded_column": {
      "latitude": "29.98876978158354",
      "longitude": "-90.07747042381772"
    }
  },
  {
    "service_request": "2025-1228097",
    "request_type": "Trash/Recycling",
    "request_reason": "Repair Trash Cart",
    "date_created": "2025-09-22T15:13:13.000",
    "date_modified": "2025-09-22T15:13:15.000",
    "request_status": "Pending",
    "responsible_agency": "Department of Sanitation",
    "final_address": "1313 St Roch Ave",
    "address_councildis": "C",
    "status": "Assigned to Contractor",
    "contractor": "IV Waste",
    "rowid": "1228097",
    "final_x": "3686497.89276",
    "final_y": "537316.4418",
    "longitude": "-90.0520841512371",
    "latitude": "29.971281196006142",
    "geocoded_column": {
      "latitude": "29.971281196006142",
      "longitude": "-90.0520841512371"
    }
  },
  {
    "service_request": "2025-1228096",
    "request_type": "Streetlights",
    "request_reason": "Streetlight Outage/Malfunction",
    "date_created": "2025-09-22T15:12:48.000",
    "date_modified": "2025-09-22T15:12:50.000",
    "request_status": "Pending",
    "responsible_agency": "Department of Public Works",
    "final_address": "1546 Tropic Dr",
    "address_councildis": "C",
    "status": "Pending",
    "rowid": "1228096",
    "final_x": "3699559.94519",
    "final_y": "525175.344061",
    "longitude": "-90.01127502573107",
    "latitude": "29.937489406257747",
    "geocoded_column": {
      "latitude": "29.937489406257747",
      "longitude": "-90.01127502573107"
    }
  },
  {
    "service_request": "2025-1228095",
    "request_type": "Trash/Recycling",
    "request_reason": "Request a Large Item Pick Up",
    "date_created": "2025-09-22T15:06:09.000",
    "date_modified": "2025-09-22T15:06:51.000",
    "request_status": "Pending",
    "responsible_agency": "Department of Sanitation",
    "final_address": "4501 America St",
    "address_councildis": "E",
    "status": "Assigned to Contractor",
    "contractor": "Waste Pro",
    "rowid": "1228095",
    "final_x": "3699885.08637",
    "final_y": "553695.856151",
    "longitude": "-90.0092080305865",
    "latitude": "30.015900132298988",
    "geocoded_column": {
      "latitude": "30.015900132298988",
      "longitude": "-90.0092080305865"
    }
  },
  {
    "service_request": "2025-1228094",
    "request_type": "Trash/Recycling",
    "request_reason": "Missed Trash Pick-Up",
    "date_created": "2025-09-22T15:06:01.000",
    "date_modified": "2025-09-22T15:11:45.000",
    "case_close_date": "2025-09-22T10:11:44.000",
    "request_status": "Closed",
    "responsible_agency": "Department of Sanitation",
    "final_address": "118 S Murat St",
    "address_councildis": "A",
    "status": "Invalid Request",
    "contractor": "IV Waste",
    "contractor_action": "Invalid",
    "rowid": "1228094",
    "final_x": "3669599.47604",
    "final_y": "539191.403594",
    "longitude": "-90.10538840571927",
    "latitude": "29.976945447127683",
    "geocoded_column": {
      "latitude": "29.976945447127683",
      "longitude": "-90.10538840571927"
    }
  },
  {
    "service_request": "2025-1228093",
    "request_type": "Trash/Recycling",
    "request_reason": "Request a Large Item Pick Up",
    "date_created": "2025-09-22T15:04:58.000",
    "date_modified": "2025-09-22T15:05:00.000",
    "request_status": "Pending",
    "responsible_agency": "Department of Sanitation",
    "final_address": "4759 Painters St",
    "address_councildis": "D",
    "status": "Assigned to Contractor",
    "contractor": "IV Waste",
    "rowid": "1228093",
    "final_x": "3686281.83074",
    "final_y": "550702.131477",
    "longitude": "-90.05229388590628",
    "latitude": "30.008093708480573",
    "geocoded_column": {
      "latitude": "30.008093708480573",
      "longitude": "-90.05229388590628"
    }
  },
  {
    "service_request": "2025-1228092",
    "request_type": "Trash/Recycling",
    "request_reason": "Request a Large Item Pick Up",
    "date_created": "2025-09-22T15:04:11.000",
    "date_modified": "2025-09-22T15:04:13.000",
    "request_status": "Pending",
    "responsible_agency": "Department of Sanitation",
    "final_address": "5960 W Hardy St",
    "address_councildis": "E",
    "status": "Assigned to Contractor",
    "contractor": "Waste Pro",
    "rowid": "1228092",
    "final_x": "3712386.09246",
    "final_y": "561859.561183",
    "longitude": "-89.96940383284425",
    "latitude": "30.037943955174892",
    "geocoded_column": {
      "latitude": "30.037943955174892",
      "longitude": "-89.96940383284425"
    }
  },
  {
    "service_request": "2025-1228091",
    "request_type": "Parks & Parkways",
    "request_reason": "Request Tree Service (Right of Way/Public Property)",
    "date_created": "2025-09-22T15:03:05.000",
    "date_modified": "2025-09-22T15:03:07.000",
    "request_status": "Pending",
    "responsible_agency": "Department of Parks & Parkway",
    "final_address": "3147 Maurepas St",
    "address_councildis": "A",
    "status": "Pending",
    "rowid": "1228091",
    "final_x": "3676208.22184",
    "final_y": "540781.196619",
    "longitude": "-90.08446113551734",
    "latitude": "29.98112043748267",
    "geocoded_column": {
      "latitude": "29.98112043748267",
      "longitude": "-90.08446113551734"
    }
  },
  {
    "service_request": "2025-1228090",
    "request_type": "Trash/Recycling",
    "request_reason": "Order Recycling Cart",
    "date_created": "2025-09-22T14:59:42.000",
    "date_modified": "2025-09-22T14:59:45.000",
    "request_status": "Pending",
    "responsible_agency": "Department of Sanitation",
    "final_address": "81 Flamingo St",
    "address_councildis": "D",
    "status": "Pending",
    "rowid": "1228090",
    "final_x": "3674386.78811",
    "final_y": "555832.358297",
    "longitude": "-90.08969809593215",
    "latitude": "30.02256029616811",
    "geocoded_column": {
      "latitude": "30.02256029616811",
      "longitude": "-90.08969809593215"
    }
  },
  {
    "service_request": "2025-1228089",
    "request_type": "Trash/Recycling",
    "request_reason": "Request a Large Item Pick Up",
    "date_created": "2025-09-22T14:58:48.000",
    "date_modified": "2025-09-22T14:58:50.000",
    "request_status": "Pending",
    "responsible_agency": "Department of Sanitation",
    "final_address": "1631 Second St",
    "address_councildis": "B",
    "status": "Assigned to Contractor",
    "contractor": "IV Waste",
    "rowid": "1228089",
    "final_x": "3676552.69006",
    "final_y": "523322.062011",
    "longitude": "-90.08397440548256",
    "latitude": "29.93310334989885",
    "geocoded_column": {
      "latitude": "29.93310334989885",
      "longitude": "-90.08397440548256"
    }
  },
  {
    "service_request": "2025-1228088",
    "request_type": "Roads and Streets",
    "request_reason": "Pothole",
    "date_created": "2025-09-22T14:58:36.000",
    "date_modified": "2025-09-22T14:58:38.000",
    "request_status": "Pending",
    "responsible_agency": "Department of Public Works",
    "final_address": "N GALVEZ ST & CLOUET ST & N GALVEZ  ST",
    "address_councildis": "D",
    "status": "Pending",
    "rowid": "1228088",
    "final_x": "3689945.1",
    "final_y": "539764.08",
    "longitude": "-90.04111025110791",
    "latitude": "29.97790489752864",
    "geocoded_column": {
      "latitude": "29.97790489752864",
      "longitude": "-90.04111025110791"
    }
  },
  {
    "service_request": "2025-1228087",
    "request_type": "Property Maintenance",
    "request_reason": "Property Maintenance",
    "date_created": "2025-09-22T14:57:06.000",
    "date_modified": "2025-09-22T15:11:12.000",
    "case_close_date": "2025-09-22T10:11:10.000",
    "request_status": "Closed",
    "responsible_agency": "Department of Code Enforcement",
    "final_address": "2128 Clouet St",
    "address_councildis": "D",
    "status": "Referred to Code Enforcement",
    "rowid": "1228087",
    "final_x": "3689978.79472",
    "final_y": "540012.199179",
    "longitude": "-90.0409949934029",
    "latitude": "29.97858609225106",
    "geocoded_column": {
      "latitude": "29.97858609225106",
      "longitude": "-90.0409949934029"
    }
  },
  {
    "service_request": "2025-1228086",
    "request_type": "Trash/Recycling",
    "request_reason": "Request a Large Item Pick Up",
    "date_created": "2025-09-22T14:53:49.000",
    "date_modified": "2025-09-22T15:00:06.000",
    "request_status": "Pending",
    "responsible_agency": "Department of Sanitation",
    "final_address": "1534 Behrman Ave",
    "address_councildis": "C",
    "status": "Assigned to Contractor",
    "contractor": "Richards Disposal",
    "rowid": "1228086",
    "final_x": "3691377.23696",
    "final_y": "525574.543037",
    "longitude": "-90.03709405699459",
    "latitude": "29.938844130178925",
    "geocoded_column": {
      "latitude": "29.938844130178925",
      "longitude": "-90.03709405699459"
    }
  },
  {
    "service_request": "2025-1228085",
    "request_type": "Trash/Recycling",
    "request_reason": "Order Recycling Cart",
    "date_created": "2025-09-22T14:51:50.000",
    "date_modified": "2025-09-22T14:51:51.000",
    "request_status": "Pending",
    "responsible_agency": "Department of Sanitation",
    "final_address": "828 Ida St",
    "address_councildis": "A",
    "status": "Pending",
    "rowid": "1228085",
    "final_x": "3673133.2676",
    "final_y": "540188.322571",
    "longitude": "-90.09419349564288",
    "latitude": "29.97958203148975",
    "geocoded_column": {
      "latitude": "29.97958203148975",
      "longitude": "-90.09419349564288"
    }
  },
  {
    "service_request": "2025-1228084",
    "request_type": "Trash/Recycling",
    "request_reason": "Order Trash Cart",
    "date_created": "2025-09-22T14:51:09.000",
    "date_modified": "2025-09-22T14:51:12.000",
    "request_status": "Pending",
    "responsible_agency": "Department of Sanitation",
    "final_address": "828 Ida St",
    "address_councildis": "A",
    "status": "Assigned to Contractor",
    "contractor": "IV Waste",
    "rowid": "1228084",
    "final_x": "3673133.2676",
    "final_y": "540188.322571",
    "longitude": "-90.09419349564288",
    "latitude": "29.97958203148975",
    "geocoded_column": {
      "latitude": "29.97958203148975",
      "longitude": "-90.09419349564288"
    }
  },
  {
    "service_request": "2025-1228083",
    "request_type": "Trash/Recycling",
    "request_reason": "Request a Large Item Pick Up",
    "date_created": "2025-09-22T14:50:01.000",
    "date_modified": "2025-09-22T14:50:26.000",
    "request_status": "Pending",
    "responsible_agency": "Department of Sanitation",
    "final_address": "2753 St Ann St",
    "address_councildis": "A",
    "status": "Assigned to Contractor",
    "contractor": "IV Waste",
    "rowid": "1228083",
    "final_x": "3676552.02005",
    "final_y": "537541.201224",
    "longitude": "-90.08348688721603",
    "latitude": "29.972201254567036",
    "geocoded_column": {
      "latitude": "29.972201254567036",
      "longitude": "-90.08348688721603"
    }
  },
  {
    "service_request": "2025-1228082",
    "request_type": "Abandoned Vehicles",
    "request_reason": "Abandoned/Junk Vehicles",
    "date_created": "2025-09-22T14:49:50.000",
    "date_modified": "2025-09-22T14:49:51.000",
    "request_status": "Pending",
    "responsible_agency": "Department of Public Works",
    "final_address": "MARQUE DR & GRANT ST",
    "address_councildis": "E",
    "status": "Pending",
    "rowid": "1228082",
    "final_x": "3710179.3",
    "final_y": "554880.98",
    "longitude": "-89.97663890576466",
    "latitude": "30.018827650416316",
    "geocoded_column": {
      "latitude": "30.018827650416316",
      "longitude": "-89.97663890576466"
    }
  },
  {
    "service_request": "2025-1228081",
    "request_type": "Trash/Recycling",
    "request_reason": "Request a Large Item Pick Up",
    "date_created": "2025-09-22T14:48:23.000",
    "date_modified": "2025-09-22T14:48:26.000",
    "request_status": "Pending",
    "responsible_agency": "Department of Sanitation",
    "final_address": "1486 Mithra St",
    "address_councildis": "D",
    "status": "Assigned to Contractor",
    "contractor": "IV Waste",
    "rowid": "1228081",
    "final_x": "3678317.54715",
    "final_y": "552065.594966",
    "longitude": "-90.07740827964899",
    "latitude": "30.012085167621102",
    "geocoded_column": {
      "latitude": "30.012085167621102",
      "longitude": "-90.07740827964899"
    }
  },
  {
    "service_request": "2025-1228080",
    "request_type": "Property Maintenance",
    "request_reason": "Property Maintenance",
    "date_created": "2025-09-22T14:48:12.000",
    "date_modified": "2025-09-22T15:23:38.000",
    "case_close_date": "2025-09-22T10:23:37.000",
    "request_status": "Closed",
    "responsible_agency": "Department of Code Enforcement",
    "final_address": "9331 Pritchard Pl",
    "address_councildis": "A",
    "status": "Referred to Code Enforcement",
    "rowid": "1228080",
    "final_x": "3662819.24768",
    "final_y": "535887.175047",
    "longitude": "-90.12691250803874",
    "latitude": "29.96805796037932",
    "geocoded_column": {
      "latitude": "29.96805796037932",
      "longitude": "-90.12691250803874"
    }
  },
  {
    "service_request": "2025-1228079",
    "request_type": "Trash/Recycling",
    "request_reason": "Request a Large Item Pick Up",
    "date_created": "2025-09-22T14:45:25.000",
    "date_modified": "2025-09-22T14:45:26.000",
    "request_status": "Pending",
    "responsible_agency": "Department of Sanitation",
    "final_address": "5450 N Roman St",
    "address_councildis": "E",
    "status": "Assigned to Contractor",
    "contractor": "Waste Pro",
    "rowid": "1228079",
    "final_x": "3698275.3544",
    "final_y": "536448.552839",
    "longitude": "-90.01492104112295",
    "latitude": "29.968527448113612",
    "geocoded_column": {
      "latitude": "29.968527448113612",
      "longitude": "-90.01492104112295"
    }
  },
  {
    "service_request": "2025-1228078",
    "request_type": "Parks & Parkways",
    "request_reason": "Request Tree Service (Right of Way/Public Property)",
    "date_created": "2025-09-22T14:43:11.000",
    "date_modified": "2025-09-22T14:43:12.000",
    "request_status": "Pending",
    "responsible_agency": "Department of Parks & Parkway",
    "final_address": "7200 BLK Wright Rd",
    "address_councildis": "E",
    "status": "Pending",
    "rowid": "1228078",
    "final_x": "3711844.05265",
    "final_y": "564432.190149",
    "longitude": "-89.97102013622109",
    "latitude": "30.045035381371534",
    "geocoded_column": {
      "latitude": "30.045035381371534",
      "longitude": "-89.97102013622109"
    }
  },
  {
    "service_request": "2025-1228077",
    "request_type": "Trash/Recycling",
    "request_reason": "Repair Trash Cart",
    "date_created": "2025-09-22T14:42:13.000",
    "date_modified": "2025-09-22T14:42:14.000",
    "request_status": "Pending",
    "responsible_agency": "Department of Sanitation",
    "final_address": "1656 Elizardi Blvd",
    "address_councildis": "C",
    "status": "Assigned to Contractor",
    "contractor": "Richards Disposal",
    "rowid": "1228077",
    "final_x": "3694735.35018",
    "final_y": "524777.41958",
    "longitude": "-90.02652086589939",
    "latitude": "29.936547430744703",
    "geocoded_column": {
      "latitude": "29.936547430744703",
      "longitude": "-90.02652086589939"
    }
  },
  {
    "service_request": "2025-1228076",
    "request_type": "Trash/Recycling",
    "request_reason": "Request a Large Item Pick Up",
    "date_created": "2025-09-22T14:36:54.000",
    "date_modified": "2025-09-22T14:36:56.000",
    "request_status": "Pending",
    "responsible_agency": "Department of Sanitation",
    "final_address": "2118 Tricou St",
    "address_councildis": "E",
    "status": "Assigned to Contractor",
    "contractor": "Waste Pro",
    "rowid": "1228076",
    "final_x": "3701582.9706",
    "final_y": "536795.89492",
    "longitude": "-90.00446276754106",
    "latitude": "29.96937745337453",
    "geocoded_column": {
      "latitude": "29.96937745337453",
      "longitude": "-90.00446276754106"
    }
  },
  {
    "service_request": "2025-1228075",
    "request_type": "Trash/Recycling",
    "request_reason": "Illegal Dumping",
    "date_created": "2025-09-22T14:35:55.000",
    "date_modified": "2025-09-22T14:35:56.000",
    "request_status": "Pending",
    "responsible_agency": "Department of Sanitation",
    "final_address": "6900 BLK Wright Rd",
    "address_councildis": "E",
    "status": "Pending",
    "rowid": "1228075",
    "final_x": "3712543.18643",
    "final_y": "563486.637906",
    "longitude": "-89.96884615043675",
    "latitude": "30.042412620206466",
    "geocoded_column": {
      "latitude": "30.042412620206466",
      "longitude": "-89.96884615043675"
    }
  },
  {
    "service_request": "2025-1228074",
    "request_type": "Health Related Request",
    "request_reason": "Noise Ordinance Complaint",
    "date_created": "2025-09-22T14:34:01.000",
    "date_modified": "2025-09-22T14:34:04.000",
    "request_status": "Pending",
    "responsible_agency": "Health Department",
    "final_address": "1510 Shirley Dr",
    "address_councildis": "C",
    "status": "Pending",
    "rowid": "1228074",
    "final_x": "3693147.04297",
    "final_y": "525273.864189",
    "longitude": "-90.03151738813627",
    "latitude": "29.937962196521145",
    "geocoded_column": {
      "latitude": "29.937962196521145",
      "longitude": "-90.03151738813627"
    }
  },
  {
    "service_request": "2025-1228073",
    "request_type": "Trash/Recycling",
    "request_reason": "Request a Large Item Pick Up",
    "date_created": "2025-09-22T14:33:43.000",
    "date_modified": "2025-09-22T14:33:58.000",
    "request_status": "Pending",
    "responsible_agency": "Department of Sanitation",
    "final_address": "9021 Bunker Hill Rd",
    "address_councildis": "E",
    "status": "Assigned to Contractor",
    "contractor": "Waste Pro",
    "rowid": "1228073",
    "final_x": "3706238.23083",
    "final_y": "561853.372511",
    "longitude": "-89.98883268264953",
    "latitude": "30.038126722567913",
    "geocoded_column": {
      "latitude": "30.038126722567913",
      "longitude": "-89.98883268264953"
    }
  },
  {
    "service_request": "2025-1228072",
    "request_type": "Trash/Recycling",
    "request_reason": "Request a Large Item Pick Up",
    "date_created": "2025-09-22T14:32:58.000",
    "date_modified": "2025-09-22T14:33:00.000",
    "request_status": "Pending",
    "responsible_agency": "Department of Sanitation",
    "final_address": "9710 W Wheaton Cir",
    "address_councildis": "E",
    "status": "Assigned to Contractor",
    "contractor": "Waste Pro",
    "rowid": "1228072",
    "final_x": "3708500.73777",
    "final_y": "562060.405727",
    "longitude": "-89.9816749279456",
    "latitude": "30.038622791523572",
    "geocoded_column": {
      "latitude": "30.038622791523572",
      "longitude": "-89.9816749279456"
    }
  },
  {
    "service_request": "2025-1228071",
    "request_type": "Abandoned Vehicles",
    "request_reason": "Abandoned/Junk Vehicles",
    "date_created": "2025-09-22T14:32:00.000",
    "date_modified": "2025-09-22T14:32:01.000",
    "request_status": "Pending",
    "responsible_agency": "Department of Public Works",
    "final_address": "5300 Timber Crest Dr",
    "address_councildis": "C",
    "status": "Pending",
    "rowid": "1228071",
    "final_x": "3703688.11767",
    "final_y": "511240.060208",
    "longitude": "-89.9987546055748",
    "latitude": "29.89904056312772",
    "geocoded_column": {
      "latitude": "29.89904056312772",
      "longitude": "-89.9987546055748"
    }
  },
  {
    "service_request": "2025-1228070",
    "request_type": "Property Maintenance",
    "request_reason": "Property Maintenance",
    "date_created": "2025-09-22T14:31:34.000",
    "date_modified": "2025-09-22T15:37:43.000",
    "case_close_date": "2025-09-22T10:37:42.000",
    "request_status": "Closed",
    "responsible_agency": "Department of Code Enforcement",
    "final_address": "3023 Memorial Park Dr",
    "address_councildis": "C",
    "status": "Referred to Code Enforcement",
    "rowid": "1228070",
    "final_x": "3694496.1848",
    "final_y": "519496.298615",
    "longitude": "-90.02746592890833",
    "latitude": "29.922033643625017",
    "geocoded_column": {
      "latitude": "29.922033643625017",
      "longitude": "-90.02746592890833"
    }
  },
  {
    "service_request": "2025-1228069",
    "request_type": "Trash/Recycling",
    "request_reason": "Request a Large Item Pick Up",
    "date_created": "2025-09-22T14:30:11.000",
    "date_modified": "2025-09-22T14:30:12.000",
    "request_status": "Pending",
    "responsible_agency": "Department of Sanitation",
    "final_address": "4675 Viola St",
    "address_councildis": "E",
    "status": "Assigned to Contractor",
    "contractor": "Waste Pro",
    "rowid": "1228069",
    "final_x": "3704064.81924",
    "final_y": "554846.352728",
    "longitude": "-89.99595962181994",
    "latitude": "30.01893008485932",
    "geocoded_column": {
      "latitude": "30.01893008485932",
      "longitude": "-89.99595962181994"
    }
  },
  {
    "service_request": "2025-1228068",
    "request_type": "Trash/Recycling",
    "request_reason": "Request a Large Item Pick Up",
    "date_created": "2025-09-22T14:29:43.000",
    "date_modified": "2025-09-22T14:30:30.000",
    "request_status": "Pending",
    "responsible_agency": "Department of Sanitation",
    "final_address": "5919 West End Blvd",
    "address_councildis": "A",
    "status": "Assigned to Contractor",
    "contractor": "IV Waste",
    "rowid": "1228068",
    "final_x": "3666518.69415",
    "final_y": "547315.600017",
    "longitude": "-90.11484567719323",
    "latitude": "29.99937464808035",
    "geocoded_column": {
      "latitude": "29.99937464808035",
      "longitude": "-90.11484567719323"
    }
  },
  {
    "service_request": "2025-1228067",
    "request_type": "Trash/Recycling",
    "request_reason": "Replace Trash Cart",
    "date_created": "2025-09-22T14:28:58.000",
    "date_modified": "2025-09-22T14:28:59.000",
    "request_status": "Pending",
    "responsible_agency": "Department of Sanitation",
    "final_address": "7581 Wave Dr",
    "address_councildis": "E",
    "status": "Assigned to Contractor",
    "contractor": "Waste Pro",
    "rowid": "1228067",
    "final_x": "3715160.19122",
    "final_y": "568631.234789",
    "longitude": "-89.96038066768824",
    "latitude": "30.05647221357499",
    "geocoded_column": {
      "latitude": "30.05647221357499",
      "longitude": "-89.96038066768824"
    }
  },
  {
    "service_request": "2025-1228066",
    "request_type": "Roads and Streets",
    "request_reason": "Pothole",
    "date_created": "2025-09-22T14:28:20.000",
    "date_modified": "2025-09-22T14:28:21.000",
    "request_status": "Pending",
    "responsible_agency": "Department of Public Works",
    "final_address": "AMAZON ST & MAINE ST",
    "address_councildis": "C",
    "status": "Pending",
    "rowid": "1228066",
    "final_x": "3695016.5",
    "final_y": "520837.78",
    "longitude": "-90.02577519839058",
    "latitude": "29.925705947538418",
    "geocoded_column": {
      "latitude": "29.925705947538418",
      "longitude": "-90.02577519839058"
    }
  },
  {
    "service_request": "2025-1228065",
    "request_type": "Abandoned Vehicles",
    "request_reason": "Abandoned/Junk Vehicles",
    "date_created": "2025-09-22T14:27:34.000",
    "date_modified": "2025-09-22T14:27:36.000",
    "request_status": "Pending",
    "responsible_agency": "Department of Public Works",
    "final_address": "2419 Upperline St",
    "address_councildis": "B",
    "status": "Pending",
    "rowid": "1228065",
    "final_x": "3669201.66599",
    "final_y": "523696.901307",
    "longitude": "-90.10716849173167",
    "latitude": "29.9343523808598",
    "geocoded_column": {
      "latitude": "29.9343523808598",
      "longitude": "-90.10716849173167"
    }
  },
  {
    "service_request": "2025-1228064",
    "request_type": "Property Maintenance",
    "request_reason": "Property Maintenance",
    "date_created": "2025-09-22T14:20:42.000",
    "date_modified": "2025-09-22T14:20:45.000",
    "request_status": "Pending",
    "responsible_agency": "Department of Code Enforcement",
    "final_address": "2445 First St",
    "address_councildis": "B",
    "status": "Pending",
    "rowid": "1228064",
    "final_x": "3675185.44302",
    "final_y": "525944.654333",
    "longitude": "-90.08820074808045",
    "latitude": "29.94035554212636",
    "geocoded_column": {
      "latitude": "29.94035554212636",
      "longitude": "-90.08820074808045"
    }
  },
  {
    "service_request": "2025-1228063",
    "request_type": "Trash/Recycling",
    "request_reason": "Request a Large Item Pick Up",
    "date_created": "2025-09-22T14:18:41.000",
    "date_modified": "2025-09-22T14:18:48.000",
    "request_status": "Pending",
    "responsible_agency": "Department of Sanitation",
    "final_address": "7732 Dorsett Dr",
    "address_councildis": "E",
    "status": "Assigned to Contractor",
    "contractor": "Waste Pro",
    "rowid": "1228063",
    "final_x": "3712512.48901",
    "final_y": "567792.842148",
    "longitude": "-89.96878109623366",
    "latitude": "30.054253941663593",
    "geocoded_column": {
      "latitude": "30.054253941663593",
      "longitude": "-89.96878109623366"
    }
  },
  {
    "service_request": "2025-1228062",
    "request_type": "Property Maintenance",
    "request_reason": "Property Maintenance",
    "date_created": "2025-09-22T14:18:13.000",
    "date_modified": "2025-09-22T14:18:15.000",
    "request_status": "Pending",
    "responsible_agency": "Department of Code Enforcement",
    "final_address": "2445 First St",
    "address_councildis": "B",
    "status": "Pending",
    "rowid": "1228062",
    "final_x": "3675185.44302",
    "final_y": "525944.654333",
    "longitude": "-90.08820074808045",
    "latitude": "29.94035554212636",
    "geocoded_column": {
      "latitude": "29.94035554212636",
      "longitude": "-90.08820074808045"
    }
  },
  {
    "service_request": "2025-1228061",
    "request_type": "Abandoned Vehicles",
    "request_reason": "Abandoned/Junk Vehicles",
    "date_created": "2025-09-22T14:17:31.000",
    "date_modified": "2025-09-22T14:18:03.000",
    "request_status": "Pending",
    "responsible_agency": "Department of Public Works",
    "final_address": "3528 Monroe St",
    "address_councildis": "A",
    "status": "Pending",
    "rowid": "1228061",
    "final_x": "3666034.70093",
    "final_y": "536055.806215",
    "longitude": "-90.1167522922658",
    "latitude": "29.96842815992007",
    "geocoded_column": {
      "latitude": "29.96842815992007",
      "longitude": "-90.1167522922658"
    }
  },
  {
    "service_request": "2025-1228060",
    "request_type": "Streetlights",
    "request_reason": "New Streetlight Request",
    "date_created": "2025-09-22T14:17:08.000",
    "date_modified": "2025-09-22T14:17:14.000",
    "request_status": "Pending",
    "responsible_agency": "Department of Public Works",
    "final_address": "2959 Memorial Park Dr",
    "address_councildis": "C",
    "status": "Pending",
    "rowid": "1228060",
    "final_x": "3693988.04029",
    "final_y": "519962.903288",
    "longitude": "-90.0290531558216",
    "latitude": "29.923332562844777",
    "geocoded_column": {
      "latitude": "29.923332562844777",
      "longitude": "-90.0290531558216"
    }
  },
  {
    "service_request": "2025-1228059",
    "request_type": "Trash/Recycling",
    "request_reason": "Order Trash Cart",
    "date_created": "2025-09-22T14:15:46.000",
    "date_modified": "2025-09-22T14:15:48.000",
    "request_status": "Pending",
    "responsible_agency": "Department of Sanitation",
    "final_address": "4806 N Tonti St",
    "address_councildis": "E",
    "status": "Assigned to Contractor",
    "contractor": "Waste Pro",
    "rowid": "1228059",
    "final_x": "3696426.03312",
    "final_y": "538908.945354",
    "longitude": "-90.02067225070635",
    "latitude": "29.975351024812685",
    "geocoded_column": {
      "latitude": "29.975351024812685",
      "longitude": "-90.02067225070635"
    }
  },
  {
    "service_request": "2025-1228058",
    "request_type": "Trash/Recycling",
    "request_reason": "Request a Large Item Pick Up",
    "date_created": "2025-09-22T14:13:49.000",
    "date_modified": "2025-09-22T14:13:51.000",
    "request_status": "Pending",
    "responsible_agency": "Department of Sanitation",
    "final_address": "11425 Will Stutley Dr",
    "address_councildis": "E",
    "status": "Assigned to Contractor",
    "contractor": "Waste Pro",
    "rowid": "1228058",
    "final_x": "3717574.19928",
    "final_y": "558297.50294",
    "longitude": "-89.95314390592456",
    "latitude": "30.027978904951034",
    "geocoded_column": {
      "latitude": "30.027978904951034",
      "longitude": "-89.95314390592456"
    }
  },
  {
    "service_request": "2025-1228057",
    "request_type": "Streetlights",
    "request_reason": "Streetlight Outage/Malfunction",
    "date_created": "2025-09-22T14:11:46.000",
    "date_modified": "2025-09-22T14:11:48.000",
    "request_status": "Pending",
    "responsible_agency": "Department of Public Works",
    "final_address": "15 S Park Pl",
    "address_councildis": "A",
    "status": "Pending",
    "rowid": "1228057",
    "final_x": "3670229.88282",
    "final_y": "543912.650318",
    "longitude": "-90.10323729823024",
    "latitude": "29.989908675413506",
    "geocoded_column": {
      "latitude": "29.989908675413506",
      "longitude": "-90.10323729823024"
    }
  },
  {
    "service_request": "2025-1228056",
    "request_type": "Abandoned Vehicles",
    "request_reason": "Abandoned/Junk Vehicles",
    "date_created": "2025-09-22T14:11:38.000",
    "date_modified": "2025-09-22T14:11:40.000",
    "request_status": "Pending",
    "responsible_agency": "Department of Public Works",
    "final_address": "7500 BLK Lucerne St",
    "address_councildis": "E",
    "status": "Pending",
    "rowid": "1228056",
    "final_x": "3711156.08552",
    "final_y": "565421.734758",
    "longitude": "-89.9731572934168",
    "latitude": "30.047778702287346",
    "geocoded_column": {
      "latitude": "30.047778702287346",
      "longitude": "-89.9731572934168"
    }
  },
  {
    "service_request": "2025-1228055",
    "request_type": "Trash/Recycling",
    "request_reason": "Request a Large Item Pick Up",
    "date_created": "2025-09-22T14:11:26.000",
    "date_modified": "2025-09-22T14:11:28.000",
    "request_status": "Pending",
    "responsible_agency": "Department of Sanitation",
    "final_address": "7975 Wales St",
    "address_councildis": "E",
    "status": "Assigned to Contractor",
    "contractor": "Waste Pro",
    "rowid": "1228055",
    "final_x": "3701550.0138",
    "final_y": "562129.180511",
    "longitude": "-90.00363843366422",
    "latitude": "30.039035510992612",
    "geocoded_column": {
      "latitude": "30.039035510992612",
      "longitude": "-90.00363843366422"
    }
  },
  {
    "service_request": "2025-1228054",
    "request_type": "Parks & Parkways",
    "request_reason": "Request Tree Service (Right of Way/Public Property)",
    "date_created": "2025-09-22T14:09:57.000",
    "date_modified": "2025-09-22T14:09:58.000",
    "request_status": "Pending",
    "responsible_agency": "Department of Parks & Parkway",
    "final_address": "4747 Babylon St",
    "address_councildis": "D",
    "status": "Pending",
    "rowid": "1228054",
    "final_x": "3696684.67581",
    "final_y": "554257.284696",
    "longitude": "-90.01929949812799",
    "latitude": "30.01754515244721",
    "geocoded_column": {
      "latitude": "30.01754515244721",
      "longitude": "-90.01929949812799"
    }
  },
  {
    "service_request": "2025-1228053",
    "request_type": "Trash/Recycling",
    "request_reason": "Order Recycling Cart",
    "date_created": "2025-09-22T14:09:46.000",
    "date_modified": "2025-09-22T14:09:48.000",
    "request_status": "Pending",
    "responsible_agency": "Department of Sanitation",
    "final_address": "800 Taft Pl",
    "address_councildis": "A",
    "status": "Pending",
    "rowid": "1228053",
    "final_x": "3673870.30824",
    "final_y": "539374.572938",
    "longitude": "-90.09189346693925",
    "latitude": "29.977322561300728",
    "geocoded_column": {
      "latitude": "29.977322561300728",
      "longitude": "-90.09189346693925"
    }
  },
  {
    "service_request": "2025-1228052",
    "request_type": "Streetlights",
    "request_reason": "Streetlight Outage/Malfunction",
    "date_created": "2025-09-22T14:09:19.000",
    "date_modified": "2025-09-22T14:09:21.000",
    "request_status": "Pending",
    "responsible_agency": "Department of Public Works",
    "final_address": "15 S Park Pl",
    "address_councildis": "A",
    "status": "Pending",
    "rowid": "1228052",
    "final_x": "3670229.88282",
    "final_y": "543912.650318",
    "longitude": "-90.10323729823024",
    "latitude": "29.989908675413506",
    "geocoded_column": {
      "latitude": "29.989908675413506",
      "longitude": "-90.10323729823024"
    }
  },