[
  {
    "service_request": "2023-1009849",
    "request_type": "Traffic Signals/Signs/Striping/Streetlights",
    "request_reason": "Street Light Outage/Malfunction",
    "date_created": "2023-06-20T01:07:07.000",
    "date_modified": "2023-06-20T01:07:08.000",
    "request_status": "Pending",
    "responsible_agency": "Department of Public Works",
    "final_address": "7823 Lafourche St",
    "address_councildis": "E",
    "status": "Assigned to Contractor",
    "contractor": "Legacy Professional Services",
    "rowid": "1009849",
    "final_x": "3709796.60465",
    "final_y": "566292.288227",
    "longitude": "-89.97742141776277",
    "latitude": "30.050216675976202",
    "geocoded_column": {
      "latitude": "30.050216675976202",
      "longitude": "-89.97742141776277"
    }
  },
  {
    "service_request": "2023-1009848",
    "request_type": "Traffic Signals/Signs/Striping/Streetlights",
    "request_reason": "Street Light Outage/Malfunction",
    "date_created": "2023-06-20T01:06:24.000",
    "date_modified": "2023-06-20T01:06:25.000",
    "request_status": "Pending",
    "responsible_agency": "Department of Public Works",
    "final_address": "7823 Lafourche St",
    "address_councildis": "E",
    "status": "Assigned to Contractor",
    "contractor": "Legacy Professional Services",
    "rowid": "1009848",
    "final_x": "3709796.60465",
    "final_y": "566292.288227",
    "longitude": "-89.97742141776277",
    "latitude": "30.050216675976202",
    "geocoded_column": {
      "latitude": "30.050216675976202",
      "longitude": "-89.97742141776277"
    }
  },
  {
    "service_request": "2023-1009847",
    "request_type": "Traffic Signals/Signs/Striping/Streetlights",
    "request_reason": "Street Light Outage/Malfunction",
    "date_created": "2023-06-20T01:04:18.000",
    "date_modified": "2023-06-20T01:04:18.000",
    "request_status": "Pending",
    "responsible_agency": "Department of Public Works",
    "final_address": "7823 Lafourche St",
    "address_councildis": "E",
    "status": "Assigned to Contractor",
    "contractor": "Legacy Professional Services",
    "rowid": "1009847",
    "final_x": "3709796.60465",
    "final_y": "566292.288227",
    "longitude": "-89.97742141776277",
    "latitude": "30.050216675976202",
    "geocoded_column": {
      "latitude": "30.050216675976202",
      "longitude": "-89.97742141776277"
    }
  },
  {
    "service_request": "2023-1009846",
    "request_type": "Roads/Drainage",
    "request_reason": "Pothole",
    "date_created": "2023-06-20T00:25:28.000",
    "date_modified": "2023-06-20T00:25:29.000",
    "request_status": "Pending",
    "responsible_agency": "Department of Public Works",
    "final_address": "1129 Eleonore St",
    "address_councildis": "A",
    "status": "Pending",
    "rowid": "1009846",
    "final_x": "3665554.88071",
    "final_y": "520305.639608",
    "longitude": "-90.11879481420523",
    "latitude": "29.925134284616966",
    "geocoded_column": {
      "latitude": "29.925134284616966",
      "longitude": "-90.11879481420523"
    }
  },
  {
    "service_request": "2023-1009845",
    "request_type": "Roads/Drainage",
    "request_reason": "Man hole cover issue",
    "date_created": "2023-06-20T00:11:38.000",
    "date_modified": "2023-06-20T00:12:28.000",
    "request_status": "Pending",
    "responsible_agency": "Department of Public Works",
    "final_address": "1400 BLK State St",
    "address_councildis": "A",
    "status": "Pending",
    "rowid": "1009845",
    "final_x": "3665378.99138",
    "final_y": "521317.196983",
    "longitude": "-90.11931621115376",
    "latitude": "29.92792087381342",
    "geocoded_column": {
      "latitude": "29.92792087381342",
      "longitude": "-90.11931621115376"
    }
  },
  {
    "service_request": "2023-1009844",
    "request_type": "Traffic Signals/Signs/Striping/Streetlights",
    "request_reason": "Street Light Outage/Malfunction",
    "date_created": "2023-06-19T23:47:32.000",
    "date_modified": "2023-06-19T23:47:33.000",
    "request_status": "Pending",
    "responsible_agency": "Department of Public Works",
    "final_address": "HAYNE BLVD & TRAPIER AVE",
    "address_councildis": "E",
    "status": "Assigned to Contractor",
    "contractor": "Legacy Professional Services",
    "rowid": "1009844",
    "final_x": "3705846.9",
    "final_y": "564891.18",
    "longitude": "-89.98995682569775",
    "latitude": "30.04649210833992",
    "geocoded_column": {
      "latitude": "30.04649210833992",
      "longitude": "-89.98995682569775"
    }
  },
  {
    "service_request": "2023-1009843",
    "request_type": "Traffic Signals/Signs/Striping/Streetlights",
    "request_reason": "Traffic Sign Missing/Damaged",
    "date_created": "2023-06-19T23:34:35.000",
    "date_modified": "2023-06-19T23:34:35.000",
    "request_status": "Pending",
    "responsible_agency": "Department of Public Works",
    "final_address": "AUSTERLITZ ST & MAGAZINE ST",
    "address_councildis": "B",
    "status": "Pending",
    "rowid": "1009843",
    "final_x": "3672872.2",
    "final_y": "518972.68",
    "longitude": "-90.09574178461791",
    "latitude": "29.92125377862943",
    "geocoded_column": {
      "latitude": "29.92125377862943",
      "longitude": "-90.09574178461791"
    }
  },
  {
    "service_request": "2023-1009841",
    "request_type": "Trash/Recycling",
    "request_reason": "Repair Trash Cart",
    "date_created": "2023-06-19T22:36:08.000",
    "date_modified": "2023-06-19T22:36:08.000",
    "request_status": "Pending",
    "responsible_agency": "Department of Sanitation",
    "final_address": "440 40Th St",
    "address_councildis": "A",
    "status": "Assigned to Contractor",
    "contractor": "IV Waste",
    "rowid": "1009841",
    "final_x": "3664795.52896",
    "final_y": "553319.127959",
    "longitude": "-90.1200884191603",
    "latitude": "30.01593254192942",
    "geocoded_column": {
      "latitude": "30.01593254192942",
      "longitude": "-90.1200884191603"
    }
  },
  {
    "service_request": "2023-1009840",
    "request_type": "Trash/Recycling",
    "request_reason": "Request a Large Item Pick Up",
    "date_created": "2023-06-19T22:30:05.000",
    "date_modified": "2023-06-19T22:30:06.000",
    "request_status": "Pending",
    "responsible_agency": "Department of Sanitation",
    "final_address": "2729 DAbadie St",
    "address_councildis": "D",
    "status": "Assigned to Contractor",
    "contractor": "IV Waste",
    "rowid": "1009840",
    "final_x": "3679072.84047",
    "final_y": "541165.8923",
    "longitude": "-90.075400038796",
    "latitude": "29.982092056348762",
    "geocoded_column": {
      "latitude": "29.982092056348762",
      "longitude": "-90.075400038796"
    }
  },
  {
    "service_request": "2023-1009839",
    "request_type": "Roads/Drainage",
    "request_reason": "Damaged Sidewalk",
    "date_created": "2023-06-19T22:21:15.000",
    "date_modified": "2023-06-19T22:21:15.000",
    "request_status": "Pending",
    "responsible_agency": "Department of Public Works",
    "final_address": "440 40Th St",
    "address_councildis": "A",
    "status": "Pending",
    "rowid": "1009839",
    "final_x": "3664795.52896",
    "final_y": "553319.127959",
    "longitude": "-90.1200884191603",
    "latitude": "30.01593254192942",
    "geocoded_column": {
      "latitude": "30.01593254192942",
      "longitude": "-90.1200884191603"
    }
  },
  {
    "service_request": "2023-1009838",
    "request_type": "Traffic Signals/Signs/Striping/Streetlights",
    "request_reason": "Street Light Outage/Malfunction",
    "date_created": "2023-06-19T22:21:09.000",
    "date_modified": "2023-06-19T22:21:10.000",
    "request_status": "Pending",
    "responsible_agency": "Department of Public Works",
    "final_address": "1028 Kerlerec St Apt 1",
    "address_councildis": "C",
    "status": "Assigned to Contractor",
    "contractor": "Legacy Professional Services",
    "rowid": "1009838",
    "final_x": "3683187.04476",
    "final_y": "535483.538374",
    "longitude": "-90.06260445308207",
    "latitude": "29.966342724951367",
    "geocoded_column": {
      "latitude": "29.966342724951367",
      "longitude": "-90.06260445308207"
    }
  },
  {
    "service_request": "2023-1009837",
    "request_type": "Trash/Recycling",
    "request_reason": "Request a Large Item Pick Up",
    "date_created": "2023-06-19T22:20:17.000",
    "date_modified": "2023-06-19T22:20:17.000",
    "request_status": "Pending",
    "responsible_agency": "Department of Sanitation",
    "final_address": "4731 Banks St",
    "address_councildis": "A",
    "status": "Assigned to Contractor",
    "contractor": "Richards Disposal",
    "rowid": "1009837",
    "final_x": "3668224.23809",
    "final_y": "539092.403658",
    "longitude": "-90.1097351986732",
    "latitude": "29.976713682841627",
    "geocoded_column": {
      "latitude": "29.976713682841627",
      "longitude": "-90.1097351986732"
    }
  },
  {
    "service_request": "2023-1009836",
    "request_type": "Traffic Signals/Signs/Striping/Streetlights",
    "request_reason": "Street Light Outage/Malfunction",
    "date_created": "2023-06-19T22:18:18.000",
    "date_modified": "2023-06-19T22:18:19.000",
    "request_status": "Pending",
    "responsible_agency": "Department of Public Works",
    "final_address": "1004 Kerlerec St",
    "address_councildis": "C",
    "status": "Assigned to Contractor",
    "contractor": "Legacy Professional Services",
    "rowid": "1009836",
    "final_x": "3683339.21813",
    "final_y": "535345.631302",
    "longitude": "-90.06212872430868",
    "latitude": "29.96595888687059",
    "geocoded_column": {
      "latitude": "29.96595888687059",
      "longitude": "-90.06212872430868"
    }
  },
  {
    "service_request": "2023-1009835",
    "request_type": "Trash/Recycling",
    "request_reason": "Order Recycling Cart",
    "date_created": "2023-06-19T22:17:23.000",
    "date_modified": "2023-06-19T22:17:23.000",
    "request_status": "Pending",
    "responsible_agency": "Department of Sanitation",
    "final_address": "440 40Th St",
    "address_councildis": "A",
    "status": "Pending",
    "rowid": "1009835",
    "final_x": "3664795.52896",
    "final_y": "553319.127959",
    "longitude": "-90.1200884191603",
    "latitude": "30.01593254192942",
    "geocoded_column": {
      "latitude": "30.01593254192942",
      "longitude": "-90.1200884191603"
    }
  },
  {
    "service_request": "2023-1009834",
    "request_type": "Trash/Recycling",
    "request_reason": "Request a Large Item Pick Up",
    "date_created": "2023-06-19T22:15:53.000",
    "date_modified": "2023-06-19T22:15:54.000",
    "request_status": "Pending",
    "responsible_agency": "Department of Sanitation",
    "final_address": "2835 Eagle St",
    "address_councildis": "A",
    "status": "Assigned to Contractor",
    "contractor": "Richards Disposal",
    "rowid": "1009834",
    "final_x": "3664212.07213",
    "final_y": "534473.874501",
    "longitude": "-90.12256105852148",
    "latitude": "29.96413145260823",
    "geocoded_column": {
      "latitude": "29.96413145260823",
      "longitude": "-90.12256105852148"
    }
  },
  {
    "service_request": "2023-1009833",
    "request_type": "Trash/Recycling",
    "request_reason": "Order Trash Cart",
    "date_created": "2023-06-19T22:13:36.000",
    "date_modified": "2023-06-19T22:13:37.000",
    "request_status": "Pending",
    "responsible_agency": "Department of Sanitation",
    "final_address": "3634 Third St",
    "address_councildis": "B",
    "status": "Assigned to Contractor",
    "contractor": "Richards Disposal",
    "rowid": "1009833",
    "final_x": "3672371.26676",
    "final_y": "528970.65056",
    "longitude": "-90.09698249150068",
    "latitude": "29.948759826937792",
    "geocoded_column": {
      "latitude": "29.948759826937792",
      "longitude": "-90.09698249150068"
    }
  },
  {
    "service_request": "2023-1009832",
    "request_type": "Trash/Recycling",
    "request_reason": "Missed Trash Pick-Up",
    "date_created": "2023-06-19T22:09:47.000",
    "date_modified": "2023-06-19T22:09:48.000",
    "request_status": "Pending",
    "responsible_agency": "Department of Sanitation",
    "final_address": "5517 Laurel St",
    "address_councildis": "A",
    "status": "Assigned to Contractor",
    "contractor": "Richards Disposal",
    "rowid": "1009832",
    "final_x": "3666071.89562",
    "final_y": "517915.676406",
    "longitude": "-90.11724282636312",
    "latitude": "29.918547557581643",
    "geocoded_column": {
      "latitude": "29.918547557581643",
      "longitude": "-90.11724282636312"
    }
  },
  {
    "service_request": "2023-1009831",
    "request_type": "Trash/Recycling",
    "request_reason": "Request a Large Item Pick Up",
    "date_created": "2023-06-19T21:58:16.000",
    "date_modified": "2023-06-19T21:58:17.000",
    "request_status": "Pending",
    "responsible_agency": "Department of Sanitation",
    "final_address": "6048 Catina St",
    "address_councildis": "A",
    "status": "Assigned to Contractor",
    "contractor": "IV Waste",
    "rowid": "1009831",
    "final_x": "3666717.02119",
    "final_y": "547986.388882",
    "longitude": "-90.11419660807687",
    "latitude": "30.0012132855456",
    "geocoded_column": {
      "latitude": "30.0012132855456",
      "longitude": "-90.11419660807687"
    }
  },
  {
    "service_request": "2023-1009830",
    "request_type": "Trash/Recycling",
    "request_reason": "Replace Trash Cart",
    "date_created": "2023-06-19T21:55:29.000",
    "date_modified": "2023-06-19T21:55:29.000",
    "request_status": "Pending",
    "responsible_agency": "Department of Sanitation",
    "final_address": "3634 Third St",
    "address_councildis": "B",
    "status": "Assigned to Contractor",
    "contractor": "Richards Disposal",
    "rowid": "1009830",
    "final_x": "3672371.26676",
    "final_y": "528970.65056",
    "longitude": "-90.09698249150068",
    "latitude": "29.948759826937792",
    "geocoded_column": {
      "latitude": "29.948759826937792",
      "longitude": "-90.09698249150068"
    }
  },
  {
    "service_request": "2023-1009829",
    "request_type": "Trash/Recycling",
    "request_reason": "Order Recycling Cart",
    "date_created": "2023-06-19T21:38:57.000",
    "date_modified": "2023-06-19T21:38:57.000",
    "request_status": "Pending",
    "responsible_agency": "Department of Sanitation",
    "final_address": "7604 Freret St",
    "address_councildis": "A",
    "status": "Pending",
    "rowid": "1009829",
    "final_x": "3662756.87367",
    "final_y": "526658.965566",
    "longitude": "-90.12741619903188",
    "latitude": "29.942685177448148",
    "geocoded_column": {
      "latitude": "29.942685177448148",
      "longitude": "-90.12741619903188"
    }
  },
  {
    "service_request": "2023-1009828",
    "request_type": "Traffic Signals/Signs/Striping/Streetlights",
    "request_reason": "Street Name Sign Damaged or Missing",
    "date_created": "2023-06-19T21:37:53.000",
    "date_modified": "2023-06-19T21:37:53.000",
    "request_status": "Pending",
    "responsible_agency": "Department of Public Works",
    "final_address": "2103 S Liberty St",
    "address_councildis": "B",
    "status": "Pending",
    "rowid": "1009828",
    "final_x": "3676200.10856",
    "final_y": "526096.009406",
    "longitude": "-90.08499207680126",
    "latitude": "29.940741362173334",
    "geocoded_column": {
      "latitude": "29.940741362173334",
      "longitude": "-90.08499207680126"
    }
  },
  {
    "service_request": "2023-1009827",
    "request_type": "Traffic Signals/Signs/Striping/Streetlights",
    "request_reason": "Street Light Outage/Malfunction",
    "date_created": "2023-06-19T21:14:55.000",
    "date_modified": "2023-06-19T21:14:56.000",
    "request_status": "Pending",
    "responsible_agency": "Department of Public Works",
    "final_address": "9118 Hayne Blvd",
    "address_councildis": "E",
    "status": "Assigned to Contractor",
    "contractor": "Legacy Professional Services",
    "rowid": "1009827",
    "final_x": "3705120.59191",
    "final_y": "564430.537825",
    "longitude": "-89.9922693587186",
    "latitude": "30.04524891899974",
    "geocoded_column": {
      "latitude": "30.04524891899974",
      "longitude": "-89.9922693587186"
    }
  },
  {
    "service_request": "2023-1009826",
    "request_type": "Trash/Recycling",
    "request_reason": "Return Recycling Cart",
    "date_created": "2023-06-19T21:05:25.000",
    "date_modified": "2023-06-19T21:05:25.000",
    "request_status": "Pending",
    "responsible_agency": "Department of Sanitation",
    "final_address": "4737 Baccich St",
    "address_councildis": "D",
    "status": "Pending",
    "rowid": "1009826",
    "final_x": "3687774.95081",
    "final_y": "550673.11874",
    "longitude": "-90.04757770503342",
    "latitude": "30.007967949961653",
    "geocoded_column": {
      "latitude": "30.007967949961653",
      "longitude": "-90.04757770503342"
    }
  },
  {
    "service_request": "2023-1009825",
    "request_type": "Trash/Recycling",
    "request_reason": "Replace Trash Cart",
    "date_created": "2023-06-19T21:04:13.000",
    "date_modified": "2023-06-19T21:04:13.000",
    "request_status": "Pending",
    "responsible_agency": "Department of Sanitation",
    "final_address": "2629 Upperline St",
    "address_councildis": "B",
    "status": "Assigned to Contractor",
    "contractor": "Richards Disposal",
    "rowid": "1009825",
    "final_x": "3669222.87905",
    "final_y": "524510.542204",
    "longitude": "-90.10707403332556",
    "latitude": "29.93658900757433",
    "geocoded_column": {
      "latitude": "29.93658900757433",
      "longitude": "-90.10707403332556"
    }
  },
  {
    "service_request": "2023-1009824",
    "request_type": "Trash/Recycling",
    "request_reason": "Illegal Dumping",
    "date_created": "2023-06-19T21:02:53.000",
    "date_modified": "2023-06-19T21:06:53.000",
    "request_status": "Pending",
    "responsible_agency": "Department of Sanitation",
    "final_address": "5600 BLK N Rampart St",
    "address_councildis": "E",
    "status": "Pending",
    "rowid": "1009824",
    "final_x": "3698073.22094",
    "final_y": "533283.817734",
    "longitude": "-90.0156743157843",
    "latitude": "29.959831948616323",
    "geocoded_column": {
      "latitude": "29.959831948616323",
      "longitude": "-90.0156743157843"
    }
  },
  {
    "service_request": "2023-1009823",
    "request_type": "Trash/Recycling",
    "request_reason": "Order Recycling Cart",
    "date_created": "2023-06-19T21:01:40.000",
    "date_modified": "2023-06-19T21:01:40.000",
    "request_status": "Pending",
    "responsible_agency": "Department of Sanitation",
    "final_address": "2629 Upperline St",
    "address_councildis": "B",
    "status": "Pending",
    "rowid": "1009823",
    "final_x": "3669222.87905",
    "final_y": "524510.542204",
    "longitude": "-90.10707403332556",
    "latitude": "29.93658900757433",
    "geocoded_column": {
      "latitude": "29.93658900757433",
      "longitude": "-90.10707403332556"
    }
  },
  {
    "service_request": "2023-1009822",
    "request_type": "Trash/Recycling",
    "request_reason": "Order Recycling Cart",
    "date_created": "2023-06-19T21:00:27.000",
    "date_modified": "2023-06-19T21:00:27.000",
    "request_status": "Pending",
    "responsible_agency": "Department of Sanitation",
    "final_address": "2629 Upperline St",
    "address_councildis": "B",
    "status": "Pending",
    "rowid": "1009822",
    "final_x": "3669222.87905",
    "final_y": "524510.542204",
    "longitude": "-90.10707403332556",
    "latitude": "29.93658900757433",
    "geocoded_column": {
      "latitude": "29.93658900757433",
      "longitude": "-90.10707403332556"
    }
  },
  {
    "service_request": "2023-1009821",
    "request_type": "Trash/Recycling",
    "request_reason": "Order Recycling Cart",
    "date_created": "2023-06-19T20:59:31.000",
    "date_modified": "2023-06-19T20:59:31.000",
    "request_status": "Pending",
    "responsible_agency": "Department of Sanitation",
    "final_address": "2629 Upperline St",
    "address_councildis": "B",
    "status": "Pending",
    "rowid": "1009821",
    "final_x": "3669222.87905",
    "final_y": "524510.542204",
    "longitude": "-90.10707403332556",
    "latitude": "29.93658900757433",
    "geocoded_column": {
      "latitude": "29.93658900757433",
      "longitude": "-90.10707403332556"
    }
  },
  {
    "service_request": "2023-1009820",
    "request_type": "Property Maintenance",
    "request_reason": "Property Maintenance",
    "date_created": "2023-06-19T20:51:55.000",
    "date_modified": "2023-06-19T20:51:55.000",
    "request_status": "Pending",
    "responsible_agency": "Department of Code Enforcement",
    "final_address": "5725 Marigny St",
    "address_councildis": "D",
    "status": "Pending",
    "rowid": "1009820",
    "final_x": "3684067.09065",
    "final_y": "554104.404888",
    "longitude": "-90.05917138937086",
    "latitude": "30.01751661667827",
    "geocoded_column": {
      "latitude": "30.01751661667827",
      "longitude": "-90.05917138937086"
    }
  },
  {
    "service_request": "2023-1009819",
    "request_type": "Traffic Signals/Signs/Striping/Streetlights",
    "request_reason": "Traffic Signal Malfunctioning/Damaged",
    "date_created": "2023-06-19T20:39:59.000",
    "date_modified": "2023-06-19T20:40:00.000",
    "request_status": "Pending",
    "responsible_agency": "Department of Public Works",
    "final_address": "JEFFERSON AVE & S CLAIBORNE AVE",
    "address_councildis": "A",
    "status": "Pending",
    "rowid": "1009819",
    "final_x": "3668388.0",
    "final_y": "526228.78",
    "longitude": "-90.10965185923143",
    "latitude": "29.941338149304734",
    "geocoded_column": {
      "latitude": "29.941338149304734",
      "longitude": "-90.10965185923143"
    }
  },
  {
    "service_request": "2023-1009818",
    "request_type": "Trash/Recycling",
    "request_reason": "Replace Trash Cart",
    "date_created": "2023-06-19T20:26:07.000",
    "date_modified": "2023-06-19T20:26:08.000",
    "request_status": "Pending",
    "responsible_agency": "Department of Sanitation",
    "final_address": "4117 Dryades St",
    "address_councildis": "B",
    "status": "Assigned to Contractor",
    "contractor": "Richards Disposal",
    "rowid": "1009818",
    "final_x": "3671680.74203",
    "final_y": "522082.49785",
    "longitude": "-90.09939698750027",
    "latitude": "29.929840113732766",
    "geocoded_column": {
      "latitude": "29.929840113732766",
      "longitude": "-90.09939698750027"
    }
  },
  {
    "service_request": "2023-1009817",
    "request_type": "Trash/Recycling",
    "request_reason": "Request a Large Item Pick Up",
    "date_created": "2023-06-19T20:14:19.000",
    "date_modified": "2023-06-19T20:14:20.000",
    "request_status": "Pending",
    "responsible_agency": "Department of Sanitation",
    "final_address": "6562 Avenue A",
    "address_councildis": "A",
    "status": "Assigned to Contractor",
    "contractor": "IV Waste",
    "rowid": "1009817",
    "final_x": "3665890.70887",
    "final_y": "551839.690326",
    "longitude": "-90.11667775859105",
    "latitude": "30.011832675901374",
    "geocoded_column": {
      "latitude": "30.011832675901374",
      "longitude": "-90.11667775859105"
    }
  },
  {
    "service_request": "2023-1009816",
    "request_type": "Traffic Signals/Signs/Striping/Streetlights",
    "request_reason": "Street Light Outage/Malfunction",
    "date_created": "2023-06-19T20:12:25.000",
    "date_modified": "2023-06-19T20:12:26.000",
    "request_status": "Pending",
    "responsible_agency": "Department of Public Works",
    "final_address": "4901 Moore Dr",
    "address_councildis": "D",
    "status": "Assigned to Contractor",
    "contractor": "Legacy Professional Services",
    "rowid": "1009816",
    "final_x": "3680083.59554",
    "final_y": "549576.596115",
    "longitude": "-90.07191514243578",
    "latitude": "30.005187971913102",
    "geocoded_column": {
      "latitude": "30.005187971913102",
      "longitude": "-90.07191514243578"
    }
  },
  {
    "service_request": "2023-1009815",
    "request_type": "Roads/Drainage",
    "request_reason": "Pothole",
    "date_created": "2023-06-19T20:11:17.000",
    "date_modified": "2023-06-19T20:11:17.000",
    "request_status": "Pending",
    "responsible_agency": "Department of Public Works",
    "final_address": "0 BLK Audubon Blvd",
    "address_councildis": "A",
    "status": "Pending",
    "rowid": "1009815",
    "final_x": "3665721.60225",
    "final_y": "527591.816651",
    "longitude": "-90.11802457989006",
    "latitude": "29.945164090388623",
    "geocoded_column": {
      "latitude": "29.945164090388623",
      "longitude": "-90.11802457989006"
    }
  },
  {
    "service_request": "2023-1009814",
    "request_type": "Trash/Recycling",
    "request_reason": "Missed Trash Pick-Up",
    "date_created": "2023-06-19T20:05:04.000",
    "date_modified": "2023-06-19T20:05:05.000",
    "request_status": "Pending",
    "responsible_agency": "Department of Sanitation",
    "final_address": "14643 Emory Rd",
    "address_councildis": "E",
    "status": "Assigned to Contractor",
    "contractor": "Waste Pro",
    "rowid": "1009814",
    "final_x": "3720147.09234",
    "final_y": "573482.533738",
    "longitude": "-89.9444322178259",
    "latitude": "30.06964601099963",
    "geocoded_column": {
      "latitude": "30.06964601099963",
      "longitude": "-89.9444322178259"
    }
  },
  {
    "service_request": "2023-1009813",
    "request_type": "Property Maintenance",
    "request_reason": "Property Maintenance",
    "date_created": "2023-06-19T20:03:05.000",
    "date_modified": "2023-06-19T20:03:05.000",
    "request_status": "Pending",
    "responsible_agency": "Department of Code Enforcement",
    "final_address": "110 Liberty Terrace Dr",
    "address_councildis": "D",
    "status": "Pending",
    "rowid": "1009813",
    "final_x": "3689627.30467",
    "final_y": "545394.794256",
    "longitude": "-90.0419135247602",
    "latitude": "29.99339719723187",
    "geocoded_column": {
      "latitude": "29.99339719723187",
      "longitude": "-90.0419135247602"
    }
  },
  {
    "service_request": "2023-1009812",
    "request_type": "Trash/Recycling",
    "request_reason": "Request a Large Item Pick Up",
    "date_created": "2023-06-19T19:48:37.000",
    "date_modified": "2023-06-19T19:48:38.000",
    "request_status": "Pending",
    "responsible_agency": "Department of Sanitation",
    "final_address": "2334 Soniat St",
    "address_councildis": "B",
    "status": "Assigned to Contractor",
    "contractor": "Richards Disposal",
    "rowid": "1009812",
    "final_x": "3668489.57249",
    "final_y": "524236.0759",
    "longitude": "-90.10939837577048",
    "latitude": "29.935855871686396",
    "geocoded_column": {
      "latitude": "29.935855871686396",
      "longitude": "-90.10939837577048"
    }
  },
  {
    "service_request": "2023-1009810",
    "request_type": "Parks & Parkways",
    "request_reason": "Request Tree Service (Right of Way/Public Property)",
    "date_created": "2023-06-19T19:24:57.000",
    "date_modified": "2023-06-19T19:24:57.000",
    "request_status": "Pending",
    "responsible_agency": "Department of Parks & Parkway",
    "final_address": "3511 Hyman Ct",
    "address_councildis": "C",
    "status": "Pending",
    "rowid": "1009810",
    "final_x": "3700882.02666",
    "final_y": "518111.835382",
    "longitude": "-90.00735920604109",
    "latitude": "29.918025187329835",
    "geocoded_column": {
      "latitude": "29.918025187329835",
      "longitude": "-90.00735920604109"
    }
  },
  {
    "service_request": "2023-1009809",
    "request_type": "Trash/Recycling",
    "request_reason": "Missed Trash Pick-Up",
    "date_created": "2023-06-19T19:11:01.000",
    "date_modified": "2023-06-19T19:11:02.000",
    "request_status": "Pending",
    "responsible_agency": "Department of Sanitation",
    "final_address": " & BALDWIN ST",
    "address_councildis": "D",
    "status": "Assigned to Contractor",
    "contractor": "IV Waste",
    "rowid": "1009809",
    "final_x": "3687880.8",
    "final_y": "560035.64",
    "longitude": "-90.04691121641319",
    "latitude": "30.03370814054373",
    "geocoded_column": {
      "latitude": "30.03370814054373",
      "longitude": "-90.04691121641319"
    }
  },
  {
    "service_request": "2023-1009807",
    "request_type": "Trash/Recycling",
    "request_reason": "Replace Trash Cart",
    "date_created": "2023-06-19T18:37:18.000",
    "date_modified": "2023-06-19T18:37:18.000",
    "request_status": "Pending",
    "responsible_agency": "Department of Sanitation",
    "final_address": "2421 Columbus St",
    "address_councildis": "D",
    "status": "Assigned to Contractor",
    "contractor": "IV Waste",
    "rowid": "1009807",
    "final_x": "3679358.67951",
    "final_y": "539072.414218",
    "longitude": "-90.07456985994588",
    "latitude": "29.976327085713226",
    "geocoded_column": {
      "latitude": "29.976327085713226",
      "longitude": "-90.07456985994588"
    }
  },
  {
    "service_request": "2023-1009806",
    "request_type": "Trash/Recycling",
    "request_reason": "Request a Large Item Pick Up",
    "date_created": "2023-06-19T18:29:34.000",
    "date_modified": "2023-06-19T18:29:35.000",
    "request_status": "Pending",
    "responsible_agency": "Department of Sanitation",
    "final_address": "132 N Norman C Francis Prkwy",
    "address_councildis": "B",
    "status": "Assigned to Contractor",
    "contractor": "Richards Disposal",
    "rowid": "1009806",
    "final_x": "3673547.41019",
    "final_y": "536932.220808",
    "longitude": "-90.09299678654595",
    "latitude": "29.97061653804212",
    "geocoded_column": {
      "latitude": "29.97061653804212",
      "longitude": "-90.09299678654595"
    }
  },
  {
    "service_request": "2023-1009805",
    "request_type": "Trash/Recycling",
    "request_reason": "Request a Large Item Pick Up",
    "date_created": "2023-06-19T18:06:57.000",
    "date_modified": "2023-06-19T18:06:58.000",
    "request_status": "Pending",
    "responsible_agency": "Department of Sanitation",
    "final_address": "2504 Upperline St, New Orleans, Louisiana, 70115",
    "address_councildis": "B",
    "status": "Assigned to Contractor",
    "contractor": "Richards Disposal",
    "rowid": "1009805",
    "final_x": "3669124.47617",
    "final_y": "523969.351932",
    "longitude": "-90.10740297610518",
    "latitude": "29.935103803620226",
    "geocoded_column": {
      "latitude": "29.935103803620226",
      "longitude": "-90.10740297610518"
    }
  },
  {
    "service_request": "2023-1009804",
    "request_type": "Roads/Drainage",
    "request_reason": "WaterMain Break",
    "date_created": "2023-06-19T18:04:38.000",
    "date_modified": "2023-06-19T18:04:38.000",
    "request_status": "Pending",
    "responsible_agency": "Department of Public Works",
    "final_address": "5736 Marigny St",
    "address_councildis": "D",
    "status": "Pending",
    "rowid": "1009804",
    "final_x": "3683918.77129",
    "final_y": "554197.290584",
    "longitude": "-90.05963675677896",
    "latitude": "30.017776552421232",
    "geocoded_column": {
      "latitude": "30.017776552421232",
      "longitude": "-90.05963675677896"
    }
  },
  {
    "service_request": "2023-1009803",
    "request_type": "Trash/Recycling",
    "request_reason": "Request a Large Item Pick Up",
    "date_created": "2023-06-19T18:01:29.000",
    "date_modified": "2023-06-19T18:01:30.000",
    "request_status": "Pending",
    "responsible_agency": "Department of Sanitation",
    "final_address": "600 BLK N Lopez St",
    "address_councildis": "A",
    "status": "Assigned to Contractor",
    "contractor": "Richards Disposal",
    "rowid": "1009803",
    "final_x": "3675081.48871",
    "final_y": "537820.877558",
    "longitude": "-90.08812148019045",
    "latitude": "29.973014292078442",
    "geocoded_column": {
      "latitude": "29.973014292078442",
      "longitude": "-90.08812148019045"
    }
  },
  {
    "service_request": "2023-1009802",
    "request_type": "Trash/Recycling",
    "request_reason": "Request a Large Item Pick Up",
    "date_created": "2023-06-19T17:59:42.000",
    "date_modified": "2023-06-19T17:59:43.000",
    "request_status": "Pending",
    "responsible_agency": "Department of Sanitation",
    "final_address": "4320 Pitt St",
    "address_councildis": "B",
    "status": "Assigned to Contractor",
    "contractor": "Richards Disposal",
    "rowid": "1009802",
    "final_x": "3671120.50491",
    "final_y": "520554.92492",
    "longitude": "-90.10121741801706",
    "latitude": "29.925656354485497",
    "geocoded_column": {
      "latitude": "29.925656354485497",
      "longitude": "-90.10121741801706"
    }
  },
  {
    "service_request": "2023-1009801",
    "request_type": "Trash/Recycling",
    "request_reason": "Request a Large Item Pick Up",
    "date_created": "2023-06-19T17:57:42.000",
    "date_modified": "2023-06-19T17:57:42.000",
    "request_status": "Pending",
    "responsible_agency": "Department of Sanitation",
    "final_address": "1628 N Broad St",
    "address_councildis": "D",
    "status": "Assigned to Contractor",
    "contractor": "IV Waste",
    "rowid": "1009801",
    "final_x": "3679319.49947",
    "final_y": "540307.383499",
    "longitude": "-90.0746507570968",
    "latitude": "29.97972400722889",
    "geocoded_column": {
      "latitude": "29.97972400722889",
      "longitude": "-90.0746507570968"
    }
  },
  {
    "service_request": "2023-1009800",
    "request_type": "Trash/Recycling",
    "request_reason": "Order Recycling Cart",
    "date_created": "2023-06-19T17:57:05.000",
    "date_modified": "2023-06-19T17:57:05.000",
    "request_status": "Pending",
    "responsible_agency": "Department of Sanitation",
    "final_address": "624 N Lopez St",
    "address_councildis": "A",
    "status": "Pending",
    "rowid": "1009800",
    "final_x": "3675131.11387",
    "final_y": "537836.098377",
    "longitude": "-90.08796423164283",
    "latitude": "29.973054661194542",
    "geocoded_column": {
      "latitude": "29.973054661194542",
      "longitude": "-90.08796423164283"
    }
  },
  {
    "service_request": "2023-1009799",
    "request_type": "Trash/Recycling",
    "request_reason": "Request a Large Item Pick Up",
    "date_created": "2023-06-19T17:56:21.000",
    "date_modified": "2023-06-19T17:56:21.000",
    "request_status": "Pending",
    "responsible_agency": "Department of Sanitation",
    "final_address": "6520 Coventry St",
    "address_councildis": "E",
    "status": "Assigned to Contractor",
    "contractor": "Waste Pro",
    "rowid": "1009799",
    "final_x": "3697522.75562",
    "final_y": "559000.364572",
    "longitude": "-90.01647928368726",
    "latitude": "30.030560361565982",
    "geocoded_column": {
      "latitude": "30.030560361565982",
      "longitude": "-90.01647928368726"
    }
  },
  {
    "service_request": "2023-1009798",
    "request_type": "Trash/Recycling",
    "request_reason": "Order Trash Cart",
    "date_created": "2023-06-19T17:55:29.000",
    "date_modified": "2023-06-19T17:55:30.000",
    "request_status": "Pending",
    "responsible_agency": "Department of Sanitation",
    "final_address": "622 N Lopez St",
    "address_councildis": "A",
    "status": "Assigned to Contractor",
    "contractor": "Richards Disposal",
    "rowid": "1009798",
    "final_x": "3675123.92731",
    "final_y": "537822.690505",
    "longitude": "-90.08798738845219",
    "latitude": "29.973018008881755",
    "geocoded_column": {
      "latitude": "29.973018008881755",
      "longitude": "-90.08798738845219"
    }
  },
  {
    "service_request": "2023-1009797",
    "request_type": "Abandoned Vehicles",
    "request_reason": "Vehicle Blocking Your Driveway",
    "date_created": "2023-06-19T17:54:19.000",
    "date_modified": "2023-06-19T17:54:19.000",
    "request_status": "Pending",
    "responsible_agency": "Department of Public Works",
    "final_address": "7860 Darleen Ct",
    "address_councildis": "E",
    "status": "Pending",
    "rowid": "1009797",
    "final_x": "3716711.72191",
    "final_y": "572196.238377",
    "longitude": "-89.95534107503312",
    "latitude": "30.06622328533592",
    "geocoded_column": {
      "latitude": "30.06622328533592",
      "longitude": "-89.95534107503312"
    }
  },
  {
    "service_request": "2023-1009796",
    "request_type": "Parks & Parkways",
    "request_reason": "Request Tree Service (Right of Way/Public Property)",
    "date_created": "2023-06-19T17:53:26.000",
    "date_modified": "2023-06-19T17:53:26.000",
    "request_status": "Pending",
    "responsible_agency": "Department of Parks & Parkway",
    "final_address": "726 Washington Ave",
    "address_councildis": "B",
    "status": "Pending",
    "rowid": "1009796",
    "final_x": "3677710.20584",
    "final_y": "519733.370424",
    "longitude": "-90.08044408248598",
    "latitude": "29.923200863028363",
    "geocoded_column": {
      "latitude": "29.923200863028363",
      "longitude": "-90.08044408248598"
    }
  },
  {
    "service_request": "2023-1009795",
    "request_type": "Trash/Recycling",
    "request_reason": "Missed Trash Pick-Up",
    "date_created": "2023-06-19T17:42:33.000",
    "date_modified": "2023-06-19T17:42:34.000",
    "request_status": "Pending",
    "responsible_agency": "Department of Sanitation",
    "final_address": "4800 Piety Dr",
    "address_councildis": "D",
    "status": "Assigned to Contractor",
    "contractor": "IV Waste",
    "rowid": "1009795",
    "final_x": "3691582.85974",
    "final_y": "551246.654293",
    "longitude": "-90.03552689731205",
    "latitude": "30.009426922541333",
    "geocoded_column": {
      "latitude": "30.009426922541333",
      "longitude": "-90.03552689731205"
    }
  },
  {
    "service_request": "2023-1009794",
    "request_type": "Property Maintenance",
    "request_reason": "Property Maintenance",
    "date_created": "2023-06-19T17:39:33.000",
    "date_modified": "2023-06-19T17:39:33.000",
    "request_status": "Pending",
    "responsible_agency": "Department of Code Enforcement",
    "final_address": "2013 Jourdan Ave",
    "address_councildis": "E",
    "status": "Pending",
    "rowid": "1009794",
    "final_x": "3696067.35734",
    "final_y": "537977.315529",
    "longitude": "-90.02183871618936",
    "latitude": "29.972800670321945",
    "geocoded_column": {
      "latitude": "29.972800670321945",
      "longitude": "-90.02183871618936"
    }
  },
  {
    "service_request": "2023-1009793",
    "request_type": "Trash/Recycling",
    "request_reason": "Request a Large Item Pick Up",
    "date_created": "2023-06-19T17:29:30.000",
    "date_modified": "2023-06-19T17:29:31.000",
    "request_status": "Pending",
    "responsible_agency": "Department of Sanitation",
    "final_address": "4227 Palmyra St",
    "address_councildis": "A",
    "status": "Assigned to Contractor",
    "contractor": "Richards Disposal",
    "rowid": "1009793",
    "final_x": "3669935.01857",
    "final_y": "538271.646409",
    "longitude": "-90.10435980896244",
    "latitude": "29.974406533597218",
    "geocoded_column": {
      "latitude": "29.974406533597218",
      "longitude": "-90.10435980896244"
    }
  },
  {
    "service_request": "2023-1009792",
    "request_type": "Trash/Recycling",
    "request_reason": "Order Trash Cart",
    "date_created": "2023-06-19T17:23:56.000",
    "date_modified": "2023-06-19T17:23:57.000",
    "request_status": "Pending",
    "responsible_agency": "Department of Sanitation",
    "final_address": "2637 Palmyra St",
    "address_councildis": "B",
    "status": "Assigned to Contractor",
    "contractor": "Richards Disposal",
    "rowid": "1009792",
    "final_x": "3675083.83925",
    "final_y": "534402.673861",
    "longitude": "-90.0882313620467",
    "latitude": "29.963615319553828",
    "geocoded_column": {
      "latitude": "29.963615319553828",
      "longitude": "-90.0882313620467"
    }
  },
  {
    "service_request": "2023-1009791",
    "request_type": "Trash/Recycling",
    "request_reason": "Request a Large Item Pick Up",
    "date_created": "2023-06-19T17:22:44.000",
    "date_modified": "2023-06-19T17:22:45.000",
    "request_status": "Pending",
    "responsible_agency": "Department of Sanitation",
    "final_address": "S LOPEZ ST & WALMSLEY AVE",
    "address_councildis": "B",
    "status": "Assigned to Contractor",
    "contractor": "Richards Disposal",
    "rowid": "1009791",
    "final_x": "3669625.1",
    "final_y": "530055.68",
    "longitude": "-90.10561662976464",
    "latitude": "29.951824492094637",
    "geocoded_column": {
      "latitude": "29.951824492094637",
      "longitude": "-90.10561662976464"
    }
  },
  {
    "service_request": "2023-1009790",
    "request_type": "Health Related Request",
    "request_reason": "Noise Ordinance Complaint",
    "date_created": "2023-06-19T17:21:15.000",
    "date_modified": "2023-06-19T17:21:15.000",
    "request_status": "Pending",
    "responsible_agency": "Health Department",
    "final_address": "309 Decatur St, New Orleans, Louisiana, 70130",
    "address_councildis": "C",
    "status": "Pending",
    "rowid": "1009790",
    "final_x": "3682303.87119",
    "final_y": "530935.66509",
    "longitude": "-90.06555240294671",
    "latitude": "29.953864528206758",
    "geocoded_column": {
      "latitude": "29.953864528206758",
      "longitude": "-90.06555240294671"
    }
  },
  {
    "service_request": "2023-1009789",
    "request_type": "Trash/Recycling",
    "request_reason": "Return Trash Cart",
    "date_created": "2023-06-19T16:56:32.000",
    "date_modified": "2023-06-19T16:56:33.000",
    "request_status": "Pending",
    "responsible_agency": "Department of Sanitation",
    "final_address": "5523 Magazine St",
    "address_councildis": "A",
    "status": "Assigned to Contractor",
    "contractor": "Richards Disposal",
    "rowid": "1009789",
    "final_x": "3666252.95425",
    "final_y": "518906.549047",
    "longitude": "-90.11663810711416",
    "latitude": "29.921266861735837",
    "geocoded_column": {
      "latitude": "29.921266861735837",
      "longitude": "-90.11663810711416"
    }
  },
  {
    "service_request": "2023-1009788",
    "request_type": "Roads/Drainage",
    "request_reason": "WaterMain Break",
    "date_created": "2023-06-19T16:50:53.000",
    "date_modified": "2023-06-19T16:50:53.000",
    "request_status": "Pending",
    "responsible_agency": "Department of Public Works",
    "final_address": "5878 General Haig St",
    "address_councildis": "A",
    "status": "Pending",
    "rowid": "1009788",
    "final_x": "3670415.33838",
    "final_y": "546400.661393",
    "longitude": "-90.10256707841563",
    "latitude": "29.996744371783667",
    "geocoded_column": {
      "latitude": "29.996744371783667",
      "longitude": "-90.10256707841563"
    }
  },
  {
    "service_request": "2023-1009787",
    "request_type": "Roads/Drainage",
    "request_reason": "Catch Basin - Broken/Damage",
    "date_created": "2023-06-19T16:48:45.000",
    "date_modified": "2023-06-19T16:48:45.000",
    "request_status": "Pending",
    "responsible_agency": "Department of Public Works",
    "final_address": "5878 General Haig St",
    "address_councildis": "A",
    "status": "Pending",
    "rowid": "1009787",
    "final_x": "3670415.33838",
    "final_y": "546400.661393",
    "longitude": "-90.10256707841563",
    "latitude": "29.996744371783667",
    "geocoded_column": {
      "latitude": "29.996744371783667",
      "longitude": "-90.10256707841563"
    }
  },
  {
    "service_request": "2023-1009786",
    "request_type": "Trash/Recycling",
    "request_reason": "Request a Large Item Pick Up",
    "date_created": "2023-06-19T16:46:00.000",
    "date_modified": "2023-06-19T16:46:01.000",
    "request_status": "Pending",
    "responsible_agency": "Department of Sanitation",
    "final_address": "7624 Bullard Ave",
    "address_councildis": "E",
    "status": "Assigned to Contractor",
    "contractor": "Waste Pro",
    "rowid": "1009786",
    "final_x": "3712978.40523",
    "final_y": "567451.07306",
    "longitude": "-89.96732133711699",
    "latitude": "30.05329895180492",
    "geocoded_column": {
      "latitude": "30.05329895180492",
      "longitude": "-89.96732133711699"
    }
  },
  {
    "service_request": "2023-1009785",
    "request_type": "Roads/Drainage",
    "request_reason": "Street Flooding / Drainage",
    "date_created": "2023-06-19T16:37:17.000",
    "date_modified": "2023-06-19T16:37:17.000",
    "request_status": "Pending",
    "responsible_agency": "Department of Public Works",
    "final_address": "6300 BLK Music St",
    "address_councildis": "D",
    "status": "Pending",
    "rowid": "1009785",
    "final_x": "3685238.02089",
    "final_y": "556474.119123",
    "longitude": "-90.05538821513154",
    "latitude": "30.023996602411906",
    "geocoded_column": {
      "latitude": "30.023996602411906",
      "longitude": "-90.05538821513154"
    }
  },
  {
    "service_request": "2023-1009784",
    "request_type": "Roads/Drainage",
    "request_reason": "Pothole",
    "date_created": "2023-06-19T16:33:28.000",
    "date_modified": "2023-06-19T16:33:29.000",
    "request_status": "Pending",
    "responsible_agency": "Department of Public Works",
    "final_address": "6300 BLK Music St",
    "address_councildis": "D",
    "status": "Pending",
    "rowid": "1009784",
    "final_x": "3685238.02089",
    "final_y": "556474.119123",
    "longitude": "-90.05538821513154",
    "latitude": "30.023996602411906",
    "geocoded_column": {
      "latitude": "30.023996602411906",
      "longitude": "-90.05538821513154"
    }
  },
  {
    "service_request": "2023-1009783",
    "request_type": "Traffic Signals/Signs/Striping/Streetlights",
    "request_reason": "Street Light Outage/Malfunction",
    "date_created": "2023-06-19T16:28:25.000",
    "date_modified": "2023-06-19T16:28:26.000",
    "request_status": "Pending",
    "responsible_agency": "Department of Public Works",
    "final_address": "9026 Heaton St",
    "address_councildis": "A",
    "status": "Assigned to Contractor",
    "contractor": "Legacy Professional Services",
    "rowid": "1009783",
    "final_x": "3666805.58401",
    "final_y": "538762.992777",
    "longitude": "-90.11422683566144",
    "latitude": "29.975849492313674",
    "geocoded_column": {
      "latitude": "29.975849492313674",
      "longitude": "-90.11422683566144"
    }
  },
  {
    "service_request": "2023-1009782",
    "request_type": "Trash/Recycling",
    "request_reason": "Request a Large Item Pick Up",
    "date_created": "2023-06-19T16:28:15.000",
    "date_modified": "2023-06-19T16:28:16.000",
    "request_status": "Pending",
    "responsible_agency": "Department of Sanitation",
    "final_address": "4741 Major Dr",
    "address_councildis": "E",
    "status": "Assigned to Contractor",
    "contractor": "Waste Pro",
    "rowid": "1009782",
    "final_x": "3718332.65452",
    "final_y": "556945.161178",
    "longitude": "-89.95079882664871",
    "latitude": "30.024235365060548",
    "geocoded_column": {
      "latitude": "30.024235365060548",
      "longitude": "-89.95079882664871"
    }
  },
  {
    "service_request": "2023-1009781",
    "request_type": "Trash/Recycling",
    "request_reason": "MIssed Recycling Pick-Up",
    "date_created": "2023-06-19T16:26:22.000",
    "date_modified": "2023-06-19T16:26:23.000",
    "request_status": "Pending",
    "responsible_agency": "Department of Sanitation",
    "final_address": "9020 Heaton St",
    "address_councildis": "A",
    "status": "Assigned to Contractor",
    "contractor": "Richards Disposal",
    "rowid": "1009781",
    "final_x": "3666815.11156",
    "final_y": "538694.379081",
    "longitude": "-90.1141990504728",
    "latitude": "29.97566054890245",
    "geocoded_column": {
      "latitude": "29.97566054890245",
      "longitude": "-90.1141990504728"
    }
  },
  {
    "service_request": "2023-1009780",
    "request_type": "Property Maintenance",
    "request_reason": "Property Maintenance",
    "date_created": "2023-06-19T16:18:59.000",
    "date_modified": "2023-06-19T16:18:59.000",
    "request_status": "Pending",
    "responsible_agency": "Department of Code Enforcement",
    "final_address": "439 S Norman C Francis Prkwy",
    "address_councildis": "B",
    "status": "Pending",
    "rowid": "1009780",
    "final_x": "3672146.25371",
    "final_y": "535583.154182",
    "longitude": "-90.09746776652378",
    "latitude": "29.96694868871269",
    "geocoded_column": {
      "latitude": "29.96694868871269",
      "longitude": "-90.09746776652378"
    }
  },
  {
    "service_request": "2023-1009779",
    "request_type": "Roads/Drainage",
    "request_reason": "Street Subsidence (Sinking)",
    "date_created": "2023-06-19T16:16:45.000",
    "date_modified": "2023-06-19T16:16:45.000",
    "request_status": "Pending",
    "responsible_agency": "Department of Public Works",
    "final_address": "4510 Dryades St",
    "address_councildis": "B",
    "status": "Pending",
    "rowid": "1009779",
    "final_x": "3670211.91623",
    "final_y": "521862.28185",
    "longitude": "-90.10404128903623",
    "latitude": "29.929278001593715",
    "geocoded_column": {
      "latitude": "29.929278001593715",
      "longitude": "-90.10404128903623"
    }
  },
  {
    "service_request": "2023-1009778",
    "request_type": "Trash/Recycling",
    "request_reason": "Request a Large Item Pick Up",
    "date_created": "2023-06-19T16:15:17.000",
    "date_modified": "2023-06-19T16:15:18.000",
    "request_status": "Pending",
    "responsible_agency": "Department of Sanitation",
    "final_address": "1229 Desire St",
    "address_councildis": "C",
    "status": "Assigned to Contractor",
    "contractor": "IV Waste",
    "rowid": "1009778",
    "final_x": "3690366.02371",
    "final_y": "536306.137223",
    "longitude": "-90.03990411256612",
    "latitude": "29.968383717974188",
    "geocoded_column": {
      "latitude": "29.968383717974188",
      "longitude": "-90.03990411256612"
    }
  },
  {
    "service_request": "2023-1009777",
    "request_type": "Trash/Recycling",
    "request_reason": "Missed Trash Pick-Up",
    "date_created": "2023-06-19T16:12:17.000",
    "date_modified": "2023-06-19T16:12:50.000",
    "request_status": "Pending",
    "responsible_agency": "Department of Sanitation",
    "final_address": "4818 Piety Dr",
    "address_councildis": "D",
    "status": "Assigned to Contractor",
    "contractor": "IV Waste",
    "rowid": "1009777",
    "final_x": "3691569.64867",
    "final_y": "551373.056149",
    "longitude": "-90.03556411254245",
    "latitude": "30.009774892354972",
    "geocoded_column": {
      "latitude": "30.009774892354972",
      "longitude": "-90.03556411254245"
    }
  },
  {
    "service_request": "2023-1009776",
    "request_type": "Trash/Recycling",
    "request_reason": "MIssed Recycling Pick-Up",
    "date_created": "2023-06-19T16:08:41.000",
    "date_modified": "2023-06-19T16:08:42.000",
    "request_status": "Pending",
    "responsible_agency": "Department of Sanitation",
    "final_address": "4571 Veronese Rd",
    "address_councildis": "E",
    "status": "Assigned to Contractor",
    "contractor": "Waste Pro",
    "rowid": "1009776",
    "final_x": "3763056.96157",
    "final_y": "574111.805418",
    "longitude": "-89.80876045321",
    "latitude": "30.069876258440456",
    "geocoded_column": {
      "latitude": "30.069876258440456",
      "longitude": "-89.80876045321"
    }
  },
  {
    "service_request": "2023-1009775",
    "request_type": "Trash/Recycling",
    "request_reason": "Start Trash Service",
    "date_created": "2023-06-19T16:07:33.000",
    "date_modified": "2023-06-19T16:07:34.000",
    "request_status": "Pending",
    "responsible_agency": "Department of Sanitation",
    "final_address": "6242 Carlisle Ct",
    "address_councildis": "C",
    "status": "Assigned to Contractor",
    "contractor": "Richards Disposal",
    "rowid": "1009775",
    "final_x": "3707266.23966",
    "final_y": "516553.409589",
    "longitude": "-89.98726569001359",
    "latitude": "29.91353537159291",
    "geocoded_column": {
      "latitude": "29.91353537159291",
      "longitude": "-89.98726569001359"
    }
  },
  {
    "service_request": "2023-1009774",
    "request_type": "Trash/Recycling",
    "request_reason": "MIssed Recycling Pick-Up",
    "date_created": "2023-06-19T16:07:00.000",
    "date_modified": "2023-06-19T16:07:01.000",
    "request_status": "Pending",
    "responsible_agency": "Department of Sanitation",
    "final_address": "2954 Fortin St",
    "address_councildis": "A",
    "status": "Assigned to Contractor",
    "contractor": "IV Waste",
    "rowid": "1009774",
    "final_x": "3677328.44014",
    "final_y": "540901.057547",
    "longitude": "-90.08091884114711",
    "latitude": "29.981416394248384",
    "geocoded_column": {
      "latitude": "29.981416394248384",
      "longitude": "-90.08091884114711"
    }
  },
  {
    "service_request": "2023-1009773",
    "request_type": "Property Maintenance",
    "request_reason": "Property Maintenance",
    "date_created": "2023-06-19T16:06:34.000",
    "date_modified": "2023-06-19T16:06:34.000",
    "request_status": "Pending",
    "responsible_agency": "Department of Code Enforcement",
    "final_address": "4900 BLK Warrington Dr",
    "address_councildis": "D",
    "status": "Pending",
    "rowid": "1009773",
    "final_x": "3681115.61805",
    "final_y": "550675.940102",
    "longitude": "-90.06861643162138",
    "latitude": "30.008179493090008",
    "geocoded_column": {
      "latitude": "30.008179493090008",
      "longitude": "-90.06861643162138"
    }
  },
  {
    "service_request": "2023-1009772",
    "request_type": "Trash/Recycling",
    "request_reason": "Missed Trash Pick-Up",
    "date_created": "2023-06-19T16:03:47.000",
    "date_modified": "2023-06-19T16:03:48.000",
    "request_status": "Pending",
    "responsible_agency": "Department of Sanitation",
    "final_address": "8950 Birch St",
    "address_councildis": "A",
    "status": "Assigned to Contractor",
    "contractor": "Richards Disposal",
    "rowid": "1009772",
    "final_x": "3660508.58547",
    "final_y": "531545.748355",
    "longitude": "-90.13435316872264",
    "latitude": "29.956187138199383",
    "geocoded_column": {
      "latitude": "29.956187138199383",
      "longitude": "-90.13435316872264"
    }
  },
  {
    "service_request": "2023-1009771",
    "request_type": "Trash/Recycling",
    "request_reason": "MIssed Recycling Pick-Up",
    "date_created": "2023-06-19T16:03:32.000",
    "date_modified": "2023-06-19T16:03:32.000",
    "request_status": "Pending",
    "responsible_agency": "Department of Sanitation",
    "final_address": "2954 Fortin St",
    "address_councildis": "A",
    "status": "Assigned to Contractor",
    "contractor": "IV Waste",
    "rowid": "1009771",
    "final_x": "3677328.44014",
    "final_y": "540901.057547",
    "longitude": "-90.08091884114711",
    "latitude": "29.981416394248384",
    "geocoded_column": {
      "latitude": "29.981416394248384",
      "longitude": "-90.08091884114711"
    }
  },
  {
    "service_request": "2023-1009770",
    "request_type": "Property Maintenance",
    "request_reason": "Property Maintenance",
    "date_created": "2023-06-19T16:01:37.000",
    "date_modified": "2023-06-19T16:01:37.000",
    "request_status": "Pending",
    "responsible_agency": "Department of Code Enforcement",
    "final_address": "439 S Norman C Francis Prkwy",
    "address_councildis": "B",
    "status": "Pending",
    "rowid": "1009770",
    "final_x": "3672146.25371",
    "final_y": "535583.154182",
    "longitude": "-90.09746776652378",
    "latitude": "29.96694868871269",
    "geocoded_column": {
      "latitude": "29.96694868871269",
      "longitude": "-90.09746776652378"
    }
  },
  {
    "service_request": "2023-1009769",
    "request_type": "Mosquito, Termite & Rodent Control",
    "request_reason": "Rodent Complaint (Rats)",
    "date_created": "2023-06-19T15:59:57.000",
    "date_modified": "2023-06-19T15:59:58.000",
    "request_status": "Pending",
    "responsible_agency": "Mosquito, Termite & Rodent Control Board",
    "final_address": "1300 Elysian Fields Ave",
    "address_councildis": "C",
    "status": "Pending",
    "rowid": "1009769",
    "final_x": "3684855.47484",
    "final_y": "537062.585032",
    "longitude": "-90.05728005535073",
    "latitude": "29.97063357367015",
    "geocoded_column": {
      "latitude": "29.97063357367015",
      "longitude": "-90.05728005535073"
    }
  },
  {
    "service_request": "2023-1009768",
    "request_type": "Trash/Recycling",
    "request_reason": "Replace Trash Cart",
    "date_created": "2023-06-19T15:57:51.000",
    "date_modified": "2023-06-19T15:57:52.000",
    "request_status": "Pending",
    "responsible_agency": "Department of Sanitation",
    "final_address": "4900 BLK Saint Charles Ave",
    "address_councildis": "B",
    "status": "Assigned to Contractor",
    "contractor": "Richards Disposal",
    "rowid": "1009768",
    "final_x": "3668882.66581",
    "final_y": "520738.863166",
    "longitude": "-90.10827540979768",
    "latitude": "29.926228102988336",
    "geocoded_column": {
      "latitude": "29.926228102988336",
      "longitude": "-90.10827540979768"
    }
  },
  {
    "service_request": "2023-1009767",
    "request_type": "Trash/Recycling",
    "request_reason": "Repair Trash Cart",
    "date_created": "2023-06-19T15:56:14.000",
    "date_modified": "2023-06-19T15:56:15.000",
    "request_status": "Pending",
    "responsible_agency": "Department of Sanitation",
    "final_address": "1409 Octavia St",
    "address_councildis": "A",
    "status": "Assigned to Contractor",
    "contractor": "Richards Disposal",
    "rowid": "1009767",
    "final_x": "3666956.38663",
    "final_y": "520991.088313",
    "longitude": "-90.11434767435445",
    "latitude": "29.92697813006529",
    "geocoded_column": {
      "latitude": "29.92697813006529",
      "longitude": "-90.11434767435445"
    }
  },
  {
    "service_request": "2023-1009766",
    "request_type": "Trash/Recycling",
    "request_reason": "MIssed Recycling Pick-Up",
    "date_created": "2023-06-19T15:53:44.000",
    "date_modified": "2023-06-19T15:53:45.000",
    "request_status": "Pending",
    "responsible_agency": "Department of Sanitation",
    "final_address": "830 N White St",
    "address_councildis": "A",
    "status": "Assigned to Contractor",
    "contractor": "Richards Disposal",
    "rowid": "1009766",
    "final_x": "3676664.62344",
    "final_y": "537749.215304",
    "longitude": "-90.08312409864254",
    "latitude": "29.9727698444857",
    "geocoded_column": {
      "latitude": "29.9727698444857",
      "longitude": "-90.08312409864254"
    }
  },
  {
    "service_request": "2023-1009765",
    "request_type": "Mosquito, Termite & Rodent Control",
    "request_reason": "Rodent Complaint (Rats)",
    "date_created": "2023-06-19T15:50:30.000",
    "date_modified": "2023-06-19T15:50:30.000",
    "request_status": "Pending",
    "responsible_agency": "Mosquito, Termite & Rodent Control Board",
    "final_address": "10710 Dwyer Rd",
    "address_councildis": "E",
    "status": "Pending",
    "rowid": "1009765",
    "final_x": "3715041.3877",
    "final_y": "558231.07478",
    "longitude": "-89.96114984886911",
    "latitude": "30.027879896939474",
    "geocoded_column": {
      "latitude": "30.027879896939474",
      "longitude": "-89.96114984886911"
    }
  },
  {
    "service_request": "2023-1009764",
    "request_type": "Property Maintenance",
    "request_reason": "Property Maintenance",
    "date_created": "2023-06-19T15:48:42.000",
    "date_modified": "2023-06-19T15:48:42.000",
    "request_status": "Pending",
    "responsible_agency": "Department of Code Enforcement",
    "final_address": "434 S Lopez St",
    "address_councildis": "B",
    "status": "Pending",
    "rowid": "1009764",
    "final_x": "3672982.71464",
    "final_y": "534995.04231",
    "longitude": "-90.0948462902976",
    "latitude": "29.965306745386382",
    "geocoded_column": {
      "latitude": "29.965306745386382",
      "longitude": "-90.0948462902976"
    }
  },
  {
    "service_request": "2023-1009763",
    "request_type": "Abandoned Vehicles",
    "request_reason": "Abandoned/Junk Vehicles",
    "date_created": "2023-06-19T15:42:22.000",
    "date_modified": "2023-06-19T15:42:22.000",
    "request_status": "Pending",
    "responsible_agency": "Department of Public Works",
    "final_address": "1918 N Galvez St",
    "address_councildis": "D",
    "status": "Pending",
    "rowid": "1009763",
    "final_x": "3683011.25653",
    "final_y": "539804.049226",
    "longitude": "-90.06300832475118",
    "latitude": "29.9782279902038",
    "geocoded_column": {
      "latitude": "29.9782279902038",
      "longitude": "-90.06300832475118"
    }
  },
  {
    "service_request": "2023-1009762",
    "request_type": "Trash/Recycling",
    "request_reason": "Missed Trash Pick-Up",
    "date_created": "2023-06-19T15:42:15.000",
    "date_modified": "2023-06-19T15:42:16.000",
    "request_status": "Pending",
    "responsible_agency": "Department of Sanitation",
    "final_address": "10710 Dwyer Rd",
    "address_councildis": "E",
    "status": "Assigned to Contractor",
    "contractor": "Waste Pro",
    "rowid": "1009762",
    "final_x": "3715041.3877",
    "final_y": "558231.07478",
    "longitude": "-89.96114984886911",
    "latitude": "30.027879896939474",
    "geocoded_column": {
      "latitude": "30.027879896939474",
      "longitude": "-89.96114984886911"
    }
  },
  {
    "service_request": "2023-1009761",
    "request_type": "Trash/Recycling",
    "request_reason": "Illegal Dumping",
    "date_created": "2023-06-19T15:39:38.000",
    "date_modified": "2023-06-19T15:39:38.000",
    "request_status": "Pending",
    "responsible_agency": "Department of Code Enforcement",
    "final_address": "2805 N Roman St",
    "address_councildis": "D",
    "status": "Pending",
    "rowid": "1009761",
    "final_x": "3688456.74147",
    "final_y": "538953.524554",
    "longitude": "-90.04583975858294",
    "latitude": "29.975722225345972",
    "geocoded_column": {
      "latitude": "29.975722225345972",
      "longitude": "-90.04583975858294"
    }
  },
  {
    "service_request": "2023-1009760",
    "request_type": "Roads/Drainage",
    "request_reason": "Street Flooding / Drainage",
    "date_created": "2023-06-19T15:38:16.000",
    "date_modified": "2023-06-19T15:38:16.000",
    "request_status": "Pending",
    "responsible_agency": "Department of Public Works",
    "final_address": "914 N Dorgenois St",
    "address_councildis": "D",
    "status": "Pending",
    "rowid": "1009760",
    "final_x": "3677695.18075",
    "final_y": "537258.56948",
    "longitude": "-90.07988635560078",
    "latitude": "29.971389778369478",
    "geocoded_column": {
      "latitude": "29.971389778369478",
      "longitude": "-90.07988635560078"
    }
  },
  {
    "service_request": "2023-1009759",
    "request_type": "Taxi Issues",
    "request_reason": "Taxi Complaint",
    "date_created": "2023-06-19T15:35:57.000",
    "date_modified": "2023-06-19T15:35:58.000",
    "request_status": "Pending",
    "responsible_agency": "Ground Transportation Bureau",
    "final_address": "214 Royal St",
    "address_councildis": "C",
    "status": "Pending",
    "rowid": "1009759",
    "final_x": "3681611.07157",
    "final_y": "531183.872066",
    "longitude": "-90.06773132081467",
    "latitude": "29.95456807206019",
    "geocoded_column": {
      "latitude": "29.95456807206019",
      "longitude": "-90.06773132081467"
    }
  },
  {
    "service_request": "2023-1009758",
    "request_type": "Trash/Recycling",
    "request_reason": "Request a Large Item Pick Up",
    "date_created": "2023-06-19T15:33:34.000",
    "date_modified": "2023-06-19T15:33:35.000",
    "request_status": "Pending",
    "responsible_agency": "Department of Sanitation",
    "final_address": "1425 Gallier St, New Orleans, Louisiana, 70117",
    "address_councildis": "C",
    "status": "Assigned to Contractor",
    "contractor": "IV Waste",
    "rowid": "1009758",
    "final_x": "3690834.0982",
    "final_y": "536954.848712",
    "longitude": "-90.03840276406889",
    "latitude": "29.970152909505803",
    "geocoded_column": {
      "latitude": "29.970152909505803",
      "longitude": "-90.03840276406889"
    }
  },
  {
    "service_request": "2023-1009757",
    "request_type": "Trash/Recycling",
    "request_reason": "Repair Trash Cart",
    "date_created": "2023-06-19T15:30:52.000",
    "date_modified": "2023-06-19T15:30:53.000",
    "request_status": "Pending",
    "responsible_agency": "Department of Sanitation",
    "final_address": "532 Joseph St",
    "address_councildis": "A",
    "status": "Assigned to Contractor",
    "contractor": "Richards Disposal",
    "rowid": "1009757",
    "final_x": "3665904.28602",
    "final_y": "518146.254838",
    "longitude": "-90.11776416228547",
    "latitude": "29.919186466358443",
    "geocoded_column": {
      "latitude": "29.919186466358443",
      "longitude": "-90.11776416228547"
    }
  },
  {
    "service_request": "2023-1009756",
    "request_type": "Traffic Signals/Signs/Striping/Streetlights",
    "request_reason": "Street Light Outage/Malfunction",
    "date_created": "2023-06-19T15:26:19.000",
    "date_modified": "2023-06-19T15:26:19.000",
    "request_status": "Pending",
    "responsible_agency": "Department of Public Works",
    "final_address": "7830 Bass St",
    "address_councildis": "E",
    "status": "Assigned to Contractor",
    "contractor": "Legacy Professional Services",
    "rowid": "1009756",
    "final_x": "3719849.29734",
    "final_y": "573857.488234",
    "longitude": "-89.94535925384497",
    "latitude": "30.070686899257577",
    "geocoded_column": {
      "latitude": "30.070686899257577",
      "longitude": "-89.94535925384497"
    }
  },
  {
    "service_request": "2023-1009755",
    "request_type": "Trash/Recycling",
    "request_reason": "Request a Large Item Pick Up",
    "date_created": "2023-06-19T15:24:25.000",
    "date_modified": "2023-06-19T15:24:26.000",
    "request_status": "Pending",
    "responsible_agency": "Department of Sanitation",
    "final_address": "728 Pelican Ave",
    "address_councildis": "C",
    "status": "Assigned to Contractor",
    "contractor": "Richards Disposal",
    "rowid": "1009755",
    "final_x": "3687813.27004",
    "final_y": "530820.26797",
    "longitude": "-90.04816012221066",
    "latitude": "29.953378464407095",
    "geocoded_column": {
      "latitude": "29.953378464407095",
      "longitude": "-90.04816012221066"
    }
  },
  {
    "service_request": "2023-1009754",
    "request_type": "Trash/Recycling",
    "request_reason": "Request a Large Item Pick Up",
    "date_created": "2023-06-19T15:20:13.000",
    "date_modified": "2023-06-19T15:20:13.000",
    "request_status": "Pending",
    "responsible_agency": "Department of Sanitation",
    "final_address": "7644 Lehigh St Apt A",
    "address_councildis": "E",
    "status": "Assigned to Contractor",
    "contractor": "Waste Pro",
    "rowid": "1009754",
    "final_x": "3710424.90705",
    "final_y": "565802.690915",
    "longitude": "-89.97545393759191",
    "latitude": "30.048850023028635",
    "geocoded_column": {
      "latitude": "30.048850023028635",
      "longitude": "-89.97545393759191"
    }
  },
  {
    "service_request": "2023-1009753",
    "request_type": "Trash/Recycling",
    "request_reason": "Dead Animal Pick Up",
    "date_created": "2023-06-19T15:15:21.000",
    "date_modified": "2023-06-19T15:55:38.000",
    "request_status": "Pending",
    "responsible_agency": "Department of Sanitation",
    "final_address": "10100 I 10 Service Rd, New Orleans, Louisiana, 70127",
    "address_councildis": "E",
    "status": "Assigned to Contractor",
    "contractor": "Waste Pro",
    "rowid": "1009753",
    "final_x": "3711458.12485",
    "final_y": "562013.568031",
    "longitude": "-89.97233063253108",
    "latitude": "30.038397751780227",
    "geocoded_column": {
      "latitude": "30.038397751780227",
      "longitude": "-89.97233063253108"
    }
  },
  {
    "service_request": "2023-1009752",
    "request_type": "Trash/Recycling",
    "request_reason": "Replace Trash Cart",
    "date_created": "2023-06-19T15:14:36.000",
    "date_modified": "2023-06-19T15:53:55.000",
    "request_status": "Pending",
    "responsible_agency": "Department of Sanitation",
    "final_address": "4518 Touro St. New Orleans, LA 70122",
    "address_councildis": "D",
    "status": "Assigned to Contractor",
    "contractor": "IV Waste",
    "rowid": "1009752",
    "final_x": "3683145.18274",
    "final_y": "549297.716179",
    "longitude": "-90.06225272128474",
    "latitude": "30.00432812331609",
    "geocoded_column": {
      "latitude": "30.00432812331609",
      "longitude": "-90.06225272128474"
    }
  },
  {
    "service_request": "2023-1009751",
    "request_type": "Trash/Recycling",
    "request_reason": "Illegal Dumping",
    "date_created": "2023-06-19T15:14:32.000",
    "date_modified": "2023-06-19T15:14:32.000",
    "request_status": "Pending",
    "responsible_agency": "Department of Sanitation",
    "final_address": "8900 Old Gentilly Rd",
    "address_councildis": "E",
    "status": "Pending",
    "rowid": "1009751",
    "final_x": "3708682.29163",
    "final_y": "552619.300822",
    "longitude": "-89.98145318769768",
    "latitude": "30.012657560264174",
    "geocoded_column": {
      "latitude": "30.012657560264174",
      "longitude": "-89.98145318769768"
    }
  },
  {
    "service_request": "2023-1009749",
    "request_type": "Trash/Recycling",
    "request_reason": "Order Trash Cart",
    "date_created": "2023-06-19T15:03:57.000",
    "date_modified": "2023-06-19T15:03:58.000",
    "request_status": "Pending",
    "responsible_agency": "Department of Sanitation",
    "final_address": "43 Warbler St",
    "address_councildis": "D",
    "status": "Assigned to Contractor",
    "contractor": "IV Waste",
    "rowid": "1009749",
    "final_x": "3673289.02004",
    "final_y": "556569.395034",
    "longitude": "-90.09314158312276",
    "latitude": "30.024619596755652",
    "geocoded_column": {
      "latitude": "30.024619596755652",
      "longitude": "-90.09314158312276"
    }
  },
  {
    "service_request": "2023-1009748",
    "request_type": "Trash/Recycling",
    "request_reason": "Repair Trash Cart",
    "date_created": "2023-06-19T15:01:28.000",
    "date_modified": "2023-06-19T15:01:29.000",
    "request_status": "Pending",
    "responsible_agency": "Department of Sanitation",
    "final_address": "3014 Louisiana Avenue Prkwy",
    "address_councildis": "B",
    "status": "Assigned to Contractor",
    "contractor": "Richards Disposal",
    "rowid": "1009748",
    "final_x": "3672084.70689",
    "final_y": "526323.937982",
    "longitude": "-90.09797738183488",
    "latitude": "29.94149073253838",
    "geocoded_column": {
      "latitude": "29.94149073253838",
      "longitude": "-90.09797738183488"
    }
  },
  {
    "service_request": "2023-1009747",
    "request_type": "Trash/Recycling",
    "request_reason": "Request a Large Item Pick Up",
    "date_created": "2023-06-19T14:58:17.000",
    "date_modified": "2023-06-19T14:58:17.000",
    "request_status": "Pending",
    "responsible_agency": "Department of Sanitation",
    "final_address": "8722 Oleander St",
    "address_councildis": "A",
    "status": "Assigned to Contractor",
    "contractor": "Richards Disposal",
    "rowid": "1009747",
    "final_x": "3665028.85447",
    "final_y": "535200.212038",
    "longitude": "-90.11995743090111",
    "latitude": "29.966104884927326",
    "geocoded_column": {
      "latitude": "29.966104884927326",
      "longitude": "-90.11995743090111"
    }
  },
  {
    "service_request": "2023-1009746",
    "request_type": "Property Maintenance",
    "request_reason": "Property Maintenance",
    "date_created": "2023-06-19T14:57:04.000",
    "date_modified": "2023-06-19T14:57:04.000",
    "request_status": "Pending",
    "responsible_agency": "Department of Code Enforcement",
    "final_address": "1201 Feliciana St",
    "address_councildis": "C",
    "status": "Pending",
    "rowid": "1009746",
    "final_x": "3688860.37033",
    "final_y": "536437.765447",
    "longitude": "-90.04465434869766",
    "latitude": "29.96879229635813",
    "geocoded_column": {
      "latitude": "29.96879229635813",
      "longitude": "-90.04465434869766"
    }
  },
  {
    "service_request": "2023-1009745",
    "request_type": "Trash/Recycling",
    "request_reason": "MIssed Recycling Pick-Up",
    "date_created": "2023-06-19T14:51:51.000",
    "date_modified": "2023-06-19T14:51:51.000",
    "request_status": "Pending",
    "responsible_agency": "Department of Sanitation",
    "final_address": "3123 London Ave",
    "address_councildis": "D",
    "status": "Assigned to Contractor",
    "contractor": "IV Waste",
    "rowid": "1009745",
    "final_x": "3681496.64674",
    "final_y": "543959.541198",
    "longitude": "-90.06764703077454",
    "latitude": "29.989700221350652",
    "geocoded_column": {
      "latitude": "29.989700221350652",
      "longitude": "-90.06764703077454"
    }
  },
  {
    "service_request": "2023-1009744",
    "request_type": "Property Maintenance",
    "request_reason": "Property Maintenance",
    "date_created": "2023-06-19T14:45:19.000",
    "date_modified": "2023-06-19T14:45:19.000",
    "request_status": "Pending",
    "responsible_agency": "Department of Code Enforcement",
    "final_address": "7159 Deanne St",
    "address_councildis": "D",
    "status": "Pending",
    "rowid": "1009744",
    "final_x": "3695549.25277",
    "final_y": "557000.45673",
    "longitude": "-90.02278783584968",
    "latitude": "30.025123592023174",
    "geocoded_column": {
      "latitude": "30.025123592023174",
      "longitude": "-90.02278783584968"
    }
  },
  {
    "service_request": "2023-1009743",
    "request_type": "Property Maintenance",
    "request_reason": "Property Maintenance",
    "date_created": "2023-06-19T14:43:20.000",
    "date_modified": "2023-06-19T14:43:20.000",
    "request_status": "Pending",
    "responsible_agency": "Department of Code Enforcement",
    "final_address": "7143 Deanne St",
    "address_councildis": "D",
    "status": "Pending",
    "rowid": "1009743",
    "final_x": "3695586.39056",
    "final_y": "556886.766426",
    "longitude": "-90.02267459596864",
    "latitude": "30.02480981887474",
    "geocoded_column": {
      "latitude": "30.02480981887474",
      "longitude": "-90.02267459596864"
    }
  },
  {
    "service_request": "2023-1009742",
    "request_type": "Traffic Signals/Signs/Striping/Streetlights",
    "request_reason": "Street Light Outage/Malfunction",
    "date_created": "2023-06-19T14:39:29.000",
    "date_modified": "2023-06-19T14:39:30.000",
    "request_status": "Pending",
    "responsible_agency": "Department of Public Works",
    "final_address": "3000 BLK Chartres St",
    "address_councildis": "C",
    "status": "Assigned to Contractor",
    "contractor": "Legacy Professional Services",
    "rowid": "1009742",
    "final_x": "3688256.74779",
    "final_y": "534222.827996",
    "longitude": "-90.04663916760143",
    "latitude": "29.96272064361422",
    "geocoded_column": {
      "latitude": "29.96272064361422",
      "longitude": "-90.04663916760143"
    }
  },
  {
    "service_request": "2023-1009741",
    "request_type": "Trash/Recycling",
    "request_reason": "Request a Large Item Pick Up",
    "date_created": "2023-06-19T14:37:34.000",
    "date_modified": "2023-06-19T14:37:35.000",
    "request_status": "Pending",
    "responsible_agency": "Department of Sanitation",
    "final_address": "3719 Timber Bluff Ln",
    "address_councildis": "C",
    "status": "Assigned to Contractor",
    "contractor": "Richards Disposal",
    "rowid": "1009741",
    "final_x": "3703926.91108",
    "final_y": "510752.386095",
    "longitude": "-89.99801894924028",
    "latitude": "29.897691974330296",
    "geocoded_column": {
      "latitude": "29.897691974330296",
      "longitude": "-89.99801894924028"
    }
  },
  {
    "service_request": "2023-1009740",
    "request_type": "Trash/Recycling",
    "request_reason": "Request a Large Item Pick Up",
    "date_created": "2023-06-19T14:31:18.000",
    "date_modified": "2023-06-19T14:31:18.000",
    "request_status": "Pending",
    "responsible_agency": "Department of Sanitation",
    "final_address": "8640 Dinkins St",
    "address_councildis": "E",
    "status": "Assigned to Contractor",
    "contractor": "Waste Pro",
    "rowid": "1009740",
    "final_x": "3704015.88862",
    "final_y": "563006.242912",
    "longitude": "-89.99581327156501",
    "latitude": "30.04136817517488",
    "geocoded_column": {
      "latitude": "30.04136817517488",
      "longitude": "-89.99581327156501"
    }
  },
  {
    "service_request": "2023-1009739",
    "request_type": "Trash/Recycling",
    "request_reason": "Missed Trash Pick-Up",
    "date_created": "2023-06-19T14:21:41.000",
    "date_modified": "2023-06-19T14:21:42.000",
    "request_status": "Pending",
    "responsible_agency": "Department of Sanitation",
    "final_address": "401 Elmira Ave, New Orleans, Louisiana, 70114",
    "address_councildis": "C",
    "status": "Assigned to Contractor",
    "contractor": "Richards Disposal",
    "rowid": "1009739",
    "final_x": "3688188.60598",
    "final_y": "530288.369409",
    "longitude": "-90.04699382929253",
    "latitude": "29.95190434538229",
    "geocoded_column": {
      "latitude": "29.95190434538229",
      "longitude": "-90.04699382929253"
    }
  },
  {
    "service_request": "2023-1009738",
    "request_type": "Trash/Recycling",
    "request_reason": "Request a Large Item Pick Up",
    "date_created": "2023-06-19T14:16:05.000",
    "date_modified": "2023-06-19T14:16:05.000",
    "request_status": "Pending",
    "responsible_agency": "Department of Sanitation",
    "final_address": "3064 St Philip St",
    "address_councildis": "A",
    "status": "Assigned to Contractor",
    "contractor": "Richards Disposal",
    "rowid": "1009738",
    "final_x": "3675949.30261",
    "final_y": "538879.550537",
    "longitude": "-90.0853443369946",
    "latitude": "29.975899320997936",
    "geocoded_column": {
      "latitude": "29.975899320997936",
      "longitude": "-90.0853443369946"
    }
  },
  {
    "service_request": "2023-1009737",
    "request_type": "Property Maintenance",
    "request_reason": "Property Maintenance",
    "date_created": "2023-06-19T14:10:40.000",
    "date_modified": "2023-06-19T14:10:40.000",
    "request_status": "Pending",
    "responsible_agency": "Department of Code Enforcement",
    "final_address": "SUMPTER ST & PAUGER ST",
    "address_councildis": "D",
    "status": "Pending",
    "rowid": "1009737",
    "final_x": "3682807.6",
    "final_y": "549474.18",
    "longitude": "-90.0633130277197",
    "latitude": "30.004823627849323",
    "geocoded_column": {
      "latitude": "30.004823627849323",
      "longitude": "-90.0633130277197"
    }
  },
  {
    "service_request": "2023-1009736",
    "request_type": "Trash/Recycling",
    "request_reason": "Order Recycling Cart",
    "date_created": "2023-06-19T14:10:13.000",
    "date_modified": "2023-06-19T14:10:13.000",
    "request_status": "Pending",
    "responsible_agency": "Department of Sanitation",
    "final_address": "3801 S Inwood Ave",
    "address_councildis": "C",
    "status": "Pending",
    "rowid": "1009736",
    "final_x": "3704989.56689",
    "final_y": "514575.179443",
    "longitude": "-89.99452447779481",
    "latitude": "29.90816926106579",
    "geocoded_column": {
      "latitude": "29.90816926106579",
      "longitude": "-89.99452447779481"
    }
  },
  {
    "service_request": "2023-1009735",
    "request_type": "Mosquito, Termite & Rodent Control",
    "request_reason": "Mosquito Complaint",
    "date_created": "2023-06-19T14:10:02.000",
    "date_modified": "2023-06-19T14:10:02.000",
    "request_status": "Pending",
    "responsible_agency": "Mosquito, Termite & Rodent Control Board",
    "final_address": "5700 Red Maple Dr",
    "address_councildis": "E",
    "status": "Pending",
    "rowid": "1009735",
    "final_x": "3723285.65273",
    "final_y": "564578.484577",
    "longitude": "-89.93485410464757",
    "latitude": "30.045058632255458",
    "geocoded_column": {
      "latitude": "30.045058632255458",
      "longitude": "-89.93485410464757"
    }
  },
  {
    "service_request": "2023-1009734",
    "request_type": "Trash/Recycling",
    "request_reason": "Replace Trash Cart",
    "date_created": "2023-06-19T14:08:08.000",
    "date_modified": "2023-06-19T14:08:09.000",
    "request_status": "Pending",
    "responsible_agency": "Department of Sanitation",
    "final_address": "500 BLK Lowerline St",
    "address_councildis": "A",
    "status": "Assigned to Contractor",
    "contractor": "Richards Disposal",
    "rowid": "1009734",
    "final_x": "3662389.93142",
    "final_y": "524899.177023",
    "longitude": "-90.12863314237823",
    "latitude": "29.93785693172771",
    "geocoded_column": {
      "latitude": "29.93785693172771",
      "longitude": "-90.12863314237823"
    }
  },
  {
    "service_request": "2023-1009733",
    "request_type": "Trash/Recycling",
    "request_reason": "Request a Large Item Pick Up",
    "date_created": "2023-06-19T14:05:57.000",
    "date_modified": "2023-06-19T14:05:58.000",
    "request_status": "Pending",
    "responsible_agency": "Department of Sanitation",
    "final_address": "2417 Annunciation St",
    "address_councildis": "B",
    "status": "Assigned to Contractor",
    "contractor": "Richards Disposal",
    "rowid": "1009733",
    "final_x": "3678548.66171",
    "final_y": "520542.998904",
    "longitude": "-90.07776939258918",
    "latitude": "29.925401842854487",
    "geocoded_column": {
      "latitude": "29.925401842854487",
      "longitude": "-90.07776939258918"
    }
  },
  {
    "service_request": "2023-1009732",
    "request_type": "Trash/Recycling",
    "request_reason": "Order Recycling Cart",
    "date_created": "2023-06-19T14:04:45.000",
    "date_modified": "2023-06-19T14:04:45.000",
    "request_status": "Pending",
    "responsible_agency": "Department of Sanitation",
    "final_address": "500 Lowerline St",
    "address_councildis": "A",
    "status": "Pending",
    "rowid": "1009732",
    "final_x": "3662071.6089",
    "final_y": "524538.841852",
    "longitude": "-90.12965006810724",
    "latitude": "29.936875322633423",
    "geocoded_column": {
      "latitude": "29.936875322633423",
      "longitude": "-90.12965006810724"
    }
  },
  {
    "service_request": "2023-1009730",
    "request_type": "Trash/Recycling",
    "request_reason": "Replace Trash Cart",
    "date_created": "2023-06-19T14:01:03.000",
    "date_modified": "2023-06-19T14:01:04.000",
    "request_status": "Pending",
    "responsible_agency": "Department of Sanitation",
    "final_address": "500 BLK Lowerline St",
    "address_councildis": "A",
    "status": "Assigned to Contractor",
    "contractor": "Richards Disposal",
    "rowid": "1009730",
    "final_x": "3662389.93142",
    "final_y": "524899.177023",
    "longitude": "-90.12863314237823",
    "latitude": "29.93785693172771",
    "geocoded_column": {
      "latitude": "29.93785693172771",
      "longitude": "-90.12863314237823"
    }
  },
  {
    "service_request": "2023-1009729",
    "request_type": "Traffic Signals/Signs/Striping/Streetlights",
    "request_reason": "Street Light Outage/Malfunction",
    "date_created": "2023-06-19T14:00:27.000",
    "date_modified": "2023-06-19T14:00:28.000",
    "request_status": "Pending",
    "responsible_agency": "Department of Public Works",
    "final_address": "6110 Duplessis St",
    "address_councildis": "D",
    "status": "Assigned to Contractor",
    "contractor": "Legacy Professional Services",
    "rowid": "1009729",
    "final_x": "3677893.41614",
    "final_y": "554966.546328",
    "longitude": "-90.07864793314779",
    "latitude": "30.02007451275427",
    "geocoded_column": {
      "latitude": "30.02007451275427",
      "longitude": "-90.07864793314779"
    }
  },
  {
    "service_request": "2023-1009727",
    "request_type": "Trash/Recycling",
    "request_reason": "Request a Large Item Pick Up",
    "date_created": "2023-06-19T13:54:34.000",
    "date_modified": "2023-06-19T13:54:35.000",
    "request_status": "Pending",
    "responsible_agency": "Department of Sanitation",
    "final_address": "819 N Solomon St",
    "address_councildis": "A",
    "status": "Assigned to Contractor",
    "contractor": "Richards Disposal",
    "rowid": "1009727",
    "final_x": "3672212.69588",
    "final_y": "540967.816587",
    "longitude": "-90.09707447518034",
    "latitude": "29.981752715472684",
    "geocoded_column": {
      "latitude": "29.981752715472684",
      "longitude": "-90.09707447518034"
    }
  },
  {
    "service_request": "2023-1009726",
    "request_type": "Trash/Recycling",
    "request_reason": "Damaged Caused By Contractor",
    "date_created": "2023-06-19T13:54:04.000",
    "date_modified": "2023-06-19T13:54:05.000",
    "request_status": "Pending",
    "responsible_agency": "Department of Sanitation",
    "final_address": "3510 Wall Blvd",
    "address_councildis": "C",
    "status": "Assigned to Contractor",
    "contractor": "Richards Disposal",
    "rowid": "1009726",
    "final_x": "3697037.98909",
    "final_y": "523887.245372",
    "longitude": "-90.01928361036772",
    "latitude": "29.934027348141306",
    "geocoded_column": {
      "latitude": "29.934027348141306",
      "longitude": "-90.01928361036772"
    }
  },
  {
    "service_request": "2023-1009725",
    "request_type": "Trash/Recycling",
    "request_reason": "Replace Trash Cart",
    "date_created": "2023-06-19T13:52:00.000",
    "date_modified": "2023-06-19T13:52:00.000",
    "request_status": "Pending",
    "responsible_agency": "Department of Sanitation",
    "final_address": "3828 Constance St",
    "address_councildis": "B",
    "status": "Assigned to Contractor",
    "contractor": "Richards Disposal",
    "rowid": "1009725",
    "final_x": "3673243.06958",
    "final_y": "518599.122999",
    "longitude": "-90.09458385926656",
    "latitude": "29.920215596714378",
    "geocoded_column": {
      "latitude": "29.920215596714378",
      "longitude": "-90.09458385926656"
    }
  },
  {
    "service_request": "2023-1009724",
    "request_type": "Trash/Recycling",
    "request_reason": "Replace Recycling Cart",
    "date_created": "2023-06-19T13:50:39.000",
    "date_modified": "2023-06-19T13:50:40.000",
    "request_status": "Pending",
    "responsible_agency": "Department of Sanitation",
    "final_address": "7734 Belfast St",
    "address_councildis": "A",
    "status": "Pending",
    "rowid": "1009724",
    "final_x": "3666503.57402",
    "final_y": "531482.015107",
    "longitude": "-90.11542508987851",
    "latitude": "29.955838043974616",
    "geocoded_column": {
      "latitude": "29.955838043974616",
      "longitude": "-90.11542508987851"
    }
  },
  {
    "service_request": "2023-1009723",
    "request_type": "Trash/Recycling",
    "request_reason": "Missed Trash Pick-Up",
    "date_created": "2023-06-19T13:47:58.000",
    "date_modified": "2023-06-19T13:48:00.000",
    "request_status": "Pending",
    "responsible_agency": "Department of Sanitation",
    "final_address": "313 N Johnson St",
    "address_councildis": "B",
    "status": "Assigned to Contractor",
    "contractor": "Richards Disposal",
    "rowid": "1009723",
    "final_x": "3677793.18792",
    "final_y": "534416.304069",
    "longitude": "-90.07967504386508",
    "latitude": "29.963571568401168",
    "geocoded_column": {
      "latitude": "29.963571568401168",
      "longitude": "-90.07967504386508"
    }
  },
  {
    "service_request": "2023-1009722",
    "request_type": "Abandoned Vehicles",
    "request_reason": "Abandoned/Junk Vehicles",
    "date_created": "2023-06-19T13:46:43.000",
    "date_modified": "2023-06-19T13:46:43.000",
    "request_status": "Pending",
    "responsible_agency": "Department of Public Works",
    "final_address": "2659 Vienna St",
    "address_councildis": "D",
    "status": "Pending",
    "rowid": "1009722",
    "final_x": "3686966.86153",
    "final_y": "555294.821849",
    "longitude": "-90.04996715807253",
    "latitude": "30.020700842015284",
    "geocoded_column": {
      "latitude": "30.020700842015284",
      "longitude": "-90.04996715807253"
    }
  },
  {
    "service_request": "2023-1009721",
    "request_type": "Trash/Recycling",
    "request_reason": "Replace Recycling Cart",
    "date_created": "2023-06-19T13:44:46.000",
    "date_modified": "2023-06-19T13:44:46.000",
    "request_status": "Pending",
    "responsible_agency": "Department of Sanitation",
    "final_address": "7734 Belfast St. New Orleans, 70125",
    "address_councildis": "A",
    "status": "Pending",
    "rowid": "1009721",
    "final_x": "3666503.57402",
    "final_y": "531482.015107",
    "longitude": "-90.11542508987851",
    "latitude": "29.955838043974616",
    "geocoded_column": {
      "latitude": "29.955838043974616",
      "longitude": "-90.11542508987851"
    }
  },
  {
    "service_request": "2023-1009720",
    "request_type": "Trash/Recycling",
    "request_reason": "MIssed Recycling Pick-Up",
    "date_created": "2023-06-19T13:44:19.000",
    "date_modified": "2023-06-19T13:44:20.000",
    "request_status": "Pending",
    "responsible_agency": "Department of Sanitation",
    "final_address": "1028 Numa St",
    "address_councildis": "C",
    "status": "Assigned to Contractor",
    "contractor": "Richards Disposal",
    "rowid": "1009720",
    "final_x": "3691881.44227",
    "final_y": "527504.761983",
    "longitude": "-90.03543320392002",
    "latitude": "29.944135877681784",
    "geocoded_column": {
      "latitude": "29.944135877681784",
      "longitude": "-90.03543320392002"
    }
  },
  {
    "service_request": "2023-1009719",
    "request_type": "Roads/Drainage",
    "request_reason": "Street Subsidence (Sinking)",
    "date_created": "2023-06-19T13:38:58.000",
    "date_modified": "2023-06-19T13:38:58.000",
    "request_status": "Pending",
    "responsible_agency": "Department of Public Works",
    "final_address": "1614 Broadway St",
    "address_councildis": "A",
    "status": "Pending",
    "rowid": "1009719",
    "final_x": "3664979.81588",
    "final_y": "527819.382335",
    "longitude": "-90.12035903562797",
    "latitude": "29.945811435213955",
    "geocoded_column": {
      "latitude": "29.945811435213955",
      "longitude": "-90.12035903562797"
    }
  },
  {
    "service_request": "2023-1009718",
    "request_type": "Trash/Recycling",
    "request_reason": "Order Trash Cart",
    "date_created": "2023-06-19T13:37:46.000",
    "date_modified": "2023-06-19T13:37:46.000",
    "request_status": "Pending",
    "responsible_agency": "Department of Sanitation",
    "final_address": "1315 Marigny St",
    "address_councildis": "C",
    "status": "Assigned to Contractor",
    "contractor": "IV Waste",
    "rowid": "1009718",
    "final_x": "3685436.87509",
    "final_y": "537238.586376",
    "longitude": "-90.05543772878123",
    "latitude": "29.971099700040252",
    "geocoded_column": {
      "latitude": "29.971099700040252",
      "longitude": "-90.05543772878123"
    }
  },
  {
    "service_request": "2023-1009717",
    "request_type": "Trash/Recycling",
    "request_reason": "Request a Large Item Pick Up",
    "date_created": "2023-06-19T13:37:45.000",
    "date_modified": "2023-06-19T13:37:45.000",
    "request_status": "Pending",
    "responsible_agency": "Department of Sanitation",
    "final_address": "3414 Danneel St",
    "address_councildis": "B",
    "status": "Assigned to Contractor",
    "contractor": "Richards Disposal",
    "rowid": "1009717",
    "final_x": "3673464.84244",
    "final_y": "522761.032314",
    "longitude": "-90.09374170631547",
    "latitude": "29.931652915045227",
    "geocoded_column": {
      "latitude": "29.931652915045227",
      "longitude": "-90.09374170631547"
    }
  },
  {
    "service_request": "2023-1009716",
    "request_type": "Traffic Signals/Signs/Striping/Streetlights",
    "request_reason": "Street Light Outage/Malfunction",
    "date_created": "2023-06-19T13:35:04.000",
    "date_modified": "2023-06-19T13:35:05.000",
    "request_status": "Pending",
    "responsible_agency": "Department of Public Works",
    "final_address": "5484 Patio Way",
    "address_councildis": "E",
    "status": "Assigned to Contractor",
    "contractor": "Legacy Professional Services",
    "rowid": "1009716",
    "final_x": "3725538.29753",
    "final_y": "563701.718753",
    "longitude": "-89.92776877057882",
    "latitude": "30.042572102288656",
    "geocoded_column": {
      "latitude": "30.042572102288656",
      "longitude": "-89.92776877057882"
    }
  },
  {
    "service_request": "2023-1009715",
    "request_type": "Trash/Recycling",
    "request_reason": "Request a Large Item Pick Up",
    "date_created": "2023-06-19T13:34:50.000",
    "date_modified": "2023-06-19T13:34:51.000",
    "request_status": "Pending",
    "responsible_agency": "Department of Sanitation",
    "final_address": "2070 Florida Ave",
    "address_councildis": "D",
    "status": "Assigned to Contractor",
    "contractor": "IV Waste",
    "rowid": "1009715",
    "final_x": "3683566.72418",
    "final_y": "542687.707405",
    "longitude": "-90.06115284236782",
    "latitude": "29.98614009260832",
    "geocoded_column": {
      "latitude": "29.98614009260832",
      "longitude": "-90.06115284236782"
    }
  },
  {
    "service_request": "2023-1009714",
    "request_type": "Trash/Recycling",
    "request_reason": "Missed Trash Pick-Up",
    "date_created": "2023-06-19T13:28:04.000",
    "date_modified": "2023-06-19T14:24:14.000",
    "case_close_date": "2023-06-19T09:24:14.000",
    "request_status": "Closed",
    "responsible_agency": "Department of Sanitation",
    "final_address": "5616 N Dorgenois St",
    "address_councildis": "E",
    "status": "Assigned to Contractor",
    "contractor": "Waste Pro",
    "contractor_action": "Completed",
    "rowid": "1009714",
    "final_x": "3699599.06621",
    "final_y": "538901.431242",
    "longitude": "-90.01065129834431",
    "latitude": "29.97523003274961",
    "geocoded_column": {
      "latitude": "29.97523003274961",
      "longitude": "-90.01065129834431"
    }
  },
  {
    "service_request": "2023-1009713",
    "request_type": "Trash/Recycling",
    "request_reason": "Request a Large Item Pick Up",
    "date_created": "2023-06-19T13:21:39.000",
    "date_modified": "2023-06-19T13:21:40.000",
    "request_status": "Pending",
    "responsible_agency": "Department of Sanitation",
    "final_address": "3821 Dhemecourt St, New Orleans, Louisiana, 70119",
    "address_councildis": "B",
    "status": "Assigned to Contractor",
    "contractor": "Richards Disposal",
    "rowid": "1009713",
    "final_x": "3670725.59566",
    "final_y": "536174.487111",
    "longitude": "-90.1019341506222",
    "latitude": "29.968616712069583",
    "geocoded_column": {
      "latitude": "29.968616712069583",
      "longitude": "-90.1019341506222"
    }
  },
  {
    "service_request": "2023-1009711",
    "request_type": "Parks & Parkways",
    "request_reason": "Request Tree Service (Right of Way/Public Property)",
    "date_created": "2023-06-19T13:19:09.000",
    "date_modified": "2023-06-19T13:19:09.000",
    "request_status": "Pending",
    "responsible_agency": "Department of Parks & Parkway",
    "final_address": " & BALDWIN ST",
    "address_councildis": "D",
    "status": "Pending",
    "rowid": "1009711",
    "final_x": "3687880.8",
    "final_y": "560035.64",
    "longitude": "-90.04691121641319",
    "latitude": "30.03370814054373",
    "geocoded_column": {
      "latitude": "30.03370814054373",
      "longitude": "-90.04691121641319"
    }
  },
  {
    "service_request": "2023-1009710",
    "request_type": "Trash/Recycling",
    "request_reason": "Dead Animal Pick Up",
    "date_created": "2023-06-19T13:18:03.000",
    "date_modified": "2023-06-19T13:18:03.000",
    "request_status": "Pending",
    "responsible_agency": "Department of Sanitation",
    "final_address": "4322 S Saratoga St",
    "address_councildis": "B",
    "status": "Assigned to Contractor",
    "contractor": "Richards Disposal",
    "rowid": "1009710",
    "final_x": "3670905.78868",
    "final_y": "522575.28281",
    "longitude": "-90.10182666884441",
    "latitude": "29.93121803839879",
    "geocoded_column": {
      "latitude": "29.93121803839879",
      "longitude": "-90.10182666884441"
    }
  },
  {
    "service_request": "2023-1009709",
    "request_type": "Roads/Drainage",
    "request_reason": "Catch Basin - Broken/Damage",
    "date_created": "2023-06-19T13:15:54.000",
    "date_modified": "2023-06-19T13:15:54.000",
    "request_status": "Pending",
    "responsible_agency": "Department of Public Works",
    "final_address": "2630 Upperline St",
    "address_councildis": "B",
    "status": "Pending",
    "rowid": "1009709",
    "final_x": "3669145.10606",
    "final_y": "524509.677308",
    "longitude": "-90.10731959585824",
    "latitude": "29.93658891774926",
    "geocoded_column": {
      "latitude": "29.93658891774926",
      "longitude": "-90.10731959585824"
    }
  },
  {
    "service_request": "2023-1009708",
    "request_type": "Abandoned Vehicles",
    "request_reason": "Abandoned/Junk Vehicles",
    "date_created": "2023-06-19T13:15:31.000",
    "date_modified": "2023-06-19T13:15:31.000",
    "request_status": "Pending",
    "responsible_agency": "Department of Public Works",
    "final_address": "7001 Bundy Rd Apt F20",
    "address_councildis": "E",
    "status": "Pending",
    "rowid": "1009708",
    "final_x": "3707220.55697",
    "final_y": "561110.213662",
    "longitude": "-89.98575592778734",
    "latitude": "30.036051599841617",
    "geocoded_column": {
      "latitude": "30.036051599841617",
      "longitude": "-89.98575592778734"
    }
  },
  {
    "service_request": "2023-1009707",
    "request_type": "Abandoned Vehicles",
    "request_reason": "Abandoned/Junk Vehicles",
    "date_created": "2023-06-19T13:14:52.000",
    "date_modified": "2023-06-19T13:16:10.000",
    "request_status": "Pending",
    "responsible_agency": "Department of Public Works",
    "final_address": "3100 BLK Yupon St",
    "address_councildis": "D",
    "status": "Pending",
    "rowid": "1009707",
    "final_x": "3675726.37128",
    "final_y": "544063.017633",
    "longitude": "-90.0858701907259",
    "latitude": "29.990158740797604",
    "geocoded_column": {
      "latitude": "29.990158740797604",
      "longitude": "-90.0858701907259"
    }
  },
  {
    "service_request": "2023-1009706",
    "request_type": "Roads/Drainage",
    "request_reason": "Pothole",
    "date_created": "2023-06-19T13:10:07.000",
    "date_modified": "2023-06-19T13:10:08.000",
    "request_status": "Pending",
    "responsible_agency": "Department of Public Works",
    "final_address": "1500 BLK Thalia St",
    "address_councildis": "B",
    "status": "Pending",
    "rowid": "1009706",
    "final_x": "3679610.72998",
    "final_y": "525644.080717",
    "longitude": "-90.0742398342072",
    "latitude": "29.939396097602316",
    "geocoded_column": {
      "latitude": "29.939396097602316",
      "longitude": "-90.0742398342072"
    }
  },