[
  {
    "service_request": "2026-1287456",
    "request_type": "Health Related Request",
    "request_reason": "Noise Ordinance Complaint",
    "date_created": "2026-06-03T23:13:20.000",
    "date_modified": "2026-06-03T23:13:23.000",
    "request_status": "Pending",
    "responsible_agency": "Health Department",
    "final_address": "800 Bourbon St, New Orleans, Louisiana, 70116",
    "address_councildis": "C",
    "status": "Pending",
    "rowid": "1287456",
    "final_x": "3682553.51528",
    "final_y": "533013.631428",
    "longitude": "-90.06469148499534",
    "latitude": "29.95957063099051",
    "geocoded_column": {
      "latitude": "29.95957063099051",
      "longitude": "-90.06469148499534"
    }
  },
  {
    "service_request": "2026-1287455",
    "request_type": "Streetlights",
    "request_reason": "Streetlight Outage/Malfunction",
    "date_created": "2026-06-03T23:07:43.000",
    "date_modified": "2026-06-03T23:07:45.000",
    "request_status": "Pending",
    "responsible_agency": "Department of Public Works",
    "final_address": "3921 Patterson St",
    "address_councildis": "C",
    "status": "Pending",
    "rowid": "1287455",
    "final_x": "3698824.9672",
    "final_y": "526752.64819",
    "longitude": "-90.01353803245485",
    "latitude": "29.94184974076947",
    "geocoded_column": {
      "latitude": "29.94184974076947",
      "longitude": "-90.01353803245485"
    }
  },
  {
    "service_request": "2026-1287454",
    "request_type": "Trash/Recycling",
    "request_reason": "Replace Trash Cart",
    "date_created": "2026-06-03T22:50:00.000",
    "date_modified": "2026-06-03T22:50:02.000",
    "request_status": "Pending",
    "responsible_agency": "Department of Sanitation",
    "final_address": "1200 BLK Bourbon St",
    "address_councildis": "C",
    "status": "Assigned to Contractor",
    "contractor": "IV Waste",
    "rowid": "1287454",
    "final_x": "3683477.82625",
    "final_y": "534274.382354",
    "longitude": "-90.06172854722628",
    "latitude": "29.963009092049766",
    "geocoded_column": {
      "latitude": "29.963009092049766",
      "longitude": "-90.06172854722628"
    }
  },
  {
    "service_request": "2026-1287453",
    "request_type": "Trash/Recycling",
    "request_reason": "Request a Large Item Pick Up",
    "date_created": "2026-06-03T22:37:38.000",
    "date_modified": "2026-06-03T22:37:40.000",
    "request_status": "Pending",
    "responsible_agency": "Department of Sanitation",
    "final_address": "830 Roosevelt Pl",
    "address_councildis": "A",
    "status": "Assigned to Contractor",
    "contractor": "IV Waste",
    "rowid": "1287453",
    "final_x": "3673604.51092",
    "final_y": "539863.930314",
    "longitude": "-90.09271621026495",
    "latitude": "29.978676042625626",
    "geocoded_column": {
      "latitude": "29.978676042625626",
      "longitude": "-90.09271621026495"
    }
  },
  {
    "service_request": "2026-1287452",
    "request_type": "Health Related Request",
    "request_reason": "Noise Ordinance Complaint",
    "date_created": "2026-06-03T22:16:42.000",
    "date_modified": "2026-06-03T22:16:43.000",
    "request_status": "Pending",
    "responsible_agency": "Health Department",
    "final_address": "800 Bourbon St, New Orleans, Louisiana, 70116",
    "address_councildis": "C",
    "status": "Pending",
    "rowid": "1287452",
    "final_x": "3682553.51528",
    "final_y": "533013.631428",
    "longitude": "-90.06469148499534",
    "latitude": "29.95957063099051",
    "geocoded_column": {
      "latitude": "29.95957063099051",
      "longitude": "-90.06469148499534"
    }
  },
  {
    "service_request": "2026-1287451",
    "request_type": "Trash/Recycling",
    "request_reason": "Illegal Dumping",
    "date_created": "2026-06-03T22:14:35.000",
    "date_modified": "2026-06-03T22:14:37.000",
    "request_status": "Pending",
    "responsible_agency": "Department of Sanitation",
    "final_address": "3419 Franklin Ave",
    "address_councildis": "D",
    "status": "Pending",
    "rowid": "1287451",
    "final_x": "3687236.39606",
    "final_y": "545721.996304",
    "longitude": "-90.0494544220944",
    "latitude": "29.99437076263192",
    "geocoded_column": {
      "latitude": "29.99437076263192",
      "longitude": "-90.0494544220944"
    }
  },
  {
    "service_request": "2026-1287450",
    "request_type": "Healthy Homes",
    "request_reason": "Healthy Homes",
    "date_created": "2026-06-03T22:11:10.000",
    "date_modified": "2026-06-03T22:11:11.000",
    "request_status": "Pending",
    "responsible_agency": "Department of Code Enforcement",
    "final_address": "3417 Franklin Ave",
    "address_councildis": "D",
    "status": "Pending",
    "rowid": "1287450",
    "final_x": "3687237.99484",
    "final_y": "545709.207248",
    "longitude": "-90.04944982442721",
    "latitude": "29.9943355480681",
    "geocoded_column": {
      "latitude": "29.9943355480681",
      "longitude": "-90.04944982442721"
    }
  },
  {
    "service_request": "2026-1287449",
    "request_type": "Trash/Recycling",
    "request_reason": "Request a Large Item Pick Up",
    "date_created": "2026-06-03T22:09:58.000",
    "date_modified": "2026-06-03T22:10:00.000",
    "request_status": "Pending",
    "responsible_agency": "Department of Sanitation",
    "final_address": "7531 Briarwood Dr",
    "address_councildis": "E",
    "status": "Assigned to Contractor",
    "contractor": "Waste Pro",
    "rowid": "1287449",
    "final_x": "3717864.12607",
    "final_y": "570523.259367",
    "longitude": "-89.95176196545522",
    "latitude": "30.06158513468893",
    "geocoded_column": {
      "latitude": "30.06158513468893",
      "longitude": "-89.95176196545522"
    }
  },
  {
    "service_request": "2026-1287448",
    "request_type": "Trash/Recycling",
    "request_reason": "Request a Large Item Pick Up",
    "date_created": "2026-06-03T22:06:53.000",
    "date_modified": "2026-06-03T22:06:55.000",
    "request_status": "Pending",
    "responsible_agency": "Department of Sanitation",
    "final_address": "3117 Pine St",
    "address_councildis": "B",
    "status": "Assigned to Contractor",
    "contractor": "IV Waste",
    "rowid": "1287448",
    "final_x": "3667811.75847",
    "final_y": "532448.041859",
    "longitude": "-90.11126175310618",
    "latitude": "29.958456002328937",
    "geocoded_column": {
      "latitude": "29.958456002328937",
      "longitude": "-90.11126175310618"
    }
  },
  {
    "service_request": "2026-1287447",
    "request_type": "Property Maintenance",
    "request_reason": "Property Maintenance",
    "date_created": "2026-06-03T22:04:47.000",
    "date_modified": "2026-06-03T22:04:48.000",
    "request_status": "Pending",
    "responsible_agency": "Department of Code Enforcement",
    "final_address": "3417 Franklin Ave",
    "address_councildis": "D",
    "status": "Pending",
    "rowid": "1287447",
    "final_x": "3687237.99484",
    "final_y": "545709.207248",
    "longitude": "-90.04944982442721",
    "latitude": "29.9943355480681",
    "geocoded_column": {
      "latitude": "29.9943355480681",
      "longitude": "-90.04944982442721"
    }
  },
  {
    "service_request": "2026-1287446",
    "request_type": "Trash/Recycling",
    "request_reason": "Request a Large Item Pick Up",
    "date_created": "2026-06-03T21:56:33.000",
    "date_modified": "2026-06-03T21:56:35.000",
    "request_status": "Pending",
    "responsible_agency": "Department of Sanitation",
    "final_address": "2056 Pleasure St",
    "address_councildis": "D",
    "status": "Assigned to Contractor",
    "contractor": "IV Waste",
    "rowid": "1287446",
    "final_x": "3683363.79439",
    "final_y": "545029.626703",
    "longitude": "-90.06171172545915",
    "latitude": "29.99258573491102",
    "geocoded_column": {
      "latitude": "29.99258573491102",
      "longitude": "-90.06171172545915"
    }
  },
  {
    "service_request": "2026-1287445",
    "request_type": "Trash/Recycling",
    "request_reason": "Request a Large Item Pick Up",
    "date_created": "2026-06-03T21:51:10.000",
    "date_modified": "2026-06-03T21:51:12.000",
    "request_status": "Pending",
    "responsible_agency": "Department of Sanitation",
    "final_address": "1724 N Robertson St",
    "address_councildis": "C",
    "status": "Assigned to Contractor",
    "contractor": "IV Waste",
    "rowid": "1287445",
    "final_x": "3683242.28751",
    "final_y": "537603.186632",
    "longitude": "-90.06235574921246",
    "latitude": "29.972169339820468",
    "geocoded_column": {
      "latitude": "29.972169339820468",
      "longitude": "-90.06235574921246"
    }
  },
  {
    "service_request": "2026-1287444",
    "request_type": "Trash/Recycling",
    "request_reason": "Request a Large Item Pick Up",
    "date_created": "2026-06-03T21:26:06.000",
    "date_modified": "2026-06-03T21:26:07.000",
    "request_status": "Pending",
    "responsible_agency": "Department of Sanitation",
    "final_address": "1731 Elysian Fields Ave",
    "address_councildis": "D",
    "status": "Assigned to Contractor",
    "contractor": "IV Waste",
    "rowid": "1287444",
    "final_x": "3684938.00303",
    "final_y": "538785.461193",
    "longitude": "-90.05695881308563",
    "latitude": "29.97536835478291",
    "geocoded_column": {
      "latitude": "29.97536835478291",
      "longitude": "-90.05695881308563"
    }
  },
  {
    "service_request": "2026-1287443",
    "request_type": "Trash/Recycling",
    "request_reason": "Request a Large Item Pick Up",
    "date_created": "2026-06-03T21:14:34.000",
    "date_modified": "2026-06-03T21:14:37.000",
    "request_status": "Pending",
    "responsible_agency": "Department of Sanitation",
    "final_address": "2049 Chippewa St",
    "address_councildis": "B",
    "status": "Assigned to Contractor",
    "contractor": "IV Waste",
    "rowid": "1287443",
    "final_x": "3680162.76367",
    "final_y": "521278.308281",
    "longitude": "-90.07264863997659",
    "latitude": "29.927374971874773",
    "geocoded_column": {
      "latitude": "29.927374971874773",
      "longitude": "-90.07264863997659"
    }
  },
  {
    "service_request": "2026-1287442",
    "request_type": "Property Maintenance",
    "request_reason": "Property Maintenance",
    "date_created": "2026-06-03T21:13:29.000",
    "date_modified": "2026-06-03T21:13:32.000",
    "request_status": "Pending",
    "responsible_agency": "Department of Code Enforcement",
    "final_address": "186 Lakewood Estates Dr",
    "address_councildis": "C",
    "status": "Pending",
    "rowid": "1287442",
    "final_x": "3700890.35383",
    "final_y": "512248.216433",
    "longitude": "-90.00754706971279",
    "latitude": "29.901901958698065",
    "geocoded_column": {
      "latitude": "29.901901958698065",
      "longitude": "-90.00754706971279"
    }
  },
  {
    "service_request": "2026-1287441",
    "request_type": "Property Maintenance",
    "request_reason": "Property Maintenance",
    "date_created": "2026-06-03T21:07:08.000",
    "date_modified": "2026-06-03T21:07:10.000",
    "request_status": "Pending",
    "responsible_agency": "Department of Code Enforcement",
    "final_address": "4325 Cleveland Ave",
    "address_councildis": "A",
    "status": "Pending",
    "rowid": "1287441",
    "final_x": "3669889.53415",
    "final_y": "538789.888649",
    "longitude": "-90.10448590697993",
    "latitude": "29.975832866339076",
    "geocoded_column": {
      "latitude": "29.975832866339076",
      "longitude": "-90.10448590697993"
    }
  },
  {
    "service_request": "2026-1287440",
    "request_type": "Streetlights",
    "request_reason": "Streetlight Outage/Malfunction",
    "date_created": "2026-06-03T21:03:28.000",
    "date_modified": "2026-06-03T21:03:30.000",
    "request_status": "Pending",
    "responsible_agency": "Department of Public Works",
    "final_address": "323 32Nd St",
    "address_councildis": "A",
    "status": "Pending",
    "rowid": "1287440",
    "final_x": "3665088.41223",
    "final_y": "550796.076949",
    "longitude": "-90.11924750010266",
    "latitude": "30.008986501490984",
    "geocoded_column": {
      "latitude": "30.008986501490984",
      "longitude": "-90.11924750010266"
    }
  },
  {
    "service_request": "2026-1287439",
    "request_type": "Property Maintenance",
    "request_reason": "Property Maintenance",
    "date_created": "2026-06-03T20:57:27.000",
    "date_modified": "2026-06-03T20:57:29.000",
    "request_status": "Pending",
    "responsible_agency": "Department of Code Enforcement",
    "final_address": "1507 St Anthony St",
    "address_councildis": "C",
    "status": "Pending",
    "rowid": "1287439",
    "final_x": "3683418.45513",
    "final_y": "537719.66932",
    "longitude": "-90.06179530079422",
    "latitude": "29.972484252571643",
    "geocoded_column": {
      "latitude": "29.972484252571643",
      "longitude": "-90.06179530079422"
    }
  },
  {
    "service_request": "2026-1287438",
    "request_type": "Roads and Streets",
    "request_reason": "Pothole",
    "date_created": "2026-06-03T20:51:03.000",
    "date_modified": "2026-06-03T20:51:06.000",
    "request_status": "Pending",
    "responsible_agency": "Department of Public Works",
    "final_address": "1201 Canal St",
    "address_councildis": "C",
    "status": "Pending",
    "rowid": "1287438",
    "final_x": "3679792.28808",
    "final_y": "531855.811267",
    "longitude": "-90.07345100081632",
    "latitude": "29.956470790064685",
    "geocoded_column": {
      "latitude": "29.956470790064685",
      "longitude": "-90.07345100081632"
    }
  },
  {
    "service_request": "2026-1287437",
    "request_type": "Trash/Recycling",
    "request_reason": "Request a Large Item Pick Up",
    "date_created": "2026-06-03T20:38:58.000",
    "date_modified": "2026-06-03T20:39:01.000",
    "request_status": "Pending",
    "responsible_agency": "Department of Sanitation",
    "final_address": "2536 Myrtle St",
    "address_councildis": "D",
    "status": "Assigned to Contractor",
    "contractor": "IV Waste",
    "rowid": "1287437",
    "final_x": "3686862.30185",
    "final_y": "546001.839376",
    "longitude": "-90.05062623870147",
    "latitude": "29.995151750668743",
    "geocoded_column": {
      "latitude": "29.995151750668743",
      "longitude": "-90.05062623870147"
    }
  },
  {
    "service_request": "2026-1287436",
    "request_type": "General Services",
    "request_reason": "General Service Request",
    "date_created": "2026-06-03T20:27:03.000",
    "date_modified": "2026-06-03T20:27:04.000",
    "request_status": "Pending",
    "responsible_agency": "Orleans Parish Communication District",
    "final_address": "4651 Sierra Madre Dr",
    "address_councildis": "E",
    "status": "Pending",
    "rowid": "1287436",
    "final_x": "3714015.75493",
    "final_y": "556011.935897",
    "longitude": "-89.96447451419623",
    "latitude": "30.021811875714437",
    "geocoded_column": {
      "latitude": "30.021811875714437",
      "longitude": "-89.96447451419623"
    }
  },
  {
    "service_request": "2026-1287435",
    "request_type": "Safety & Permits",
    "request_reason": "Licenses & Permits",
    "date_created": "2026-06-03T20:18:01.000",
    "date_modified": "2026-06-03T20:18:04.000",
    "request_status": "Pending",
    "responsible_agency": "Safety and Permits",
    "final_address": "1324 Nashville Ave",
    "address_councildis": "A",
    "status": "Pending",
    "rowid": "1287435",
    "final_x": "3665885.30586",
    "final_y": "520885.663737",
    "longitude": "-90.11773233953126",
    "latitude": "29.92671953359914",
    "geocoded_column": {
      "latitude": "29.92671953359914",
      "longitude": "-90.11773233953126"
    }
  },
  {
    "service_request": "2026-1287434",
    "request_type": "Trash/Recycling",
    "request_reason": "Repair Trash Cart",
    "date_created": "2026-06-03T20:07:12.000",
    "date_modified": "2026-06-03T20:07:14.000",
    "request_status": "Pending",
    "responsible_agency": "Department of Sanitation",
    "final_address": "6021 Constance St",
    "address_councildis": "A",
    "status": "Assigned to Contractor",
    "contractor": "IV Waste",
    "rowid": "1287434",
    "final_x": "3664413.90829",
    "final_y": "518987.785143",
    "longitude": "-90.12244047658194",
    "latitude": "29.921543802319615",
    "geocoded_column": {
      "latitude": "29.921543802319615",
      "longitude": "-90.12244047658194"
    }
  },
  {
    "service_request": "2026-1287433",
    "request_type": "General Services",
    "request_reason": "General Service Request",
    "date_created": "2026-06-03T19:58:32.000",
    "date_modified": "2026-06-03T19:58:33.000",
    "request_status": "Pending",
    "responsible_agency": "Orleans Parish Communication District",
    "final_address": "1700 Josephine St",
    "address_councildis": "B",
    "status": "Pending",
    "rowid": "1287433",
    "final_x": "3677614.77704",
    "final_y": "524262.0183",
    "longitude": "-90.08058902572951",
    "latitude": "29.935656036450574",
    "geocoded_column": {
      "latitude": "29.935656036450574",
      "longitude": "-90.08058902572951"
    }
  },
  {
    "service_request": "2026-1287432",
    "request_type": "Trash/Recycling",
    "request_reason": "Replace Trash Cart",
    "date_created": "2026-06-03T19:44:55.000",
    "date_modified": "2026-06-03T19:44:56.000",
    "request_status": "Pending",
    "responsible_agency": "Department of Sanitation",
    "final_address": "4459 Woodland Dr Unit D",
    "address_councildis": "C",
    "status": "Assigned to Contractor",
    "contractor": "Richards Disposal",
    "rowid": "1287432",
    "final_x": "3705433.76651",
    "final_y": "513568.834098",
    "longitude": "-89.99315968002438",
    "latitude": "29.905387877105408",
    "geocoded_column": {
      "latitude": "29.905387877105408",
      "longitude": "-89.99315968002438"
    }
  },
  {
    "service_request": "2026-1287431",
    "request_type": "Roads and Streets",
    "request_reason": "Pothole",
    "date_created": "2026-06-03T19:44:05.000",
    "date_modified": "2026-06-03T19:44:07.000",
    "request_status": "Pending",
    "responsible_agency": "Department of Public Works",
    "final_address": "6021 Constance St",
    "address_councildis": "A",
    "status": "Pending",
    "rowid": "1287431",
    "final_x": "3664413.90829",
    "final_y": "518987.785143",
    "longitude": "-90.12244047658194",
    "latitude": "29.921543802319615",
    "geocoded_column": {
      "latitude": "29.921543802319615",
      "longitude": "-90.12244047658194"
    }
  },
  {
    "service_request": "2026-1287430",
    "request_type": "Trash/Recycling",
    "request_reason": "Repair Recycling Cart",
    "date_created": "2026-06-03T19:42:41.000",
    "date_modified": "2026-06-03T19:42:43.000",
    "request_status": "Pending",
    "responsible_agency": "Department of Sanitation",
    "final_address": "5526 Charlotte Dr",
    "address_councildis": "D",
    "status": "Pending",
    "rowid": "1287430",
    "final_x": "3679950.46671",
    "final_y": "552828.767638",
    "longitude": "-90.07222264581773",
    "latitude": "30.014134302653048",
    "geocoded_column": {
      "latitude": "30.014134302653048",
      "longitude": "-90.07222264581773"
    }
  },
  {
    "service_request": "2026-1287429",
    "request_type": "Property Maintenance",
    "request_reason": "Property Maintenance",
    "date_created": "2026-06-03T19:31:53.000",
    "date_modified": "2026-06-03T19:31:56.000",
    "request_status": "Pending",
    "responsible_agency": "Department of Code Enforcement",
    "final_address": "1720 Adams St",
    "address_councildis": "A",
    "status": "Pending",
    "rowid": "1287429",
    "final_x": "3664318.86944",
    "final_y": "528830.383872",
    "longitude": "-90.12241213943669",
    "latitude": "29.948610586116747",
    "geocoded_column": {
      "latitude": "29.948610586116747",
      "longitude": "-90.12241213943669"
    }
  },
  {
    "service_request": "2026-1287428",
    "request_type": "Roads and Streets",
    "request_reason": "Street Subsidence (Sinking)",
    "date_created": "2026-06-03T19:25:21.000",
    "date_modified": "2026-06-03T19:25:23.000",
    "request_status": "Pending",
    "responsible_agency": "Sewerage & Water Board",
    "final_address": "2018 Arts St",
    "address_councildis": "D",
    "status": "Pending",
    "rowid": "1287428",
    "final_x": "3686893.4175",
    "final_y": "539949.142602",
    "longitude": "-90.05074196470169",
    "latitude": "29.978508031855082",
    "geocoded_column": {
      "latitude": "29.978508031855082",
      "longitude": "-90.05074196470169"
    }
  },
  {
    "service_request": "2026-1287427",
    "request_type": "Trash/Recycling",
    "request_reason": "Request a Large Item Pick Up",
    "date_created": "2026-06-03T19:24:34.000",
    "date_modified": "2026-06-03T19:24:36.000",
    "request_status": "Pending",
    "responsible_agency": "Department of Sanitation",
    "final_address": "320 Alix St",
    "address_councildis": "C",
    "status": "Assigned to Contractor",
    "contractor": "Richards Disposal",
    "rowid": "1287427",
    "final_x": "3686532.61436",
    "final_y": "530078.590081",
    "longitude": "-90.05223006039935",
    "latitude": "29.95137853746635",
    "geocoded_column": {
      "latitude": "29.95137853746635",
      "longitude": "-90.05223006039935"
    }
  },
  {
    "service_request": "2026-1287426",
    "request_type": "Roads and Streets",
    "request_reason": "Street Subsidence (Sinking)",
    "date_created": "2026-06-03T18:54:12.000",
    "date_modified": "2026-06-03T18:54:14.000",
    "request_status": "Pending",
    "responsible_agency": "Sewerage & Water Board",
    "final_address": "2018 Arts St",
    "address_councildis": "D",
    "status": "Pending",
    "rowid": "1287426",
    "final_x": "3686893.4175",
    "final_y": "539949.142602",
    "longitude": "-90.05074196470169",
    "latitude": "29.978508031855082",
    "geocoded_column": {
      "latitude": "29.978508031855082",
      "longitude": "-90.05074196470169"
    }
  },
  {
    "service_request": "2026-1287425",
    "request_type": "Trash/Recycling",
    "request_reason": "Request a Large Item Pick Up",
    "date_created": "2026-06-03T18:48:55.000",
    "date_modified": "2026-06-03T18:48:56.000",
    "request_status": "Pending",
    "responsible_agency": "Department of Sanitation",
    "final_address": "186 Lakewood Estates Dr",
    "address_councildis": "C",
    "status": "Assigned to Contractor",
    "contractor": "Richards Disposal",
    "rowid": "1287425",
    "final_x": "3700890.35383",
    "final_y": "512248.216433",
    "longitude": "-90.00754706971279",
    "latitude": "29.901901958698065",
    "geocoded_column": {
      "latitude": "29.901901958698065",
      "longitude": "-90.00754706971279"
    }
  },
  {
    "service_request": "2026-1287424",
    "request_type": "Trash/Recycling",
    "request_reason": "Missed Trash Pick-Up",
    "date_created": "2026-06-03T18:48:50.000",
    "date_modified": "2026-06-03T18:48:51.000",
    "request_status": "Pending",
    "responsible_agency": "Department of Sanitation",
    "final_address": "4700 Cardenas Dr",
    "address_councildis": "E",
    "status": "Assigned to Contractor",
    "contractor": "Waste Pro",
    "rowid": "1287424",
    "final_x": "3713644.22271",
    "final_y": "556044.230809",
    "longitude": "-89.965647228498",
    "latitude": "30.021912872819005",
    "geocoded_column": {
      "latitude": "30.021912872819005",
      "longitude": "-89.965647228498"
    }
  },
  {
    "service_request": "2026-1287423",
    "request_type": "Trash/Recycling",
    "request_reason": "Order Trash Cart",
    "date_created": "2026-06-03T18:46:41.000",
    "date_modified": "2026-06-03T18:46:43.000",
    "request_status": "Pending",
    "responsible_agency": "Department of Sanitation",
    "final_address": "186 Lakewood Estates Dr",
    "address_councildis": "C",
    "status": "Assigned to Contractor",
    "contractor": "Richards Disposal",
    "rowid": "1287423",
    "final_x": "3700890.35383",
    "final_y": "512248.216433",
    "longitude": "-90.00754706971279",
    "latitude": "29.901901958698065",
    "geocoded_column": {
      "latitude": "29.901901958698065",
      "longitude": "-90.00754706971279"
    }
  },
  {
    "service_request": "2026-1287422",
    "request_type": "General Services",
    "request_reason": "General Service Request",
    "date_created": "2026-06-03T18:45:54.000",
    "date_modified": "2026-06-03T18:46:03.000",
    "request_status": "Pending",
    "responsible_agency": "Orleans Parish Communication District",
    "final_address": "6267 Milne Blvd",
    "address_councildis": "A",
    "status": "Pending",
    "rowid": "1287422",
    "final_x": "3667283.88397",
    "final_y": "549191.158035",
    "longitude": "-90.11236527764505",
    "latitude": "30.004509387338608",
    "geocoded_column": {
      "latitude": "30.004509387338608",
      "longitude": "-90.11236527764505"
    }
  },
  {
    "service_request": "2026-1287421",
    "request_type": "Trash/Recycling",
    "request_reason": "Request a Large Item Pick Up",
    "date_created": "2026-06-03T18:44:29.000",
    "date_modified": "2026-06-03T18:44:32.000",
    "request_status": "Pending",
    "responsible_agency": "Department of Sanitation",
    "final_address": "533 Spain St",
    "address_councildis": "C",
    "status": "Assigned to Contractor",
    "contractor": "IV Waste",
    "rowid": "1287421",
    "final_x": "3686310.86985",
    "final_y": "534529.047749",
    "longitude": "-90.05277317402354",
    "latitude": "29.963622580626378",
    "geocoded_column": {
      "latitude": "29.963622580626378",
      "longitude": "-90.05277317402354"
    }
  },
  {
    "service_request": "2026-1287420",
    "request_type": "Trash/Recycling",
    "request_reason": "Missed Trash Pick-Up",
    "date_created": "2026-06-03T18:23:55.000",
    "date_modified": "2026-06-03T18:23:57.000",
    "request_status": "Pending",
    "responsible_agency": "Department of Sanitation",
    "final_address": "1018 S Carrollton Ave",
    "address_councildis": "A",
    "status": "Assigned to Contractor",
    "contractor": "IV Waste",
    "rowid": "1287420",
    "final_x": "3661578.41107",
    "final_y": "527979.905343",
    "longitude": "-90.13109314330612",
    "latitude": "29.94635139106853",
    "geocoded_column": {
      "latitude": "29.94635139106853",
      "longitude": "-90.13109314330612"
    }
  },
  {
    "service_request": "2026-1287419",
    "request_type": "Trash/Recycling",
    "request_reason": "Replace Trash Cart",
    "date_created": "2026-06-03T18:23:47.000",
    "date_modified": "2026-06-03T18:23:48.000",
    "request_status": "Pending",
    "responsible_agency": "Department of Sanitation",
    "final_address": "4514 S Miro St",
    "address_councildis": "B",
    "status": "Assigned to Contractor",
    "contractor": "IV Waste",
    "rowid": "1287419",
    "final_x": "3669609.13166",
    "final_y": "527722.648831",
    "longitude": "-90.10574597191345",
    "latitude": "29.945409888941747",
    "geocoded_column": {
      "latitude": "29.945409888941747",
      "longitude": "-90.10574597191345"
    }
  },
  {
    "service_request": "2026-1287418",
    "request_type": "Streetlights",
    "request_reason": "Streetlight Outage/Malfunction",
    "date_created": "2026-06-03T18:23:07.000",
    "date_modified": "2026-06-03T18:23:09.000",
    "request_status": "Pending",
    "responsible_agency": "Department of Public Works",
    "final_address": "7720 Hickory St",
    "address_councildis": "A",
    "status": "Pending",
    "rowid": "1287418",
    "final_x": "3664326.10983",
    "final_y": "529014.853696",
    "longitude": "-90.12238312290538",
    "latitude": "29.949117608245295",
    "geocoded_column": {
      "latitude": "29.949117608245295",
      "longitude": "-90.12238312290538"
    }
  },
  {
    "service_request": "2026-1287417",
    "request_type": "Streetlights",
    "request_reason": "Streetlight Outage/Malfunction",
    "date_created": "2026-06-03T18:19:14.000",
    "date_modified": "2026-06-03T18:19:16.000",
    "request_status": "Pending",
    "responsible_agency": "Department of Public Works",
    "final_address": "7720 Hickory St",
    "address_councildis": "A",
    "status": "Pending",
    "rowid": "1287417",
    "final_x": "3664326.10983",
    "final_y": "529014.853696",
    "longitude": "-90.12238312290538",
    "latitude": "29.949117608245295",
    "geocoded_column": {
      "latitude": "29.949117608245295",
      "longitude": "-90.12238312290538"
    }
  },
  {
    "service_request": "2026-1287416",
    "request_type": "Abandoned Vehicles",
    "request_reason": "Abandoned/Junk Vehicles",
    "date_created": "2026-06-03T18:16:09.000",
    "date_modified": "2026-06-03T18:16:11.000",
    "request_status": "Pending",
    "responsible_agency": "Department of Public Works",
    "final_address": "2302 Audubon St",
    "address_councildis": "A",
    "status": "Pending",
    "rowid": "1287416",
    "final_x": "3666599.07565",
    "final_y": "529637.537793",
    "longitude": "-90.11518544550968",
    "latitude": "29.95076354118953",
    "geocoded_column": {
      "latitude": "29.95076354118953",
      "longitude": "-90.11518544550968"
    }
  },
  {
    "service_request": "2026-1287415",
    "request_type": "Trash/Recycling",
    "request_reason": "Order Recycling Cart",
    "date_created": "2026-06-03T18:12:52.000",
    "date_modified": "2026-06-03T18:12:53.000",
    "request_status": "Pending",
    "responsible_agency": "Department of Sanitation",
    "final_address": "939 Harding Dr",
    "address_councildis": "A",
    "status": "Pending",
    "rowid": "1287415",
    "final_x": "3674328.82478",
    "final_y": "540014.442059",
    "longitude": "-90.09042339675442",
    "latitude": "29.97906831505053",
    "geocoded_column": {
      "latitude": "29.97906831505053",
      "longitude": "-90.09042339675442"
    }
  },
  {
    "service_request": "2026-1287414",
    "request_type": "Property Maintenance",
    "request_reason": "Property Maintenance",
    "date_created": "2026-06-03T18:12:04.000",
    "date_modified": "2026-06-03T18:12:06.000",
    "request_status": "Pending",
    "responsible_agency": "Department of Code Enforcement",
    "final_address": "2435 St Claude Ave",
    "address_councildis": "C",
    "status": "Pending",
    "rowid": "1287414",
    "final_x": "3686805.23388",
    "final_y": "536553.318407",
    "longitude": "-90.05114049575656",
    "latitude": "29.969173420157297",
    "geocoded_column": {
      "latitude": "29.969173420157297",
      "longitude": "-90.05114049575656"
    }
  },
  {
    "service_request": "2026-1287413",
    "request_type": "Trash/Recycling",
    "request_reason": "Return Trash Cart",
    "date_created": "2026-06-03T18:10:58.000",
    "date_modified": "2026-06-03T18:11:00.000",
    "request_status": "Pending",
    "responsible_agency": "Department of Sanitation",
    "final_address": "939 Harding Dr",
    "address_councildis": "A",
    "status": "Assigned to Contractor",
    "contractor": "IV Waste",
    "rowid": "1287413",
    "final_x": "3674328.82478",
    "final_y": "540014.442059",
    "longitude": "-90.09042339675442",
    "latitude": "29.97906831505053",
    "geocoded_column": {
      "latitude": "29.97906831505053",
      "longitude": "-90.09042339675442"
    }
  },
  {
    "service_request": "2026-1287412",
    "request_type": "Trash/Recycling",
    "request_reason": "Return Trash Cart",
    "date_created": "2026-06-03T18:08:01.000",
    "date_modified": "2026-06-03T18:08:03.000",
    "request_status": "Pending",
    "responsible_agency": "Department of Sanitation",
    "final_address": "939 Harding Dr",
    "address_councildis": "A",
    "status": "Assigned to Contractor",
    "contractor": "IV Waste",
    "rowid": "1287412",
    "final_x": "3674328.82478",
    "final_y": "540014.442059",
    "longitude": "-90.09042339675442",
    "latitude": "29.97906831505053",
    "geocoded_column": {
      "latitude": "29.97906831505053",
      "longitude": "-90.09042339675442"
    }
  },
  {
    "service_request": "2026-1287411",
    "request_type": "Property Maintenance",
    "request_reason": "Property Maintenance",
    "date_created": "2026-06-03T18:05:32.000",
    "date_modified": "2026-06-03T18:05:34.000",
    "request_status": "Pending",
    "responsible_agency": "Department of Code Enforcement",
    "final_address": "5708 Peoples Ave",
    "address_councildis": "D",
    "status": "Pending",
    "rowid": "1287411",
    "final_x": "3687849.77449",
    "final_y": "554364.392728",
    "longitude": "-90.04721041947036",
    "latitude": "30.01811528661835",
    "geocoded_column": {
      "latitude": "30.01811528661835",
      "longitude": "-90.04721041947036"
    }
  },
  {
    "service_request": "2026-1287410",
    "request_type": "Property Maintenance",
    "request_reason": "Property Maintenance",
    "date_created": "2026-06-03T18:01:56.000",
    "date_modified": "2026-06-03T18:01:57.000",
    "request_status": "Pending",
    "responsible_agency": "Department of Code Enforcement",
    "final_address": "5736 Peoples Ave",
    "address_councildis": "D",
    "status": "Pending",
    "rowid": "1287410",
    "final_x": "3687803.47343",
    "final_y": "554518.123288",
    "longitude": "-90.0473512615846",
    "latitude": "30.018539417648256",
    "geocoded_column": {
      "latitude": "30.018539417648256",
      "longitude": "-90.0473512615846"
    }
  },
  {
    "service_request": "2026-1287409",
    "request_type": "Trash/Recycling",
    "request_reason": "Request a Large Item Pick Up",
    "date_created": "2026-06-03T17:58:45.000",
    "date_modified": "2026-06-03T17:58:48.000",
    "request_status": "Pending",
    "responsible_agency": "Department of Sanitation",
    "final_address": "4433 S Johnson St",
    "address_councildis": "B",
    "status": "Assigned to Contractor",
    "contractor": "IV Waste",
    "rowid": "1287409",
    "final_x": "3669906.68942",
    "final_y": "527226.202879",
    "longitude": "-90.10482328926844",
    "latitude": "29.94403605521723",
    "geocoded_column": {
      "latitude": "29.94403605521723",
      "longitude": "-90.10482328926844"
    }
  },
  {
    "service_request": "2026-1287408",
    "request_type": "Trash/Recycling",
    "request_reason": "Request a Large Item Pick Up",
    "date_created": "2026-06-03T17:56:15.000",
    "date_modified": "2026-06-03T17:56:17.000",
    "request_status": "Pending",
    "responsible_agency": "Department of Sanitation",
    "final_address": "5805 Fontainebleau Dr",
    "address_councildis": "B",
    "status": "Assigned to Contractor",
    "contractor": "IV Waste",
    "rowid": "1287408",
    "final_x": "3668477.80218",
    "final_y": "529867.832577",
    "longitude": "-90.10924559784861",
    "latitude": "29.951341724272368",
    "geocoded_column": {
      "latitude": "29.951341724272368",
      "longitude": "-90.10924559784861"
    }
  },
  {
    "service_request": "2026-1287407",
    "request_type": "Drainage",
    "request_reason": "Catch Basin Not Draining",
    "date_created": "2026-06-03T17:50:51.000",
    "date_modified": "2026-06-03T17:50:52.000",
    "request_status": "Pending",
    "responsible_agency": "Sewerage & Water Board",
    "final_address": "1401 S Carrollton Ave",
    "address_councildis": "A",
    "status": "Pending",
    "rowid": "1287407",
    "final_x": "3662592.38951",
    "final_y": "528825.4048",
    "longitude": "-90.12786355748113",
    "latitude": "29.948646951152188",
    "geocoded_column": {
      "latitude": "29.948646951152188",
      "longitude": "-90.12786355748113"
    }
  },
  {
    "service_request": "2026-1287406",
    "request_type": "Homeless Related Request",
    "request_reason": "Homeless Encampment Complaint",
    "date_created": "2026-06-03T17:40:02.000",
    "date_modified": "2026-06-03T17:40:03.000",
    "request_status": "Pending",
    "responsible_agency": "Office Of Homeless Services And Strategy",
    "final_address": "522 Montegut St",
    "address_councildis": "C",
    "status": "Pending",
    "rowid": "1287406",
    "final_x": "3687837.23107",
    "final_y": "534109.455429",
    "longitude": "-90.04796795884512",
    "latitude": "29.962421855004674",
    "geocoded_column": {
      "latitude": "29.962421855004674",
      "longitude": "-90.04796795884512"
    }
  },
  {
    "service_request": "2026-1287405",
    "request_type": "Roads and Streets",
    "request_reason": "Pothole",
    "date_created": "2026-06-03T17:39:27.000",
    "date_modified": "2026-06-03T17:39:28.000",
    "request_status": "Pending",
    "responsible_agency": "Department of Public Works",
    "final_address": "CANAL BLVD & JEWEL ST",
    "address_councildis": "D",
    "status": "Pending",
    "rowid": "1287405",
    "final_x": "3669336.2",
    "final_y": "555930.88",
    "longitude": "-90.10565347084813",
    "latitude": "30.022980953953336",
    "geocoded_column": {
      "latitude": "30.022980953953336",
      "longitude": "-90.10565347084813"
    }
  },
  {
    "service_request": "2026-1287404",
    "request_type": "Roads and Streets",
    "request_reason": "Pothole",
    "date_created": "2026-06-03T17:36:46.000",
    "date_modified": "2026-06-03T17:36:48.000",
    "request_status": "Pending",
    "responsible_agency": "Department of Public Works",
    "final_address": "WEST END BLVD & SAPPHIRE ST",
    "address_councildis": "D",
    "status": "Pending",
    "rowid": "1287404",
    "final_x": "3667020.1",
    "final_y": "555417.48",
    "longitude": "-90.11298913331144",
    "latitude": "30.021637315567204",
    "geocoded_column": {
      "latitude": "30.021637315567204",
      "longitude": "-90.11298913331144"
    }
  },
  {
    "service_request": "2026-1287403",
    "request_type": "Streetlights",
    "request_reason": "Streetlight Outage/Malfunction",
    "date_created": "2026-06-03T17:34:00.000",
    "date_modified": "2026-06-03T17:34:01.000",
    "request_status": "Pending",
    "responsible_agency": "Department of Public Works",
    "final_address": "CANAL BLVD & ROBERT E LEE BLVD",
    "address_councildis": "D",
    "status": "Pending",
    "rowid": "1287403",
    "final_x": "3669095.9",
    "final_y": "554710.28",
    "longitude": "-90.10645406347048",
    "latitude": "30.019631815468834",
    "geocoded_column": {
      "latitude": "30.019631815468834",
      "longitude": "-90.10645406347048"
    }
  },
  {
    "service_request": "2026-1287402",
    "request_type": "Streetlights",
    "request_reason": "Streetlight Outage/Malfunction",
    "date_created": "2026-06-03T17:30:50.000",
    "date_modified": "2026-06-03T17:30:53.000",
    "request_status": "Pending",
    "responsible_agency": "Department of Public Works",
    "final_address": "CANAL BLVD & CHAPELLE ST",
    "address_councildis": "A",
    "status": "Pending",
    "rowid": "1287402",
    "final_x": "3669031.0",
    "final_y": "552669.08",
    "longitude": "-90.10672816793502",
    "latitude": "30.014021148386703",
    "geocoded_column": {
      "latitude": "30.014021148386703",
      "longitude": "-90.10672816793502"
    }
  },
  {
    "service_request": "2026-1287401",
    "request_type": "Streetlights",
    "request_reason": "Streetlight Outage/Malfunction",
    "date_created": "2026-06-03T17:28:28.000",
    "date_modified": "2026-06-03T17:28:31.000",
    "request_status": "Pending",
    "responsible_agency": "Department of Public Works",
    "final_address": "CANAL BLVD & CHAPELLE ST",
    "address_councildis": "A",
    "status": "Pending",
    "rowid": "1287401",
    "final_x": "3669031.0",
    "final_y": "552669.08",
    "longitude": "-90.10672816793502",
    "latitude": "30.014021148386703",
    "geocoded_column": {
      "latitude": "30.014021148386703",
      "longitude": "-90.10672816793502"
    }
  },
  {
    "service_request": "2026-1287400",
    "request_type": "Trash/Recycling",
    "request_reason": "Request a Large Item Pick Up",
    "date_created": "2026-06-03T17:26:34.000",
    "date_modified": "2026-06-03T17:26:37.000",
    "request_status": "Pending",
    "responsible_agency": "Department of Sanitation",
    "final_address": "3821 Dauphine St",
    "address_councildis": "C",
    "status": "Assigned to Contractor",
    "contractor": "IV Waste",
    "rowid": "1287400",
    "final_x": "3691134.53091",
    "final_y": "534285.163717",
    "longitude": "-90.03754931408736",
    "latitude": "29.962802875033482",
    "geocoded_column": {
      "latitude": "29.962802875033482",
      "longitude": "-90.03754931408736"
    }
  },
  {
    "service_request": "2026-1287399",
    "request_type": "Streetlights",
    "request_reason": "Streetlight Outage/Malfunction",
    "date_created": "2026-06-03T17:26:01.000",
    "date_modified": "2026-06-03T17:26:03.000",
    "request_status": "Pending",
    "responsible_agency": "Department of Public Works",
    "final_address": "WALKER ST & CANAL BLVD",
    "address_councildis": "A",
    "status": "Pending",
    "rowid": "1287399",
    "final_x": "3669154.6",
    "final_y": "553986.08",
    "longitude": "-90.10629309416315",
    "latitude": "30.017638794074344",
    "geocoded_column": {
      "latitude": "30.017638794074344",
      "longitude": "-90.10629309416315"
    }
  },
  {
    "service_request": "2026-1287398",
    "request_type": "Property Maintenance",
    "request_reason": "Property Maintenance",
    "date_created": "2026-06-03T17:23:38.000",
    "date_modified": "2026-06-03T17:23:39.000",
    "request_status": "Pending",
    "responsible_agency": "Department of Code Enforcement",
    "final_address": "1925 S Dupre St",
    "address_councildis": "B",
    "status": "Pending",
    "rowid": "1287398",
    "final_x": "3670228.3954",
    "final_y": "529444.087169",
    "longitude": "-90.1037324279414",
    "latitude": "29.950125024701464",
    "geocoded_column": {
      "latitude": "29.950125024701464",
      "longitude": "-90.1037324279414"
    }
  },
  {
    "service_request": "2026-1287397",
    "request_type": "Drainage",
    "request_reason": "Ditch and Culvert Maintenance",
    "date_created": "2026-06-03T17:23:09.000",
    "date_modified": "2026-06-03T17:23:10.000",
    "request_status": "Pending",
    "responsible_agency": "Department of Public Works",
    "final_address": "1728 St Ferdinand St",
    "address_councildis": "D",
    "status": "Pending",
    "rowid": "1287397",
    "final_x": "3688318.51324",
    "final_y": "538764.648969",
    "longitude": "-90.0462830211715",
    "latitude": "29.97520715403641",
    "geocoded_column": {
      "latitude": "29.97520715403641",
      "longitude": "-90.0462830211715"
    }
  },
  {
    "service_request": "2026-1287396",
    "request_type": "Streetlights",
    "request_reason": "Streetlight Outage/Malfunction",
    "date_created": "2026-06-03T17:23:00.000",
    "date_modified": "2026-06-03T17:23:02.000",
    "request_status": "Pending",
    "responsible_agency": "Department of Public Works",
    "final_address": "CANAL BLVD & RING ST",
    "address_councildis": "D",
    "status": "Pending",
    "rowid": "1287396",
    "final_x": "3669125.3",
    "final_y": "555046.28",
    "longitude": "-90.10634980056072",
    "latitude": "30.020554830459332",
    "geocoded_column": {
      "latitude": "30.020554830459332",
      "longitude": "-90.10634980056072"
    }
  },
  {
    "service_request": "2026-1287395",
    "request_type": "Trash/Recycling",
    "request_reason": "Illegal Dumping",
    "date_created": "2026-06-03T17:21:15.000",
    "date_modified": "2026-06-03T17:21:17.000",
    "request_status": "Pending",
    "responsible_agency": "Department of Sanitation",
    "final_address": "7051 Wayside Dr",
    "address_councildis": "E",
    "status": "Pending",
    "rowid": "1287395",
    "final_x": "3717658.92799",
    "final_y": "567913.265445",
    "longitude": "-89.95251000929606",
    "latitude": "30.054415534474966",
    "geocoded_column": {
      "latitude": "30.054415534474966",
      "longitude": "-89.95251000929606"
    }
  },
  {
    "service_request": "2026-1287394",
    "request_type": "Property Maintenance",
    "request_reason": "Property Maintenance",
    "date_created": "2026-06-03T17:14:20.000",
    "date_modified": "2026-06-03T17:14:23.000",
    "request_status": "Pending",
    "responsible_agency": "Department of Code Enforcement",
    "final_address": "1700 S Lopez St",
    "address_councildis": "B",
    "status": "Pending",
    "rowid": "1287394",
    "final_x": "3669984.21198",
    "final_y": "530575.072386",
    "longitude": "-90.10446513374032",
    "latitude": "29.953242065716914",
    "geocoded_column": {
      "latitude": "29.953242065716914",
      "longitude": "-90.10446513374032"
    }
  },
  {
    "service_request": "2026-1287393",
    "request_type": "Streetlights",
    "request_reason": "Streetlight Outage/Malfunction",
    "date_created": "2026-06-03T17:12:33.000",
    "date_modified": "2026-06-03T17:12:35.000",
    "request_status": "Pending",
    "responsible_agency": "Department of Public Works",
    "final_address": "600 Amethyst St",
    "address_councildis": "D",
    "status": "Pending",
    "rowid": "1287393",
    "final_x": "3669063.9403",
    "final_y": "556712.375386",
    "longitude": "-90.10648731405055",
    "latitude": "30.025137805238597",
    "geocoded_column": {
      "latitude": "30.025137805238597",
      "longitude": "-90.10648731405055"
    }
  },
  {
    "service_request": "2026-1287392",
    "request_type": "Drainage",
    "request_reason": "Ditch and Culvert Maintenance",
    "date_created": "2026-06-03T17:11:53.000",
    "date_modified": "2026-06-03T17:11:55.000",
    "request_status": "Pending",
    "responsible_agency": "Department of Public Works",
    "final_address": "35 Maryland Dr",
    "address_councildis": "A",
    "status": "Pending",
    "rowid": "1287392",
    "final_x": "3663706.78938",
    "final_y": "541068.31054",
    "longitude": "-90.12393690723401",
    "latitude": "29.982278637196682",
    "geocoded_column": {
      "latitude": "29.982278637196682",
      "longitude": "-90.12393690723401"
    }
  },
  {
    "service_request": "2026-1287391",
    "request_type": "Drainage",
    "request_reason": "Catch Basin Not Draining",
    "date_created": "2026-06-03T17:09:13.000",
    "date_modified": "2026-06-03T17:09:15.000",
    "request_status": "Pending",
    "responsible_agency": "Sewerage & Water Board",
    "final_address": "730 Dublin St",
    "address_councildis": "A",
    "status": "Pending",
    "rowid": "1287391",
    "final_x": "3660660.32115",
    "final_y": "527571.772159",
    "longitude": "-90.13400537869036",
    "latitude": "29.94525560986058",
    "geocoded_column": {
      "latitude": "29.94525560986058",
      "longitude": "-90.13400537869036"
    }
  },
  {
    "service_request": "2026-1287390",
    "request_type": "Streetlights",
    "request_reason": "Streetlight Outage/Malfunction",
    "date_created": "2026-06-03T17:08:29.000",
    "date_modified": "2026-06-03T17:08:31.000",
    "request_status": "Pending",
    "responsible_agency": "Department of Public Works",
    "final_address": "FILMORE AVE & WEST END BLVD",
    "address_councildis": "A",
    "status": "Pending",
    "rowid": "1287390",
    "final_x": "3666722.84",
    "final_y": "552245.57",
    "longitude": "-90.1140350486133",
    "latitude": "30.01292438195584",
    "geocoded_column": {
      "latitude": "30.01292438195584",
      "longitude": "-90.1140350486133"
    }
  },
  {
    "service_request": "2026-1287389",
    "request_type": "Trash/Recycling",
    "request_reason": "Change Size of Trash Cart",
    "date_created": "2026-06-03T17:08:00.000",
    "date_modified": "2026-06-03T17:08:02.000",
    "request_status": "Pending",
    "responsible_agency": "Department of Sanitation",
    "final_address": "2831 Conti St",
    "address_councildis": "B",
    "status": "Assigned to Contractor",
    "contractor": "IV Waste",
    "rowid": "1287389",
    "final_x": "3675405.70094",
    "final_y": "536582.781831",
    "longitude": "-90.0871400797899",
    "latitude": "29.96960025818284",
    "geocoded_column": {
      "latitude": "29.96960025818284",
      "longitude": "-90.0871400797899"
    }
  },
  {
    "service_request": "2026-1287388",
    "request_type": "Property Maintenance",
    "request_reason": "Property Maintenance",
    "date_created": "2026-06-03T17:07:54.000",
    "date_modified": "2026-06-03T17:07:56.000",
    "request_status": "Pending",
    "responsible_agency": "Department of Code Enforcement",
    "final_address": "7106 Barrington Ct",
    "address_councildis": "E",
    "status": "Pending",
    "rowid": "1287388",
    "final_x": "3713940.79359",
    "final_y": "565212.090594",
    "longitude": "-89.96436406221466",
    "latitude": "30.047111080597624",
    "geocoded_column": {
      "latitude": "30.047111080597624",
      "longitude": "-89.96436406221466"
    }
  },
  {
    "service_request": "2026-1287387",
    "request_type": "Street and Traffic Signs",
    "request_reason": "Stop Sign Missing or Damaged",
    "date_created": "2026-06-03T17:04:13.000",
    "date_modified": "2026-06-03T17:04:16.000",
    "request_status": "Pending",
    "responsible_agency": "Department of Public Works",
    "final_address": "PONTCHARTRAIN BLVD & FILMORE AVE",
    "address_councildis": "A",
    "status": "Pending",
    "rowid": "1287387",
    "final_x": "3666344.5",
    "final_y": "552293.18",
    "longitude": "-90.11522880347272",
    "latitude": "30.013066357280845",
    "geocoded_column": {
      "latitude": "30.013066357280845",
      "longitude": "-90.11522880347272"
    }
  },
  {
    "service_request": "2026-1287386",
    "request_type": "Trash/Recycling",
    "request_reason": "Request a Large Item Pick Up",
    "date_created": "2026-06-03T16:56:18.000",
    "date_modified": "2026-06-03T16:56:20.000",
    "request_status": "Pending",
    "responsible_agency": "Department of Sanitation",
    "final_address": "6700 Coventry St",
    "address_councildis": "E",
    "status": "Assigned to Contractor",
    "contractor": "Waste Pro",
    "rowid": "1287386",
    "final_x": "3697987.38883",
    "final_y": "559369.087965",
    "longitude": "-90.01499763772816",
    "latitude": "30.031559518508384",
    "geocoded_column": {
      "latitude": "30.031559518508384",
      "longitude": "-90.01499763772816"
    }
  },
  {
    "service_request": "2026-1287385",
    "request_type": "Trash/Recycling",
    "request_reason": "Order Recycling Cart",
    "date_created": "2026-06-03T16:54:59.000",
    "date_modified": "2026-06-03T16:55:00.000",
    "request_status": "Pending",
    "responsible_agency": "Department of Sanitation",
    "final_address": "4900 Gawain Dr",
    "address_councildis": "E",
    "status": "Pending",
    "rowid": "1287385",
    "final_x": "3706805.69553",
    "final_y": "556412.85417",
    "longitude": "-89.98724134574191",
    "latitude": "30.02314911002191",
    "geocoded_column": {
      "latitude": "30.02314911002191",
      "longitude": "-89.98724134574191"
    }
  },
  {
    "service_request": "2026-1287384",
    "request_type": "Trash/Recycling",
    "request_reason": "Request a Large Item Pick Up",
    "date_created": "2026-06-03T16:53:53.000",
    "date_modified": "2026-06-03T16:53:54.000",
    "request_status": "Pending",
    "responsible_agency": "Department of Sanitation",
    "final_address": "4900 Gawain Dr",
    "address_councildis": "E",
    "status": "Assigned to Contractor",
    "contractor": "Waste Pro",
    "rowid": "1287384",
    "final_x": "3706805.69553",
    "final_y": "556412.85417",
    "longitude": "-89.98724134574191",
    "latitude": "30.02314911002191",
    "geocoded_column": {
      "latitude": "30.02314911002191",
      "longitude": "-89.98724134574191"
    }
  },
  {
    "service_request": "2026-1287383",
    "request_type": "Trash/Recycling",
    "request_reason": "Order Trash Cart",
    "date_created": "2026-06-03T16:53:23.000",
    "date_modified": "2026-06-03T16:53:25.000",
    "request_status": "Pending",
    "responsible_agency": "Department of Sanitation",
    "final_address": "2833 Broadway St",
    "address_councildis": "B",
    "status": "Assigned to Contractor",
    "contractor": "IV Waste",
    "rowid": "1287383",
    "final_x": "3667491.62714",
    "final_y": "531488.440387",
    "longitude": "-90.11230493612187",
    "latitude": "29.95582679749605",
    "geocoded_column": {
      "latitude": "29.95582679749605",
      "longitude": "-90.11230493612187"
    }
  },
  {
    "service_request": "2026-1287382",
    "request_type": "Trash/Recycling",
    "request_reason": "Illegal Dumping",
    "date_created": "2026-06-03T16:50:39.000",
    "date_modified": "2026-06-03T16:50:41.000",
    "request_status": "Pending",
    "responsible_agency": "Department of Sanitation",
    "final_address": "2400 BLK Dumaine St",
    "address_councildis": "C",
    "status": "Pending",
    "rowid": "1287382",
    "final_x": "3678100.76056",
    "final_y": "536796.067928",
    "longitude": "-90.07862147046484",
    "latitude": "29.970105851781945",
    "geocoded_column": {
      "latitude": "29.970105851781945",
      "longitude": "-90.07862147046484"
    }
  },
  {
    "service_request": "2026-1287381",
    "request_type": "Trash/Recycling",
    "request_reason": "Repair Trash Cart",
    "date_created": "2026-06-03T16:48:31.000",
    "date_modified": "2026-06-03T16:48:39.000",
    "request_status": "Pending",
    "responsible_agency": "Department of Sanitation",
    "final_address": "4721 Haydel St",
    "address_councildis": "E",
    "status": "Assigned to Contractor",
    "contractor": "Waste Pro",
    "rowid": "1287381",
    "final_x": "3699094.87677",
    "final_y": "554465.949016",
    "longitude": "-90.01167665892322",
    "latitude": "30.01804268047261",
    "geocoded_column": {
      "latitude": "30.01804268047261",
      "longitude": "-90.01167665892322"
    }
  },
  {
    "service_request": "2026-1287380",
    "request_type": "Trash/Recycling",
    "request_reason": "Order Recycling Cart",
    "date_created": "2026-06-03T16:47:57.000",
    "date_modified": "2026-06-03T16:47:59.000",
    "request_status": "Pending",
    "responsible_agency": "Department of Sanitation",
    "final_address": "2608 St Philip St",
    "address_councildis": "C",
    "status": "Pending",
    "rowid": "1287380",
    "final_x": "3677739.16898",
    "final_y": "537548.064456",
    "longitude": "-90.07973743197607",
    "latitude": "29.972184467272466",
    "geocoded_column": {
      "latitude": "29.972184467272466",
      "longitude": "-90.07973743197607"
    }
  },
  {
    "service_request": "2026-1287379",
    "request_type": "Trash/Recycling",
    "request_reason": "Replace Trash Cart",
    "date_created": "2026-06-03T16:46:32.000",
    "date_modified": "2026-06-03T16:46:35.000",
    "request_status": "Pending",
    "responsible_agency": "Department of Sanitation",
    "final_address": "2608 St Philip St",
    "address_councildis": "C",
    "status": "Assigned to Contractor",
    "contractor": "IV Waste",
    "rowid": "1287379",
    "final_x": "3677739.16898",
    "final_y": "537548.064456",
    "longitude": "-90.07973743197607",
    "latitude": "29.972184467272466",
    "geocoded_column": {
      "latitude": "29.972184467272466",
      "longitude": "-90.07973743197607"
    }
  },
  {
    "service_request": "2026-1287378",
    "request_type": "Trash/Recycling",
    "request_reason": "Repair Trash Cart",
    "date_created": "2026-06-03T16:41:53.000",
    "date_modified": "2026-06-03T16:41:54.000",
    "request_status": "Pending",
    "responsible_agency": "Department of Sanitation",
    "final_address": "6023 Laurel St",
    "address_councildis": "A",
    "status": "Assigned to Contractor",
    "contractor": "IV Waste",
    "rowid": "1287378",
    "final_x": "3664234.28941",
    "final_y": "518325.657142",
    "longitude": "-90.12302953432162",
    "latitude": "29.919728375090145",
    "geocoded_column": {
      "latitude": "29.919728375090145",
      "longitude": "-90.12302953432162"
    }
  },
  {
    "service_request": "2026-1287377",
    "request_type": "Roads and Streets",
    "request_reason": "Debris in Driving Lanes",
    "date_created": "2026-06-03T16:41:52.000",
    "date_modified": "2026-06-03T16:41:53.000",
    "request_status": "Pending",
    "responsible_agency": "Department of Public Works",
    "final_address": "BEHRMAN HWY & TULLIS DR",
    "address_councildis": "C",
    "status": "Pending",
    "rowid": "1287377",
    "final_x": "3697485.21",
    "final_y": "514316.98",
    "longitude": "-90.01821852172137",
    "latitude": "29.907698262091092",
    "geocoded_column": {
      "latitude": "29.907698262091092",
      "longitude": "-90.01821852172137"
    }
  },
  {
    "service_request": "2026-1287376",
    "request_type": "Roads and Streets",
    "request_reason": "Pothole",
    "date_created": "2026-06-03T16:41:45.000",
    "date_modified": "2026-06-03T16:41:47.000",
    "request_status": "Pending",
    "responsible_agency": "Department of Public Works",
    "final_address": "300 BLK Opal St",
    "address_councildis": "D",
    "status": "Pending",
    "rowid": "1287376",
    "final_x": "3667726.63597",
    "final_y": "555209.653148",
    "longitude": "-90.1107636663813",
    "latitude": "30.02104515617002",
    "geocoded_column": {
      "latitude": "30.02104515617002",
      "longitude": "-90.1107636663813"
    }
  },
  {
    "service_request": "2026-1287375",
    "request_type": "Trash/Recycling",
    "request_reason": "Order Second Trash Cart",
    "date_created": "2026-06-03T16:38:23.000",
    "date_modified": "2026-06-03T16:38:24.000",
    "request_status": "Pending",
    "responsible_agency": "Department of Sanitation",
    "final_address": "10911 Chaucer St",
    "address_councildis": "E",
    "status": "Assigned to Contractor",
    "contractor": "Waste Pro",
    "rowid": "1287375",
    "final_x": "3712616.78994",
    "final_y": "561829.507103",
    "longitude": "-89.9686759097912",
    "latitude": "30.037853765848013",
    "geocoded_column": {
      "latitude": "30.037853765848013",
      "longitude": "-89.9686759097912"
    }
  },
  {
    "service_request": "2026-1287374",
    "request_type": "Roads and Streets",
    "request_reason": "Pothole",
    "date_created": "2026-06-03T16:37:39.000",
    "date_modified": "2026-06-03T16:37:41.000",
    "request_status": "Pending",
    "responsible_agency": "Department of Public Works",
    "final_address": "WEST END BLVD & OPAL ST",
    "address_councildis": "D",
    "status": "Pending",
    "rowid": "1287374",
    "final_x": "3667030.6",
    "final_y": "555546.08",
    "longitude": "-90.11295162821882",
    "latitude": "30.021990612497145",
    "geocoded_column": {
      "latitude": "30.021990612497145",
      "longitude": "-90.11295162821882"
    }
  },
  {
    "service_request": "2026-1287373",
    "request_type": "Trash/Recycling",
    "request_reason": "Request a Large Item Pick Up",
    "date_created": "2026-06-03T16:37:19.000",
    "date_modified": "2026-06-03T16:37:21.000",
    "request_status": "Pending",
    "responsible_agency": "Department of Sanitation",
    "final_address": "10911 Chaucer St",
    "address_councildis": "E",
    "status": "Assigned to Contractor",
    "contractor": "Waste Pro",
    "rowid": "1287373",
    "final_x": "3712616.78994",
    "final_y": "561829.507103",
    "longitude": "-89.9686759097912",
    "latitude": "30.037853765848013",
    "geocoded_column": {
      "latitude": "30.037853765848013",
      "longitude": "-89.9686759097912"
    }
  },
  {
    "service_request": "2026-1287372",
    "request_type": "Street and Traffic Signs",
    "request_reason": "Stop Sign Missing or Damaged",
    "date_created": "2026-06-03T16:32:30.000",
    "date_modified": "2026-06-03T16:32:31.000",
    "request_status": "Pending",
    "responsible_agency": "Department of Public Works",
    "final_address": "ROBERT E LEE BLVD & WEST END BLVD",
    "address_councildis": "A",
    "status": "Pending",
    "rowid": "1287372",
    "final_x": "3666970.6",
    "final_y": "554841.58",
    "longitude": "-90.1131649180437",
    "latitude": "30.02005524389593",
    "geocoded_column": {
      "latitude": "30.02005524389593",
      "longitude": "-90.1131649180437"
    }
  },
  {
    "service_request": "2026-1287371",
    "request_type": "Trash/Recycling",
    "request_reason": "Request a Large Item Pick Up",
    "date_created": "2026-06-03T16:32:22.000",
    "date_modified": "2026-06-03T16:32:23.000",
    "request_status": "Pending",
    "responsible_agency": "Department of Sanitation",
    "final_address": "7401 Crestmont Rd",
    "address_councildis": "E",
    "status": "Assigned to Contractor",
    "contractor": "Waste Pro",
    "rowid": "1287371",
    "final_x": "3700001.74794",
    "final_y": "559634.687453",
    "longitude": "-90.00862250317479",
    "latitude": "30.03222593518999",
    "geocoded_column": {
      "latitude": "30.03222593518999",
      "longitude": "-90.00862250317479"
    }
  },
  {
    "service_request": "2026-1287370",
    "request_type": "Property Maintenance",
    "request_reason": "Property Maintenance",
    "date_created": "2026-06-03T16:31:07.000",
    "date_modified": "2026-06-03T16:31:08.000",
    "request_status": "Pending",
    "responsible_agency": "Department of Code Enforcement",
    "final_address": "4437 S Rocheblave St",
    "address_councildis": "B",
    "status": "Pending",
    "rowid": "1287370",
    "final_x": "3669739.88711",
    "final_y": "528523.501696",
    "longitude": "-90.10530603469051",
    "latitude": "29.947608120771413",
    "geocoded_column": {
      "latitude": "29.947608120771413",
      "longitude": "-90.10530603469051"
    }
  },
  {
    "service_request": "2026-1287369",
    "request_type": "Trash/Recycling",
    "request_reason": "Illegal Dumping",
    "date_created": "2026-06-03T16:31:00.000",
    "date_modified": "2026-06-03T16:31:02.000",
    "request_status": "Pending",
    "responsible_agency": "Department of Sanitation",
    "final_address": "4600 Press Dr",
    "address_councildis": "D",
    "status": "Pending",
    "rowid": "1287369",
    "final_x": "3689710.49603",
    "final_y": "550092.24514",
    "longitude": "-90.04148344464417",
    "latitude": "30.006310899588854",
    "geocoded_column": {
      "latitude": "30.006310899588854",
      "longitude": "-90.04148344464417"
    }
  },
  {
    "service_request": "2026-1287368",
    "request_type": "Roads and Streets",
    "request_reason": "Pothole",
    "date_created": "2026-06-03T16:29:56.000",
    "date_modified": "2026-06-03T16:29:59.000",
    "request_status": "Pending",
    "responsible_agency": "Department of Public Works",
    "final_address": "926 N White St",
    "address_councildis": "C",
    "status": "Pending",
    "rowid": "1287368",
    "final_x": "3676870.78779",
    "final_y": "538027.977033",
    "longitude": "-90.08246338191395",
    "latitude": "29.97353015710339",
    "geocoded_column": {
      "latitude": "29.97353015710339",
      "longitude": "-90.08246338191395"
    }
  },
  {
    "service_request": "2026-1287367",
    "request_type": "Parks & Grass Service",
    "request_reason": "Request Grass Cutting Service (City Owned Property)",
    "date_created": "2026-06-03T16:29:02.000",
    "date_modified": "2026-06-03T16:29:04.000",
    "request_status": "Pending",
    "responsible_agency": "Department of Parks & Parkways",
    "final_address": "3580 Holiday Dr",
    "address_councildis": "C",
    "status": "Pending",
    "rowid": "1287367",
    "final_x": "3697970.24445",
    "final_y": "518401.712566",
    "longitude": "-90.01653954649831",
    "latitude": "29.918914581138207",
    "geocoded_column": {
      "latitude": "29.918914581138207",
      "longitude": "-90.01653954649831"
    }
  },
  {
    "service_request": "2026-1287366",
    "request_type": "Trash/Recycling",
    "request_reason": "Request a Large Item Pick Up",
    "date_created": "2026-06-03T16:28:45.000",
    "date_modified": "2026-06-03T16:28:46.000",
    "request_status": "Pending",
    "responsible_agency": "Department of Sanitation",
    "final_address": "7822 Keats St",
    "address_councildis": "E",
    "status": "Assigned to Contractor",
    "contractor": "Waste Pro",
    "rowid": "1287366",
    "final_x": "3696035.1233",
    "final_y": "559635.824669",
    "longitude": "-90.02115720675803",
    "latitude": "30.032354558722172",
    "geocoded_column": {
      "latitude": "30.032354558722172",
      "longitude": "-90.02115720675803"
    }
  },
  {
    "service_request": "2026-1287364",
    "request_type": "Trash/Recycling",
    "request_reason": "Replace Trash Cart",
    "date_created": "2026-06-03T16:27:00.000",
    "date_modified": "2026-06-03T16:27:02.000",
    "request_status": "Pending",
    "responsible_agency": "Department of Sanitation",
    "final_address": "4719 Sandalwood St",
    "address_councildis": "E",
    "status": "Assigned to Contractor",
    "contractor": "Waste Pro",
    "rowid": "1287364",
    "final_x": "3712325.31416",
    "final_y": "555981.673881",
    "longitude": "-89.96981694890282",
    "latitude": "30.02178408622724",
    "geocoded_column": {
      "latitude": "30.02178408622724",
      "longitude": "-89.96981694890282"
    }
  },
  {
    "service_request": "2026-1287363",
    "request_type": "Streetlights",
    "request_reason": "Streetlight Knocked Down/Leaning",
    "date_created": "2026-06-03T16:25:41.000",
    "date_modified": "2026-06-03T16:25:42.000",
    "request_status": "Pending",
    "responsible_agency": "Department of Public Works",
    "final_address": "3580 Holiday Dr",
    "address_councildis": "C",
    "status": "Pending",
    "rowid": "1287363",
    "final_x": "3697970.24445",
    "final_y": "518401.712566",
    "longitude": "-90.01653954649831",
    "latitude": "29.918914581138207",
    "geocoded_column": {
      "latitude": "29.918914581138207",
      "longitude": "-90.01653954649831"
    }
  },
  {
    "service_request": "2026-1287362",
    "request_type": "Trash/Recycling",
    "request_reason": "Request a Large Item Pick Up",
    "date_created": "2026-06-03T16:25:18.000",
    "date_modified": "2026-06-03T16:25:21.000",
    "request_status": "Pending",
    "responsible_agency": "Department of Sanitation",
    "final_address": "4774 Camelot Dr",
    "address_councildis": "E",
    "status": "Assigned to Contractor",
    "contractor": "Waste Pro",
    "rowid": "1287362",
    "final_x": "3708280.42891",
    "final_y": "555805.116697",
    "longitude": "-89.9826041891461",
    "latitude": "30.02143035009258",
    "geocoded_column": {
      "latitude": "30.02143035009258",
      "longitude": "-89.9826041891461"
    }
  },
  {
    "service_request": "2026-1287361",
    "request_type": "Trash/Recycling",
    "request_reason": "Request a Large Item Pick Up",
    "date_created": "2026-06-03T16:22:36.000",
    "date_modified": "2026-06-03T16:22:37.000",
    "request_status": "Pending",
    "responsible_agency": "Department of Sanitation",
    "final_address": "6613 Peony St",
    "address_councildis": "C",
    "status": "Assigned to Contractor",
    "contractor": "Richards Disposal",
    "rowid": "1287361",
    "final_x": "3708213.93048",
    "final_y": "516361.968437",
    "longitude": "-89.98428162261615",
    "latitude": "29.912978328911773",
    "geocoded_column": {
      "latitude": "29.912978328911773",
      "longitude": "-89.98428162261615"
    }
  },
  {
    "service_request": "2026-1287359",
    "request_type": "Trash/Recycling",
    "request_reason": "Replace Recycling Cart",
    "date_created": "2026-06-03T16:21:33.000",
    "date_modified": "2026-06-03T16:21:34.000",
    "request_status": "Pending",
    "responsible_agency": "Department of Sanitation",
    "final_address": "737 Henry Clay Ave",
    "address_councildis": "A",
    "status": "Pending",
    "rowid": "1287359",
    "final_x": "3663819.66938",
    "final_y": "519511.581751",
    "longitude": "-90.12429879359725",
    "latitude": "29.923001333316105",
    "geocoded_column": {
      "latitude": "29.923001333316105",
      "longitude": "-90.12429879359725"
    }
  },
  {
    "service_request": "2026-1287360",
    "request_type": "Trash/Recycling",
    "request_reason": "Request a Large Item Pick Up",
    "date_created": "2026-06-03T16:21:33.000",
    "date_modified": "2026-06-03T16:21:34.000",
    "request_status": "Pending",
    "responsible_agency": "Department of Sanitation",
    "final_address": "1726 Constantinople St",
    "address_councildis": "B",
    "status": "Assigned to Contractor",
    "contractor": "IV Waste",
    "rowid": "1287360",
    "final_x": "3672210.81735",
    "final_y": "521611.833465",
    "longitude": "-90.09773964910023",
    "latitude": "29.92853023145648",
    "geocoded_column": {
      "latitude": "29.92853023145648",
      "longitude": "-90.09773964910023"
    }
  },
  {
    "service_request": "2026-1287358",
    "request_type": "Trash/Recycling",
    "request_reason": "Request a Large Item Pick Up",
    "date_created": "2026-06-03T16:19:55.000",
    "date_modified": "2026-06-03T16:19:58.000",
    "request_status": "Pending",
    "responsible_agency": "Department of Sanitation",
    "final_address": "1224 Kerlerec St",
    "address_councildis": "C",
    "status": "Assigned to Contractor",
    "contractor": "IV Waste",
    "rowid": "1287358",
    "final_x": "3682622.28597",
    "final_y": "535947.950471",
    "longitude": "-90.0643717080448",
    "latitude": "29.967636907624925",
    "geocoded_column": {
      "latitude": "29.967636907624925",
      "longitude": "-90.0643717080448"
    }
  },
  {
    "service_request": "2026-1287357",
    "request_type": "Streetlights",
    "request_reason": "Streetlight Outage/Malfunction",
    "date_created": "2026-06-03T16:18:26.000",
    "date_modified": "2026-06-03T16:18:28.000",
    "request_status": "Pending",
    "responsible_agency": "Department of Public Works",
    "final_address": "6501 Peony St",
    "address_councildis": "C",
    "status": "Pending",
    "rowid": "1287357",
    "final_x": "3707858.54328",
    "final_y": "516387.512629",
    "longitude": "-89.98540237101216",
    "latitude": "29.913060066814687",
    "geocoded_column": {
      "latitude": "29.913060066814687",
      "longitude": "-89.98540237101216"
    }
  },
  {
    "service_request": "2026-1287356",
    "request_type": "Streetlights",
    "request_reason": "Streetlight Outage/Malfunction",
    "date_created": "2026-06-03T16:18:05.000",
    "date_modified": "2026-06-03T16:18:07.000",
    "request_status": "Pending",
    "responsible_agency": "Department of Public Works",
    "final_address": "2711 Joseph St",
    "address_councildis": "A",
    "status": "Pending",
    "rowid": "1287356",
    "final_x": "3667739.70535",
    "final_y": "525842.226749",
    "longitude": "-90.11171166829712",
    "latitude": "29.9402942734575",
    "geocoded_column": {
      "latitude": "29.9402942734575",
      "longitude": "-90.11171166829712"
    }
  },
  {
    "service_request": "2026-1287355",
    "request_type": "Trash/Recycling",
    "request_reason": "Order Trash Cart",
    "date_created": "2026-06-03T16:16:48.000",
    "date_modified": "2026-06-03T16:16:50.000",
    "request_status": "Pending",
    "responsible_agency": "Department of Sanitation",
    "final_address": "926 N White St",
    "address_councildis": "C",
    "status": "Assigned to Contractor",
    "contractor": "IV Waste",
    "rowid": "1287355",
    "final_x": "3676870.78779",
    "final_y": "538027.977033",
    "longitude": "-90.08246338191395",
    "latitude": "29.97353015710339",
    "geocoded_column": {
      "latitude": "29.97353015710339",
      "longitude": "-90.08246338191395"
    }
  },
  {
    "service_request": "2026-1287354",
    "request_type": "Streetlights",
    "request_reason": "Streetlight Outage/Malfunction",
    "date_created": "2026-06-03T16:15:57.000",
    "date_modified": "2026-06-03T16:15:59.000",
    "request_status": "Pending",
    "responsible_agency": "Department of Public Works",
    "final_address": "2711 Joseph St",
    "address_councildis": "A",
    "status": "Pending",
    "rowid": "1287354",
    "final_x": "3667739.70535",
    "final_y": "525842.226749",
    "longitude": "-90.11171166829712",
    "latitude": "29.9402942734575",
    "geocoded_column": {
      "latitude": "29.9402942734575",
      "longitude": "-90.11171166829712"
    }
  },
  {
    "service_request": "2026-1287353",
    "request_type": "Streetlights",
    "request_reason": "Streetlight Knocked Down/Leaning",
    "date_created": "2026-06-03T16:14:15.000",
    "date_modified": "2026-06-03T16:14:16.000",
    "request_status": "Pending",
    "responsible_agency": "Department of Public Works",
    "final_address": "2711 Joseph St",
    "address_councildis": "A",
    "status": "Pending",
    "rowid": "1287353",
    "final_x": "3667739.70535",
    "final_y": "525842.226749",
    "longitude": "-90.11171166829712",
    "latitude": "29.9402942734575",
    "geocoded_column": {
      "latitude": "29.9402942734575",
      "longitude": "-90.11171166829712"
    }
  },
  {
    "service_request": "2026-1287352",
    "request_type": "Trash/Recycling",
    "request_reason": "Order Trash Cart",
    "date_created": "2026-06-03T16:12:48.000",
    "date_modified": "2026-06-03T16:12:49.000",
    "request_status": "Pending",
    "responsible_agency": "Department of Sanitation",
    "final_address": "926 N White St",
    "address_councildis": "C",
    "status": "Assigned to Contractor",
    "contractor": "IV Waste",
    "rowid": "1287352",
    "final_x": "3676870.78779",
    "final_y": "538027.977033",
    "longitude": "-90.08246338191395",
    "latitude": "29.97353015710339",
    "geocoded_column": {
      "latitude": "29.97353015710339",
      "longitude": "-90.08246338191395"
    }
  },
  {
    "service_request": "2026-1287351",
    "request_type": "Trash/Recycling",
    "request_reason": "Request a Large Item Pick Up",
    "date_created": "2026-06-03T16:12:37.000",
    "date_modified": "2026-06-03T16:12:38.000",
    "request_status": "Pending",
    "responsible_agency": "Department of Sanitation",
    "final_address": "6510 Virgilian St",
    "address_councildis": "D",
    "status": "Assigned to Contractor",
    "contractor": "Waste Pro",
    "rowid": "1287351",
    "final_x": "3697290.19453",
    "final_y": "555149.038169",
    "longitude": "-90.01735394972471",
    "latitude": "30.019978029611796",
    "geocoded_column": {
      "latitude": "30.019978029611796",
      "longitude": "-90.01735394972471"
    }
  },
  {
    "service_request": "2026-1287350",
    "request_type": "Trash/Recycling",
    "request_reason": "Request a Large Item Pick Up",
    "date_created": "2026-06-03T16:09:34.000",
    "date_modified": "2026-06-03T16:09:36.000",
    "request_status": "Pending",
    "responsible_agency": "Department of Sanitation",
    "final_address": "3708 Preston Pl",
    "address_councildis": "C",
    "status": "Assigned to Contractor",
    "contractor": "Richards Disposal",
    "rowid": "1287350",
    "final_x": "3708492.66558",
    "final_y": "517395.232437",
    "longitude": "-89.98336343777682",
    "latitude": "29.915810419512944",
    "geocoded_column": {
      "latitude": "29.915810419512944",
      "longitude": "-89.98336343777682"
    }
  },
  {
    "service_request": "2026-1287349",
    "request_type": "Abandoned Vehicles",
    "request_reason": "Abandoned/Junk Vehicles",
    "date_created": "2026-06-03T16:08:27.000",
    "date_modified": "2026-06-03T16:08:29.000",
    "request_status": "Pending",
    "responsible_agency": "Department of Public Works",
    "final_address": "4903 Iberville St",
    "address_councildis": "A",
    "status": "Pending",
    "rowid": "1287349",
    "final_x": "3668765.02151",
    "final_y": "540729.505035",
    "longitude": "-90.10797193780134",
    "latitude": "29.98119926875621",
    "geocoded_column": {
      "latitude": "29.98119926875621",
      "longitude": "-90.10797193780134"
    }
  },
  {
    "service_request": "2026-1287348",
    "request_type": "Trash/Recycling",
    "request_reason": "Missed Trash Pick-Up",
    "date_created": "2026-06-03T16:04:58.000",
    "date_modified": "2026-06-03T16:05:00.000",
    "request_status": "Pending",
    "responsible_agency": "Department of Sanitation",
    "final_address": "4216 Mccoy St",
    "address_councildis": "E",
    "status": "Assigned to Contractor",
    "contractor": "Waste Pro",
    "rowid": "1287348",
    "final_x": "3711931.93317",
    "final_y": "553748.539607",
    "longitude": "-89.97114380100476",
    "latitude": "30.01565670662128",
    "geocoded_column": {
      "latitude": "30.01565670662128",
      "longitude": "-89.97114380100476"
    }
  },
  {
    "service_request": "2026-1287347",
    "request_type": "Trash/Recycling",
    "request_reason": "Replace Trash Cart",
    "date_created": "2026-06-03T16:03:42.000",
    "date_modified": "2026-06-03T16:03:43.000",
    "request_status": "Pending",
    "responsible_agency": "Department of Sanitation",
    "final_address": "4428 Fontainebleau Dr",
    "address_councildis": "B",
    "status": "Assigned to Contractor",
    "contractor": "IV Waste",
    "rowid": "1287347",
    "final_x": "3668957.60071",
    "final_y": "529580.817921",
    "longitude": "-90.1077403185767",
    "latitude": "29.95053842532531",
    "geocoded_column": {
      "latitude": "29.95053842532531",
      "longitude": "-90.1077403185767"
    }
  },
  {
    "service_request": "2026-1287346",
    "request_type": "Trash/Recycling",
    "request_reason": "Order Recycling Cart",
    "date_created": "2026-06-03T16:03:36.000",
    "date_modified": "2026-06-03T16:03:38.000",
    "request_status": "Pending",
    "responsible_agency": "Department of Sanitation",
    "final_address": "3018 Spain St",
    "address_councildis": "D",
    "status": "Pending",
    "rowid": "1287346",
    "final_x": "3685491.86402",
    "final_y": "543921.912334",
    "longitude": "-90.05502859806028",
    "latitude": "29.989474806107335",
    "geocoded_column": {
      "latitude": "29.989474806107335",
      "longitude": "-90.05502859806028"
    }
  },
  {
    "service_request": "2026-1287345",
    "request_type": "Trash/Recycling",
    "request_reason": "Order Trash Cart",
    "date_created": "2026-06-03T16:03:33.000",
    "date_modified": "2026-06-03T16:03:34.000",
    "request_status": "Pending",
    "responsible_agency": "Department of Sanitation",
    "final_address": "3018 Spain St",
    "address_councildis": "D",
    "status": "Assigned to Contractor",
    "contractor": "IV Waste",
    "rowid": "1287345",
    "final_x": "3685491.86402",
    "final_y": "543921.912334",
    "longitude": "-90.05502859806028",
    "latitude": "29.989474806107335",
    "geocoded_column": {
      "latitude": "29.989474806107335",
      "longitude": "-90.05502859806028"
    }
  },
  {
    "service_request": "2026-1287344",
    "request_type": "Trash/Recycling",
    "request_reason": "Request a Large Item Pick Up",
    "date_created": "2026-06-03T16:03:09.000",
    "date_modified": "2026-06-03T16:03:11.000",
    "request_status": "Pending",
    "responsible_agency": "Department of Sanitation",
    "final_address": "4437 Duplessis St",
    "address_councildis": "D",
    "status": "Assigned to Contractor",
    "contractor": "IV Waste",
    "rowid": "1287344",
    "final_x": "3678332.12878",
    "final_y": "548897.294611",
    "longitude": "-90.07747192166559",
    "latitude": "30.003373035180925",
    "geocoded_column": {
      "latitude": "30.003373035180925",
      "longitude": "-90.07747192166559"
    }
  },
  {
    "service_request": "2026-1287343",
    "request_type": "Trash/Recycling",
    "request_reason": "Missed Trash Pick-Up",
    "date_created": "2026-06-03T16:01:09.000",
    "date_modified": "2026-06-03T16:54:58.000",
    "case_close_date": "2026-06-03T11:54:57.000",
    "request_status": "Closed",
    "responsible_agency": "Department of Sanitation",
    "final_address": "4761 Lynhuber Dr",
    "address_councildis": "D",
    "status": "Invalid Request",
    "contractor": "Waste Pro",
    "contractor_action": "Invalid",
    "rowid": "1287343",
    "final_x": "3698075.70359",
    "final_y": "554522.826328",
    "longitude": "-90.01489477245067",
    "latitude": "30.0182313555506",
    "geocoded_column": {
      "latitude": "30.0182313555506",
      "longitude": "-90.01489477245067"
    }
  },
  {
    "service_request": "2026-1287342",
    "request_type": "Trash/Recycling",
    "request_reason": "Request a Large Item Pick Up",
    "date_created": "2026-06-03T16:00:59.000",
    "date_modified": "2026-06-03T16:01:02.000",
    "request_status": "Pending",
    "responsible_agency": "Department of Sanitation",
    "final_address": "3122 Urquhart St",
    "address_councildis": "C",
    "status": "Assigned to Contractor",
    "contractor": "IV Waste",
    "rowid": "1287342",
    "final_x": "3689376.88911",
    "final_y": "536646.116999",
    "longitude": "-90.04301574663083",
    "latitude": "29.96934920694086",
    "geocoded_column": {
      "latitude": "29.96934920694086",
      "longitude": "-90.04301574663083"
    }
  },
  {
    "service_request": "2026-1287341",
    "request_type": "Trash/Recycling",
    "request_reason": "Request a Large Item Pick Up",
    "date_created": "2026-06-03T16:00:59.000",
    "date_modified": "2026-06-03T16:01:01.000",
    "request_status": "Pending",
    "responsible_agency": "Department of Sanitation",
    "final_address": "12 Carriage Ln",
    "address_councildis": "C",
    "status": "Assigned to Contractor",
    "contractor": "Richards Disposal",
    "rowid": "1287341",
    "final_x": "3695940.59587",
    "final_y": "519889.315384",
    "longitude": "-90.0228923632517",
    "latitude": "29.923068964092447",
    "geocoded_column": {
      "latitude": "29.923068964092447",
      "longitude": "-90.0228923632517"
    }
  },
  {
    "service_request": "2026-1287340",
    "request_type": "Abandoned Vehicles",
    "request_reason": "Abandoned/Junk Vehicles",
    "date_created": "2026-06-03T15:59:40.000",
    "date_modified": "2026-06-03T16:01:48.000",
    "request_status": "Pending",
    "responsible_agency": "Department of Public Works",
    "final_address": "2001 Leon C Simon Dr",
    "address_councildis": "D",
    "status": "Pending",
    "rowid": "1287340",
    "final_x": "3682033.69986",
    "final_y": "556569.273242",
    "longitude": "-90.06550992159832",
    "latitude": "30.024356116968296",
    "geocoded_column": {
      "latitude": "30.024356116968296",
      "longitude": "-90.06550992159832"
    }
  },
  {
    "service_request": "2026-1287339",
    "request_type": "Trash/Recycling",
    "request_reason": "Replace Trash Cart",
    "date_created": "2026-06-03T15:56:52.000",
    "date_modified": "2026-06-03T15:56:53.000",
    "request_status": "Pending",
    "responsible_agency": "Department of Sanitation",
    "final_address": "2817 Napoleon Ave Ste 101",
    "address_councildis": "B",
    "status": "Assigned to Contractor",
    "contractor": "IV Waste",
    "rowid": "1287339",
    "final_x": "3670520.72014",
    "final_y": "525238.054717",
    "longitude": "-90.10295202165518",
    "latitude": "29.93855117702347",
    "geocoded_column": {
      "latitude": "29.93855117702347",
      "longitude": "-90.10295202165518"
    }
  },
  {
    "service_request": "2026-1287338",
    "request_type": "Trash/Recycling",
    "request_reason": "Request a Large Item Pick Up",
    "date_created": "2026-06-03T15:56:31.000",
    "date_modified": "2026-06-03T15:56:33.000",
    "request_status": "Pending",
    "responsible_agency": "Department of Sanitation",
    "final_address": "7819 Sun St",
    "address_councildis": "E",
    "status": "Assigned to Contractor",
    "contractor": "Waste Pro",
    "rowid": "1287338",
    "final_x": "3720531.74911",
    "final_y": "574364.021931",
    "longitude": "-89.94318242794927",
    "latitude": "30.072056904786702",
    "geocoded_column": {
      "latitude": "30.072056904786702",
      "longitude": "-89.94318242794927"
    }
  },
  {
    "service_request": "2026-1287337",
    "request_type": "Trash/Recycling",
    "request_reason": "Order Recycling Cart",
    "date_created": "2026-06-03T15:55:52.000",
    "date_modified": "2026-06-03T15:55:54.000",
    "request_status": "Pending",
    "responsible_agency": "Department of Sanitation",
    "final_address": "3016 Spain St",
    "address_councildis": "D",
    "status": "Pending",
    "rowid": "1287337",
    "final_x": "3685494.39343",
    "final_y": "543904.62779",
    "longitude": "-90.05502121747848",
    "latitude": "29.989427202173207",
    "geocoded_column": {
      "latitude": "29.989427202173207",
      "longitude": "-90.05502121747848"
    }
  },
  {
    "service_request": "2026-1287336",
    "request_type": "Trash/Recycling",
    "request_reason": "Order Second Trash Cart",
    "date_created": "2026-06-03T15:55:48.000",
    "date_modified": "2026-06-03T15:55:51.000",
    "request_status": "Pending",
    "responsible_agency": "Department of Sanitation",
    "final_address": "4810 Coronado Dr",
    "address_councildis": "E",
    "status": "Assigned to Contractor",
    "contractor": "Waste Pro",
    "rowid": "1287336",
    "final_x": "3714041.57752",
    "final_y": "556635.766682",
    "longitude": "-89.96436937278834",
    "latitude": "30.023526315655054",
    "geocoded_column": {
      "latitude": "30.023526315655054",
      "longitude": "-89.96436937278834"
    }
  },
  {
    "service_request": "2026-1287335",
    "request_type": "Roads and Streets",
    "request_reason": "Pothole",
    "date_created": "2026-06-03T15:53:18.000",
    "date_modified": "2026-06-03T15:53:19.000",
    "request_status": "Pending",
    "responsible_agency": "Department of Public Works",
    "final_address": "1407 Bordeaux St",
    "address_councildis": "B",
    "status": "Pending",
    "rowid": "1287335",
    "final_x": "3669471.00711",
    "final_y": "520290.844472",
    "longitude": "-90.10643332227869",
    "latitude": "29.924978885070672",
    "geocoded_column": {
      "latitude": "29.924978885070672",
      "longitude": "-90.10643332227869"
    }
  },
  {
    "service_request": "2026-1287334",
    "request_type": "Trash/Recycling",
    "request_reason": "Missed Trash Pick-Up",
    "date_created": "2026-06-03T15:52:39.000",
    "date_modified": "2026-06-03T15:52:41.000",
    "request_status": "Pending",
    "responsible_agency": "Department of Sanitation",
    "final_address": "11013 S Hardy St",
    "address_councildis": "E",
    "status": "Assigned to Contractor",
    "contractor": "Waste Pro",
    "rowid": "1287334",
    "final_x": "3713270.13842",
    "final_y": "561952.963231",
    "longitude": "-89.96660653520388",
    "latitude": "30.03817180925248",
    "geocoded_column": {
      "latitude": "30.03817180925248",
      "longitude": "-89.96660653520388"
    }
  },
  {
    "service_request": "2026-1287333",
    "request_type": "Trash/Recycling",
    "request_reason": "Order Trash Cart",
    "date_created": "2026-06-03T15:51:39.000",
    "date_modified": "2026-06-03T16:03:47.000",
    "request_status": "Pending",
    "responsible_agency": "Department of Sanitation",
    "final_address": "3016 Spain St",
    "address_councildis": "D",
    "status": "Assigned to Contractor",
    "contractor": "IV Waste",
    "rowid": "1287333",
    "final_x": "3685494.39343",
    "final_y": "543904.62779",
    "longitude": "-90.05502121747848",
    "latitude": "29.989427202173207",
    "geocoded_column": {
      "latitude": "29.989427202173207",
      "longitude": "-90.05502121747848"
    }
  },
  {
    "service_request": "2026-1287332",
    "request_type": "Healthy Homes",
    "request_reason": "Healthy Homes",
    "date_created": "2026-06-03T15:48:23.000",
    "date_modified": "2026-06-03T15:48:25.000",
    "request_status": "Pending",
    "responsible_agency": "Department of Code Enforcement",
    "final_address": "5919 Dorothea St",
    "address_councildis": "D",
    "status": "Pending",
    "rowid": "1287332",
    "final_x": "3695272.76214",
    "final_y": "557193.028955",
    "longitude": "-90.02365454388686",
    "latitude": "30.02566178489045",
    "geocoded_column": {
      "latitude": "30.02566178489045",
      "longitude": "-90.02365454388686"
    }
  },
  {
    "service_request": "2026-1287331",
    "request_type": "Abandoned Vehicles",
    "request_reason": "Abandoned/Junk Vehicles",
    "date_created": "2026-06-03T15:47:35.000",
    "date_modified": "2026-06-03T15:47:37.000",
    "request_status": "Pending",
    "responsible_agency": "Department of Public Works",
    "final_address": "4525 Coliseum St",
    "address_councildis": "B",
    "status": "Pending",
    "rowid": "1287331",
    "final_x": "3670337.06068",
    "final_y": "519802.584056",
    "longitude": "-90.10371600540275",
    "latitude": "29.923610797633543",
    "geocoded_column": {
      "latitude": "29.923610797633543",
      "longitude": "-90.10371600540275"
    }
  },
  {
    "service_request": "2026-1287330",
    "request_type": "Trash/Recycling",
    "request_reason": "Replace Trash Cart",
    "date_created": "2026-06-03T15:46:04.000",
    "date_modified": "2026-06-03T15:46:06.000",
    "request_status": "Pending",
    "responsible_agency": "Department of Sanitation",
    "final_address": "3117 Jena St",
    "address_councildis": "B",
    "status": "Assigned to Contractor",
    "contractor": "IV Waste",
    "rowid": "1287330",
    "final_x": "3669946.22823",
    "final_y": "526400.339774",
    "longitude": "-90.1047264121841",
    "latitude": "29.941764034230705",
    "geocoded_column": {
      "latitude": "29.941764034230705",
      "longitude": "-90.1047264121841"
    }
  },
  {
    "service_request": "2026-1287329",
    "request_type": "Trash/Recycling",
    "request_reason": "Request a Large Item Pick Up",
    "date_created": "2026-06-03T15:46:03.000",
    "date_modified": "2026-06-03T15:46:05.000",
    "request_status": "Pending",
    "responsible_agency": "Department of Sanitation",
    "final_address": "5412 York St",
    "address_councildis": "B",
    "status": "Assigned to Contractor",
    "contractor": "IV Waste",
    "rowid": "1287329",
    "final_x": "3668861.31015",
    "final_y": "528597.22432",
    "longitude": "-90.10807756463196",
    "latitude": "29.94783669544483",
    "geocoded_column": {
      "latitude": "29.94783669544483",
      "longitude": "-90.10807756463196"
    }
  },
  {
    "service_request": "2026-1287328",
    "request_type": "Safety & Permits",
    "request_reason": "Zoning Enforcement",
    "date_created": "2026-06-03T15:45:43.000",
    "date_modified": "2026-06-03T15:45:45.000",
    "request_status": "Pending",
    "responsible_agency": "Safety and Permits",
    "final_address": "5919 Dorothea St",
    "address_councildis": "D",
    "status": "Pending",
    "rowid": "1287328",
    "final_x": "3695272.76214",
    "final_y": "557193.028955",
    "longitude": "-90.02365454388686",
    "latitude": "30.02566178489045",
    "geocoded_column": {
      "latitude": "30.02566178489045",
      "longitude": "-90.02365454388686"
    }
  },
  {
    "service_request": "2026-1287327",
    "request_type": "Trash/Recycling",
    "request_reason": "Request a Large Item Pick Up",
    "date_created": "2026-06-03T15:45:17.000",
    "date_modified": "2026-06-03T15:45:21.000",
    "request_status": "Pending",
    "responsible_agency": "Department of Sanitation",
    "final_address": "1328 Holiday Pl",
    "address_councildis": "C",
    "status": "Assigned to Contractor",
    "contractor": "Richards Disposal",
    "rowid": "1287327",
    "final_x": "3699064.90596",
    "final_y": "526381.149566",
    "longitude": "-90.0127940176996",
    "latitude": "29.940820647833323",
    "geocoded_column": {
      "latitude": "29.940820647833323",
      "longitude": "-90.0127940176996"
    }
  },
  {
    "service_request": "2026-1287326",
    "request_type": "Trash/Recycling",
    "request_reason": "Request a Large Item Pick Up",
    "date_created": "2026-06-03T15:36:30.000",
    "date_modified": "2026-06-03T15:36:31.000",
    "request_status": "Pending",
    "responsible_agency": "Department of Sanitation",
    "final_address": "634 Flood St",
    "address_councildis": "E",
    "status": "Assigned to Contractor",
    "contractor": "Waste Pro",
    "rowid": "1287326",
    "final_x": "3697238.05021",
    "final_y": "532287.478339",
    "longitude": "-90.0183476905453",
    "latitude": "29.957118749036045",
    "geocoded_column": {
      "latitude": "29.957118749036045",
      "longitude": "-90.0183476905453"
    }
  },
  {
    "service_request": "2026-1287325",
    "request_type": "Trash/Recycling",
    "request_reason": "Request a Large Item Pick Up",
    "date_created": "2026-06-03T15:36:19.000",
    "date_modified": "2026-06-03T15:36:20.000",
    "request_status": "Pending",
    "responsible_agency": "Department of Sanitation",
    "final_address": "3236 Sabine St",
    "address_councildis": "C",
    "status": "Assigned to Contractor",
    "contractor": "Richards Disposal",
    "rowid": "1287325",
    "final_x": "3695079.22742",
    "final_y": "517872.247158",
    "longitude": "-90.02568402005211",
    "latitude": "29.917549766596093",
    "geocoded_column": {
      "latitude": "29.917549766596093",
      "longitude": "-90.02568402005211"
    }
  },
  {
    "service_request": "2026-1287324",
    "request_type": "Trash/Recycling",
    "request_reason": "Request a Large Item Pick Up",
    "date_created": "2026-06-03T15:36:13.000",
    "date_modified": "2026-06-03T15:36:14.000",
    "request_status": "Pending",
    "responsible_agency": "Department of Sanitation",
    "final_address": "11252 King Richard Dr",
    "address_councildis": "E",
    "status": "Assigned to Contractor",
    "contractor": "Waste Pro",
    "rowid": "1287324",
    "final_x": "3717214.85695",
    "final_y": "556395.39273",
    "longitude": "-89.95435172530449",
    "latitude": "30.0227607576018",
    "geocoded_column": {
      "latitude": "30.0227607576018",
      "longitude": "-89.95435172530449"
    }
  },
  {
    "service_request": "2026-1287323",
    "request_type": "Abandoned Vehicles",
    "request_reason": "Abandoned/Junk Vehicles",
    "date_created": "2026-06-03T15:32:39.000",
    "date_modified": "2026-06-03T15:32:41.000",
    "request_status": "Pending",
    "responsible_agency": "Department of Public Works",
    "final_address": "CAMBRONNE ST & BIRCH ST",
    "address_councildis": "A",
    "status": "Pending",
    "rowid": "1287323",
    "final_x": "3662114.3",
    "final_y": "530139.38",
    "longitude": "-90.12932950226262",
    "latitude": "29.952273782055865",
    "geocoded_column": {
      "latitude": "29.952273782055865",
      "longitude": "-90.12932950226262"
    }
  },
  {
    "service_request": "2026-1287322",
    "request_type": "Drainage",
    "request_reason": "Catch Basin Frame and Cover Missing or Damaged",
    "date_created": "2026-06-03T15:32:26.000",
    "date_modified": "2026-06-03T15:32:31.000",
    "request_status": "Pending",
    "responsible_agency": "Sewerage & Water Board",
    "final_address": "4900 BLK Canal St",
    "address_councildis": "A",
    "status": "Pending",
    "rowid": "1287322",
    "final_x": "3668133.12662",
    "final_y": "540569.184725",
    "longitude": "-90.10997316118409",
    "latitude": "29.980777007728275",
    "geocoded_column": {
      "latitude": "29.980777007728275",
      "longitude": "-90.10997316118409"
    }
  },
  {
    "service_request": "2026-1287321",
    "request_type": "Utility Poles",
    "request_reason": "Utility Pole Leaning",
    "date_created": "2026-06-03T15:31:13.000",
    "date_modified": "2026-06-03T15:31:15.000",
    "request_status": "Pending",
    "responsible_agency": "Utility Company Collective",
    "final_address": "4835 Rosemont Pl",
    "address_councildis": "E",
    "status": "Pending",
    "rowid": "1287321",
    "final_x": "3702715.75953",
    "final_y": "555423.131225",
    "longitude": "-90.00020094187305",
    "latitude": "30.02055923005559",
    "geocoded_column": {
      "latitude": "30.02055923005559",
      "longitude": "-90.00020094187305"
    }
  },
  {
    "service_request": "2026-1287320",
    "request_type": "Streetlights",
    "request_reason": "Streetlight Outage/Malfunction",
    "date_created": "2026-06-03T15:30:38.000",
    "date_modified": "2026-06-03T15:32:02.000",
    "request_status": "Pending",
    "responsible_agency": "Department of Public Works",
    "final_address": "3209 Belfort St",
    "address_councildis": "A",
    "status": "Pending",
    "rowid": "1287320",
    "final_x": "3678371.00693",
    "final_y": "542577.353805",
    "longitude": "-90.07756791015004",
    "latitude": "29.985994251796097",
    "geocoded_column": {
      "latitude": "29.985994251796097",
      "longitude": "-90.07756791015004"
    }
  },
  {
    "service_request": "2026-1287319",
    "request_type": "Trash/Recycling",
    "request_reason": "Request a Large Item Pick Up",
    "date_created": "2026-06-03T15:29:12.000",
    "date_modified": "2026-06-03T15:29:13.000",
    "request_status": "Pending",
    "responsible_agency": "Department of Sanitation",
    "final_address": "6000 Burgundy St",
    "address_councildis": "E",
    "status": "Assigned to Contractor",
    "contractor": "Waste Pro",
    "rowid": "1287319",
    "final_x": "3698876.49264",
    "final_y": "532650.859332",
    "longitude": "-90.01316080658339",
    "latitude": "29.95806611425129",
    "geocoded_column": {
      "latitude": "29.95806611425129",
      "longitude": "-90.01316080658339"
    }
  },
  {
    "service_request": "2026-1287318",
    "request_type": "Trash/Recycling",
    "request_reason": "Damaged Caused By Contractor",
    "date_created": "2026-06-03T15:27:51.000",
    "date_modified": "2026-06-03T16:56:09.000",
    "case_close_date": "2026-06-03T11:56:08.000",
    "request_status": "Closed",
    "responsible_agency": "Department of Sanitation",
    "final_address": "4921 Robin Hood Dr",
    "address_councildis": "E",
    "status": "Invalid Request",
    "contractor": "Waste Pro",
    "contractor_action": "Invalid",
    "rowid": "1287318",
    "final_x": "3717491.64364",
    "final_y": "557787.464667",
    "longitude": "-89.95342418231756",
    "latitude": "30.026579237822908",
    "geocoded_column": {
      "latitude": "30.026579237822908",
      "longitude": "-89.95342418231756"
    }
  },
  {
    "service_request": "2026-1287317",
    "request_type": "Trash/Recycling",
    "request_reason": "Replace Trash Cart",
    "date_created": "2026-06-03T15:24:45.000",
    "date_modified": "2026-06-03T15:24:48.000",
    "request_status": "Pending",
    "responsible_agency": "Department of Sanitation",
    "final_address": "7017 Colapissa St",
    "address_councildis": "B",
    "status": "Assigned to Contractor",
    "contractor": "IV Waste",
    "rowid": "1287317",
    "final_x": "3668290.75495",
    "final_y": "531871.407555",
    "longitude": "-90.10976864862396",
    "latitude": "29.95685639200267",
    "geocoded_column": {
      "latitude": "29.95685639200267",
      "longitude": "-90.10976864862396"
    }
  },