[
  {
    "service_request": "2024-1068514",
    "request_type": "Traffic Signals/Signs/Striping/Streetlights",
    "request_reason": "Street Light Outage/Malfunction",
    "date_created": "2024-02-17T21:59:09.000",
    "date_modified": "2024-02-17T21:59:10.000",
    "request_status": "Pending",
    "responsible_agency": "Department of Public Works",
    "final_address": "7919 Fig St",
    "address_councildis": "B",
    "status": "Assigned to Contractor",
    "contractor": "Legacy Professional Services",
    "rowid": "1068514",
    "final_x": "3666825.47284",
    "final_y": "532777.753796",
    "longitude": "-90.11436511593692",
    "latitude": "29.95939148881332",
    "geocoded_column": {
      "latitude": "29.95939148881332",
      "longitude": "-90.11436511593692"
    }
  },
  {
    "service_request": "2024-1068513",
    "request_type": "Property Maintenance",
    "request_reason": "Property Maintenance",
    "date_created": "2024-02-17T21:45:48.000",
    "date_modified": "2024-02-17T21:45:48.000",
    "request_status": "Pending",
    "responsible_agency": "Department of Code Enforcement",
    "final_address": "2200 BLK Saint Anthony St",
    "address_councildis": "D",
    "status": "Pending",
    "rowid": "1068513",
    "final_x": "3683171.96826",
    "final_y": "540421.064943",
    "longitude": "-90.06247912626826",
    "latitude": "29.979919667545495",
    "geocoded_column": {
      "latitude": "29.979919667545495",
      "longitude": "-90.06247912626826"
    }
  },
  {
    "service_request": "2024-1068512",
    "request_type": "Trash/Recycling",
    "request_reason": "Replace Trash Cart",
    "date_created": "2024-02-17T21:10:50.000",
    "date_modified": "2024-02-17T21:10:51.000",
    "request_status": "Pending",
    "responsible_agency": "Department of Sanitation",
    "final_address": "11421 Tanner S Davis Dr",
    "address_councildis": "E",
    "status": "Assigned to Contractor",
    "contractor": "Waste Pro",
    "rowid": "1068512",
    "final_x": "3718245.6837",
    "final_y": "561223.653278",
    "longitude": "-89.95091052995795",
    "latitude": "30.036002382440053",
    "geocoded_column": {
      "latitude": "30.036002382440053",
      "longitude": "-89.95091052995795"
    }
  },
  {
    "service_request": "2024-1068511",
    "request_type": "Traffic Signals/Signs/Striping/Streetlights",
    "request_reason": "Street Light Outage/Malfunction",
    "date_created": "2024-02-17T20:13:17.000",
    "date_modified": "2024-02-17T20:13:18.000",
    "request_status": "Pending",
    "responsible_agency": "Department of Public Works",
    "final_address": "EARHART BLVD & MONROE ST",
    "address_councildis": "A",
    "status": "Assigned to Contractor",
    "contractor": "Legacy Professional Services",
    "rowid": "1068511",
    "final_x": "3664688.0",
    "final_y": "534533.98",
    "longitude": "-90.12105610501568",
    "latitude": "29.964282886404717",
    "geocoded_column": {
      "latitude": "29.964282886404717",
      "longitude": "-90.12105610501568"
    }
  },
  {
    "service_request": "2024-1068510",
    "request_type": "Trash/Recycling",
    "request_reason": "Order Recycling Cart",
    "date_created": "2024-02-17T19:42:28.000",
    "date_modified": "2024-02-17T19:42:28.000",
    "request_status": "Pending",
    "responsible_agency": "Department of Sanitation",
    "final_address": "1814 Fern St",
    "address_councildis": "A",
    "status": "Pending",
    "rowid": "1068510",
    "final_x": "3664012.36576",
    "final_y": "529536.935937",
    "longitude": "-90.1233563477142",
    "latitude": "29.95056227937592",
    "geocoded_column": {
      "latitude": "29.95056227937592",
      "longitude": "-90.1233563477142"
    }
  },
  {
    "service_request": "2024-1068509",
    "request_type": "Roads/Drainage",
    "request_reason": "Catch Basin - Broken/Damage",
    "date_created": "2024-02-17T19:41:06.000",
    "date_modified": "2024-02-17T19:41:06.000",
    "request_status": "Pending",
    "responsible_agency": "Department of Public Works",
    "final_address": "1814 Fern St",
    "address_councildis": "A",
    "status": "Pending",
    "rowid": "1068509",
    "final_x": "3664012.36576",
    "final_y": "529536.935937",
    "longitude": "-90.1233563477142",
    "latitude": "29.95056227937592",
    "geocoded_column": {
      "latitude": "29.95056227937592",
      "longitude": "-90.1233563477142"
    }
  },
  {
    "service_request": "2024-1068508",
    "request_type": "Traffic Signals/Signs/Striping/Streetlights",
    "request_reason": "Street Light Outage/Malfunction",
    "date_created": "2024-02-17T19:23:50.000",
    "date_modified": "2024-02-17T19:23:51.000",
    "request_status": "Pending",
    "responsible_agency": "Department of Public Works",
    "final_address": "8001 Fig St",
    "address_councildis": "B",
    "status": "Assigned to Contractor",
    "contractor": "Legacy Professional Services",
    "rowid": "1068508",
    "final_x": "3666658.75649",
    "final_y": "532921.957508",
    "longitude": "-90.11488672649722",
    "latitude": "29.959792877303094",
    "geocoded_column": {
      "latitude": "29.959792877303094",
      "longitude": "-90.11488672649722"
    }
  },
  {
    "service_request": "2024-1068507",
    "request_type": "Traffic Signals/Signs/Striping/Streetlights",
    "request_reason": "Street Light Outage/Malfunction",
    "date_created": "2024-02-17T19:21:37.000",
    "date_modified": "2024-02-17T19:21:37.000",
    "request_status": "Pending",
    "responsible_agency": "Department of Public Works",
    "final_address": "8001 Fig St",
    "address_councildis": "B",
    "status": "Assigned to Contractor",
    "contractor": "Legacy Professional Services",
    "rowid": "1068507",
    "final_x": "3666658.75649",
    "final_y": "532921.957508",
    "longitude": "-90.11488672649722",
    "latitude": "29.959792877303094",
    "geocoded_column": {
      "latitude": "29.959792877303094",
      "longitude": "-90.11488672649722"
    }
  },
  {
    "service_request": "2024-1068506",
    "request_type": "Trash/Recycling",
    "request_reason": "Request a Large Item Pick Up",
    "date_created": "2024-02-17T19:02:44.000",
    "date_modified": "2024-02-17T19:02:45.000",
    "request_status": "Pending",
    "responsible_agency": "Department of Sanitation",
    "final_address": "5550 Chatham Dr",
    "address_councildis": "D",
    "status": "Assigned to Contractor",
    "contractor": "IV Waste",
    "rowid": "1068506",
    "final_x": "3679636.00699",
    "final_y": "552975.504983",
    "longitude": "-90.0732110814838",
    "latitude": "30.014547289887794",
    "geocoded_column": {
      "latitude": "30.014547289887794",
      "longitude": "-90.0732110814838"
    }
  },
  {
    "service_request": "2024-1068505",
    "request_type": "Trash/Recycling",
    "request_reason": "Order Recycling Cart",
    "date_created": "2024-02-17T19:01:05.000",
    "date_modified": "2024-02-17T19:01:05.000",
    "request_status": "Pending",
    "responsible_agency": "Department of Sanitation",
    "final_address": "8213 Spruce St",
    "address_councildis": "A",
    "status": "Pending",
    "rowid": "1068505",
    "final_x": "3663528.73607",
    "final_y": "530802.628546",
    "longitude": "-90.12484125848994",
    "latitude": "29.954056558718896",
    "geocoded_column": {
      "latitude": "29.954056558718896",
      "longitude": "-90.12484125848994"
    }
  },
  {
    "service_request": "2024-1068504",
    "request_type": "Trash/Recycling",
    "request_reason": "Order Trash Cart",
    "date_created": "2024-02-17T18:59:47.000",
    "date_modified": "2024-02-17T18:59:48.000",
    "request_status": "Pending",
    "responsible_agency": "Department of Sanitation",
    "final_address": "8213 Spruce St",
    "address_councildis": "A",
    "status": "Assigned to Contractor",
    "contractor": "Richards Disposal",
    "rowid": "1068504",
    "final_x": "3663528.73607",
    "final_y": "530802.628546",
    "longitude": "-90.12484125848994",
    "latitude": "29.954056558718896",
    "geocoded_column": {
      "latitude": "29.954056558718896",
      "longitude": "-90.12484125848994"
    }
  },
  {
    "service_request": "2024-1068503",
    "request_type": "Trash/Recycling",
    "request_reason": "Replace Trash Cart",
    "date_created": "2024-02-17T18:57:34.000",
    "date_modified": "2024-02-17T18:57:34.000",
    "request_status": "Pending",
    "responsible_agency": "Department of Sanitation",
    "final_address": "8213 Spruce St",
    "address_councildis": "A",
    "status": "Assigned to Contractor",
    "contractor": "Richards Disposal",
    "rowid": "1068503",
    "final_x": "3663528.73607",
    "final_y": "530802.628546",
    "longitude": "-90.12484125848994",
    "latitude": "29.954056558718896",
    "geocoded_column": {
      "latitude": "29.954056558718896",
      "longitude": "-90.12484125848994"
    }
  },
  {
    "service_request": "2024-1068502",
    "request_type": "Trash/Recycling",
    "request_reason": "Start Trash Service",
    "date_created": "2024-02-17T18:55:17.000",
    "date_modified": "2024-02-17T18:55:18.000",
    "request_status": "Pending",
    "responsible_agency": "Department of Sanitation",
    "final_address": "2308 New Orleans St",
    "address_councildis": "D",
    "status": "Assigned to Contractor",
    "contractor": "IV Waste",
    "rowid": "1068502",
    "final_x": "3682015.97212",
    "final_y": "540608.326475",
    "longitude": "-90.06612369530004",
    "latitude": "29.980469774501568",
    "geocoded_column": {
      "latitude": "29.980469774501568",
      "longitude": "-90.06612369530004"
    }
  },
  {
    "service_request": "2024-1068501",
    "request_type": "Roads/Drainage",
    "request_reason": "Catch Basin - Clogged",
    "date_created": "2024-02-17T17:57:29.000",
    "date_modified": "2024-02-17T17:57:29.000",
    "request_status": "Pending",
    "responsible_agency": "Department of Public Works",
    "final_address": "604 Baronne St",
    "address_councildis": "B",
    "status": "Pending",
    "rowid": "1068501",
    "final_x": "3679846.2557",
    "final_y": "529049.281344",
    "longitude": "-90.07337803564837",
    "latitude": "29.948752145727198",
    "geocoded_column": {
      "latitude": "29.948752145727198",
      "longitude": "-90.07337803564837"
    }
  },
  {
    "service_request": "2024-1068500",
    "request_type": "Trash/Recycling",
    "request_reason": "Missed Trash Pick-Up",
    "date_created": "2024-02-17T17:30:41.000",
    "date_modified": "2024-02-17T17:30:42.000",
    "request_status": "Pending",
    "responsible_agency": "Department of Sanitation",
    "final_address": "1618 Spain St",
    "address_councildis": "D",
    "status": "Assigned to Contractor",
    "contractor": "IV Waste",
    "rowid": "1068500",
    "final_x": "3685942.02332",
    "final_y": "538398.380681",
    "longitude": "-90.05380150501972",
    "latitude": "29.974273228726236",
    "geocoded_column": {
      "latitude": "29.974273228726236",
      "longitude": "-90.05380150501972"
    }
  },
  {
    "service_request": "2024-1068499",
    "request_type": "Trash/Recycling",
    "request_reason": "Order Recycling Cart",
    "date_created": "2024-02-17T17:12:10.000",
    "date_modified": "2024-02-17T17:12:10.000",
    "request_status": "Pending",
    "responsible_agency": "Department of Sanitation",
    "final_address": "1013 N Dupre St",
    "address_councildis": "A",
    "status": "Pending",
    "rowid": "1068499",
    "final_x": "3676704.24008",
    "final_y": "538514.766153",
    "longitude": "-90.08297259887291",
    "latitude": "29.974873658704656",
    "geocoded_column": {
      "latitude": "29.974873658704656",
      "longitude": "-90.08297259887291"
    }
  },
  {
    "service_request": "2024-1068498",
    "request_type": "Roads/Drainage",
    "request_reason": "Leaking Hydrant",
    "date_created": "2024-02-17T16:57:09.000",
    "date_modified": "2024-02-17T16:57:09.000",
    "request_status": "Pending",
    "responsible_agency": "Department of Public Works",
    "final_address": "1800 France St",
    "address_councildis": "D",
    "status": "Pending",
    "rowid": "1068498",
    "final_x": "3693015.39952",
    "final_y": "537825.571081",
    "longitude": "-90.03148277525877",
    "latitude": "29.972479124360298",
    "geocoded_column": {
      "latitude": "29.972479124360298",
      "longitude": "-90.03148277525877"
    }
  },
  {
    "service_request": "2024-1068497",
    "request_type": "Trash/Recycling",
    "request_reason": "Request a Large Item Pick Up",
    "date_created": "2024-02-17T16:55:37.000",
    "date_modified": "2024-02-17T16:55:38.000",
    "request_status": "Pending",
    "responsible_agency": "Department of Sanitation",
    "final_address": "4701 Lancelot Dr",
    "address_councildis": "E",
    "status": "Assigned to Contractor",
    "contractor": "Waste Pro",
    "rowid": "1068497",
    "final_x": "3707551.34078",
    "final_y": "555202.894745",
    "longitude": "-89.98493028089767",
    "latitude": "30.01979808532018",
    "geocoded_column": {
      "latitude": "30.01979808532018",
      "longitude": "-89.98493028089767"
    }
  },
  {
    "service_request": "2024-1068496",
    "request_type": "Roads/Drainage",
    "request_reason": "Pothole",
    "date_created": "2024-02-17T16:42:01.000",
    "date_modified": "2024-02-17T16:42:01.000",
    "request_status": "Pending",
    "responsible_agency": "Department of Public Works",
    "final_address": "CITY PARK AVE & MOSS ST & N CARROLLTON AVE",
    "address_councildis": "A",
    "status": "Pending",
    "rowid": "1068496",
    "final_x": "3674002.3",
    "final_y": "541437.68",
    "longitude": "-90.09140596877431",
    "latitude": "29.982991466182053",
    "geocoded_column": {
      "latitude": "29.982991466182053",
      "longitude": "-90.09140596877431"
    }
  },
  {
    "service_request": "2024-1068495",
    "request_type": "Trash/Recycling",
    "request_reason": "Dead Animal Pick Up",
    "date_created": "2024-02-17T16:39:27.000",
    "date_modified": "2024-02-17T16:39:27.000",
    "request_status": "Pending",
    "responsible_agency": "Department of Sanitation",
    "final_address": "3504 Desaix Blvd",
    "address_councildis": "A",
    "status": "Assigned to Contractor",
    "contractor": "IV Waste",
    "rowid": "1068495",
    "final_x": "3676257.33678",
    "final_y": "543563.967438",
    "longitude": "-90.08421019340845",
    "latitude": "29.988770621340887",
    "geocoded_column": {
      "latitude": "29.988770621340887",
      "longitude": "-90.08421019340845"
    }
  },
  {
    "service_request": "2024-1068494",
    "request_type": "Trash/Recycling",
    "request_reason": "Replace Trash Cart",
    "date_created": "2024-02-17T16:31:31.000",
    "date_modified": "2024-02-17T16:31:32.000",
    "request_status": "Pending",
    "responsible_agency": "Department of Sanitation",
    "final_address": "1015 Felicity St",
    "address_councildis": "B",
    "status": "Assigned to Contractor",
    "contractor": "Richards Disposal",
    "rowid": "1068494",
    "final_x": "3680221.83464",
    "final_y": "522857.046907",
    "longitude": "-90.07240732540173",
    "latitude": "29.931714197528695",
    "geocoded_column": {
      "latitude": "29.931714197528695",
      "longitude": "-90.07240732540173"
    }
  },
  {
    "service_request": "2024-1068493",
    "request_type": "Trash/Recycling",
    "request_reason": "Replace Trash Cart",
    "date_created": "2024-02-17T16:31:11.000",
    "date_modified": "2024-02-17T16:31:11.000",
    "request_status": "Pending",
    "responsible_agency": "Department of Sanitation",
    "final_address": "1015 Felicity St",
    "address_councildis": "B",
    "status": "Assigned to Contractor",
    "contractor": "Richards Disposal",
    "rowid": "1068493",
    "final_x": "3680221.83464",
    "final_y": "522857.046907",
    "longitude": "-90.07240732540173",
    "latitude": "29.931714197528695",
    "geocoded_column": {
      "latitude": "29.931714197528695",
      "longitude": "-90.07240732540173"
    }
  },
  {
    "service_request": "2024-1068492",
    "request_type": "Trash/Recycling",
    "request_reason": "Replace Trash Cart",
    "date_created": "2024-02-17T16:30:33.000",
    "date_modified": "2024-02-17T16:30:33.000",
    "request_status": "Pending",
    "responsible_agency": "Department of Sanitation",
    "final_address": "1015 Felicity St",
    "address_councildis": "B",
    "status": "Assigned to Contractor",
    "contractor": "Richards Disposal",
    "rowid": "1068492",
    "final_x": "3680221.83464",
    "final_y": "522857.046907",
    "longitude": "-90.07240732540173",
    "latitude": "29.931714197528695",
    "geocoded_column": {
      "latitude": "29.931714197528695",
      "longitude": "-90.07240732540173"
    }
  },
  {
    "service_request": "2024-1068490",
    "request_type": "Roads/Drainage",
    "request_reason": "Pothole",
    "date_created": "2024-02-17T16:13:02.000",
    "date_modified": "2024-02-17T16:13:02.000",
    "request_status": "Pending",
    "responsible_agency": "Department of Public Works",
    "final_address": "1017 Felicity St",
    "address_councildis": "B",
    "status": "Pending",
    "rowid": "1068490",
    "final_x": "3680214.40565",
    "final_y": "522859.497275",
    "longitude": "-90.07243069275788",
    "latitude": "29.9317211600216",
    "geocoded_column": {
      "latitude": "29.9317211600216",
      "longitude": "-90.07243069275788"
    }
  },
  {
    "service_request": "2024-1068489",
    "request_type": "Trash/Recycling",
    "request_reason": "Missed Trash Pick-Up",
    "date_created": "2024-02-17T16:04:37.000",
    "date_modified": "2024-02-17T16:04:37.000",
    "request_status": "Pending",
    "responsible_agency": "Department of Sanitation",
    "final_address": "3450 Adrian St, New Orleans, Louisiana, 70131",
    "address_councildis": "C",
    "status": "Assigned to Contractor",
    "contractor": "Richards Disposal",
    "rowid": "1068489",
    "final_x": "3710684.4476",
    "final_y": "517991.004342",
    "longitude": "-89.9764231302285",
    "latitude": "29.917377398595324",
    "geocoded_column": {
      "latitude": "29.917377398595324",
      "longitude": "-89.9764231302285"
    }
  },
  {
    "service_request": "2024-1068488",
    "request_type": "Trash/Recycling",
    "request_reason": "Request a Large Item Pick Up",
    "date_created": "2024-02-17T15:48:56.000",
    "date_modified": "2024-02-17T15:48:57.000",
    "request_status": "Pending",
    "responsible_agency": "Department of Sanitation",
    "final_address": "3620 Baudin St",
    "address_councildis": "B",
    "status": "Assigned to Contractor",
    "contractor": "Richards Disposal",
    "rowid": "1068488",
    "final_x": "3671464.10286",
    "final_y": "535989.440263",
    "longitude": "-90.09960819087065",
    "latitude": "29.968086052008946",
    "geocoded_column": {
      "latitude": "29.968086052008946",
      "longitude": "-90.09960819087065"
    }
  },
  {
    "service_request": "2024-1068487",
    "request_type": "Trash/Recycling",
    "request_reason": "MIssed Recycling Pick-Up",
    "date_created": "2024-02-17T15:47:04.000",
    "date_modified": "2024-02-17T16:05:18.000",
    "case_close_date": "2024-02-17T10:05:18.000",
    "request_status": "Closed",
    "responsible_agency": "Department of Sanitation",
    "final_address": "2931 St Claude Ave",
    "address_councildis": "C",
    "status": "Assigned to Contractor",
    "contractor": "IV Waste",
    "contractor_action": "Completed",
    "rowid": "1068487",
    "final_x": "3688401.44431",
    "final_y": "536252.633159",
    "longitude": "-90.04611022881703",
    "latitude": "29.968297431309566",
    "geocoded_column": {
      "latitude": "29.968297431309566",
      "longitude": "-90.04611022881703"
    }
  },
  {
    "service_request": "2024-1068486",
    "request_type": "Trash/Recycling",
    "request_reason": "Replace Trash Cart",
    "date_created": "2024-02-17T15:26:41.000",
    "date_modified": "2024-02-17T15:26:42.000",
    "request_status": "Pending",
    "responsible_agency": "Department of Sanitation",
    "final_address": "1424 Octavia St",
    "address_councildis": "A",
    "status": "Assigned to Contractor",
    "contractor": "Richards Disposal",
    "rowid": "1068486",
    "final_x": "3666894.53729",
    "final_y": "521155.013177",
    "longitude": "-90.11453741306593",
    "latitude": "29.927430680619402",
    "geocoded_column": {
      "latitude": "29.927430680619402",
      "longitude": "-90.11453741306593"
    }
  },
  {
    "service_request": "2024-1068485",
    "request_type": "Roads/Drainage",
    "request_reason": "Damaged Sidewalk",
    "date_created": "2024-02-17T15:11:41.000",
    "date_modified": "2024-02-17T15:11:41.000",
    "request_status": "Pending",
    "responsible_agency": "Department of Public Works",
    "final_address": "2742 Jasmine St",
    "address_councildis": "D",
    "status": "Pending",
    "rowid": "1068485",
    "final_x": "3688015.1807",
    "final_y": "548116.639634",
    "longitude": "-90.04690942462837",
    "latitude": "30.000931149664495",
    "geocoded_column": {
      "latitude": "30.000931149664495",
      "longitude": "-90.04690942462837"
    }
  },
  {
    "service_request": "2024-1068484",
    "request_type": "Roads/Drainage",
    "request_reason": "Street Subsidence (Sinking)",
    "date_created": "2024-02-17T15:05:59.000",
    "date_modified": "2024-02-17T15:05:59.000",
    "request_status": "Pending",
    "responsible_agency": "Department of Public Works",
    "final_address": "3903 Toulouse St",
    "address_councildis": "A",
    "status": "Pending",
    "rowid": "1068484",
    "final_x": "3672852.93025",
    "final_y": "539318.647306",
    "longitude": "-90.09510859791702",
    "latitude": "29.977199053974815",
    "geocoded_column": {
      "latitude": "29.977199053974815",
      "longitude": "-90.09510859791702"
    }
  },
  {
    "service_request": "2024-1068483",
    "request_type": "Trash/Recycling",
    "request_reason": "Request a Large Item Pick Up",
    "date_created": "2024-02-17T15:03:16.000",
    "date_modified": "2024-02-17T15:03:16.000",
    "request_status": "Pending",
    "responsible_agency": "Department of Sanitation",
    "final_address": "1230 Henriette Delille St",
    "address_councildis": "C",
    "status": "Assigned to Contractor",
    "contractor": "Richards Disposal",
    "rowid": "1068483",
    "final_x": "3682355.72476",
    "final_y": "535257.359622",
    "longitude": "-90.06523764989652",
    "latitude": "29.965746134840398",
    "geocoded_column": {
      "latitude": "29.965746134840398",
      "longitude": "-90.06523764989652"
    }
  },
  {
    "service_request": "2024-1068482",
    "request_type": "Roads/Drainage",
    "request_reason": "Pothole",
    "date_created": "2024-02-17T14:46:09.000",
    "date_modified": "2024-02-17T14:46:09.000",
    "request_status": "Pending",
    "responsible_agency": "Department of Public Works",
    "final_address": "6069 Chestnut St",
    "address_councildis": "A",
    "status": "Pending",
    "rowid": "1068482",
    "final_x": "3664488.81466",
    "final_y": "520067.26764",
    "longitude": "-90.12216801141484",
    "latitude": "29.92450986430655",
    "geocoded_column": {
      "latitude": "29.92450986430655",
      "longitude": "-90.12216801141484"
    }
  },
  {
    "service_request": "2024-1068481",
    "request_type": "Trash/Recycling",
    "request_reason": "Order Recycling Cart",
    "date_created": "2024-02-17T14:45:12.000",
    "date_modified": "2024-02-17T14:45:12.000",
    "request_status": "Pending",
    "responsible_agency": "Department of Sanitation",
    "final_address": "816 Nashville Ave Unit D",
    "address_councildis": "A",
    "status": "Pending",
    "rowid": "1068481",
    "final_x": "3665456.07514",
    "final_y": "519122.395127",
    "longitude": "-90.1191462921995",
    "latitude": "29.921883613309372",
    "geocoded_column": {
      "latitude": "29.921883613309372",
      "longitude": "-90.1191462921995"
    }
  },
  {
    "service_request": "2024-1068480",
    "request_type": "Roads/Drainage",
    "request_reason": "Pothole",
    "date_created": "2024-02-17T14:41:15.000",
    "date_modified": "2024-02-17T14:41:15.000",
    "request_status": "Pending",
    "responsible_agency": "Department of Public Works",
    "final_address": "5926 Pitt St",
    "address_councildis": "A",
    "status": "Pending",
    "rowid": "1068480",
    "final_x": "3665467.7065",
    "final_y": "521009.245113",
    "longitude": "-90.11904645902852",
    "latitude": "29.9270715185238",
    "geocoded_column": {
      "latitude": "29.9270715185238",
      "longitude": "-90.11904645902852"
    }
  },
  {
    "service_request": "2024-1068479",
    "request_type": "Roads/Drainage",
    "request_reason": "Pothole",
    "date_created": "2024-02-17T14:37:32.000",
    "date_modified": "2024-02-17T14:37:32.000",
    "request_status": "Pending",
    "responsible_agency": "Department of Public Works",
    "final_address": "5935 Coliseum St",
    "address_councildis": "A",
    "status": "Pending",
    "rowid": "1068479",
    "final_x": "3665220.92672",
    "final_y": "520215.433528",
    "longitude": "-90.11985201992287",
    "latitude": "29.924895975237057",
    "geocoded_column": {
      "latitude": "29.924895975237057",
      "longitude": "-90.11985201992287"
    }
  },
  {
    "service_request": "2024-1068478",
    "request_type": "Trash/Recycling",
    "request_reason": "Start Trash Service",
    "date_created": "2024-02-17T14:31:40.000",
    "date_modified": "2024-02-17T14:31:41.000",
    "request_status": "Pending",
    "responsible_agency": "Department of Sanitation",
    "final_address": "3125 Industrial Ct",
    "address_councildis": "D",
    "status": "Assigned to Contractor",
    "contractor": "IV Waste",
    "rowid": "1068478",
    "final_x": "3689844.84432",
    "final_y": "538401.051593",
    "longitude": "-90.04147542752897",
    "latitude": "29.974160160649006",
    "geocoded_column": {
      "latitude": "29.974160160649006",
      "longitude": "-90.04147542752897"
    }
  },
  {
    "service_request": "2024-1068477",
    "request_type": "Trash/Recycling",
    "request_reason": "Order Recycling Cart",
    "date_created": "2024-02-17T14:29:19.000",
    "date_modified": "2024-02-17T14:29:19.000",
    "request_status": "Pending",
    "responsible_agency": "Department of Sanitation",
    "final_address": "3125 Industrial Ct",
    "address_councildis": "D",
    "status": "Pending",
    "rowid": "1068477",
    "final_x": "3689844.84432",
    "final_y": "538401.051593",
    "longitude": "-90.04147542752897",
    "latitude": "29.974160160649006",
    "geocoded_column": {
      "latitude": "29.974160160649006",
      "longitude": "-90.04147542752897"
    }
  },
  {
    "service_request": "2024-1068476",
    "request_type": "Trash/Recycling",
    "request_reason": "Order Trash Cart",
    "date_created": "2024-02-17T14:27:18.000",
    "date_modified": "2024-02-17T14:27:18.000",
    "request_status": "Pending",
    "responsible_agency": "Department of Sanitation",
    "final_address": "3125 Industrial Ct",
    "address_councildis": "D",
    "status": "Assigned to Contractor",
    "contractor": "IV Waste",
    "rowid": "1068476",
    "final_x": "3689844.84432",
    "final_y": "538401.051593",
    "longitude": "-90.04147542752897",
    "latitude": "29.974160160649006",
    "geocoded_column": {
      "latitude": "29.974160160649006",
      "longitude": "-90.04147542752897"
    }
  },
  {
    "service_request": "2024-1068475",
    "request_type": "Property Maintenance",
    "request_reason": "Property Maintenance",
    "date_created": "2024-02-17T14:23:50.000",
    "date_modified": "2024-02-17T14:23:50.000",
    "request_status": "Pending",
    "responsible_agency": "Department of Code Enforcement",
    "final_address": "3917 Royal St",
    "address_councildis": "C",
    "status": "Pending",
    "rowid": "1068475",
    "final_x": "3691277.67497",
    "final_y": "533874.334725",
    "longitude": "-90.03711196134591",
    "latitude": "29.961668787277738",
    "geocoded_column": {
      "latitude": "29.961668787277738",
      "longitude": "-90.03711196134591"
    }
  },
  {
    "service_request": "2024-1068474",
    "request_type": "Roads/Drainage",
    "request_reason": "Road Shoulder Repair",
    "date_created": "2024-02-17T13:56:33.000",
    "date_modified": "2024-02-17T13:56:33.000",
    "request_status": "Pending",
    "responsible_agency": "Department of Public Works",
    "final_address": "5255 Pratt Dr",
    "address_councildis": "D",
    "status": "Pending",
    "rowid": "1068474",
    "final_x": "3680468.14799",
    "final_y": "551909.452054",
    "longitude": "-90.07061904266087",
    "latitude": "30.011590840722867",
    "geocoded_column": {
      "latitude": "30.011590840722867",
      "longitude": "-90.07061904266087"
    }
  },
  {
    "service_request": "2024-1068473",
    "request_type": "Trash/Recycling",
    "request_reason": "Order Recycling Cart",
    "date_created": "2024-02-17T13:50:57.000",
    "date_modified": "2024-02-17T13:50:57.000",
    "request_status": "Pending",
    "responsible_agency": "Department of Sanitation",
    "final_address": "4237 Palmyra St",
    "address_councildis": "A",
    "status": "Pending",
    "rowid": "1068473",
    "final_x": "3669884.0859",
    "final_y": "538319.111625",
    "longitude": "-90.1045190593059",
    "latitude": "29.974538548932262",
    "geocoded_column": {
      "latitude": "29.974538548932262",
      "longitude": "-90.1045190593059"
    }
  },
  {
    "service_request": "2024-1068472",
    "request_type": "Traffic Signals/Signs/Striping/Streetlights",
    "request_reason": "Traffic Sign Missing/Damaged",
    "date_created": "2024-02-17T13:48:29.000",
    "date_modified": "2024-02-17T13:48:29.000",
    "request_status": "Pending",
    "responsible_agency": "Department of Public Works",
    "final_address": "5255 Pratt Dr",
    "address_councildis": "D",
    "status": "Pending",
    "rowid": "1068472",
    "final_x": "3680468.14799",
    "final_y": "551909.452054",
    "longitude": "-90.07061904266087",
    "latitude": "30.011590840722867",
    "geocoded_column": {
      "latitude": "30.011590840722867",
      "longitude": "-90.07061904266087"
    }
  },
  {
    "service_request": "2024-1068471",
    "request_type": "Roads/Drainage",
    "request_reason": "Catch Basin - Clogged",
    "date_created": "2024-02-17T13:48:23.000",
    "date_modified": "2024-02-17T13:48:23.000",
    "request_status": "Pending",
    "responsible_agency": "Department of Public Works",
    "final_address": "5710 Canal Blvd",
    "address_councildis": "A",
    "status": "Pending",
    "rowid": "1068471",
    "final_x": "3668162.87828",
    "final_y": "545592.702288",
    "longitude": "-90.10970975641882",
    "latitude": "29.994589095173907",
    "geocoded_column": {
      "latitude": "29.994589095173907",
      "longitude": "-90.10970975641882"
    }
  },
  {
    "service_request": "2024-1068470",
    "request_type": "Trash/Recycling",
    "request_reason": "Missed Trash Pick-Up",
    "date_created": "2024-02-17T13:24:34.000",
    "date_modified": "2024-02-17T13:24:35.000",
    "request_status": "Pending",
    "responsible_agency": "Department of Sanitation",
    "final_address": "6325 York St",
    "address_councildis": "A",
    "status": "Assigned to Contractor",
    "contractor": "Richards Disposal",
    "rowid": "1068470",
    "final_x": "3667418.18778",
    "final_y": "529241.238977",
    "longitude": "-90.11261242875403",
    "latitude": "29.949649878864143",
    "geocoded_column": {
      "latitude": "29.949649878864143",
      "longitude": "-90.11261242875403"
    }
  },
  {
    "service_request": "2024-1068469",
    "request_type": "Trash/Recycling",
    "request_reason": "Missed Trash Pick-Up",
    "date_created": "2024-02-17T13:08:35.000",
    "date_modified": "2024-02-17T13:47:58.000",
    "case_close_date": "2024-02-17T07:47:58.000",
    "request_status": "Closed",
    "responsible_agency": "Department of Sanitation",
    "final_address": "4437 Plum Orchard St",
    "address_councildis": "E",
    "status": "Assigned to Contractor",
    "contractor": "Waste Pro",
    "contractor_action": "Invalid Request",
    "rowid": "1068469",
    "final_x": "3701916.58743",
    "final_y": "552966.349783",
    "longitude": "-90.00281620600977",
    "latitude": "30.01382956111603",
    "geocoded_column": {
      "latitude": "30.01382956111603",
      "longitude": "-90.00281620600977"
    }
  },
  {
    "service_request": "2024-1068468",
    "request_type": "Trash/Recycling",
    "request_reason": "Request a Large Item Pick Up",
    "date_created": "2024-02-17T13:08:25.000",
    "date_modified": "2024-02-17T13:53:42.000",
    "case_close_date": "2024-02-17T07:53:42.000",
    "request_status": "Closed",
    "responsible_agency": "Department of Sanitation",
    "final_address": "191 30Th St",
    "address_councildis": "A",
    "status": "Assigned to Contractor",
    "contractor": "IV Waste",
    "contractor_action": "Invalid Request",
    "rowid": "1068468",
    "final_x": "3665395.95143",
    "final_y": "550577.240852",
    "longitude": "-90.11828320863377",
    "latitude": "30.00837581478683",
    "geocoded_column": {
      "latitude": "30.00837581478683",
      "longitude": "-90.11828320863377"
    }
  },
  {
    "service_request": "2024-1068467",
    "request_type": "Trash/Recycling",
    "request_reason": "Missed Trash Pick-Up",
    "date_created": "2024-02-17T13:06:36.000",
    "date_modified": "2024-02-17T13:47:01.000",
    "case_close_date": "2024-02-17T07:47:01.000",
    "request_status": "Closed",
    "responsible_agency": "Department of Sanitation",
    "final_address": "4437 Plum Orchard St",
    "address_councildis": "E",
    "status": "Assigned to Contractor",
    "contractor": "Waste Pro",
    "contractor_action": "Invalid Request",
    "rowid": "1068467",
    "final_x": "3701916.58743",
    "final_y": "552966.349783",
    "longitude": "-90.00281620600977",
    "latitude": "30.01382956111603",
    "geocoded_column": {
      "latitude": "30.01382956111603",
      "longitude": "-90.00281620600977"
    }
  },
  {
    "service_request": "2024-1068466",
    "request_type": "Trash/Recycling",
    "request_reason": "Repair Trash Cart",
    "date_created": "2024-02-17T13:03:51.000",
    "date_modified": "2024-02-17T13:03:52.000",
    "request_status": "Pending",
    "responsible_agency": "Department of Sanitation",
    "final_address": "2616 Joliet St",
    "address_councildis": "A",
    "status": "Assigned to Contractor",
    "contractor": "Richards Disposal",
    "rowid": "1068466",
    "final_x": "3664376.36564",
    "final_y": "533208.103172",
    "longitude": "-90.12208448534943",
    "latitude": "29.960646221732194",
    "geocoded_column": {
      "latitude": "29.960646221732194",
      "longitude": "-90.12208448534943"
    }
  },
  {
    "service_request": "2024-1068465",
    "request_type": "Trash/Recycling",
    "request_reason": "Request a Large Item Pick Up",
    "date_created": "2024-02-17T12:55:18.000",
    "date_modified": "2024-02-17T12:55:18.000",
    "request_status": "Pending",
    "responsible_agency": "Department of Sanitation",
    "final_address": "5417 Freret St",
    "address_councildis": "A",
    "status": "Assigned to Contractor",
    "contractor": "Richards Disposal",
    "rowid": "1068465",
    "final_x": "3667761.82676",
    "final_y": "524116.028156",
    "longitude": "-90.11169993103742",
    "latitude": "29.93554713323735",
    "geocoded_column": {
      "latitude": "29.93554713323735",
      "longitude": "-90.11169993103742"
    }
  },
  {
    "service_request": "2024-1068464",
    "request_type": "Trash/Recycling",
    "request_reason": "Replace Trash Cart",
    "date_created": "2024-02-17T12:53:46.000",
    "date_modified": "2024-02-17T12:53:47.000",
    "request_status": "Pending",
    "responsible_agency": "Department of Sanitation",
    "final_address": "523 Soniat St",
    "address_councildis": "B",
    "status": "Assigned to Contractor",
    "contractor": "Richards Disposal",
    "rowid": "1068464",
    "final_x": "3668332.99649",
    "final_y": "517431.086262",
    "longitude": "-90.11012203209818",
    "latitude": "29.91714890863594",
    "geocoded_column": {
      "latitude": "29.91714890863594",
      "longitude": "-90.11012203209818"
    }
  },
  {
    "service_request": "2024-1068463",
    "request_type": "Roads/Drainage",
    "request_reason": "Street Subsidence (Sinking)",
    "date_created": "2024-02-17T12:46:38.000",
    "date_modified": "2024-02-17T16:00:47.000",
    "request_status": "Pending",
    "responsible_agency": "Department of Public Works",
    "final_address": "New Orleans,LA",
    "address_councildis": "C",
    "status": "Pending",
    "rowid": "1068463",
    "final_x": "3686534.63209",
    "final_y": "537043.478088",
    "longitude": "-90.05197776366623",
    "latitude": "29.9705295115159",
    "geocoded_column": {
      "latitude": "29.9705295115159",
      "longitude": "-90.05197776366623"
    }
  },
  {
    "service_request": "2024-1068462",
    "request_type": "Traffic Signals/Signs/Striping/Streetlights",
    "request_reason": "Street Light Outage/Malfunction",
    "date_created": "2024-02-17T12:08:01.000",
    "date_modified": "2024-02-17T12:08:02.000",
    "request_status": "Pending",
    "responsible_agency": "Department of Public Works",
    "final_address": "1100 BLK S Peters St",
    "address_councildis": "B",
    "status": "Assigned to Contractor",
    "contractor": "Legacy Professional Services",
    "rowid": "1068462",
    "final_x": "3682353.6907",
    "final_y": "525770.767472",
    "longitude": "-90.065575532097",
    "latitude": "29.939661281941483",
    "geocoded_column": {
      "latitude": "29.939661281941483",
      "longitude": "-90.065575532097"
    }
  },
  {
    "service_request": "2024-1068461",
    "request_type": "Trash/Recycling",
    "request_reason": "Request a Large Item Pick Up",
    "date_created": "2024-02-17T12:06:52.000",
    "date_modified": "2024-02-17T12:06:53.000",
    "request_status": "Pending",
    "responsible_agency": "Department of Sanitation",
    "final_address": "0 BLK Brownlee Ct",
    "address_councildis": "E",
    "status": "Assigned to Contractor",
    "contractor": "Waste Pro",
    "rowid": "1068461",
    "final_x": "3712627.45102",
    "final_y": "567256.93778",
    "longitude": "-89.96843790870709",
    "latitude": "30.05277665832809",
    "geocoded_column": {
      "latitude": "30.05277665832809",
      "longitude": "-89.96843790870709"
    }
  },
  {
    "service_request": "2024-1068460",
    "request_type": "Trash/Recycling",
    "request_reason": "Request a Large Item Pick Up",
    "date_created": "2024-02-17T11:52:58.000",
    "date_modified": "2024-02-17T11:52:58.000",
    "request_status": "Pending",
    "responsible_agency": "Department of Sanitation",
    "final_address": "208 N Lopez St",
    "address_councildis": "B",
    "status": "Assigned to Contractor",
    "contractor": "Richards Disposal",
    "rowid": "1068460",
    "final_x": "3674191.01742",
    "final_y": "536599.323015",
    "longitude": "-90.09097559451003",
    "latitude": "29.96968200972407",
    "geocoded_column": {
      "latitude": "29.96968200972407",
      "longitude": "-90.09097559451003"
    }
  },
  {
    "service_request": "2024-1068459",
    "request_type": "Roads/Drainage",
    "request_reason": "Street Subsidence (Sinking)",
    "date_created": "2024-02-17T11:40:57.000",
    "date_modified": "2024-02-17T11:40:57.000",
    "request_status": "Pending",
    "responsible_agency": "Department of Public Works",
    "final_address": "130 N Norman C Francis Prkwy",
    "address_councildis": "B",
    "status": "Pending",
    "rowid": "1068459",
    "final_x": "3673539.07726",
    "final_y": "536921.283336",
    "longitude": "-90.09302347686717",
    "latitude": "29.970586711715363",
    "geocoded_column": {
      "latitude": "29.970586711715363",
      "longitude": "-90.09302347686717"
    }
  },
  {
    "service_request": "2024-1068458",
    "request_type": "Abandoned Vehicles",
    "request_reason": "Abandoned/Junk Vehicles",
    "date_created": "2024-02-17T11:23:18.000",
    "date_modified": "2024-02-17T11:23:18.000",
    "request_status": "Pending",
    "responsible_agency": "Department of Public Works",
    "final_address": "2711 Third St",
    "address_councildis": "B",
    "status": "Pending",
    "rowid": "1068458",
    "final_x": "3674229.16782",
    "final_y": "526274.744702",
    "longitude": "-90.09120857008621",
    "latitude": "29.941291720822615",
    "geocoded_column": {
      "latitude": "29.941291720822615",
      "longitude": "-90.09120857008621"
    }
  },
  {
    "service_request": "2024-1068457",
    "request_type": "Trash/Recycling",
    "request_reason": "Request a Large Item Pick Up",
    "date_created": "2024-02-17T11:17:27.000",
    "date_modified": "2024-02-17T11:17:28.000",
    "request_status": "Pending",
    "responsible_agency": "Department of Sanitation",
    "final_address": "3717 General Pershing St",
    "address_councildis": "B",
    "status": "Assigned to Contractor",
    "contractor": "Richards Disposal",
    "rowid": "1068457",
    "final_x": "3670549.01319",
    "final_y": "528369.24352",
    "longitude": "-90.10275653191385",
    "latitude": "29.94716009235243",
    "geocoded_column": {
      "latitude": "29.94716009235243",
      "longitude": "-90.10275653191385"
    }
  },
  {
    "service_request": "2024-1068456",
    "request_type": "Trash/Recycling",
    "request_reason": "Request a Large Item Pick Up",
    "date_created": "2024-02-17T11:07:19.000",
    "date_modified": "2024-02-17T11:07:20.000",
    "request_status": "Pending",
    "responsible_agency": "Department of Sanitation",
    "final_address": "5627 Oxford Pl, New Orleans, Louisiana, 70131",
    "address_councildis": "C",
    "status": "Assigned to Contractor",
    "contractor": "Richards Disposal",
    "rowid": "1068456",
    "final_x": "3704379.04727",
    "final_y": "520037.140344",
    "longitude": "-89.99625019145219",
    "latitude": "29.92320737393539",
    "geocoded_column": {
      "latitude": "29.92320737393539",
      "longitude": "-89.99625019145219"
    }
  },
  {
    "service_request": "2024-1068455",
    "request_type": "Trash/Recycling",
    "request_reason": "Request a Large Item Pick Up",
    "date_created": "2024-02-17T11:04:44.000",
    "date_modified": "2024-02-17T11:04:45.000",
    "request_status": "Pending",
    "responsible_agency": "Department of Sanitation",
    "final_address": "2463 Oriole St",
    "address_councildis": "D",
    "status": "Assigned to Contractor",
    "contractor": "IV Waste",
    "rowid": "1068455",
    "final_x": "3685038.80994",
    "final_y": "558317.081372",
    "longitude": "-90.05595276332826",
    "latitude": "30.029070171679372",
    "geocoded_column": {
      "latitude": "30.029070171679372",
      "longitude": "-90.05595276332826"
    }
  },
  {
    "service_request": "2024-1068454",
    "request_type": "Trash/Recycling",
    "request_reason": "Missed Trash Pick-Up",
    "date_created": "2024-02-17T10:56:28.000",
    "date_modified": "2024-02-17T17:57:11.000",
    "case_close_date": "2024-02-17T11:57:11.000",
    "request_status": "Closed",
    "responsible_agency": "Department of Sanitation",
    "final_address": "4700 BLK Cardenas Dr",
    "address_councildis": "E",
    "status": "Assigned to Contractor",
    "contractor": "Waste Pro",
    "contractor_action": "Completed",
    "rowid": "1068454",
    "final_x": "3713656.81051",
    "final_y": "556605.719909",
    "longitude": "-89.96558627729587",
    "latitude": "30.023456333057702",
    "geocoded_column": {
      "latitude": "30.023456333057702",
      "longitude": "-89.96558627729587"
    }
  },
  {
    "service_request": "2024-1068453",
    "request_type": "Trash/Recycling",
    "request_reason": "Missed Trash Pick-Up",
    "date_created": "2024-02-17T10:47:34.000",
    "date_modified": "2024-02-17T10:47:35.000",
    "request_status": "Pending",
    "responsible_agency": "Department of Sanitation",
    "final_address": "3812 Chestnut St, New Orleans, Louisiana, 70115",
    "address_councildis": "B",
    "status": "Assigned to Contractor",
    "contractor": "Richards Disposal",
    "rowid": "1068453",
    "final_x": "3673114.35336",
    "final_y": "519671.84044",
    "longitude": "-90.09495356062334",
    "latitude": "29.923169052393554",
    "geocoded_column": {
      "latitude": "29.923169052393554",
      "longitude": "-90.09495356062334"
    }
  },
  {
    "service_request": "2024-1068452",
    "request_type": "Trash/Recycling",
    "request_reason": "MIssed Recycling Pick-Up",
    "date_created": "2024-02-17T10:41:46.000",
    "date_modified": "2024-02-17T16:02:35.000",
    "case_close_date": "2024-02-17T10:02:35.000",
    "request_status": "Closed",
    "responsible_agency": "Department of Sanitation",
    "final_address": "6007 Erin Dr",
    "address_councildis": "E",
    "status": "Assigned to Contractor",
    "contractor": "Waste Pro",
    "contractor_action": "Invalid Request",
    "rowid": "1068452",
    "final_x": "3695324.42832",
    "final_y": "558444.212892",
    "longitude": "-90.02344609090146",
    "latitude": "30.029100440670412",
    "geocoded_column": {
      "latitude": "30.029100440670412",
      "longitude": "-90.02344609090146"
    }
  },
  {
    "service_request": "2024-1068451",
    "request_type": "Health Related Request",
    "request_reason": "Noise Ordinance Complaint",
    "date_created": "2024-02-17T10:31:59.000",
    "date_modified": "2024-02-17T10:31:59.000",
    "request_status": "Pending",
    "responsible_agency": "Health Department",
    "final_address": "2417 Dryades St",
    "address_councildis": "B",
    "status": "Pending",
    "rowid": "1068451",
    "final_x": "3676189.60232",
    "final_y": "524053.15878",
    "longitude": "-90.08509550687829",
    "latitude": "29.935124507872462",
    "geocoded_column": {
      "latitude": "29.935124507872462",
      "longitude": "-90.08509550687829"
    }
  },
  {
    "service_request": "2024-1068450",
    "request_type": "Health Related Request",
    "request_reason": "Noise Ordinance Complaint",
    "date_created": "2024-02-17T10:28:39.000",
    "date_modified": "2024-02-17T10:28:39.000",
    "request_status": "Pending",
    "responsible_agency": "Health Department",
    "final_address": "2417 Dryades St",
    "address_councildis": "B",
    "status": "Pending",
    "rowid": "1068450",
    "final_x": "3676189.60232",
    "final_y": "524053.15878",
    "longitude": "-90.08509550687829",
    "latitude": "29.935124507872462",
    "geocoded_column": {
      "latitude": "29.935124507872462",
      "longitude": "-90.08509550687829"
    }
  },
  {
    "service_request": "2024-1068449",
    "request_type": "Trash/Recycling",
    "request_reason": "Replace Recycling Cart",
    "date_created": "2024-02-17T10:23:22.000",
    "date_modified": "2024-02-17T10:23:22.000",
    "request_status": "Pending",
    "responsible_agency": "Department of Sanitation",
    "final_address": "5026 Loyola Ave",
    "address_councildis": "B",
    "status": "Pending",
    "rowid": "1068449",
    "final_x": "3668572.8779",
    "final_y": "522828.316283",
    "longitude": "-90.10918285886576",
    "latitude": "29.93198253673753",
    "geocoded_column": {
      "latitude": "29.93198253673753",
      "longitude": "-90.10918285886576"
    }
  },
  {
    "service_request": "2024-1068448",
    "request_type": "Trash/Recycling",
    "request_reason": "Start Trash Service",
    "date_created": "2024-02-17T10:21:33.000",
    "date_modified": "2024-02-17T10:21:34.000",
    "request_status": "Pending",
    "responsible_agency": "Department of Sanitation",
    "final_address": "5026 Loyola Ave",
    "address_councildis": "B",
    "status": "Assigned to Contractor",
    "contractor": "Richards Disposal",
    "rowid": "1068448",
    "final_x": "3668572.8779",
    "final_y": "522828.316283",
    "longitude": "-90.10918285886576",
    "latitude": "29.93198253673753",
    "geocoded_column": {
      "latitude": "29.93198253673753",
      "longitude": "-90.10918285886576"
    }
  },
  {
    "service_request": "2024-1068447",
    "request_type": "Trash/Recycling",
    "request_reason": "Replace Recycling Cart",
    "date_created": "2024-02-17T10:00:56.000",
    "date_modified": "2024-02-17T10:00:56.000",
    "request_status": "Pending",
    "responsible_agency": "Department of Sanitation",
    "final_address": "1939 General Pershing St",
    "address_councildis": "B",
    "status": "Pending",
    "rowid": "1068447",
    "final_x": "3671155.18651",
    "final_y": "522312.31129",
    "longitude": "-90.10104827791707",
    "latitude": "29.93048757854637",
    "geocoded_column": {
      "latitude": "29.93048757854637",
      "longitude": "-90.10104827791707"
    }
  },
  {
    "service_request": "2024-1068446",
    "request_type": "Roads/Drainage",
    "request_reason": "Pothole",
    "date_created": "2024-02-17T09:55:17.000",
    "date_modified": "2024-02-17T09:55:17.000",
    "request_status": "Pending",
    "responsible_agency": "Department of Public Works",
    "final_address": "6215 Hurst St",
    "address_councildis": "A",
    "status": "Pending",
    "rowid": "1068446",
    "final_x": "3664668.32039",
    "final_y": "522243.373626",
    "longitude": "-90.12152872358996",
    "latitude": "29.93048825206563",
    "geocoded_column": {
      "latitude": "29.93048825206563",
      "longitude": "-90.12152872358996"
    }
  },
  {
    "service_request": "2024-1068445",
    "request_type": "Traffic Signals/Signs/Striping/Streetlights",
    "request_reason": "Traffic Signal Malfunctioning/Damaged",
    "date_created": "2024-02-17T09:52:26.000",
    "date_modified": "2024-02-17T09:52:26.000",
    "request_status": "Pending",
    "responsible_agency": "Department of Public Works",
    "final_address": "6166 Elysian Fields Ave",
    "address_councildis": "D",
    "status": "Pending",
    "rowid": "1068445",
    "final_x": "3683306.46268",
    "final_y": "555569.062425",
    "longitude": "-90.06152330426633",
    "latitude": "30.021567122321617",
    "geocoded_column": {
      "latitude": "30.021567122321617",
      "longitude": "-90.06152330426633"
    }
  },
  {
    "service_request": "2024-1068444",
    "request_type": "Trash/Recycling",
    "request_reason": "Repair Trash Cart",
    "date_created": "2024-02-17T09:49:22.000",
    "date_modified": "2024-02-17T09:49:22.000",
    "request_status": "Pending",
    "responsible_agency": "Department of Sanitation",
    "final_address": "1239 Carondelet St",
    "address_councildis": "B",
    "status": "Assigned to Contractor",
    "contractor": "Richards Disposal",
    "rowid": "1068444",
    "final_x": "3679127.26907",
    "final_y": "526367.810878",
    "longitude": "-90.07574110592219",
    "latitude": "29.941400714325162",
    "geocoded_column": {
      "latitude": "29.941400714325162",
      "longitude": "-90.07574110592219"
    }
  },
  {
    "service_request": "2024-1068443",
    "request_type": "Trash/Recycling",
    "request_reason": "MIssed Recycling Pick-Up",
    "date_created": "2024-02-17T09:40:47.000",
    "date_modified": "2024-02-17T09:40:47.000",
    "request_status": "Pending",
    "responsible_agency": "Department of Sanitation",
    "final_address": "8325 Hickory St",
    "address_councildis": "A",
    "status": "Assigned to Contractor",
    "contractor": "Richards Disposal",
    "rowid": "1068443",
    "final_x": "3662711.41075",
    "final_y": "530597.77581",
    "longitude": "-90.12742886042908",
    "latitude": "29.953516957106004",
    "geocoded_column": {
      "latitude": "29.953516957106004",
      "longitude": "-90.12742886042908"
    }
  },
  {
    "service_request": "2024-1068442",
    "request_type": "Trash/Recycling",
    "request_reason": "Missed Trash Pick-Up",
    "date_created": "2024-02-17T09:28:50.000",
    "date_modified": "2024-02-17T10:37:43.000",
    "case_close_date": "2024-02-17T04:37:43.000",
    "request_status": "Closed",
    "responsible_agency": "Department of Sanitation",
    "final_address": "6007 Erin Dr",
    "address_councildis": "E",
    "status": "Assigned to Contractor",
    "contractor": "Waste Pro",
    "contractor_action": "Invalid Request",
    "rowid": "1068442",
    "final_x": "3695324.42832",
    "final_y": "558444.212892",
    "longitude": "-90.02344609090146",
    "latitude": "30.029100440670412",
    "geocoded_column": {
      "latitude": "30.029100440670412",
      "longitude": "-90.02344609090146"
    }
  },
  {
    "service_request": "2024-1068441",
    "request_type": "Trash/Recycling",
    "request_reason": "Request a Large Item Pick Up",
    "date_created": "2024-02-17T09:27:43.000",
    "date_modified": "2024-02-17T14:08:18.000",
    "case_close_date": "2024-02-17T08:08:18.000",
    "request_status": "Closed",
    "responsible_agency": "Department of Sanitation",
    "final_address": "6525 General Diaz St",
    "address_councildis": "A",
    "status": "Assigned to Contractor",
    "contractor": "IV Waste",
    "contractor_action": "Completed",
    "rowid": "1068441",
    "final_x": "3669926.4066",
    "final_y": "550806.203221",
    "longitude": "-90.10396227751394",
    "latitude": "30.008872507257223",
    "geocoded_column": {
      "latitude": "30.008872507257223",
      "longitude": "-90.10396227751394"
    }
  },
  {
    "service_request": "2024-1068440",
    "request_type": "Trash/Recycling",
    "request_reason": "Missed Trash Pick-Up",
    "date_created": "2024-02-17T09:01:00.000",
    "date_modified": "2024-02-17T09:04:25.000",
    "case_close_date": "2024-02-17T03:04:25.000",
    "request_status": "Closed",
    "responsible_agency": "Department of Sanitation",
    "final_address": "2727 Royal St",
    "address_councildis": "C",
    "status": "Assigned to Contractor",
    "contractor": "IV Waste",
    "contractor_action": "Invalid Request",
    "rowid": "1068440",
    "final_x": "3687228.81538",
    "final_y": "534882.110662",
    "longitude": "-90.04986191509717",
    "latitude": "29.964565141176937",
    "geocoded_column": {
      "latitude": "29.964565141176937",
      "longitude": "-90.04986191509717"
    }
  },
  {
    "service_request": "2024-1068439",
    "request_type": "Trash/Recycling",
    "request_reason": "Missed Trash Pick-Up",
    "date_created": "2024-02-17T09:00:09.000",
    "date_modified": "2024-02-17T09:04:09.000",
    "case_close_date": "2024-02-17T03:04:09.000",
    "request_status": "Closed",
    "responsible_agency": "Department of Sanitation",
    "final_address": "2727 Royal St",
    "address_councildis": "C",
    "status": "Invalid Request",
    "contractor": "IV Waste",
    "contractor_action": "Invalid Request",
    "rowid": "1068439",
    "final_x": "3687228.81538",
    "final_y": "534882.110662",
    "longitude": "-90.04986191509717",
    "latitude": "29.964565141176937",
    "geocoded_column": {
      "latitude": "29.964565141176937",
      "longitude": "-90.04986191509717"
    }
  },
  {
    "service_request": "2024-1068438",
    "request_type": "Trash/Recycling",
    "request_reason": "Missed Trash Pick-Up",
    "date_created": "2024-02-17T08:56:48.000",
    "date_modified": "2024-02-17T08:56:49.000",
    "request_status": "Pending",
    "responsible_agency": "Department of Sanitation",
    "final_address": "5501 Loyola Ave",
    "address_councildis": "A",
    "status": "Assigned to Contractor",
    "contractor": "Richards Disposal",
    "rowid": "1068438",
    "final_x": "3667289.62343",
    "final_y": "523107.538107",
    "longitude": "-90.11322458818319",
    "latitude": "29.93278794218939",
    "geocoded_column": {
      "latitude": "29.93278794218939",
      "longitude": "-90.11322458818319"
    }
  },
  {
    "service_request": "2024-1068437",
    "request_type": "Trash/Recycling",
    "request_reason": "Missed Trash Pick-Up",
    "date_created": "2024-02-17T08:56:38.000",
    "date_modified": "2024-02-17T09:02:35.000",
    "case_close_date": "2024-02-17T03:02:35.000",
    "request_status": "Closed",
    "responsible_agency": "Department of Sanitation",
    "final_address": "4114 Stephen Girard Ave",
    "address_councildis": "D",
    "status": "Invalid Request",
    "contractor": "IV Waste",
    "contractor_action": "Invalid Request",
    "rowid": "1068437",
    "final_x": "3689644.22723",
    "final_y": "549630.75074",
    "longitude": "-90.0417092382855",
    "latitude": "30.005044013193324",
    "geocoded_column": {
      "latitude": "30.005044013193324",
      "longitude": "-90.0417092382855"
    }
  },
  {
    "service_request": "2024-1068436",
    "request_type": "Trash/Recycling",
    "request_reason": "Request a Large Item Pick Up",
    "date_created": "2024-02-17T08:49:08.000",
    "date_modified": "2024-02-17T08:49:09.000",
    "request_status": "Pending",
    "responsible_agency": "Department of Sanitation",
    "final_address": "7171 Pinebrook Dr",
    "address_councildis": "E",
    "status": "Assigned to Contractor",
    "contractor": "Waste Pro",
    "rowid": "1068436",
    "final_x": "3719242.53049",
    "final_y": "570380.995943",
    "longitude": "-89.94741032338533",
    "latitude": "30.06114819970051",
    "geocoded_column": {
      "latitude": "30.06114819970051",
      "longitude": "-89.94741032338533"
    }
  },
  {
    "service_request": "2024-1068435",
    "request_type": "Trash/Recycling",
    "request_reason": "Repair Trash Cart",
    "date_created": "2024-02-17T07:33:36.000",
    "date_modified": "2024-02-17T07:33:36.000",
    "request_status": "Pending",
    "responsible_agency": "Department of Sanitation",
    "final_address": "1435 Henry Clay Ave",
    "address_councildis": "A",
    "status": "Assigned to Contractor",
    "contractor": "Richards Disposal",
    "rowid": "1068435",
    "final_x": "3664719.02317",
    "final_y": "521718.44569",
    "longitude": "-90.12138618913215",
    "latitude": "29.929043391472735",
    "geocoded_column": {
      "latitude": "29.929043391472735",
      "longitude": "-90.12138618913215"
    }
  },
  {
    "service_request": "2024-1068434",
    "request_type": "Trash/Recycling",
    "request_reason": "Request a Large Item Pick Up",
    "date_created": "2024-02-17T07:16:31.000",
    "date_modified": "2024-02-17T07:16:32.000",
    "request_status": "Pending",
    "responsible_agency": "Department of Sanitation",
    "final_address": "1726 Burdette St",
    "address_councildis": "A",
    "status": "Assigned to Contractor",
    "contractor": "Richards Disposal",
    "rowid": "1068434",
    "final_x": "3664101.66554",
    "final_y": "529106.90976",
    "longitude": "-90.12308872504612",
    "latitude": "29.949377252983762",
    "geocoded_column": {
      "latitude": "29.949377252983762",
      "longitude": "-90.12308872504612"
    }
  },
  {
    "service_request": "2024-1068433",
    "request_type": "Trash/Recycling",
    "request_reason": "Missed Trash Pick-Up",
    "date_created": "2024-02-17T06:41:43.000",
    "date_modified": "2024-02-17T10:49:11.000",
    "case_close_date": "2024-02-17T04:49:11.000",
    "request_status": "Closed",
    "responsible_agency": "Department of Sanitation",
    "final_address": "Delery Street & North Rampart Street",
    "address_councildis": "E",
    "status": "Assigned to Contractor",
    "contractor": "Waste Pro",
    "contractor_action": "Invalid Request",
    "rowid": "1068433",
    "final_x": "3700263.20164",
    "final_y": "532511.124996",
    "longitude": "-90.00878709533627",
    "latitude": "29.95763789080889",
    "geocoded_column": {
      "latitude": "29.95763789080889",
      "longitude": "-90.00878709533627"
    }
  },
  {
    "service_request": "2024-1068432",
    "request_type": "Trash/Recycling",
    "request_reason": "MIssed Recycling Pick-Up",
    "date_created": "2024-02-17T04:17:42.000",
    "date_modified": "2024-02-17T08:12:37.000",
    "case_close_date": "2024-02-17T02:12:37.000",
    "request_status": "Closed",
    "responsible_agency": "Department of Sanitation",
    "final_address": "821 Louisa St",
    "address_councildis": "C",
    "status": "Invalid Request",
    "contractor": "IV Waste",
    "contractor_action": "Invalid Request",
    "rowid": "1068432",
    "final_x": "3689345.80732",
    "final_y": "534884.190278",
    "longitude": "-90.04317655614172",
    "latitude": "29.9645054877613",
    "geocoded_column": {
      "latitude": "29.9645054877613",
      "longitude": "-90.04317655614172"
    }
  },
  {
    "service_request": "2024-1068431",
    "request_type": "Trash/Recycling",
    "request_reason": "Missed Trash Pick-Up",
    "date_created": "2024-02-17T04:16:16.000",
    "date_modified": "2024-02-17T08:22:04.000",
    "case_close_date": "2024-02-17T02:22:04.000",
    "request_status": "Closed",
    "responsible_agency": "Department of Sanitation",
    "final_address": "821 Louisa St",
    "address_councildis": "C",
    "status": "Invalid Request",
    "contractor": "IV Waste",
    "contractor_action": "Invalid Request",
    "rowid": "1068431",
    "final_x": "3689345.80732",
    "final_y": "534884.190278",
    "longitude": "-90.04317655614172",
    "latitude": "29.9645054877613",
    "geocoded_column": {
      "latitude": "29.9645054877613",
      "longitude": "-90.04317655614172"
    }
  },
  {
    "service_request": "2024-1068430",
    "request_type": "Abandoned Vehicles",
    "request_reason": "Vehicle Blocking Your Driveway",
    "date_created": "2024-02-17T04:05:04.000",
    "date_modified": "2024-02-17T04:05:04.000",
    "request_status": "Pending",
    "responsible_agency": "Department of Public Works",
    "final_address": "1226 Independence St",
    "address_councildis": "D",
    "status": "Pending",
    "rowid": "1068430",
    "final_x": "3691067.26044",
    "final_y": "536098.022727",
    "longitude": "-90.03769701310932",
    "latitude": "29.967789692616726",
    "geocoded_column": {
      "latitude": "29.967789692616726",
      "longitude": "-90.03769701310932"
    }
  },
  {
    "service_request": "2024-1068429",
    "request_type": "Trash/Recycling",
    "request_reason": "Order Trash Cart",
    "date_created": "2024-02-17T02:55:57.000",
    "date_modified": "2024-02-17T02:55:57.000",
    "request_status": "Pending",
    "responsible_agency": "Department of Sanitation",
    "final_address": "2214 Philip St",
    "address_councildis": "B",
    "status": "Assigned to Contractor",
    "contractor": "Richards Disposal",
    "rowid": "1068429",
    "final_x": "3675865.88411",
    "final_y": "525221.469245",
    "longitude": "-90.0860773368339",
    "latitude": "29.93834667185693",
    "geocoded_column": {
      "latitude": "29.93834667185693",
      "longitude": "-90.0860773368339"
    }
  },
  {
    "service_request": "2024-1068428",
    "request_type": "Roads/Drainage",
    "request_reason": "Pothole",
    "date_created": "2024-02-16T23:44:16.000",
    "date_modified": "2024-02-16T23:44:16.000",
    "request_status": "Pending",
    "responsible_agency": "Department of Public Works",
    "final_address": "4216 Chestnut St",
    "address_councildis": "B",
    "status": "Pending",
    "rowid": "1068428",
    "final_x": "3671574.31393",
    "final_y": "519539.203703",
    "longitude": "-90.09981939416457",
    "latitude": "29.922850019854593",
    "geocoded_column": {
      "latitude": "29.922850019854593",
      "longitude": "-90.09981939416457"
    }
  },
  {
    "service_request": "2024-1068427",
    "request_type": "Traffic Signals/Signs/Striping/Streetlights",
    "request_reason": "Street Light Outage/Malfunction",
    "date_created": "2024-02-16T23:31:12.000",
    "date_modified": "2024-02-16T23:31:13.000",
    "request_status": "Pending",
    "responsible_agency": "Department of Public Works",
    "final_address": "PALMETTO ST & S CARROLLTON AVE & WASHINGTON AVE",
    "address_councildis": "B",
    "status": "Assigned to Contractor",
    "contractor": "Legacy Professional Services",
    "rowid": "1068427",
    "final_x": "3668174.1",
    "final_y": "535021.78",
    "longitude": "-90.11003080524364",
    "latitude": "29.965522300298428",
    "geocoded_column": {
      "latitude": "29.965522300298428",
      "longitude": "-90.11003080524364"
    }
  },
  {
    "service_request": "2024-1068426",
    "request_type": "Roads/Drainage",
    "request_reason": "Pothole",
    "date_created": "2024-02-16T23:06:41.000",
    "date_modified": "2024-02-16T23:06:41.000",
    "request_status": "Pending",
    "responsible_agency": "Department of Public Works",
    "final_address": "1312 Milan St",
    "address_councildis": "B",
    "status": "Pending",
    "rowid": "1068426",
    "final_x": "3671625.82823",
    "final_y": "520286.919608",
    "longitude": "-90.09963137110304",
    "latitude": "29.92490447494246",
    "geocoded_column": {
      "latitude": "29.92490447494246",
      "longitude": "-90.09963137110304"
    }
  },
  {
    "service_request": "2024-1068425",
    "request_type": "Trash/Recycling",
    "request_reason": "Missed Trash Pick-Up",
    "date_created": "2024-02-16T23:00:34.000",
    "date_modified": "2024-02-16T23:00:35.000",
    "request_status": "Pending",
    "responsible_agency": "Department of Sanitation",
    "final_address": "2329 General Meyer Ave",
    "address_councildis": "C",
    "status": "Assigned to Contractor",
    "contractor": "Richards Disposal",
    "rowid": "1068425",
    "final_x": "3692652.05296",
    "final_y": "527621.965631",
    "longitude": "-90.03299598049206",
    "latitude": "29.944434123735533",
    "geocoded_column": {
      "latitude": "29.944434123735533",
      "longitude": "-90.03299598049206"
    }
  },
  {
    "service_request": "2024-1068424",
    "request_type": "Trash/Recycling",
    "request_reason": "Missed Trash Pick-Up",
    "date_created": "2024-02-16T22:15:30.000",
    "date_modified": "2024-02-17T08:20:48.000",
    "case_close_date": "2024-02-17T02:20:48.000",
    "request_status": "Closed",
    "responsible_agency": "Department of Sanitation",
    "final_address": "4506 St Claude Ave",
    "address_councildis": "C",
    "status": "Invalid Request",
    "contractor": "IV Waste",
    "contractor_action": "Invalid Request",
    "rowid": "1068424",
    "final_x": "3693370.41769",
    "final_y": "534863.163846",
    "longitude": "-90.03046794882333",
    "latitude": "29.964322458050418",
    "geocoded_column": {
      "latitude": "29.964322458050418",
      "longitude": "-90.03046794882333"
    }
  },
  {
    "service_request": "2024-1068423",
    "request_type": "Roads/Drainage",
    "request_reason": "Pothole",
    "date_created": "2024-02-16T21:57:27.000",
    "date_modified": "2024-02-16T21:57:27.000",
    "request_status": "Pending",
    "responsible_agency": "Department of Public Works",
    "final_address": "6215 Hurst St",
    "address_councildis": "A",
    "status": "Pending",
    "rowid": "1068423",
    "final_x": "3664668.32039",
    "final_y": "522243.373626",
    "longitude": "-90.12152872358996",
    "latitude": "29.93048825206563",
    "geocoded_column": {
      "latitude": "29.93048825206563",
      "longitude": "-90.12152872358996"
    }
  },
  {
    "service_request": "2024-1068422",
    "request_type": "Roads/Drainage",
    "request_reason": "Street Flooding / Drainage",
    "date_created": "2024-02-16T21:40:26.000",
    "date_modified": "2024-02-16T21:40:26.000",
    "request_status": "Pending",
    "responsible_agency": "Department of Public Works",
    "final_address": "4560 Eastview Dr",
    "address_councildis": "E",
    "status": "Pending",
    "rowid": "1068422",
    "final_x": "3705108.24894",
    "final_y": "554200.521816",
    "longitude": "-89.9926866528013",
    "latitude": "30.017120771038705",
    "geocoded_column": {
      "latitude": "30.017120771038705",
      "longitude": "-89.9926866528013"
    }
  },
  {
    "service_request": "2024-1068421",
    "request_type": "Trash/Recycling",
    "request_reason": "Replace Recycling Cart",
    "date_created": "2024-02-16T21:36:05.000",
    "date_modified": "2024-02-16T21:36:05.000",
    "request_status": "Pending",
    "responsible_agency": "Department of Sanitation",
    "final_address": "451 Crystal St",
    "address_councildis": "D",
    "status": "Pending",
    "rowid": "1068421",
    "final_x": "3668099.48109",
    "final_y": "556301.409178",
    "longitude": "-90.10954873504271",
    "latitude": "30.024036153331114",
    "geocoded_column": {
      "latitude": "30.024036153331114",
      "longitude": "-90.10954873504271"
    }
  },
  {
    "service_request": "2024-1068420",
    "request_type": "Roads/Drainage",
    "request_reason": "Pothole",
    "date_created": "2024-02-16T21:30:33.000",
    "date_modified": "2024-02-16T21:30:33.000",
    "request_status": "Pending",
    "responsible_agency": "Department of Public Works",
    "final_address": "5823 Perrier St",
    "address_councildis": "A",
    "status": "Pending",
    "rowid": "1068420",
    "final_x": "3665601.07367",
    "final_y": "520421.208184",
    "longitude": "-90.11864512991228",
    "latitude": "29.92545071542357",
    "geocoded_column": {
      "latitude": "29.92545071542357",
      "longitude": "-90.11864512991228"
    }
  },
  {
    "service_request": "2024-1068419",
    "request_type": "Trash/Recycling",
    "request_reason": "MIssed Recycling Pick-Up",
    "date_created": "2024-02-16T21:10:38.000",
    "date_modified": "2024-02-16T21:10:39.000",
    "request_status": "Pending",
    "responsible_agency": "Department of Sanitation",
    "final_address": "8641 Willow St, New Orleans, Louisiana, 70118",
    "address_councildis": "A",
    "status": "Assigned to Contractor",
    "contractor": "Richards Disposal",
    "rowid": "1068419",
    "final_x": "3660919.34413",
    "final_y": "530331.87981",
    "longitude": "-90.13309627435724",
    "latitude": "29.952837565788634",
    "geocoded_column": {
      "latitude": "29.952837565788634",
      "longitude": "-90.13309627435724"
    }
  },
  {
    "service_request": "2024-1068418",
    "request_type": "Roads/Drainage",
    "request_reason": "Pothole",
    "date_created": "2024-02-16T20:56:27.000",
    "date_modified": "2024-02-16T20:56:27.000",
    "request_status": "Pending",
    "responsible_agency": "Department of Public Works",
    "final_address": "5929 Coliseum St",
    "address_councildis": "A",
    "status": "Pending",
    "rowid": "1068418",
    "final_x": "3665263.00756",
    "final_y": "520201.212344",
    "longitude": "-90.11971965943252",
    "latitude": "29.924855645993322",
    "geocoded_column": {
      "latitude": "29.924855645993322",
      "longitude": "-90.11971965943252"
    }
  },
  {
    "service_request": "2024-1068417",
    "request_type": "Trash/Recycling",
    "request_reason": "Missed Trash Pick-Up",
    "date_created": "2024-02-16T20:56:00.000",
    "date_modified": "2024-02-17T08:21:27.000",
    "case_close_date": "2024-02-17T02:21:27.000",
    "request_status": "Closed",
    "responsible_agency": "Department of Sanitation",
    "final_address": "817 Clouet St",
    "address_councildis": "C",
    "status": "Invalid Request",
    "contractor": "IV Waste",
    "contractor_action": "Invalid Request",
    "rowid": "1068417",
    "final_x": "3688783.42217",
    "final_y": "535017.59271",
    "longitude": "-90.04494778424073",
    "latitude": "29.964889697212396",
    "geocoded_column": {
      "latitude": "29.964889697212396",
      "longitude": "-90.04494778424073"
    }
  },
  {
    "service_request": "2024-1068416",
    "request_type": "Abandoned Vehicles",
    "request_reason": "Abandoned/Junk Vehicles",
    "date_created": "2024-02-16T20:55:53.000",
    "date_modified": "2024-02-16T20:55:53.000",
    "request_status": "Pending",
    "responsible_agency": "Department of Public Works",
    "final_address": "Harry's Corner",
    "status": "Pending",
    "rowid": "1068416",
    "longitude": "0.0",
    "latitude": "0.0",
    "geocoded_column": {
      "latitude": "0.0",
      "longitude": "0.0"
    }
  },
  {
    "service_request": "2024-1068414",
    "request_type": "Trash/Recycling",
    "request_reason": "Missed Trash Pick-Up",
    "date_created": "2024-02-16T20:35:06.000",
    "date_modified": "2024-02-17T08:19:47.000",
    "case_close_date": "2024-02-17T02:19:47.000",
    "request_status": "Closed",
    "responsible_agency": "Department of Sanitation",
    "final_address": "4322 Dreux Ave",
    "address_councildis": "D",
    "status": "Assigned to Contractor",
    "contractor": "IV Waste",
    "contractor_action": "Invalid Request",
    "rowid": "1068414",
    "final_x": "3689875.75075",
    "final_y": "552690.969366",
    "longitude": "-90.04086875985439",
    "latitude": "30.013451310252204",
    "geocoded_column": {
      "latitude": "30.013451310252204",
      "longitude": "-90.04086875985439"
    }
  },
  {
    "service_request": "2024-1068413",
    "request_type": "Trash/Recycling",
    "request_reason": "Missed Trash Pick-Up",
    "date_created": "2024-02-16T20:35:00.000",
    "date_modified": "2024-02-17T08:19:31.000",
    "case_close_date": "2024-02-17T02:19:31.000",
    "request_status": "Closed",
    "responsible_agency": "Department of Sanitation",
    "final_address": "4322 Dreux Ave",
    "address_councildis": "D",
    "status": "Assigned to Contractor",
    "contractor": "IV Waste",
    "contractor_action": "Invalid Request",
    "rowid": "1068413",
    "final_x": "3689875.75075",
    "final_y": "552690.969366",
    "longitude": "-90.04086875985439",
    "latitude": "30.013451310252204",
    "geocoded_column": {
      "latitude": "30.013451310252204",
      "longitude": "-90.04086875985439"
    }
  },
  {
    "service_request": "2024-1068412",
    "request_type": "Trash/Recycling",
    "request_reason": "Missed Trash Pick-Up",
    "date_created": "2024-02-16T20:33:44.000",
    "date_modified": "2024-02-17T08:18:36.000",
    "case_close_date": "2024-02-17T02:18:36.000",
    "request_status": "Closed",
    "responsible_agency": "Department of Sanitation",
    "final_address": "4322 Dreux Ave",
    "address_councildis": "D",
    "status": "Invalid Request",
    "contractor": "IV Waste",
    "contractor_action": "Invalid Request",
    "rowid": "1068412",
    "final_x": "3689875.75075",
    "final_y": "552690.969366",
    "longitude": "-90.04086875985439",
    "latitude": "30.013451310252204",
    "geocoded_column": {
      "latitude": "30.013451310252204",
      "longitude": "-90.04086875985439"
    }
  },
  {
    "service_request": "2024-1068411",
    "request_type": "Trash/Recycling",
    "request_reason": "MIssed Recycling Pick-Up",
    "date_created": "2024-02-16T20:25:37.000",
    "date_modified": "2024-02-16T20:25:37.000",
    "request_status": "Pending",
    "responsible_agency": "Department of Sanitation",
    "final_address": "8506 Apricot St",
    "address_councildis": "A",
    "status": "Assigned to Contractor",
    "contractor": "Richards Disposal",
    "rowid": "1068411",
    "final_x": "3664686.92685",
    "final_y": "533611.932741",
    "longitude": "-90.12109029887758",
    "latitude": "29.961747590287853",
    "geocoded_column": {
      "latitude": "29.961747590287853",
      "longitude": "-90.12109029887758"
    }
  },
  {
    "service_request": "2024-1068410",
    "request_type": "Trash/Recycling",
    "request_reason": "MIssed Recycling Pick-Up",
    "date_created": "2024-02-16T20:22:49.000",
    "date_modified": "2024-02-16T20:22:50.000",
    "request_status": "Pending",
    "responsible_agency": "Department of Sanitation",
    "final_address": "8410 Panola St",
    "address_councildis": "A",
    "status": "Assigned to Contractor",
    "contractor": "Richards Disposal",
    "rowid": "1068410",
    "final_x": "3663195.32506",
    "final_y": "531479.573955",
    "longitude": "-90.12587151546492",
    "latitude": "29.955927604064236",
    "geocoded_column": {
      "latitude": "29.955927604064236",
      "longitude": "-90.12587151546492"
    }
  },
  {
    "service_request": "2024-1068409",
    "request_type": "Trash/Recycling",
    "request_reason": "MIssed Recycling Pick-Up",
    "date_created": "2024-02-16T20:21:12.000",
    "date_modified": "2024-02-17T08:12:07.000",
    "case_close_date": "2024-02-17T02:12:07.000",
    "request_status": "Closed",
    "responsible_agency": "Department of Sanitation",
    "final_address": "1335 Bartholomew St",
    "address_councildis": "D",
    "status": "Invalid Request",
    "contractor": "IV Waste",
    "contractor_action": "Invalid Request",
    "rowid": "1068409",
    "final_x": "3692091.70921",
    "final_y": "536300.798727",
    "longitude": "-90.0344545280678",
    "latitude": "29.968315363969687",
    "geocoded_column": {
      "latitude": "29.968315363969687",
      "longitude": "-90.0344545280678"
    }
  },
  {
    "service_request": "2024-1068408",
    "request_type": "Trash/Recycling",
    "request_reason": "Missed Trash Pick-Up",
    "date_created": "2024-02-16T20:19:37.000",
    "date_modified": "2024-02-17T08:17:42.000",
    "case_close_date": "2024-02-17T02:17:42.000",
    "request_status": "Closed",
    "responsible_agency": "Department of Sanitation",
    "final_address": "1335 Bartholomew St",
    "address_councildis": "D",
    "status": "Invalid Request",
    "contractor": "IV Waste",
    "contractor_action": "Invalid Request",
    "rowid": "1068408",
    "final_x": "3692091.70921",
    "final_y": "536300.798727",
    "longitude": "-90.0344545280678",
    "latitude": "29.968315363969687",
    "geocoded_column": {
      "latitude": "29.968315363969687",
      "longitude": "-90.0344545280678"
    }
  },
  {
    "service_request": "2024-1068407",
    "request_type": "Trash/Recycling",
    "request_reason": "Missed Trash Pick-Up",
    "date_created": "2024-02-16T20:19:01.000",
    "date_modified": "2024-02-17T08:16:53.000",
    "case_close_date": "2024-02-17T02:16:53.000",
    "request_status": "Closed",
    "responsible_agency": "Department of Sanitation",
    "final_address": "3005 Dauphine St, New Orleans, Louisiana, 70117",
    "address_councildis": "C",
    "status": "Invalid Request",
    "contractor": "IV Waste",
    "contractor_action": "Invalid Request",
    "rowid": "1068407",
    "final_x": "3688208.94243",
    "final_y": "535011.52871",
    "longitude": "-90.0467621651806",
    "latitude": "29.964890772124892",
    "geocoded_column": {
      "latitude": "29.964890772124892",
      "longitude": "-90.0467621651806"
    }
  },
  {
    "service_request": "2024-1068406",
    "request_type": "Trash/Recycling",
    "request_reason": "Missed Trash Pick-Up",
    "date_created": "2024-02-16T19:57:21.000",
    "date_modified": "2024-02-16T19:57:22.000",
    "request_status": "Pending",
    "responsible_agency": "Department of Sanitation",
    "final_address": "6034 St Charles Ave",
    "address_councildis": "A",
    "status": "Assigned to Contractor",
    "contractor": "Richards Disposal",
    "rowid": "1068406",
    "final_x": "3665407.96992",
    "final_y": "522600.059258",
    "longitude": "-90.11918182093287",
    "latitude": "29.931447495065896",
    "geocoded_column": {
      "latitude": "29.931447495065896",
      "longitude": "-90.11918182093287"
    }
  },
  {
    "service_request": "2024-1068405",
    "request_type": "Trash/Recycling",
    "request_reason": "Missed Trash Pick-Up",
    "date_created": "2024-02-16T19:47:10.000",
    "date_modified": "2024-02-16T19:47:11.000",
    "request_status": "Pending",
    "responsible_agency": "Department of Sanitation",
    "final_address": "1930 State St",
    "address_councildis": "A",
    "status": "Assigned to Contractor",
    "contractor": "Richards Disposal",
    "rowid": "1068405",
    "final_x": "3666180.63591",
    "final_y": "524024.275388",
    "longitude": "-90.11669485948651",
    "latitude": "29.935341101152154",
    "geocoded_column": {
      "latitude": "29.935341101152154",
      "longitude": "-90.11669485948651"
    }
  },
  {
    "service_request": "2024-1068404",
    "request_type": "Abandoned Vehicles",
    "request_reason": "Abandoned/Junk Vehicles",
    "date_created": "2024-02-16T19:36:42.000",
    "date_modified": "2024-02-16T19:36:42.000",
    "request_status": "Pending",
    "responsible_agency": "Department of Public Works",
    "final_address": "2139 Third St",
    "address_councildis": "B",
    "status": "Pending",
    "rowid": "1068404",
    "final_x": "3675306.39381",
    "final_y": "524648.421308",
    "longitude": "-90.08786336901053",
    "latitude": "29.936787711428913",
    "geocoded_column": {
      "latitude": "29.936787711428913",
      "longitude": "-90.08786336901053"
    }
  },
  {
    "service_request": "2024-1068403",
    "request_type": "Trash/Recycling",
    "request_reason": "Missed Trash Pick-Up",
    "date_created": "2024-02-16T19:29:36.000",
    "date_modified": "2024-02-16T19:29:36.000",
    "request_status": "Pending",
    "responsible_agency": "Department of Sanitation",
    "final_address": "2714 Octavia St, New Orleans, Louisiana, 70115",
    "address_councildis": "A",
    "status": "Assigned to Contractor",
    "contractor": "Richards Disposal",
    "rowid": "1068403",
    "final_x": "3667861.91418",
    "final_y": "525502.139901",
    "longitude": "-90.11133728499603",
    "latitude": "29.93935556097471",
    "geocoded_column": {
      "latitude": "29.93935556097471",
      "longitude": "-90.11133728499603"
    }
  },
  {
    "service_request": "2024-1068402",
    "request_type": "Trash/Recycling",
    "request_reason": "Missed Trash Pick-Up",
    "date_created": "2024-02-16T19:14:32.000",
    "date_modified": "2024-02-16T19:14:33.000",
    "request_status": "Pending",
    "responsible_agency": "Department of Sanitation",
    "final_address": "1736 Audubon St",
    "address_councildis": "A",
    "status": "Assigned to Contractor",
    "contractor": "Richards Disposal",
    "rowid": "1068402",
    "final_x": "3665545.64551",
    "final_y": "528080.468031",
    "longitude": "-90.11856377627734",
    "latitude": "29.946512854554822",
    "geocoded_column": {
      "latitude": "29.946512854554822",
      "longitude": "-90.11856377627734"
    }
  },
  {
    "service_request": "2024-1068401",
    "request_type": "Trash/Recycling",
    "request_reason": "Missed Trash Pick-Up",
    "date_created": "2024-02-16T19:14:14.000",
    "date_modified": "2024-02-16T19:14:15.000",
    "request_status": "Pending",
    "responsible_agency": "Department of Sanitation",
    "final_address": "2700 BLK Jefferson Ave",
    "address_councildis": "A",
    "status": "Assigned to Contractor",
    "contractor": "Richards Disposal",
    "rowid": "1068401",
    "final_x": "3668223.36923",
    "final_y": "525461.48397",
    "longitude": "-90.11019749107834",
    "latitude": "29.93923316592019",
    "geocoded_column": {
      "latitude": "29.93923316592019",
      "longitude": "-90.11019749107834"
    }
  },
  {
    "service_request": "2024-1068400",
    "request_type": "Trash/Recycling",
    "request_reason": "MIssed Recycling Pick-Up",
    "date_created": "2024-02-16T19:04:17.000",
    "date_modified": "2024-02-17T08:11:33.000",
    "case_close_date": "2024-02-17T02:11:33.000",
    "request_status": "Closed",
    "responsible_agency": "Department of Sanitation",
    "final_address": "1305 Independence St",
    "address_councildis": "D",
    "status": "Invalid Request",
    "contractor": "IV Waste",
    "contractor_action": "Invalid Pick-Up",
    "rowid": "1068400",
    "final_x": "3691224.7174",
    "final_y": "536296.618567",
    "longitude": "-90.0371926669406",
    "latitude": "29.96833086477005",
    "geocoded_column": {
      "latitude": "29.96833086477005",
      "longitude": "-90.0371926669406"
    }
  },
  {
    "service_request": "2024-1068399",
    "request_type": "Trash/Recycling",
    "request_reason": "Missed Trash Pick-Up",
    "date_created": "2024-02-16T19:03:50.000",
    "date_modified": "2024-02-16T19:03:51.000",
    "request_status": "Pending",
    "responsible_agency": "Department of Sanitation",
    "final_address": "1923 Octavia St",
    "address_councildis": "A",
    "status": "Assigned to Contractor",
    "contractor": "Richards Disposal",
    "rowid": "1068399",
    "final_x": "3667383.53908",
    "final_y": "522873.401595",
    "longitude": "-90.11293597525905",
    "latitude": "29.932141391355728",
    "geocoded_column": {
      "latitude": "29.932141391355728",
      "longitude": "-90.11293597525905"
    }
  },
  {
    "service_request": "2024-1068398",
    "request_type": "Trash/Recycling",
    "request_reason": "Missed Trash Pick-Up",
    "date_created": "2024-02-16T19:03:43.000",
    "date_modified": "2024-02-17T08:16:01.000",
    "case_close_date": "2024-02-17T02:16:01.000",
    "request_status": "Closed",
    "responsible_agency": "Department of Sanitation",
    "final_address": "1305 Independence St",
    "address_councildis": "D",
    "status": "Invalid Request",
    "contractor": "IV Waste",
    "contractor_action": "Invalid Request",
    "rowid": "1068398",
    "final_x": "3691224.7174",
    "final_y": "536296.618567",
    "longitude": "-90.0371926669406",
    "latitude": "29.96833086477005",
    "geocoded_column": {
      "latitude": "29.96833086477005",
      "longitude": "-90.0371926669406"
    }
  },
  {
    "service_request": "2024-1068397",
    "request_type": "Trash/Recycling",
    "request_reason": "Replace Trash Cart",
    "date_created": "2024-02-16T18:59:00.000",
    "date_modified": "2024-02-16T18:59:00.000",
    "request_status": "Pending",
    "responsible_agency": "Department of Sanitation",
    "final_address": "132 S Norman C Francis Prkwy",
    "address_councildis": "B",
    "status": "Assigned to Contractor",
    "contractor": "Richards Disposal",
    "rowid": "1068397",
    "final_x": "3673104.8804",
    "final_y": "536361.157447",
    "longitude": "-90.09441385046661",
    "latitude": "29.969059470778237",
    "geocoded_column": {
      "latitude": "29.969059470778237",
      "longitude": "-90.09441385046661"
    }
  },
  {
    "service_request": "2024-1068396",
    "request_type": "Roads/Drainage",
    "request_reason": "Man hole cover issue",
    "date_created": "2024-02-16T18:27:17.000",
    "date_modified": "2024-02-16T19:01:39.000",
    "request_status": "Pending",
    "responsible_agency": "Department of Public Works",
    "final_address": "4853 Magazine Street",
    "address_councildis": "B",
    "status": "Pending",
    "rowid": "1068396",
    "final_x": "3669116.97415",
    "final_y": "518684.539703",
    "longitude": "-90.10760513357297",
    "latitude": "29.92057247450814",
    "geocoded_column": {
      "latitude": "29.92057247450814",
      "longitude": "-90.10760513357297"
    }
  },
  {
    "service_request": "2024-1068395",
    "request_type": "Trash/Recycling",
    "request_reason": "Illegal Dumping",
    "date_created": "2024-02-16T18:20:29.000",
    "date_modified": "2024-02-16T18:20:29.000",
    "request_status": "Pending",
    "responsible_agency": "Department of Sanitation",
    "final_address": "3737 Piedmont Dr",
    "address_councildis": "D",
    "status": "Pending",
    "rowid": "1068395",
    "final_x": "3685736.85769",
    "final_y": "546719.237137",
    "longitude": "-90.05415609282706",
    "latitude": "29.997158931083696",
    "geocoded_column": {
      "latitude": "29.997158931083696",
      "longitude": "-90.05415609282706"
    }
  },
  {
    "service_request": "2024-1068394",
    "request_type": "Trash/Recycling",
    "request_reason": "Missed Trash Pick-Up",
    "date_created": "2024-02-16T18:17:21.000",
    "date_modified": "2024-02-16T18:45:49.000",
    "case_close_date": "2024-02-16T12:45:49.000",
    "request_status": "Closed",
    "responsible_agency": "Department of Sanitation",
    "final_address": "7620 Crestmont Rd",
    "address_councildis": "E",
    "status": "Assigned to Contractor",
    "contractor": "Waste Pro",
    "contractor_action": "Invalid Request",
    "rowid": "1068394",
    "final_x": "3699568.4778",
    "final_y": "560282.931293",
    "longitude": "-90.00996799967164",
    "latitude": "30.034022120876525",
    "geocoded_column": {
      "latitude": "30.034022120876525",
      "longitude": "-90.00996799967164"
    }
  },
  {
    "service_request": "2024-1068393",
    "request_type": "Trash/Recycling",
    "request_reason": "Missed Trash Pick-Up",
    "date_created": "2024-02-16T18:16:13.000",
    "date_modified": "2024-02-16T18:47:48.000",
    "case_close_date": "2024-02-16T12:47:48.000",
    "request_status": "Closed",
    "responsible_agency": "Department of Sanitation",
    "final_address": "7620 Crestmont Rd",
    "address_councildis": "E",
    "status": "Assigned to Contractor",
    "contractor": "Waste Pro",
    "contractor_action": "Invalid Request",
    "rowid": "1068393",
    "final_x": "3699568.4778",
    "final_y": "560282.931293",
    "longitude": "-90.00996799967164",
    "latitude": "30.034022120876525",
    "geocoded_column": {
      "latitude": "30.034022120876525",
      "longitude": "-90.00996799967164"
    }
  },
  {
    "service_request": "2024-1068391",
    "request_type": "Trash/Recycling",
    "request_reason": "Request a Large Item Pick Up",
    "date_created": "2024-02-16T18:00:00.000",
    "date_modified": "2024-02-16T18:00:01.000",
    "request_status": "Pending",
    "responsible_agency": "Department of Sanitation",
    "final_address": "4701 Duplessis St",
    "address_councildis": "D",
    "status": "Assigned to Contractor",
    "contractor": "IV Waste",
    "rowid": "1068391",
    "final_x": "3678260.4541",
    "final_y": "549793.218452",
    "longitude": "-90.07766733673782",
    "latitude": "30.00583866643691",
    "geocoded_column": {
      "latitude": "30.00583866643691",
      "longitude": "-90.07766733673782"
    }
  },
  {
    "service_request": "2024-1068390",
    "request_type": "Trash/Recycling",
    "request_reason": "Missed Trash Pick-Up",
    "date_created": "2024-02-16T17:58:45.000",
    "date_modified": "2024-02-16T17:58:46.000",
    "request_status": "Pending",
    "responsible_agency": "Department of Sanitation",
    "final_address": "1325 Farragut St",
    "address_councildis": "C",
    "status": "Assigned to Contractor",
    "contractor": "Richards Disposal",
    "rowid": "1068390",
    "final_x": "3692298.60963",
    "final_y": "526360.379006",
    "longitude": "-90.0341570612527",
    "latitude": "29.940976217895297",
    "geocoded_column": {
      "latitude": "29.940976217895297",
      "longitude": "-90.0341570612527"
    }
  },
  {
    "service_request": "2024-1068389",
    "request_type": "Health Related Request",
    "request_reason": "Noise Ordinance Complaint",
    "date_created": "2024-02-16T17:53:08.000",
    "date_modified": "2024-02-16T17:53:08.000",
    "request_status": "Pending",
    "responsible_agency": "Health Department",
    "final_address": "515 Warrington Dr",
    "address_councildis": "D",
    "status": "Pending",
    "rowid": "1068389",
    "final_x": "3681276.7821",
    "final_y": "548663.409747",
    "longitude": "-90.0681774678627",
    "latitude": "30.00264086509633",
    "geocoded_column": {
      "latitude": "30.00264086509633",
      "longitude": "-90.0681774678627"
    }
  },
  {
    "service_request": "2024-1068388",
    "request_type": "Trash/Recycling",
    "request_reason": "Missed Trash Pick-Up",
    "date_created": "2024-02-16T17:43:09.000",
    "date_modified": "2024-02-16T17:43:10.000",
    "request_status": "Pending",
    "responsible_agency": "Department of Sanitation",
    "final_address": "6023 Patton St",
    "address_councildis": "A",
    "status": "Assigned to Contractor",
    "contractor": "Richards Disposal",
    "rowid": "1068388",
    "final_x": "3664296.46381",
    "final_y": "518663.854007",
    "longitude": "-90.12282200169096",
    "latitude": "29.920656505028848",
    "geocoded_column": {
      "latitude": "29.920656505028848",
      "longitude": "-90.12282200169096"
    }
  },
  {
    "service_request": "2024-1068387",
    "request_type": "Trash/Recycling",
    "request_reason": "Missed Trash Pick-Up",
    "date_created": "2024-02-16T17:41:27.000",
    "date_modified": "2024-02-16T17:41:28.000",
    "request_status": "Pending",
    "responsible_agency": "Department of Sanitation",
    "final_address": "2228 Calhoun St",
    "address_councildis": "A",
    "status": "Assigned to Contractor",
    "contractor": "Richards Disposal",
    "rowid": "1068387",
    "final_x": "3665845.29069",
    "final_y": "525360.751101",
    "longitude": "-90.11770878708177",
    "latitude": "29.939025768907346",
    "geocoded_column": {
      "latitude": "29.939025768907346",
      "longitude": "-90.11770878708177"
    }
  },
  {
    "service_request": "2024-1068386",
    "request_type": "Trash/Recycling",
    "request_reason": "Request a Large Item Pick Up",
    "date_created": "2024-02-16T17:12:52.000",
    "date_modified": "2024-02-16T17:12:53.000",
    "request_status": "Pending",
    "responsible_agency": "Department of Sanitation",
    "final_address": "3748 Silver Maple Ct",
    "address_councildis": "C",
    "status": "Assigned to Contractor",
    "contractor": "Richards Disposal",
    "rowid": "1068386",
    "final_x": "3703492.23799",
    "final_y": "512692.723441",
    "longitude": "-89.99931939625145",
    "latitude": "29.90304116728575",
    "geocoded_column": {
      "latitude": "29.90304116728575",
      "longitude": "-89.99931939625145"
    }
  },
  {
    "service_request": "2024-1068385",
    "request_type": "Property Maintenance",
    "request_reason": "Property Maintenance",
    "date_created": "2024-02-16T17:06:44.000",
    "date_modified": "2024-02-16T17:06:44.000",
    "request_status": "Pending",
    "responsible_agency": "Department of Code Enforcement",
    "final_address": "547 Leboeuf St",
    "address_councildis": "C",
    "status": "Pending",
    "rowid": "1068385",
    "final_x": "3689772.20515",
    "final_y": "529446.649089",
    "longitude": "-90.0420235411311",
    "latitude": "29.94954092646724",
    "geocoded_column": {
      "latitude": "29.94954092646724",
      "longitude": "-90.0420235411311"
    }
  },
  {
    "service_request": "2024-1068384",
    "request_type": "Trash/Recycling",
    "request_reason": "Missed Trash Pick-Up",
    "date_created": "2024-02-16T17:01:07.000",
    "date_modified": "2024-02-16T17:01:09.000",
    "request_status": "Pending",
    "responsible_agency": "Department of Sanitation",
    "final_address": "5523 Magazine St",
    "address_councildis": "A",
    "status": "Assigned to Contractor",
    "contractor": "Richards Disposal",
    "rowid": "1068384",
    "final_x": "3666252.95425",
    "final_y": "518906.549047",
    "longitude": "-90.11663810711416",
    "latitude": "29.921266861735837",
    "geocoded_column": {
      "latitude": "29.921266861735837",
      "longitude": "-90.11663810711416"
    }
  },
  {
    "service_request": "2024-1068383",
    "request_type": "Traffic Signals/Signs/Striping/Streetlights",
    "request_reason": "Traffic Signal Malfunctioning/Damaged",
    "date_created": "2024-02-16T16:55:56.000",
    "date_modified": "2024-02-16T16:55:57.000",
    "request_status": "Pending",
    "responsible_agency": "Department of Public Works",
    "final_address": "GENERAL DE GAULLE DR & L B LANDRY AVE",
    "address_councildis": "C",
    "status": "Pending",
    "rowid": "1068383",
    "final_x": "3689906.47",
    "final_y": "522584.32",
    "longitude": "-90.04184382396672",
    "latitude": "29.9306676962036",
    "geocoded_column": {
      "latitude": "29.9306676962036",
      "longitude": "-90.04184382396672"
    }
  },
  {
    "service_request": "2024-1068382",
    "request_type": "Trash/Recycling",
    "request_reason": "Missed Trash Pick-Up",
    "date_created": "2024-02-16T16:55:05.000",
    "date_modified": "2024-02-17T08:24:51.000",
    "case_close_date": "2024-02-17T02:24:51.000",
    "request_status": "Closed",
    "responsible_agency": "Department of Sanitation",
    "final_address": "3016 Peoples Ave",
    "address_councildis": "D",
    "status": "Invalid Request",
    "contractor": "IV Waste",
    "contractor_action": "Invalid Request",
    "rowid": "1068382",
    "final_x": "3688628.14287",
    "final_y": "544176.559758",
    "longitude": "-90.04511297126939",
    "latitude": "29.990078416449702",
    "geocoded_column": {
      "latitude": "29.990078416449702",
      "longitude": "-90.04511297126939"
    }
  },
  {
    "service_request": "2024-1068381",
    "request_type": "Trash/Recycling",
    "request_reason": "Missed Trash Pick-Up",
    "date_created": "2024-02-16T16:50:54.000",
    "date_modified": "2024-02-16T16:50:54.000",
    "request_status": "Pending",
    "responsible_agency": "Department of Sanitation",
    "final_address": "5000 Freret St",
    "address_councildis": "B",
    "status": "Assigned to Contractor",
    "contractor": "Richards Disposal",
    "rowid": "1068381",
    "final_x": "3668756.22318",
    "final_y": "523834.852539",
    "longitude": "-90.10857009111805",
    "latitude": "29.934744801817402",
    "geocoded_column": {
      "latitude": "29.934744801817402",
      "longitude": "-90.10857009111805"
    }
  },
  {
    "service_request": "2024-1068380",
    "request_type": "Trash/Recycling",
    "request_reason": "Replace Trash Cart",
    "date_created": "2024-02-16T16:50:20.000",
    "date_modified": "2024-02-16T16:50:21.000",
    "request_status": "Pending",
    "responsible_agency": "Department of Sanitation",
    "final_address": "4033 Odin St",
    "address_councildis": "D",
    "status": "Assigned to Contractor",
    "contractor": "IV Waste",
    "rowid": "1068380",
    "final_x": "3689019.05993",
    "final_y": "553890.193111",
    "longitude": "-90.04353279530017",
    "latitude": "30.016775274411298",
    "geocoded_column": {
      "latitude": "30.016775274411298",
      "longitude": "-90.04353279530017"
    }
  },
  {
    "service_request": "2024-1068379",
    "request_type": "Roads/Drainage",
    "request_reason": "Catch Basin - Clogged",
    "date_created": "2024-02-16T16:44:26.000",
    "date_modified": "2024-02-16T16:44:26.000",
    "request_status": "Pending",
    "responsible_agency": "Department of Public Works",
    "final_address": "6521 Spanish Fort Blvd",
    "address_councildis": "D",
    "status": "Pending",
    "rowid": "1068379",
    "final_x": "3674192.7538",
    "final_y": "556167.959578",
    "longitude": "-90.09029969566677",
    "latitude": "30.02348886776225",
    "geocoded_column": {
      "latitude": "30.02348886776225",
      "longitude": "-90.09029969566677"
    }
  },
  {
    "service_request": "2024-1068378",
    "request_type": "Traffic Signals/Signs/Striping/Streetlights",
    "request_reason": "Traffic Signal Malfunctioning/Damaged",
    "date_created": "2024-02-16T16:42:37.000",
    "date_modified": "2024-02-16T16:42:37.000",
    "request_status": "Pending",
    "responsible_agency": "Department of Public Works",
    "final_address": "6200 BLK Elysian Fields Ave",
    "address_councildis": "D",
    "status": "Pending",
    "rowid": "1068378",
    "final_x": "3683355.25628",
    "final_y": "555948.213022",
    "longitude": "-90.06135583082654",
    "latitude": "30.022608157694314",
    "geocoded_column": {
      "latitude": "30.022608157694314",
      "longitude": "-90.06135583082654"
    }
  },