[
  {
    "service_request": "2026-1297726",
    "request_type": "Traffic Signals",
    "request_reason": "Traffic Signal Flashing",
    "date_created": "2026-07-07T23:55:26.000",
    "date_modified": "2026-07-07T23:55:29.000",
    "request_status": "Pending",
    "final_address": "800 BLK Poydras St",
    "address_councildis": "B",
    "rowid": "1297726",
    "final_x": "3680193.93616",
    "final_y": "529523.548024",
    "longitude": "-90.07226377995379",
    "latitude": "29.95004570318328",
    "geocoded_column": {
      "latitude": "29.95004570318328",
      "longitude": "-90.07226377995379"
    }
  },
  {
    "service_request": "2026-1297725",
    "request_type": "Traffic Signals",
    "request_reason": "Traffic Signal Flashing",
    "date_created": "2026-07-07T23:53:32.000",
    "date_modified": "2026-07-07T23:53:34.000",
    "request_status": "Pending",
    "final_address": "100 BLK Baronne St",
    "address_councildis": "B",
    "rowid": "1297725",
    "final_x": "3680400.33733",
    "final_y": "530892.199486",
    "longitude": "-90.07156448832164",
    "latitude": "29.95380278606142",
    "geocoded_column": {
      "latitude": "29.95380278606142",
      "longitude": "-90.07156448832164"
    }
  },
  {
    "service_request": "2026-1297724",
    "request_type": "Trash/Recycling",
    "request_reason": "Order Second Trash Cart",
    "date_created": "2026-07-07T23:46:35.000",
    "date_modified": "2026-07-07T23:46:37.000",
    "request_status": "Pending",
    "responsible_agency": "Department of Sanitation",
    "final_address": "5830 E Louis Prima Dr",
    "address_councildis": "E",
    "status": "Assigned to Contractor",
    "contractor": "Waste Pro",
    "rowid": "1297724",
    "final_x": "3715617.11532",
    "final_y": "562819.016672",
    "longitude": "-89.95915674474126",
    "latitude": "30.04047592444048",
    "geocoded_column": {
      "latitude": "30.04047592444048",
      "longitude": "-89.95915674474126"
    }
  },
  {
    "service_request": "2026-1297723",
    "request_type": "Tree Service",
    "request_reason": "Tree Trim",
    "date_created": "2026-07-07T22:20:46.000",
    "date_modified": "2026-07-07T22:20:47.000",
    "request_status": "Pending",
    "responsible_agency": "Department of Parks & Parkways",
    "final_address": "4631 Prytania St",
    "address_councildis": "B",
    "status": "Pending",
    "rowid": "1297723",
    "final_x": "3669906.2329",
    "final_y": "520268.64684",
    "longitude": "-90.10506020337536",
    "latitude": "29.92490502757363",
    "geocoded_column": {
      "latitude": "29.92490502757363",
      "longitude": "-90.10506020337536"
    }
  },
  {
    "service_request": "2026-1297722",
    "request_type": "Roads and Streets",
    "request_reason": "Street Subsidence (Sinking)",
    "date_created": "2026-07-07T22:12:03.000",
    "date_modified": "2026-07-07T22:12:06.000",
    "request_status": "Pending",
    "responsible_agency": "Sewerage & Water Board",
    "final_address": "2545 Eton St",
    "address_councildis": "C",
    "status": "Pending",
    "rowid": "1297722",
    "final_x": "3703960.2817",
    "final_y": "521826.297274",
    "longitude": "-89.99750622356397",
    "latitude": "29.92814036388335",
    "geocoded_column": {
      "latitude": "29.92814036388335",
      "longitude": "-89.99750622356397"
    }
  },
  {
    "service_request": "2026-1297721",
    "request_type": "Trash/Recycling",
    "request_reason": "Request a Large Item Pick Up",
    "date_created": "2026-07-07T21:52:24.000",
    "date_modified": "2026-07-07T21:52:27.000",
    "request_status": "Pending",
    "responsible_agency": "Department of Sanitation",
    "final_address": "2537 Winthrop St",
    "address_councildis": "E",
    "status": "Assigned to Contractor",
    "contractor": "Waste Pro",
    "rowid": "1297721",
    "final_x": "3700815.24689",
    "final_y": "538926.367626",
    "longitude": "-90.0068093922112",
    "latitude": "29.975259940973487",
    "geocoded_column": {
      "latitude": "29.975259940973487",
      "longitude": "-90.0068093922112"
    }
  },
  {
    "service_request": "2026-1297720",
    "request_type": "Abandoned Vehicles",
    "request_reason": "Abandoned/Junk Vehicles",
    "date_created": "2026-07-07T21:40:25.000",
    "date_modified": "2026-07-07T21:40:27.000",
    "request_status": "Pending",
    "responsible_agency": "Department of Public Works",
    "final_address": "1447 Euterpe St",
    "address_councildis": "B",
    "status": "Pending",
    "rowid": "1297720",
    "final_x": "3679417.93039",
    "final_y": "524712.076924",
    "longitude": "-90.07488084404304",
    "latitude": "29.93683921940913",
    "geocoded_column": {
      "latitude": "29.93683921940913",
      "longitude": "-90.07488084404304"
    }
  },
  {
    "service_request": "2026-1297719",
    "request_type": "Trash/Recycling",
    "request_reason": "Request a Large Item Pick Up",
    "date_created": "2026-07-07T21:39:11.000",
    "date_modified": "2026-07-07T21:39:13.000",
    "request_status": "Pending",
    "responsible_agency": "Department of Sanitation",
    "final_address": "4842 Gabriel Dr",
    "address_councildis": "E",
    "status": "Assigned to Contractor",
    "contractor": "Waste Pro",
    "rowid": "1297719",
    "final_x": "3708759.61144",
    "final_y": "556382.21609",
    "longitude": "-89.98106859726059",
    "latitude": "30.023001607871134",
    "geocoded_column": {
      "latitude": "30.023001607871134",
      "longitude": "-89.98106859726059"
    }
  },
  {
    "service_request": "2026-1297718",
    "request_type": "Streetlights",
    "request_reason": "Streetlight Outage/Malfunction",
    "date_created": "2026-07-07T21:35:07.000",
    "date_modified": "2026-07-07T21:35:10.000",
    "request_status": "Pending",
    "responsible_agency": "Department of Public Works",
    "final_address": "839 Orleans Ave",
    "address_councildis": "C",
    "status": "Pending",
    "rowid": "1297718",
    "final_x": "3682133.37167",
    "final_y": "533028.425092",
    "longitude": "-90.06601768354246",
    "latitude": "29.95962409245391",
    "geocoded_column": {
      "latitude": "29.95962409245391",
      "longitude": "-90.06601768354246"
    }
  },
  {
    "service_request": "2026-1297717",
    "request_type": "Streetlights",
    "request_reason": "Streetlight Outage/Malfunction",
    "date_created": "2026-07-07T21:23:22.000",
    "date_modified": "2026-07-07T21:23:24.000",
    "request_status": "Pending",
    "responsible_agency": "Department of Public Works",
    "final_address": "211 N Norman C Francis Prkwy",
    "address_councildis": "B",
    "status": "Pending",
    "rowid": "1297717",
    "final_x": "3673422.67284",
    "final_y": "537252.999432",
    "longitude": "-90.093379759907",
    "latitude": "29.971502282806032",
    "geocoded_column": {
      "latitude": "29.971502282806032",
      "longitude": "-90.093379759907"
    }
  },
  {
    "service_request": "2026-1297716",
    "request_type": "Drainage",
    "request_reason": "Catch Basin Not Draining",
    "date_created": "2026-07-07T20:47:01.000",
    "date_modified": "2026-07-07T20:47:03.000",
    "request_status": "Pending",
    "responsible_agency": "Sewerage & Water Board",
    "final_address": "WISNER BLVD & DESAIX BLVD",
    "address_councildis": "A",
    "status": "Pending",
    "rowid": "1297716",
    "final_x": "3675044.5",
    "final_y": "543785.48",
    "longitude": "-90.08803357315055",
    "latitude": "29.989416002989834",
    "geocoded_column": {
      "latitude": "29.989416002989834",
      "longitude": "-90.08803357315055"
    }
  },
  {
    "service_request": "2026-1297715",
    "request_type": "Drainage",
    "request_reason": "Catch Basin Not Draining",
    "date_created": "2026-07-07T20:43:52.000",
    "date_modified": "2026-07-07T20:43:58.000",
    "request_status": "Pending",
    "responsible_agency": "Sewerage & Water Board",
    "final_address": "1922 Moss St",
    "address_councildis": "D",
    "status": "Pending",
    "rowid": "1297715",
    "final_x": "3675501.31054",
    "final_y": "543914.596238",
    "longitude": "-90.08658620032703",
    "latitude": "29.989757368883478",
    "geocoded_column": {
      "latitude": "29.989757368883478",
      "longitude": "-90.08658620032703"
    }
  },
  {
    "service_request": "2026-1297714",
    "request_type": "Streetlights",
    "request_reason": "Streetlight Outage/Malfunction",
    "date_created": "2026-07-07T20:42:03.000",
    "date_modified": "2026-07-07T20:42:04.000",
    "request_status": "Pending",
    "responsible_agency": "Department of Public Works",
    "final_address": "2311 Wirth Pl",
    "address_councildis": "A",
    "status": "Pending",
    "rowid": "1297714",
    "final_x": "3667197.21236",
    "final_y": "524614.96102",
    "longitude": "-90.11346566106646",
    "latitude": "29.93693557879846",
    "geocoded_column": {
      "latitude": "29.93693557879846",
      "longitude": "-90.11346566106646"
    }
  },
  {
    "service_request": "2026-1297713",
    "request_type": "Streetlights",
    "request_reason": "Streetlight Outage/Malfunction",
    "date_created": "2026-07-07T20:39:56.000",
    "date_modified": "2026-07-07T20:40:00.000",
    "request_status": "Pending",
    "responsible_agency": "Department of Public Works",
    "final_address": "4791 Rosalia Dr",
    "address_councildis": "E",
    "status": "Pending",
    "rowid": "1297713",
    "final_x": "3711226.29035",
    "final_y": "556195.688794",
    "longitude": "-89.9732815154903",
    "latitude": "30.02240845726258",
    "geocoded_column": {
      "latitude": "30.02240845726258",
      "longitude": "-89.9732815154903"
    }
  },
  {
    "service_request": "2026-1297712",
    "request_type": "Trash/Recycling",
    "request_reason": "Order Trash Cart",
    "date_created": "2026-07-07T20:29:24.000",
    "date_modified": "2026-07-07T20:29:27.000",
    "request_status": "Pending",
    "responsible_agency": "Department of Sanitation",
    "final_address": "4233 Fontainebleau Dr",
    "address_councildis": "B",
    "status": "Assigned to Contractor",
    "contractor": "IV Waste",
    "rowid": "1297712",
    "final_x": "3669584.77095",
    "final_y": "529374.268993",
    "longitude": "-90.1057670203857",
    "latitude": "29.94995202308054",
    "geocoded_column": {
      "latitude": "29.94995202308054",
      "longitude": "-90.1057670203857"
    }
  },
  {
    "service_request": "2026-1297711",
    "request_type": "Trash/Recycling",
    "request_reason": "Request a Large Item Pick Up",
    "date_created": "2026-07-07T20:11:14.000",
    "date_modified": "2026-07-07T20:11:17.000",
    "request_status": "Pending",
    "responsible_agency": "Department of Sanitation",
    "final_address": "2817 Dumaine St",
    "address_councildis": "C",
    "status": "Assigned to Contractor",
    "contractor": "IV Waste",
    "rowid": "1297711",
    "final_x": "3676602.74241",
    "final_y": "537990.742409",
    "longitude": "-90.08331120921606",
    "latitude": "29.9734358178031",
    "geocoded_column": {
      "latitude": "29.9734358178031",
      "longitude": "-90.08331120921606"
    }
  },
  {
    "service_request": "2026-1297710",
    "request_type": "Trash/Recycling",
    "request_reason": "Replace Recycling Cart",
    "date_created": "2026-07-07T19:44:17.000",
    "date_modified": "2026-07-07T19:44:20.000",
    "request_status": "Pending",
    "responsible_agency": "Department of Sanitation",
    "final_address": "317 Bermuda St",
    "address_councildis": "C",
    "status": "Pending",
    "rowid": "1297710",
    "final_x": "3686353.20527",
    "final_y": "530632.196226",
    "longitude": "-90.05277700980554",
    "latitude": "29.95290627936081",
    "geocoded_column": {
      "latitude": "29.95290627936081",
      "longitude": "-90.05277700980554"
    }
  },
  {
    "service_request": "2026-1297709",
    "request_type": "Trash/Recycling",
    "request_reason": "Replace Trash Cart",
    "date_created": "2026-07-07T19:33:57.000",
    "date_modified": "2026-07-07T19:34:01.000",
    "request_status": "Pending",
    "responsible_agency": "Department of Sanitation",
    "final_address": "43 Eugenie Ct",
    "address_councildis": "C",
    "status": "Assigned to Contractor",
    "contractor": "Richards Disposal",
    "rowid": "1297709",
    "final_x": "3700363.48605",
    "final_y": "511250.309168",
    "longitude": "-90.00924621699602",
    "latitude": "29.899174800195333",
    "geocoded_column": {
      "latitude": "29.899174800195333",
      "longitude": "-90.00924621699602"
    }
  },
  {
    "service_request": "2026-1297708",
    "request_type": "Drainage",
    "request_reason": "Catch Basin Not Draining",
    "date_created": "2026-07-07T19:28:47.000",
    "date_modified": "2026-07-07T19:28:49.000",
    "request_status": "Pending",
    "responsible_agency": "Sewerage & Water Board",
    "final_address": "6700 BLK General Diaz St",
    "address_councildis": "A",
    "status": "Pending",
    "rowid": "1297708",
    "final_x": "3669966.76108",
    "final_y": "552250.717137",
    "longitude": "-90.10378581313434",
    "latitude": "30.012843221406477",
    "geocoded_column": {
      "latitude": "30.012843221406477",
      "longitude": "-90.10378581313434"
    }
  },
  {
    "service_request": "2026-1297707",
    "request_type": "Healthy Homes",
    "request_reason": "Healthy Homes",
    "date_created": "2026-07-07T19:27:38.000",
    "date_modified": "2026-07-07T19:27:39.000",
    "request_status": "Pending",
    "responsible_agency": "Department of Code Enforcement",
    "final_address": "2131 S Liberty St",
    "address_councildis": "B",
    "status": "Pending",
    "rowid": "1297707",
    "final_x": "3676078.14625",
    "final_y": "525892.279933",
    "longitude": "-90.08538413856623",
    "latitude": "29.940184826119726",
    "geocoded_column": {
      "latitude": "29.940184826119726",
      "longitude": "-90.08538413856623"
    }
  },
  {
    "service_request": "2026-1297706",
    "request_type": "Roads and Streets",
    "request_reason": "Debris in Driving Lanes",
    "date_created": "2026-07-07T19:25:14.000",
    "date_modified": "2026-07-07T19:25:15.000",
    "request_status": "Pending",
    "responsible_agency": "Department of Public Works",
    "final_address": "1901 Wilton Dr",
    "address_councildis": "D",
    "status": "Pending",
    "rowid": "1297706",
    "final_x": "3681154.60469",
    "final_y": "550941.249685",
    "longitude": "-90.06848400839263",
    "latitude": "30.008907815585268",
    "geocoded_column": {
      "latitude": "30.008907815585268",
      "longitude": "-90.06848400839263"
    }
  },
  {
    "service_request": "2026-1297704",
    "request_type": "Trash/Recycling",
    "request_reason": "Replace Trash Cart",
    "date_created": "2026-07-07T19:21:59.000",
    "date_modified": "2026-07-07T19:22:02.000",
    "request_status": "Pending",
    "responsible_agency": "Department of Sanitation",
    "final_address": "425 Hay Pl",
    "address_councildis": "A",
    "status": "Assigned to Contractor",
    "contractor": "IV Waste",
    "rowid": "1297704",
    "final_x": "3664979.11828",
    "final_y": "554315.729496",
    "longitude": "-90.11947499909009",
    "latitude": "30.018667500250107",
    "geocoded_column": {
      "latitude": "30.018667500250107",
      "longitude": "-90.11947499909009"
    }
  },
  {
    "service_request": "2026-1297703",
    "request_type": "Trash/Recycling",
    "request_reason": "Order Second Trash Cart",
    "date_created": "2026-07-07T19:07:48.000",
    "date_modified": "2026-07-07T19:07:50.000",
    "request_status": "Pending",
    "responsible_agency": "Department of Sanitation",
    "final_address": "4759 Lurline St",
    "address_councildis": "E",
    "status": "Assigned to Contractor",
    "contractor": "Waste Pro",
    "rowid": "1297703",
    "final_x": "3712038.38482",
    "final_y": "556254.998938",
    "longitude": "-89.97071329104347",
    "latitude": "30.022545007831443",
    "geocoded_column": {
      "latitude": "30.022545007831443",
      "longitude": "-89.97071329104347"
    }
  },
  {
    "service_request": "2026-1297702",
    "request_type": "Trash/Recycling",
    "request_reason": "Request a Large Item Pick Up",
    "date_created": "2026-07-07T18:57:44.000",
    "date_modified": "2026-07-07T18:57:46.000",
    "request_status": "Pending",
    "responsible_agency": "Department of Sanitation",
    "final_address": "14022 Wales St",
    "address_councildis": "E",
    "status": "Assigned to Contractor",
    "contractor": "Waste Pro",
    "rowid": "1297702",
    "final_x": "3718296.21196",
    "final_y": "572651.069801",
    "longitude": "-89.95031497687506",
    "latitude": "30.067421391758533",
    "geocoded_column": {
      "latitude": "30.067421391758533",
      "longitude": "-89.95031497687506"
    }
  },
  {
    "service_request": "2026-1297701",
    "request_type": "Trash/Recycling",
    "request_reason": "Replace Trash Cart",
    "date_created": "2026-07-07T18:53:29.000",
    "date_modified": "2026-07-07T18:53:37.000",
    "request_status": "Pending",
    "responsible_agency": "Department of Sanitation",
    "final_address": "127 Sherwood Forest Dr",
    "address_councildis": "A",
    "status": "Assigned to Contractor",
    "contractor": "IV Waste",
    "rowid": "1297701",
    "final_x": "3673238.7691",
    "final_y": "541051.862156",
    "longitude": "-90.09383077539772",
    "latitude": "29.98195333229853",
    "geocoded_column": {
      "latitude": "29.98195333229853",
      "longitude": "-90.09383077539772"
    }
  },
  {
    "service_request": "2026-1297700",
    "request_type": "Roads and Streets",
    "request_reason": "Street Subsidence (Sinking)",
    "date_created": "2026-07-07T18:51:07.000",
    "date_modified": "2026-07-07T18:51:08.000",
    "request_status": "Pending",
    "responsible_agency": "Sewerage & Water Board",
    "final_address": "7640 Dalewood Rd",
    "address_councildis": "E",
    "status": "Pending",
    "rowid": "1297700",
    "final_x": "3699829.99959",
    "final_y": "560526.00003",
    "longitude": "-90.00913268610313",
    "latitude": "30.034682158142083",
    "geocoded_column": {
      "latitude": "30.034682158142083",
      "longitude": "-90.00913268610313"
    }
  },
  {
    "service_request": "2026-1297699",
    "request_type": "Streetlights",
    "request_reason": "Streetlight Outage/Malfunction",
    "date_created": "2026-07-07T18:50:06.000",
    "date_modified": "2026-07-07T18:50:08.000",
    "request_status": "Pending",
    "responsible_agency": "Department of Public Works",
    "final_address": "1001 Loyola Ave Ste 203",
    "address_councildis": "B",
    "status": "Pending",
    "rowid": "1297699",
    "final_x": "3678168.56622",
    "final_y": "528193.833344",
    "longitude": "-90.0787047931534",
    "latitude": "29.94645056727305",
    "geocoded_column": {
      "latitude": "29.94645056727305",
      "longitude": "-90.0787047931534"
    }
  },
  {
    "service_request": "2026-1297698",
    "request_type": "General Services",
    "request_reason": "General Service Request",
    "date_created": "2026-07-07T18:48:09.000",
    "date_modified": "2026-07-07T18:48:12.000",
    "request_status": "Pending",
    "responsible_agency": "Orleans Parish Communication District",
    "final_address": "8635 Earhart Blvd",
    "address_councildis": "A",
    "status": "Pending",
    "rowid": "1297698",
    "final_x": "3664840.35418",
    "final_y": "534587.988869",
    "longitude": "-90.12057317579348",
    "latitude": "29.964426960031957",
    "geocoded_column": {
      "latitude": "29.964426960031957",
      "longitude": "-90.12057317579348"
    }
  },
  {
    "service_request": "2026-1297697",
    "request_type": "Drainage",
    "request_reason": "Catch Basin Not Draining",
    "date_created": "2026-07-07T18:35:51.000",
    "date_modified": "2026-07-07T18:35:54.000",
    "request_status": "Pending",
    "responsible_agency": "Sewerage & Water Board",
    "final_address": "2411 Lark St",
    "address_councildis": "D",
    "status": "Pending",
    "rowid": "1297697",
    "final_x": "3684733.50293",
    "final_y": "557983.515803",
    "longitude": "-90.0569292641928",
    "latitude": "30.028162345465997",
    "geocoded_column": {
      "latitude": "30.028162345465997",
      "longitude": "-90.0569292641928"
    }
  },
  {
    "service_request": "2026-1297696",
    "request_type": "General Services",
    "request_reason": "General Service Request",
    "date_created": "2026-07-07T18:22:42.000",
    "date_modified": "2026-07-07T18:22:43.000",
    "request_status": "Pending",
    "responsible_agency": "Orleans Parish Communication District",
    "final_address": "NEW",
    "address_councildis": "B",
    "status": "Pending",
    "rowid": "1297696",
    "final_x": "3672187.92769",
    "final_y": "534175.720965",
    "longitude": "-90.09738410181727",
    "latitude": "29.963077482958436",
    "geocoded_column": {
      "latitude": "29.963077482958436",
      "longitude": "-90.09738410181727"
    }
  },
  {
    "service_request": "2026-1297695",
    "request_type": "General Services",
    "request_reason": "General Service Request",
    "date_created": "2026-07-07T18:20:10.000",
    "date_modified": "2026-07-07T18:20:12.000",
    "request_status": "Pending",
    "responsible_agency": "Orleans Parish Communication District",
    "final_address": "Library",
    "status": "Pending",
    "rowid": "1297695",
    "longitude": "0.0",
    "latitude": "0.0",
    "geocoded_column": {
      "latitude": "0.0",
      "longitude": "0.0"
    }
  },
  {
    "service_request": "2026-1297694",
    "request_type": "Trash/Recycling",
    "request_reason": "Illegal Dumping",
    "date_created": "2026-07-07T18:18:54.000",
    "date_modified": "2026-07-07T18:18:56.000",
    "request_status": "Pending",
    "responsible_agency": "Department of Sanitation",
    "final_address": "1425 S Claiborne Ave",
    "address_councildis": "B",
    "status": "Pending",
    "rowid": "1297694",
    "final_x": "3675053.2308",
    "final_y": "528305.751168",
    "longitude": "-90.08853718254822",
    "latitude": "29.946851730825728",
    "geocoded_column": {
      "latitude": "29.946851730825728",
      "longitude": "-90.08853718254822"
    }
  },
  {
    "service_request": "2026-1297693",
    "request_type": "Abandoned Vehicles",
    "request_reason": "Abandoned/Junk Vehicles",
    "date_created": "2026-07-07T18:14:37.000",
    "date_modified": "2026-07-07T18:14:39.000",
    "request_status": "Pending",
    "responsible_agency": "Department of Public Works",
    "final_address": "800 BLK Clayton Ave",
    "address_councildis": "A",
    "status": "Pending",
    "rowid": "1297693",
    "final_x": "3668844.19902",
    "final_y": "542001.882647",
    "longitude": "-90.10767887177943",
    "latitude": "29.98469554679209",
    "geocoded_column": {
      "latitude": "29.98469554679209",
      "longitude": "-90.10767887177943"
    }
  },
  {
    "service_request": "2026-1297692",
    "request_type": "Tree Service",
    "request_reason": "Street or Sidewalk Blocked",
    "date_created": "2026-07-07T18:14:32.000",
    "date_modified": "2026-07-07T18:14:34.000",
    "request_status": "Pending",
    "responsible_agency": "Department of Parks & Parkways",
    "final_address": "930 Poydras St",
    "address_councildis": "B",
    "status": "Pending",
    "rowid": "1297692",
    "final_x": "3679659.53346",
    "final_y": "529542.218497",
    "longitude": "-90.0739504909318",
    "latitude": "29.950113201883553",
    "geocoded_column": {
      "latitude": "29.950113201883553",
      "longitude": "-90.0739504909318"
    }
  },
  {
    "service_request": "2026-1297691",
    "request_type": "Trash/Recycling",
    "request_reason": "Damaged Caused By Contractor",
    "date_created": "2026-07-07T18:12:45.000",
    "date_modified": "2026-07-07T18:12:47.000",
    "request_status": "Pending",
    "responsible_agency": "Department of Sanitation",
    "final_address": "1730 River Oaks Dr",
    "address_councildis": "C",
    "status": "Assigned to Contractor",
    "contractor": "Richards Disposal",
    "rowid": "1297691",
    "final_x": "3701742.75946",
    "final_y": "524207.6631",
    "longitude": "-90.00441920736907",
    "latitude": "29.934759190529803",
    "geocoded_column": {
      "latitude": "29.934759190529803",
      "longitude": "-90.00441920736907"
    }
  },
  {
    "service_request": "2026-1297690",
    "request_type": "Drainage",
    "request_reason": "Catch Basin Not Draining",
    "date_created": "2026-07-07T18:10:51.000",
    "date_modified": "2026-07-07T18:10:53.000",
    "request_status": "Pending",
    "responsible_agency": "Sewerage & Water Board",
    "final_address": "4413 Duplessis St",
    "address_councildis": "D",
    "status": "Pending",
    "rowid": "1297690",
    "final_x": "3678351.17115",
    "final_y": "548658.716947",
    "longitude": "-90.07742002491246",
    "latitude": "30.002716457564233",
    "geocoded_column": {
      "latitude": "30.002716457564233",
      "longitude": "-90.07742002491246"
    }
  },
  {
    "service_request": "2026-1297689",
    "request_type": "Drainage",
    "request_reason": "Catch Basin Not Draining",
    "date_created": "2026-07-07T18:07:22.000",
    "date_modified": "2026-07-07T18:07:24.000",
    "request_status": "Pending",
    "responsible_agency": "Sewerage & Water Board",
    "final_address": "1305 Jackson Ave",
    "address_councildis": "B",
    "status": "Pending",
    "rowid": "1297689",
    "final_x": "3678418.5636",
    "final_y": "522746.000954",
    "longitude": "-90.07810389102258",
    "latitude": "29.931463298502134",
    "geocoded_column": {
      "latitude": "29.931463298502134",
      "longitude": "-90.07810389102258"
    }
  },
  {
    "service_request": "2026-1297688",
    "request_type": "Drainage",
    "request_reason": "Catch Basin Not Draining",
    "date_created": "2026-07-07T18:05:56.000",
    "date_modified": "2026-07-07T18:05:58.000",
    "request_status": "Pending",
    "responsible_agency": "Sewerage & Water Board",
    "final_address": "1305 Jackson Ave",
    "address_councildis": "B",
    "status": "Pending",
    "rowid": "1297688",
    "final_x": "3678418.5636",
    "final_y": "522746.000954",
    "longitude": "-90.07810389102258",
    "latitude": "29.931463298502134",
    "geocoded_column": {
      "latitude": "29.931463298502134",
      "longitude": "-90.07810389102258"
    }
  },
  {
    "service_request": "2026-1297687",
    "request_type": "Trash/Recycling",
    "request_reason": "Repair Trash Cart",
    "date_created": "2026-07-07T18:01:52.000",
    "date_modified": "2026-07-07T18:01:53.000",
    "request_status": "Pending",
    "responsible_agency": "Department of Sanitation",
    "final_address": "2200 Palmer Ave",
    "address_councildis": "A",
    "status": "Assigned to Contractor",
    "contractor": "IV Waste",
    "rowid": "1297687",
    "final_x": "3666017.31424",
    "final_y": "525015.072573",
    "longitude": "-90.11717726936953",
    "latitude": "29.93807024429685",
    "geocoded_column": {
      "latitude": "29.93807024429685",
      "longitude": "-90.11717726936953"
    }
  },
  {
    "service_request": "2026-1297686",
    "request_type": "Trash/Recycling",
    "request_reason": "Repair Recycling Cart",
    "date_created": "2026-07-07T18:00:54.000",
    "date_modified": "2026-07-07T18:00:56.000",
    "request_status": "Pending",
    "responsible_agency": "Department of Sanitation",
    "final_address": "2200 Palmer Ave",
    "address_councildis": "A",
    "status": "Pending",
    "rowid": "1297686",
    "final_x": "3666017.31424",
    "final_y": "525015.072573",
    "longitude": "-90.11717726936953",
    "latitude": "29.93807024429685",
    "geocoded_column": {
      "latitude": "29.93807024429685",
      "longitude": "-90.11717726936953"
    }
  },
  {
    "service_request": "2026-1297685",
    "request_type": "Drainage",
    "request_reason": "Ditch and Culvert Maintenance",
    "date_created": "2026-07-07T17:59:26.000",
    "date_modified": "2026-07-07T17:59:28.000",
    "request_status": "Pending",
    "responsible_agency": "Department of Public Works",
    "final_address": "1730 River Oaks Dr",
    "address_councildis": "C",
    "status": "Pending",
    "rowid": "1297685",
    "final_x": "3701742.75946",
    "final_y": "524207.6631",
    "longitude": "-90.00441920736907",
    "latitude": "29.934759190529803",
    "geocoded_column": {
      "latitude": "29.934759190529803",
      "longitude": "-90.00441920736907"
    }
  },
  {
    "service_request": "2026-1297684",
    "request_type": "Roads and Streets",
    "request_reason": "Pothole",
    "date_created": "2026-07-07T17:53:42.000",
    "date_modified": "2026-07-07T17:53:44.000",
    "request_status": "Pending",
    "responsible_agency": "Department of Public Works",
    "final_address": "120 City Park Ave",
    "address_councildis": "A",
    "status": "Pending",
    "rowid": "1297684",
    "final_x": "3667696.7346",
    "final_y": "540843.778059",
    "longitude": "-90.11134223468176",
    "latitude": "29.981544850479576",
    "geocoded_column": {
      "latitude": "29.981544850479576",
      "longitude": "-90.11134223468176"
    }
  },
  {
    "service_request": "2026-1297683",
    "request_type": "Tree Service",
    "request_reason": "Tree Trim",
    "date_created": "2026-07-07T17:41:24.000",
    "date_modified": "2026-07-07T17:41:26.000",
    "request_status": "Pending",
    "responsible_agency": "Department of Parks & Parkways",
    "final_address": "2534 Danbury Dr",
    "address_councildis": "C",
    "status": "Pending",
    "rowid": "1297683",
    "final_x": "3703741.29015",
    "final_y": "521658.455545",
    "longitude": "-89.99820369888215",
    "latitude": "29.927685875652227",
    "geocoded_column": {
      "latitude": "29.927685875652227",
      "longitude": "-89.99820369888215"
    }
  },
  {
    "service_request": "2026-1297682",
    "request_type": "Drainage",
    "request_reason": "Catch Basin Not Draining",
    "date_created": "2026-07-07T17:20:39.000",
    "date_modified": "2026-07-07T17:20:40.000",
    "request_status": "Pending",
    "responsible_agency": "Sewerage & Water Board",
    "final_address": "2500 Marengo St",
    "address_councildis": "B",
    "status": "Pending",
    "rowid": "1297682",
    "final_x": "3671585.08071",
    "final_y": "524177.938748",
    "longitude": "-90.0996277525683",
    "latitude": "29.935604732926834",
    "geocoded_column": {
      "latitude": "29.935604732926834",
      "longitude": "-90.0996277525683"
    }
  },
  {
    "service_request": "2026-1297681",
    "request_type": "Drainage",
    "request_reason": "Catch Basin Not Draining",
    "date_created": "2026-07-07T17:12:26.000",
    "date_modified": "2026-07-07T17:12:28.000",
    "request_status": "Pending",
    "responsible_agency": "Sewerage & Water Board",
    "final_address": "101 Marais St",
    "address_councildis": "C",
    "status": "Pending",
    "rowid": "1297681",
    "final_x": "3679231.67413",
    "final_y": "532286.317379",
    "longitude": "-90.07520630896921",
    "latitude": "29.957671473737573",
    "geocoded_column": {
      "latitude": "29.957671473737573",
      "longitude": "-90.07520630896921"
    }
  },
  {
    "service_request": "2026-1297680",
    "request_type": "Trash/Recycling",
    "request_reason": "Request a Large Item Pick Up",
    "date_created": "2026-07-07T17:11:28.000",
    "date_modified": "2026-07-07T17:11:30.000",
    "request_status": "Pending",
    "responsible_agency": "Department of Sanitation",
    "final_address": "1238 Cambronne St",
    "address_councildis": "A",
    "status": "Assigned to Contractor",
    "contractor": "IV Waste",
    "rowid": "1297680",
    "final_x": "3661341.49677",
    "final_y": "529350.190081",
    "longitude": "-90.13179580097542",
    "latitude": "29.950126068650565",
    "geocoded_column": {
      "latitude": "29.950126068650565",
      "longitude": "-90.13179580097542"
    }
  },
  {
    "service_request": "2026-1297679",
    "request_type": "Drainage",
    "request_reason": "Catch Basin Not Draining",
    "date_created": "2026-07-07T17:10:56.000",
    "date_modified": "2026-07-07T17:10:58.000",
    "request_status": "Pending",
    "responsible_agency": "Sewerage & Water Board",
    "final_address": "101 Marais St",
    "address_councildis": "C",
    "status": "Pending",
    "rowid": "1297679",
    "final_x": "3679231.67413",
    "final_y": "532286.317379",
    "longitude": "-90.07520630896921",
    "latitude": "29.957671473737573",
    "geocoded_column": {
      "latitude": "29.957671473737573",
      "longitude": "-90.07520630896921"
    }
  },
  {
    "service_request": "2026-1297678",
    "request_type": "Trash/Recycling",
    "request_reason": "Repair Trash Cart",
    "date_created": "2026-07-07T16:53:27.000",
    "date_modified": "2026-07-07T16:53:29.000",
    "request_status": "Pending",
    "responsible_agency": "Department of Sanitation",
    "final_address": "7042 Camp St",
    "address_councildis": "A",
    "status": "Assigned to Contractor",
    "contractor": "IV Waste",
    "rowid": "1297678",
    "final_x": "3661199.90912",
    "final_y": "521315.125369",
    "longitude": "-90.13250874159333",
    "latitude": "29.928036264427465",
    "geocoded_column": {
      "latitude": "29.928036264427465",
      "longitude": "-90.13250874159333"
    }
  },
  {
    "service_request": "2026-1297677",
    "request_type": "Roads and Streets",
    "request_reason": "Pothole",
    "date_created": "2026-07-07T16:52:55.000",
    "date_modified": "2026-07-07T16:52:57.000",
    "request_status": "Pending",
    "responsible_agency": "Department of Public Works",
    "final_address": "1700 BLK Ursulines Ave",
    "address_councildis": "C",
    "status": "Pending",
    "rowid": "1297677",
    "final_x": "3680504.76264",
    "final_y": "535929.62806",
    "longitude": "-90.07105953256684",
    "latitude": "29.96765083828412",
    "geocoded_column": {
      "latitude": "29.96765083828412",
      "longitude": "-90.07105953256684"
    }
  },
  {
    "service_request": "2026-1297676",
    "request_type": "Trash/Recycling",
    "request_reason": "Replace Trash Cart",
    "date_created": "2026-07-07T16:50:33.000",
    "date_modified": "2026-07-07T16:50:35.000",
    "request_status": "Pending",
    "responsible_agency": "Department of Sanitation",
    "final_address": "4008 America St",
    "address_councildis": "E",
    "status": "Assigned to Contractor",
    "contractor": "Waste Pro",
    "rowid": "1297676",
    "final_x": "3700013.9297",
    "final_y": "551616.106453",
    "longitude": "-90.00887689972433",
    "latitude": "30.01017751302915",
    "geocoded_column": {
      "latitude": "30.01017751302915",
      "longitude": "-90.00887689972433"
    }
  },
  {
    "service_request": "2026-1297675",
    "request_type": "Trash/Recycling",
    "request_reason": "Missed Trash Pick-Up",
    "date_created": "2026-07-07T16:46:36.000",
    "date_modified": "2026-07-07T16:46:39.000",
    "request_status": "Pending",
    "responsible_agency": "Department of Sanitation",
    "final_address": "6232 Pasteur Blvd",
    "address_councildis": "D",
    "status": "Assigned to Contractor",
    "contractor": "IV Waste",
    "rowid": "1297675",
    "final_x": "3682675.01589",
    "final_y": "556126.53705",
    "longitude": "-90.06349898388004",
    "latitude": "30.023119228761402",
    "geocoded_column": {
      "latitude": "30.023119228761402",
      "longitude": "-90.06349898388004"
    }
  },
  {
    "service_request": "2026-1297674",
    "request_type": "Roads and Streets",
    "request_reason": "Sidewalk Damaged or Missing",
    "date_created": "2026-07-07T16:45:31.000",
    "date_modified": "2026-07-07T16:46:41.000",
    "request_status": "Pending",
    "responsible_agency": "Department of Public Works",
    "final_address": "145 Morrison Ct",
    "address_councildis": "E",
    "status": "Pending",
    "rowid": "1297674",
    "final_x": "3703892.45495",
    "final_y": "561671.297567",
    "longitude": "-89.99625259359614",
    "latitude": "30.037701561981834",
    "geocoded_column": {
      "latitude": "30.037701561981834",
      "longitude": "-89.99625259359614"
    }
  },
  {
    "service_request": "2026-1297673",
    "request_type": "Trash/Recycling",
    "request_reason": "Replace Recycling Cart",
    "date_created": "2026-07-07T16:37:58.000",
    "date_modified": "2026-07-07T16:38:00.000",
    "request_status": "Pending",
    "responsible_agency": "Department of Sanitation",
    "final_address": "2616 First St",
    "address_councildis": "B",
    "status": "Pending",
    "rowid": "1297673",
    "final_x": "3674838.48053",
    "final_y": "526341.294782",
    "longitude": "-90.08928257003687",
    "latitude": "29.94145653571407",
    "geocoded_column": {
      "latitude": "29.94145653571407",
      "longitude": "-90.08928257003687"
    }
  },
  {
    "service_request": "2026-1297672",
    "request_type": "Trash/Recycling",
    "request_reason": "Request a Large Item Pick Up",
    "date_created": "2026-07-07T16:37:19.000",
    "date_modified": "2026-07-07T16:37:21.000",
    "request_status": "Pending",
    "responsible_agency": "Department of Sanitation",
    "final_address": "819 Third St",
    "address_councildis": "B",
    "status": "Assigned to Contractor",
    "contractor": "IV Waste",
    "rowid": "1297672",
    "final_x": "3678111.79362",
    "final_y": "520411.072888",
    "longitude": "-90.07915300754519",
    "latitude": "29.925052244701902",
    "geocoded_column": {
      "latitude": "29.925052244701902",
      "longitude": "-90.07915300754519"
    }
  },
  {
    "service_request": "2026-1297671",
    "request_type": "Trash/Recycling",
    "request_reason": "Request a Large Item Pick Up",
    "date_created": "2026-07-07T16:36:10.000",
    "date_modified": "2026-07-07T16:36:11.000",
    "request_status": "Pending",
    "responsible_agency": "Department of Sanitation",
    "final_address": "5696 Stillwater Dr",
    "address_councildis": "E",
    "status": "Assigned to Contractor",
    "contractor": "Waste Pro",
    "rowid": "1297671",
    "final_x": "3715979.68351",
    "final_y": "561419.709278",
    "longitude": "-89.95806399973408",
    "latitude": "30.036616433533183",
    "geocoded_column": {
      "latitude": "30.036616433533183",
      "longitude": "-89.95806399973408"
    }
  },
  {
    "service_request": "2026-1297670",
    "request_type": "Trash/Recycling",
    "request_reason": "Request a Large Item Pick Up",
    "date_created": "2026-07-07T16:33:32.000",
    "date_modified": "2026-07-07T16:33:34.000",
    "request_status": "Pending",
    "responsible_agency": "Department of Sanitation",
    "final_address": "6017 Painters St",
    "address_councildis": "D",
    "status": "Assigned to Contractor",
    "contractor": "IV Waste",
    "rowid": "1297670",
    "final_x": "3686104.49609",
    "final_y": "555305.431257",
    "longitude": "-90.05269159756041",
    "latitude": "30.020756543606986",
    "geocoded_column": {
      "latitude": "30.020756543606986",
      "longitude": "-90.05269159756041"
    }
  },
  {
    "service_request": "2026-1297669",
    "request_type": "Trash/Recycling",
    "request_reason": "Request a Large Item Pick Up",
    "date_created": "2026-07-07T16:32:40.000",
    "date_modified": "2026-07-07T16:32:41.000",
    "request_status": "Pending",
    "responsible_agency": "Department of Sanitation",
    "final_address": "4719 Citrus Dr",
    "address_councildis": "E",
    "status": "Assigned to Contractor",
    "contractor": "Waste Pro",
    "rowid": "1297669",
    "final_x": "3710872.77726",
    "final_y": "555616.127129",
    "longitude": "-89.97442023834095",
    "latitude": "30.020826422472023",
    "geocoded_column": {
      "latitude": "30.020826422472023",
      "longitude": "-89.97442023834095"
    }
  },
  {
    "service_request": "2026-1297668",
    "request_type": "Trash/Recycling",
    "request_reason": "Request a Large Item Pick Up",
    "date_created": "2026-07-07T16:31:39.000",
    "date_modified": "2026-07-07T16:32:33.000",
    "request_status": "Pending",
    "responsible_agency": "Department of Sanitation",
    "final_address": "7641 Rochon Ave",
    "address_councildis": "E",
    "status": "Pending",
    "contractor": "Waste Pro",
    "rowid": "1297668",
    "final_x": "3718619.70693",
    "final_y": "571844.50596",
    "longitude": "-89.94932315868542",
    "latitude": "30.065192939435573",
    "geocoded_column": {
      "latitude": "30.065192939435573",
      "longitude": "-89.94932315868542"
    }
  },
  {
    "service_request": "2026-1297667",
    "request_type": "Trash/Recycling",
    "request_reason": "Request a Large Item Pick Up",
    "date_created": "2026-07-07T16:28:00.000",
    "date_modified": "2026-07-07T16:28:02.000",
    "request_status": "Pending",
    "responsible_agency": "Department of Sanitation",
    "final_address": "5018 N Derbigny St",
    "address_councildis": "E",
    "status": "Assigned to Contractor",
    "contractor": "Waste Pro",
    "rowid": "1297667",
    "final_x": "3696741.78442",
    "final_y": "536390.083335",
    "longitude": "-90.01976622583103",
    "latitude": "29.968415107372625",
    "geocoded_column": {
      "latitude": "29.968415107372625",
      "longitude": "-90.01976622583103"
    }
  },
  {
    "service_request": "2026-1297666",
    "request_type": "Trash/Recycling",
    "request_reason": "Repair Trash Cart",
    "date_created": "2026-07-07T16:27:11.000",
    "date_modified": "2026-07-07T16:27:12.000",
    "request_status": "Pending",
    "responsible_agency": "Department of Sanitation",
    "final_address": "13513 St Marie Dr",
    "address_councildis": "E",
    "status": "Assigned to Contractor",
    "contractor": "Waste Pro",
    "rowid": "1297666",
    "final_x": "3724006.63679",
    "final_y": "569033.871014",
    "longitude": "-89.93240332593814",
    "latitude": "30.057284871593595",
    "geocoded_column": {
      "latitude": "30.057284871593595",
      "longitude": "-89.93240332593814"
    }
  },
  {
    "service_request": "2026-1297665",
    "request_type": "Trash/Recycling",
    "request_reason": "Order Trash Cart",
    "date_created": "2026-07-07T16:26:47.000",
    "date_modified": "2026-07-07T16:26:49.000",
    "request_status": "Pending",
    "responsible_agency": "Department of Sanitation",
    "final_address": "4901 Iberville St",
    "address_councildis": "A",
    "status": "Assigned to Contractor",
    "contractor": "IV Waste",
    "rowid": "1297665",
    "final_x": "3668777.1922",
    "final_y": "540719.652299",
    "longitude": "-90.10793382992587",
    "latitude": "29.981171819187143",
    "geocoded_column": {
      "latitude": "29.981171819187143",
      "longitude": "-90.10793382992587"
    }
  },
  {
    "service_request": "2026-1297664",
    "request_type": "Trash/Recycling",
    "request_reason": "Order Trash Cart",
    "date_created": "2026-07-07T16:26:12.000",
    "date_modified": "2026-07-07T16:26:15.000",
    "request_status": "Pending",
    "responsible_agency": "Department of Sanitation",
    "final_address": "4903 Iberville St",
    "address_councildis": "A",
    "status": "Assigned to Contractor",
    "contractor": "IV Waste",
    "rowid": "1297664",
    "final_x": "3668765.02151",
    "final_y": "540729.505035",
    "longitude": "-90.10797193780134",
    "latitude": "29.98119926875621",
    "geocoded_column": {
      "latitude": "29.98119926875621",
      "longitude": "-90.10797193780134"
    }
  },
  {
    "service_request": "2026-1297663",
    "request_type": "Trash/Recycling",
    "request_reason": "Repair Recycling Cart",
    "date_created": "2026-07-07T16:24:46.000",
    "date_modified": "2026-07-07T16:24:48.000",
    "request_status": "Pending",
    "responsible_agency": "Department of Sanitation",
    "final_address": "401 State St",
    "address_councildis": "A",
    "status": "Pending",
    "rowid": "1297663",
    "final_x": "3664324.6704",
    "final_y": "517868.427638",
    "longitude": "-90.12275949255296",
    "latitude": "29.918468511132716",
    "geocoded_column": {
      "latitude": "29.918468511132716",
      "longitude": "-90.12275949255296"
    }
  },
  {
    "service_request": "2026-1297662",
    "request_type": "Trash/Recycling",
    "request_reason": "Request a Large Item Pick Up",
    "date_created": "2026-07-07T16:19:14.000",
    "date_modified": "2026-07-07T16:19:16.000",
    "request_status": "Pending",
    "responsible_agency": "Department of Sanitation",
    "final_address": "4666 Lancelot Dr",
    "address_councildis": "E",
    "status": "Assigned to Contractor",
    "contractor": "Waste Pro",
    "rowid": "1297662",
    "final_x": "3707432.92318",
    "final_y": "554940.656856",
    "longitude": "-89.9853141866574",
    "latitude": "30.019080863923946",
    "geocoded_column": {
      "latitude": "30.019080863923946",
      "longitude": "-89.9853141866574"
    }
  },
  {
    "service_request": "2026-1297661",
    "request_type": "Trash/Recycling",
    "request_reason": "Repair Recycling Cart",
    "date_created": "2026-07-07T16:17:26.000",
    "date_modified": "2026-07-07T16:17:27.000",
    "request_status": "Pending",
    "responsible_agency": "Department of Sanitation",
    "final_address": "5700 Annunciation St",
    "address_councildis": "A",
    "status": "Pending",
    "rowid": "1297661",
    "final_x": "3665481.69965",
    "final_y": "517524.606006",
    "longitude": "-90.11911885120603",
    "latitude": "29.91748944632555",
    "geocoded_column": {
      "latitude": "29.91748944632555",
      "longitude": "-90.11911885120603"
    }
  },
  {
    "service_request": "2026-1297660",
    "request_type": "Trash/Recycling",
    "request_reason": "Request a Large Item Pick Up",
    "date_created": "2026-07-07T16:17:08.000",
    "date_modified": "2026-07-07T16:17:10.000",
    "request_status": "Pending",
    "responsible_agency": "Department of Sanitation",
    "final_address": "11311 N Parkwood Ct",
    "address_councildis": "E",
    "status": "Assigned to Contractor",
    "contractor": "Waste Pro",
    "rowid": "1297660",
    "final_x": "3716771.23621",
    "final_y": "559484.901021",
    "longitude": "-89.95563607372593",
    "latitude": "30.03127034344151",
    "geocoded_column": {
      "latitude": "30.03127034344151",
      "longitude": "-89.95563607372593"
    }
  },
  {
    "service_request": "2026-1297659",
    "request_type": "Trash/Recycling",
    "request_reason": "Request a Large Item Pick Up",
    "date_created": "2026-07-07T16:16:38.000",
    "date_modified": "2026-07-07T16:16:40.000",
    "request_status": "Pending",
    "responsible_agency": "Department of Sanitation",
    "final_address": "4818 Good Dr",
    "address_councildis": "E",
    "status": "Assigned to Contractor",
    "contractor": "Waste Pro",
    "rowid": "1297659",
    "final_x": "3714690.20363",
    "final_y": "557077.002266",
    "longitude": "-89.96230318886074",
    "latitude": "30.024718215031623",
    "geocoded_column": {
      "latitude": "30.024718215031623",
      "longitude": "-89.96230318886074"
    }
  },
  {
    "service_request": "2026-1297658",
    "request_type": "Trash/Recycling",
    "request_reason": "Request a Large Item Pick Up",
    "date_created": "2026-07-07T16:14:19.000",
    "date_modified": "2026-07-07T16:14:21.000",
    "request_status": "Pending",
    "responsible_agency": "Department of Sanitation",
    "final_address": "1028 Reynes St",
    "address_councildis": "E",
    "status": "Assigned to Contractor",
    "contractor": "Waste Pro",
    "rowid": "1297658",
    "final_x": "3695872.79824",
    "final_y": "534110.313861",
    "longitude": "-90.02259286963077",
    "latitude": "29.962173914009966",
    "geocoded_column": {
      "latitude": "29.962173914009966",
      "longitude": "-90.02259286963077"
    }
  },
  {
    "service_request": "2026-1297657",
    "request_type": "Streetlights",
    "request_reason": "Streetlight Outage/Malfunction",
    "date_created": "2026-07-07T16:13:01.000",
    "date_modified": "2026-07-07T16:13:03.000",
    "request_status": "Pending",
    "responsible_agency": "Department of Public Works",
    "final_address": "4611 Lurline St",
    "address_councildis": "E",
    "status": "Pending",
    "rowid": "1297657",
    "final_x": "3712135.56472",
    "final_y": "555288.797593",
    "longitude": "-89.97044254141136",
    "latitude": "30.01988515562522",
    "geocoded_column": {
      "latitude": "30.01988515562522",
      "longitude": "-89.97044254141136"
    }
  },
  {
    "service_request": "2026-1297656",
    "request_type": "Property Maintenance",
    "request_reason": "Property Maintenance",
    "date_created": "2026-07-07T16:12:51.000",
    "date_modified": "2026-07-07T16:12:52.000",
    "request_status": "Pending",
    "responsible_agency": "Department of Code Enforcement",
    "final_address": "7006 Read Ln",
    "address_councildis": "E",
    "status": "Pending",
    "rowid": "1297656",
    "final_x": "3710128.12369",
    "final_y": "562138.057183",
    "longitude": "-89.97652908949973",
    "latitude": "30.038783417201167",
    "geocoded_column": {
      "latitude": "30.038783417201167",
      "longitude": "-89.97652908949973"
    }
  },
  {
    "service_request": "2026-1297655",
    "request_type": "Trash/Recycling",
    "request_reason": "Order Trash Cart",
    "date_created": "2026-07-07T16:06:57.000",
    "date_modified": "2026-07-07T16:06:59.000",
    "request_status": "Pending",
    "responsible_agency": "Department of Sanitation",
    "final_address": "14013 Wales St",
    "address_councildis": "E",
    "status": "Assigned to Contractor",
    "contractor": "Waste Pro",
    "rowid": "1297655",
    "final_x": "3718200.93266",
    "final_y": "572660.785833",
    "longitude": "-89.95061579803225",
    "latitude": "30.067451268503735",
    "geocoded_column": {
      "latitude": "30.067451268503735",
      "longitude": "-89.95061579803225"
    }
  },
  {
    "service_request": "2026-1297654",
    "request_type": "Abandoned Vehicles",
    "request_reason": "Abandoned/Junk Vehicles",
    "date_created": "2026-07-07T16:05:34.000",
    "date_modified": "2026-07-07T16:05:36.000",
    "request_status": "Pending",
    "responsible_agency": "Department of Public Works",
    "final_address": "LOUISIANA AVE & LA SALLE ST",
    "address_councildis": "B",
    "status": "Pending",
    "rowid": "1297654",
    "final_x": "3673101.6",
    "final_y": "524162.68",
    "longitude": "-90.09484059690999",
    "latitude": "29.93551779232083",
    "geocoded_column": {
      "latitude": "29.93551779232083",
      "longitude": "-90.09484059690999"
    }
  },
  {
    "service_request": "2026-1297653",
    "request_type": "Trash/Recycling",
    "request_reason": "Replace Trash Cart",
    "date_created": "2026-07-07T16:05:02.000",
    "date_modified": "2026-07-07T16:05:04.000",
    "request_status": "Pending",
    "responsible_agency": "Department of Sanitation",
    "final_address": "4132 Martin Luther King, Jr. Blvd",
    "address_councildis": "B",
    "status": "Assigned to Contractor",
    "contractor": "IV Waste",
    "rowid": "1297653",
    "final_x": "3671091.06427",
    "final_y": "530533.26189",
    "longitude": "-90.10097158309789",
    "latitude": "29.953094414171424",
    "geocoded_column": {
      "latitude": "29.953094414171424",
      "longitude": "-90.10097158309789"
    }
  },
  {
    "service_request": "2026-1297651",
    "request_type": "Streetlights",
    "request_reason": "Streetlight Outage/Malfunction",
    "date_created": "2026-07-07T16:02:03.000",
    "date_modified": "2026-07-07T16:02:09.000",
    "request_status": "Pending",
    "responsible_agency": "Department of Public Works",
    "final_address": "2201 Magic St",
    "address_councildis": "C",
    "status": "Pending",
    "rowid": "1297651",
    "final_x": "3678074.8269",
    "final_y": "535512.499782",
    "longitude": "-90.07874775511866",
    "latitude": "29.966577258174233",
    "geocoded_column": {
      "latitude": "29.966577258174233",
      "longitude": "-90.07874775511866"
    }
  },
  {
    "service_request": "2026-1297650",
    "request_type": "Trash/Recycling",
    "request_reason": "Request a Large Item Pick Up",
    "date_created": "2026-07-07T16:01:11.000",
    "date_modified": "2026-07-07T16:01:17.000",
    "request_status": "Pending",
    "responsible_agency": "Department of Sanitation",
    "final_address": "7740 S Interstate 10 Service Rd",
    "address_councildis": "E",
    "status": "Assigned to Contractor",
    "contractor": "Waste Pro",
    "rowid": "1297650",
    "final_x": "3702548.58173",
    "final_y": "557887.885211",
    "longitude": "-90.00063859125099",
    "latitude": "30.027341700692492",
    "geocoded_column": {
      "latitude": "30.027341700692492",
      "longitude": "-90.00063859125099"
    }
  },
  {
    "service_request": "2026-1297649",
    "request_type": "Trash/Recycling",
    "request_reason": "Request a Large Item Pick Up",
    "date_created": "2026-07-07T16:00:47.000",
    "date_modified": "2026-07-07T16:00:49.000",
    "request_status": "Pending",
    "responsible_agency": "Department of Sanitation",
    "final_address": "4918 Friar Tuck Dr",
    "address_councildis": "E",
    "status": "Assigned to Contractor",
    "contractor": "Waste Pro",
    "rowid": "1297649",
    "final_x": "3717630.86092",
    "final_y": "557794.632475",
    "longitude": "-89.95298400345273",
    "latitude": "30.02659433578124",
    "geocoded_column": {
      "latitude": "30.02659433578124",
      "longitude": "-89.95298400345273"
    }
  },
  {
    "service_request": "2026-1297648",
    "request_type": "Trash/Recycling",
    "request_reason": "Request a Large Item Pick Up",
    "date_created": "2026-07-07T15:59:19.000",
    "date_modified": "2026-07-07T15:59:21.000",
    "request_status": "Pending",
    "responsible_agency": "Department of Sanitation",
    "final_address": "4911 Friar Tuck Dr",
    "address_councildis": "E",
    "status": "Assigned to Contractor",
    "contractor": "Waste Pro",
    "rowid": "1297648",
    "final_x": "3717715.79801",
    "final_y": "557760.492955",
    "longitude": "-89.95271691457673",
    "latitude": "30.02649765206411",
    "geocoded_column": {
      "latitude": "30.02649765206411",
      "longitude": "-89.95271691457673"
    }
  },
  {
    "service_request": "2026-1297647",
    "request_type": "Trash/Recycling",
    "request_reason": "Request a Large Item Pick Up",
    "date_created": "2026-07-07T15:57:14.000",
    "date_modified": "2026-07-07T15:57:15.000",
    "request_status": "Pending",
    "responsible_agency": "Department of Sanitation",
    "final_address": "1326 St Roch Ave",
    "address_councildis": "C",
    "status": "Assigned to Contractor",
    "contractor": "IV Waste",
    "rowid": "1297647",
    "final_x": "3686347.86492",
    "final_y": "537385.728648",
    "longitude": "-90.05255551318479",
    "latitude": "29.971476322524456",
    "geocoded_column": {
      "latitude": "29.971476322524456",
      "longitude": "-90.05255551318479"
    }
  },
  {
    "service_request": "2026-1297646",
    "request_type": "Trash/Recycling",
    "request_reason": "Return Recycling Cart",
    "date_created": "2026-07-07T15:56:40.000",
    "date_modified": "2026-07-07T15:56:43.000",
    "request_status": "Pending",
    "responsible_agency": "Department of Sanitation",
    "final_address": "8837 Green St",
    "address_councildis": "A",
    "status": "Pending",
    "rowid": "1297646",
    "final_x": "3661141.09728",
    "final_y": "531551.878211",
    "longitude": "-90.13235569681112",
    "latitude": "29.95618577962232",
    "geocoded_column": {
      "latitude": "29.95618577962232",
      "longitude": "-90.13235569681112"
    }
  },
  {
    "service_request": "2026-1297645",
    "request_type": "Trash/Recycling",
    "request_reason": "Illegal Dumping",
    "date_created": "2026-07-07T15:52:59.000",
    "date_modified": "2026-07-07T15:53:01.000",
    "request_status": "Pending",
    "responsible_agency": "Department of Sanitation",
    "final_address": "1817 N Johnson St",
    "address_councildis": "D",
    "status": "Pending",
    "rowid": "1297645",
    "final_x": "3682670.2205",
    "final_y": "539489.744394",
    "longitude": "-90.06409643385406",
    "latitude": "29.977374153206267",
    "geocoded_column": {
      "latitude": "29.977374153206267",
      "longitude": "-90.06409643385406"
    }
  },
  {
    "service_request": "2026-1297644",
    "request_type": "Trash/Recycling",
    "request_reason": "Illegal Dumping",
    "date_created": "2026-07-07T15:51:22.000",
    "date_modified": "2026-07-07T15:51:24.000",
    "request_status": "Pending",
    "responsible_agency": "Department of Sanitation",
    "final_address": "FLORIDA AVE & CLOUET ST",
    "address_councildis": "D",
    "status": "Pending",
    "rowid": "1297644",
    "final_x": "3690544.7",
    "final_y": "542159.08",
    "longitude": "-90.03913107514656",
    "latitude": "29.98447168609124",
    "geocoded_column": {
      "latitude": "29.98447168609124",
      "longitude": "-90.03913107514656"
    }
  },
  {
    "service_request": "2026-1297643",
    "request_type": "Trash/Recycling",
    "request_reason": "Request a Large Item Pick Up",
    "date_created": "2026-07-07T15:47:34.000",
    "date_modified": "2026-07-07T15:47:36.000",
    "request_status": "Pending",
    "responsible_agency": "Department of Sanitation",
    "final_address": "5227 Chartres St",
    "address_councildis": "E",
    "status": "Assigned to Contractor",
    "contractor": "Waste Pro",
    "rowid": "1297643",
    "final_x": "3696188.66006",
    "final_y": "532303.996099",
    "longitude": "-90.02166072619168",
    "latitude": "29.957197239393192",
    "geocoded_column": {
      "latitude": "29.957197239393192",
      "longitude": "-90.02166072619168"
    }
  },
  {
    "service_request": "2026-1297642",
    "request_type": "Trash/Recycling",
    "request_reason": "Request a Large Item Pick Up",
    "date_created": "2026-07-07T15:46:59.000",
    "date_modified": "2026-07-07T15:47:01.000",
    "request_status": "Pending",
    "responsible_agency": "Department of Sanitation",
    "final_address": "5318 Wilton Dr",
    "address_councildis": "D",
    "status": "Assigned to Contractor",
    "contractor": "IV Waste",
    "rowid": "1297642",
    "final_x": "3681866.42716",
    "final_y": "552630.665302",
    "longitude": "-90.06617610229412",
    "latitude": "30.01353147227929",
    "geocoded_column": {
      "latitude": "30.01353147227929",
      "longitude": "-90.06617610229412"
    }
  },
  {
    "service_request": "2026-1297641",
    "request_type": "Trash/Recycling",
    "request_reason": "Request a Large Item Pick Up",
    "date_created": "2026-07-07T15:42:53.000",
    "date_modified": "2026-07-07T15:42:54.000",
    "request_status": "Pending",
    "responsible_agency": "Department of Sanitation",
    "final_address": "7616 Hurst St",
    "address_councildis": "A",
    "status": "Assigned to Contractor",
    "contractor": "IV Waste",
    "rowid": "1297641",
    "final_x": "3660793.83546",
    "final_y": "524642.908284",
    "longitude": "-90.1336806460374",
    "latitude": "29.93719831889418",
    "geocoded_column": {
      "latitude": "29.93719831889418",
      "longitude": "-90.1336806460374"
    }
  },
  {
    "service_request": "2026-1297640",
    "request_type": "Roads and Streets",
    "request_reason": "Curb Damage",
    "date_created": "2026-07-07T15:41:58.000",
    "date_modified": "2026-07-07T15:42:01.000",
    "request_status": "Pending",
    "responsible_agency": "Department of Public Works",
    "final_address": "2006 Audubon St",
    "address_councildis": "A",
    "status": "Pending",
    "rowid": "1297640",
    "final_x": "3665948.1104",
    "final_y": "528832.655936",
    "longitude": "-90.1172678416555",
    "latitude": "29.948569389807318",
    "geocoded_column": {
      "latitude": "29.948569389807318",
      "longitude": "-90.1172678416555"
    }
  },
  {
    "service_request": "2026-1297639",
    "request_type": "Trash/Recycling",
    "request_reason": "Request a Large Item Pick Up",
    "date_created": "2026-07-07T15:41:49.000",
    "date_modified": "2026-07-07T15:41:50.000",
    "request_status": "Pending",
    "responsible_agency": "Department of Sanitation",
    "final_address": "1013 Sixth St",
    "address_councildis": "B",
    "status": "Assigned to Contractor",
    "contractor": "IV Waste",
    "rowid": "1297639",
    "final_x": "3676794.69038",
    "final_y": "520352.753656",
    "longitude": "-90.08331268831368",
    "latitude": "29.924931460297483",
    "geocoded_column": {
      "latitude": "29.924931460297483",
      "longitude": "-90.08331268831368"
    }
  },
  {
    "service_request": "2026-1297638",
    "request_type": "Trash/Recycling",
    "request_reason": "Order Recycling Cart",
    "date_created": "2026-07-07T15:37:46.000",
    "date_modified": "2026-07-07T15:37:47.000",
    "request_status": "Pending",
    "responsible_agency": "Department of Sanitation",
    "final_address": "1745 N Rocheblave St",
    "address_councildis": "D",
    "status": "Pending",
    "rowid": "1297638",
    "final_x": "3680598.60885",
    "final_y": "540451.724235",
    "longitude": "-90.07060578725249",
    "latitude": "29.98008219732063",
    "geocoded_column": {
      "latitude": "29.98008219732063",
      "longitude": "-90.07060578725249"
    }
  },
  {
    "service_request": "2026-1297637",
    "request_type": "Trash/Recycling",
    "request_reason": "Request a Large Item Pick Up",
    "date_created": "2026-07-07T15:37:15.000",
    "date_modified": "2026-07-07T15:37:16.000",
    "request_status": "Pending",
    "responsible_agency": "Department of Sanitation",
    "final_address": "11276 Lake Forest Blvd",
    "address_councildis": "E",
    "status": "Assigned to Contractor",
    "contractor": "Waste Pro",
    "rowid": "1297637",
    "final_x": "3716494.2412",
    "final_y": "561755.170783",
    "longitude": "-89.95642517018977",
    "latitude": "30.037521825922415",
    "geocoded_column": {
      "latitude": "30.037521825922415",
      "longitude": "-89.95642517018977"
    }
  },
  {
    "service_request": "2026-1297636",
    "request_type": "Trash/Recycling",
    "request_reason": "Request a Large Item Pick Up",
    "date_created": "2026-07-07T15:34:41.000",
    "date_modified": "2026-07-07T15:34:42.000",
    "request_status": "Pending",
    "responsible_agency": "Department of Sanitation",
    "final_address": "4310 Fort Macomb Rd",
    "address_councildis": "E",
    "status": "Assigned to Contractor",
    "contractor": "Waste Pro",
    "rowid": "1297636",
    "final_x": "3763751.9745",
    "final_y": "572949.337065",
    "longitude": "-89.80661236029201",
    "latitude": "30.06665456481649",
    "geocoded_column": {
      "latitude": "30.06665456481649",
      "longitude": "-89.80661236029201"
    }
  },
  {
    "service_request": "2026-1297635",
    "request_type": "Trash/Recycling",
    "request_reason": "Order Recycling Cart",
    "date_created": "2026-07-07T15:34:31.000",
    "date_modified": "2026-07-07T15:34:33.000",
    "request_status": "Pending",
    "responsible_agency": "Department of Sanitation",
    "final_address": "1743 N Rocheblave St",
    "address_councildis": "D",
    "status": "Pending",
    "rowid": "1297635",
    "final_x": "3680588.08431",
    "final_y": "540442.703627",
    "longitude": "-90.07063934209917",
    "latitude": "29.980057712692307",
    "geocoded_column": {
      "latitude": "29.980057712692307",
      "longitude": "-90.07063934209917"
    }
  },
  {
    "service_request": "2026-1297634",
    "request_type": "Property Maintenance",
    "request_reason": "Property Maintenance",
    "date_created": "2026-07-07T15:34:15.000",
    "date_modified": "2026-07-07T15:36:49.000",
    "request_status": "Pending",
    "responsible_agency": "Department of Code Enforcement",
    "final_address": "1731 Flood St",
    "address_councildis": "E",
    "status": "Pending",
    "rowid": "1297634",
    "final_x": "3698443.71952",
    "final_y": "536397.879431",
    "longitude": "-90.01439118048461",
    "latitude": "29.968382786654153",
    "geocoded_column": {
      "latitude": "29.968382786654153",
      "longitude": "-90.01439118048461"
    }
  },
  {
    "service_request": "2026-1297633",
    "request_type": "Trash/Recycling",
    "request_reason": "Order Second Trash Cart",
    "date_created": "2026-07-07T15:33:11.000",
    "date_modified": "2026-07-07T15:33:13.000",
    "request_status": "Pending",
    "responsible_agency": "Department of Sanitation",
    "final_address": "4649 Werner Dr",
    "address_councildis": "E",
    "status": "Assigned to Contractor",
    "contractor": "Waste Pro",
    "rowid": "1297633",
    "final_x": "3704864.49854",
    "final_y": "554734.804696",
    "longitude": "-89.99343705815144",
    "latitude": "30.018597682825323",
    "geocoded_column": {
      "latitude": "30.018597682825323",
      "longitude": "-89.99343705815144"
    }
  },
  {
    "service_request": "2026-1297632",
    "request_type": "Property Maintenance",
    "request_reason": "Property Maintenance",
    "date_created": "2026-07-07T15:32:15.000",
    "date_modified": "2026-07-07T15:32:17.000",
    "request_status": "Pending",
    "responsible_agency": "Department of Code Enforcement",
    "final_address": "1743 N Rocheblave St",
    "address_councildis": "D",
    "status": "Pending",
    "rowid": "1297632",
    "final_x": "3680588.08431",
    "final_y": "540442.703627",
    "longitude": "-90.07063934209917",
    "latitude": "29.980057712692307",
    "geocoded_column": {
      "latitude": "29.980057712692307",
      "longitude": "-90.07063934209917"
    }
  },
  {
    "service_request": "2026-1297631",
    "request_type": "Trash/Recycling",
    "request_reason": "Order Trash Cart",
    "date_created": "2026-07-07T15:31:23.000",
    "date_modified": "2026-07-07T15:31:25.000",
    "request_status": "Pending",
    "responsible_agency": "Department of Sanitation",
    "final_address": "4649 Werner Dr",
    "address_councildis": "E",
    "status": "Assigned to Contractor",
    "contractor": "Waste Pro",
    "rowid": "1297631",
    "final_x": "3704864.49854",
    "final_y": "554734.804696",
    "longitude": "-89.99343705815144",
    "latitude": "30.018597682825323",
    "geocoded_column": {
      "latitude": "30.018597682825323",
      "longitude": "-89.99343705815144"
    }
  },
  {
    "service_request": "2026-1297630",
    "request_type": "Trash/Recycling",
    "request_reason": "Request a Large Item Pick Up",
    "date_created": "2026-07-07T15:28:51.000",
    "date_modified": "2026-07-07T15:28:52.000",
    "request_status": "Pending",
    "responsible_agency": "Department of Sanitation",
    "final_address": "252 Walnut St",
    "address_councildis": "A",
    "status": "Assigned to Contractor",
    "contractor": "IV Waste",
    "rowid": "1297630",
    "final_x": "3661464.24019",
    "final_y": "521487.993017",
    "longitude": "-90.13166858157456",
    "latitude": "29.928503976744977",
    "geocoded_column": {
      "latitude": "29.928503976744977",
      "longitude": "-90.13166858157456"
    }
  },
  {
    "service_request": "2026-1297629",
    "request_type": "Trash/Recycling",
    "request_reason": "Request a Large Item Pick Up",
    "date_created": "2026-07-07T15:25:53.000",
    "date_modified": "2026-07-07T15:25:57.000",
    "request_status": "Pending",
    "responsible_agency": "Department of Sanitation",
    "final_address": "4501 Citrus Dr",
    "address_councildis": "E",
    "status": "Assigned to Contractor",
    "contractor": "Waste Pro",
    "rowid": "1297629",
    "final_x": "3710846.04875",
    "final_y": "554684.46812",
    "longitude": "-89.97453960035851",
    "latitude": "30.01826559590019",
    "geocoded_column": {
      "latitude": "30.01826559590019",
      "longitude": "-89.97453960035851"
    }
  },
  {
    "service_request": "2026-1297628",
    "request_type": "Roads and Streets",
    "request_reason": "Debris in Driving Lanes",
    "date_created": "2026-07-07T15:17:20.000",
    "date_modified": "2026-07-07T15:17:22.000",
    "request_status": "Pending",
    "responsible_agency": "Department of Public Works",
    "final_address": "6838 Orleans Ave",
    "address_councildis": "A",
    "status": "Pending",
    "rowid": "1297628",
    "final_x": "3671303.59463",
    "final_y": "552770.299926",
    "longitude": "-90.09954446102653",
    "latitude": "30.014232378813013",
    "geocoded_column": {
      "latitude": "30.014232378813013",
      "longitude": "-90.09954446102653"
    }
  },
  {
    "service_request": "2026-1297627",
    "request_type": "Roads and Streets",
    "request_reason": "Pothole",
    "date_created": "2026-07-07T15:17:15.000",
    "date_modified": "2026-07-07T15:17:16.000",
    "request_status": "Pending",
    "responsible_agency": "Department of Public Works",
    "final_address": "9026 Colapissa St",
    "address_councildis": "A",
    "status": "Pending",
    "rowid": "1297627",
    "final_x": "3664001.65837",
    "final_y": "535660.14919",
    "longitude": "-90.1231859659006",
    "latitude": "29.967399429881773",
    "geocoded_column": {
      "latitude": "29.967399429881773",
      "longitude": "-90.1231859659006"
    }
  },
  {
    "service_request": "2026-1297626",
    "request_type": "Street and Traffic Signs",
    "request_reason": "Traffic or Parking Sign Damaged or Missing",
    "date_created": "2026-07-07T15:17:04.000",
    "date_modified": "2026-07-07T15:17:05.000",
    "request_status": "Pending",
    "responsible_agency": "Department of Public Works",
    "final_address": "4400 Bienville Ave",
    "address_councildis": "A",
    "status": "Pending",
    "rowid": "1297626",
    "final_x": "3670381.59866",
    "final_y": "539793.38977",
    "longitude": "-90.10289779034389",
    "latitude": "29.978577635408556",
    "geocoded_column": {
      "latitude": "29.978577635408556",
      "longitude": "-90.10289779034389"
    }
  },
  {
    "service_request": "2026-1297625",
    "request_type": "Trash/Recycling",
    "request_reason": "Request a Large Item Pick Up",
    "date_created": "2026-07-07T15:16:22.000",
    "date_modified": "2026-07-07T15:16:25.000",
    "request_status": "Pending",
    "responsible_agency": "Department of Sanitation",
    "final_address": "10111 Flossmoor Dr",
    "address_councildis": "E",
    "status": "Assigned to Contractor",
    "contractor": "Waste Pro",
    "rowid": "1297625",
    "final_x": "3709473.63761",
    "final_y": "563579.844",
    "longitude": "-89.97854355419643",
    "latitude": "30.042769048438533",
    "geocoded_column": {
      "latitude": "30.042769048438533",
      "longitude": "-89.97854355419643"
    }
  },
  {
    "service_request": "2026-1297624",
    "request_type": "Property Maintenance",
    "request_reason": "Property Maintenance",
    "date_created": "2026-07-07T15:14:15.000",
    "date_modified": "2026-07-07T15:14:16.000",
    "request_status": "Pending",
    "responsible_agency": "Department of Code Enforcement",
    "final_address": "207 N Murat St",
    "address_councildis": "A",
    "status": "Pending",
    "rowid": "1297624",
    "final_x": "3669936.22446",
    "final_y": "539859.729034",
    "longitude": "-90.1043022035783",
    "latitude": "29.97877318877787",
    "geocoded_column": {
      "latitude": "29.97877318877787",
      "longitude": "-90.1043022035783"
    }
  },
  {
    "service_request": "2026-1297623",
    "request_type": "Drainage",
    "request_reason": "Ditch and Culvert Maintenance",
    "date_created": "2026-07-07T15:13:14.000",
    "date_modified": "2026-07-07T15:13:16.000",
    "request_status": "Pending",
    "responsible_agency": "Department of Public Works",
    "final_address": "822 Delachaise St",
    "address_councildis": "B",
    "status": "Pending",
    "rowid": "1297623",
    "final_x": "3675009.48513",
    "final_y": "518609.391735",
    "longitude": "-90.08900776716077",
    "latitude": "29.920191205251257",
    "geocoded_column": {
      "latitude": "29.920191205251257",
      "longitude": "-90.08900776716077"
    }
  },
  {
    "service_request": "2026-1297622",
    "request_type": "Street and Traffic Signs",
    "request_reason": "Street Name Sign Damaged or Missing",
    "date_created": "2026-07-07T15:07:18.000",
    "date_modified": "2026-07-07T15:07:20.000",
    "request_status": "Pending",
    "responsible_agency": "Department of Public Works",
    "final_address": "VERMILLION BLVD & MEXICO ST",
    "address_councildis": "D",
    "status": "Pending",
    "rowid": "1297622",
    "final_x": "3682995.7",
    "final_y": "556108.88",
    "longitude": "-90.0624863122675",
    "latitude": "30.0230609026601",
    "geocoded_column": {
      "latitude": "30.0230609026601",
      "longitude": "-90.0624863122675"
    }
  },
  {
    "service_request": "2026-1297621",
    "request_type": "Property Maintenance",
    "request_reason": "Property Maintenance",
    "date_created": "2026-07-07T15:06:50.000",
    "date_modified": "2026-07-07T15:06:52.000",
    "request_status": "Pending",
    "responsible_agency": "Department of Code Enforcement",
    "final_address": "2815 DAbadie St",
    "address_councildis": "D",
    "status": "Pending",
    "rowid": "1297621",
    "final_x": "3678864.80853",
    "final_y": "541319.096972",
    "longitude": "-90.07605179436885",
    "latitude": "29.982519594058523",
    "geocoded_column": {
      "latitude": "29.982519594058523",
      "longitude": "-90.07605179436885"
    }
  },
  {
    "service_request": "2026-1297620",
    "request_type": "Traffic Signals",
    "request_reason": "Traffic Signal Malfunctioning or Damaged",
    "date_created": "2026-07-07T15:05:29.000",
    "date_modified": "2026-07-07T15:05:30.000",
    "request_status": "Pending",
    "responsible_agency": "Department of Public Works",
    "final_address": "7100 Read Blvd",
    "address_councildis": "E",
    "status": "Pending",
    "rowid": "1297620",
    "final_x": "3709506.88069",
    "final_y": "562445.461023",
    "longitude": "-89.9784808841646",
    "latitude": "30.039648867449685",
    "geocoded_column": {
      "latitude": "30.039648867449685",
      "longitude": "-89.9784808841646"
    }
  },
  {
    "service_request": "2026-1297619",
    "request_type": "Trash/Recycling",
    "request_reason": "Request a Large Item Pick Up",
    "date_created": "2026-07-07T15:01:16.000",
    "date_modified": "2026-07-07T15:01:18.000",
    "request_status": "Pending",
    "responsible_agency": "Department of Sanitation",
    "final_address": "3828 Royal St",
    "address_councildis": "C",
    "status": "Assigned to Contractor",
    "contractor": "IV Waste",
    "rowid": "1297619",
    "final_x": "3691067.96361",
    "final_y": "533863.612229",
    "longitude": "-90.03777457569595",
    "latitude": "29.961645825617797",
    "geocoded_column": {
      "latitude": "29.961645825617797",
      "longitude": "-90.03777457569595"
    }
  },
  {
    "service_request": "2026-1297618",
    "request_type": "Trash/Recycling",
    "request_reason": "Request a Large Item Pick Up",
    "date_created": "2026-07-07T15:00:11.000",
    "date_modified": "2026-07-07T15:00:12.000",
    "request_status": "Pending",
    "responsible_agency": "Department of Sanitation",
    "final_address": "4827 Cardenas Dr",
    "address_councildis": "E",
    "status": "Assigned to Contractor",
    "contractor": "Waste Pro",
    "rowid": "1297618",
    "final_x": "3713716.3621",
    "final_y": "556730.857562",
    "longitude": "-89.96539338822973",
    "latitude": "30.023798457453882",
    "geocoded_column": {
      "latitude": "30.023798457453882",
      "longitude": "-89.96539338822973"
    }
  },
  {
    "service_request": "2026-1297617",
    "request_type": "Trash/Recycling",
    "request_reason": "Illegal Dumping",
    "date_created": "2026-07-07T14:58:43.000",
    "date_modified": "2026-07-07T14:58:45.000",
    "request_status": "Pending",
    "responsible_agency": "Department of Sanitation",
    "final_address": "APPLE ST & JOLIET ST",
    "address_councildis": "A",
    "status": "Pending",
    "rowid": "1297617",
    "final_x": "3664303.8",
    "final_y": "533062.98",
    "longitude": "-90.12231847772136",
    "latitude": "29.96024928946255",
    "geocoded_column": {
      "latitude": "29.96024928946255",
      "longitude": "-90.12231847772136"
    }
  },
  {
    "service_request": "2026-1297616",
    "request_type": "Trash/Recycling",
    "request_reason": "Request a Large Item Pick Up",
    "date_created": "2026-07-07T14:57:38.000",
    "date_modified": "2026-07-07T15:25:28.000",
    "request_status": "Pending",
    "responsible_agency": "Department of Sanitation",
    "final_address": "7704 Hickory St",
    "address_councildis": "A",
    "status": "Assigned to Contractor",
    "contractor": "IV Waste",
    "rowid": "1297616",
    "final_x": "3664403.51162",
    "final_y": "528948.44384",
    "longitude": "-90.1221409469153",
    "latitude": "29.948932753110892",
    "geocoded_column": {
      "latitude": "29.948932753110892",
      "longitude": "-90.1221409469153"
    }
  },
  {
    "service_request": "2026-1297615",
    "request_type": "Trash/Recycling",
    "request_reason": "Request a Large Item Pick Up",
    "date_created": "2026-07-07T14:55:40.000",
    "date_modified": "2026-07-07T14:55:41.000",
    "request_status": "Pending",
    "responsible_agency": "Department of Sanitation",
    "final_address": "4729 Good Dr",
    "address_councildis": "E",
    "status": "Assigned to Contractor",
    "contractor": "Waste Pro",
    "rowid": "1297615",
    "final_x": "3714860.55186",
    "final_y": "556794.075482",
    "longitude": "-89.96177562424513",
    "latitude": "30.023934673015457",
    "geocoded_column": {
      "latitude": "30.023934673015457",
      "longitude": "-89.96177562424513"
    }
  },
  {
    "service_request": "2026-1297614",
    "request_type": "Trash/Recycling",
    "request_reason": "Repair Trash Cart",
    "date_created": "2026-07-07T14:55:16.000",
    "date_modified": "2026-07-07T14:55:18.000",
    "request_status": "Pending",
    "responsible_agency": "Department of Sanitation",
    "final_address": "1911 Gordon St",
    "address_councildis": "E",
    "status": "Assigned to Contractor",
    "contractor": "Waste Pro",
    "rowid": "1297614",
    "final_x": "3700389.52029",
    "final_y": "536370.617031",
    "longitude": "-90.00824728488647",
    "latitude": "29.96824609602085",
    "geocoded_column": {
      "latitude": "29.96824609602085",
      "longitude": "-90.00824728488647"
    }
  },
  {
    "service_request": "2026-1297613",
    "request_type": "Trash/Recycling",
    "request_reason": "Request a Large Item Pick Up",
    "date_created": "2026-07-07T14:54:49.000",
    "date_modified": "2026-07-07T14:54:51.000",
    "request_status": "Pending",
    "responsible_agency": "Department of Sanitation",
    "final_address": "3906 Prytania St",
    "address_councildis": "B",
    "status": "Assigned to Contractor",
    "contractor": "IV Waste",
    "rowid": "1297613",
    "final_x": "3672667.36321",
    "final_y": "520459.226872",
    "longitude": "-90.09633770819607",
    "latitude": "29.925347388778505",
    "geocoded_column": {
      "latitude": "29.925347388778505",
      "longitude": "-90.09633770819607"
    }
  },
  {
    "service_request": "2026-1297612",
    "request_type": "Trash/Recycling",
    "request_reason": "Request a Large Item Pick Up",
    "date_created": "2026-07-07T14:54:10.000",
    "date_modified": "2026-07-07T14:54:12.000",
    "request_status": "Pending",
    "responsible_agency": "Department of Sanitation",
    "final_address": "7430 Alabama St",
    "address_councildis": "D",
    "status": "Assigned to Contractor",
    "contractor": "Waste Pro",
    "rowid": "1297612",
    "final_x": "3695014.38723",
    "final_y": "558004.967771",
    "longitude": "-90.02444166193122",
    "latitude": "30.02790242569071",
    "geocoded_column": {
      "latitude": "30.02790242569071",
      "longitude": "-90.02444166193122"
    }
  },
  {
    "service_request": "2026-1297611",
    "request_type": "Trash/Recycling",
    "request_reason": "Request a Large Item Pick Up",
    "date_created": "2026-07-07T14:53:20.000",
    "date_modified": "2026-07-07T14:53:23.000",
    "request_status": "Pending",
    "responsible_agency": "Department of Sanitation",
    "final_address": "1911 Gordon St",
    "address_councildis": "E",
    "status": "Assigned to Contractor",
    "contractor": "Waste Pro",
    "rowid": "1297611",
    "final_x": "3700389.52029",
    "final_y": "536370.617031",
    "longitude": "-90.00824728488647",
    "latitude": "29.96824609602085",
    "geocoded_column": {
      "latitude": "29.96824609602085",
      "longitude": "-90.00824728488647"
    }
  },
  {
    "service_request": "2026-1297610",
    "request_type": "Trash/Recycling",
    "request_reason": "Replace Trash Cart",
    "date_created": "2026-07-07T14:52:13.000",
    "date_modified": "2026-07-07T14:52:14.000",
    "request_status": "Pending",
    "responsible_agency": "Department of Sanitation",
    "final_address": "6058 Canal Blvd",
    "address_councildis": "A",
    "status": "Assigned to Contractor",
    "contractor": "IV Waste",
    "rowid": "1297610",
    "final_x": "3668401.1602",
    "final_y": "547840.918802",
    "longitude": "-90.10888115985011",
    "latitude": "30.000763915657043",
    "geocoded_column": {
      "latitude": "30.000763915657043",
      "longitude": "-90.10888115985011"
    }
  },
  {
    "service_request": "2026-1297609",
    "request_type": "Trash/Recycling",
    "request_reason": "Request a Large Item Pick Up",
    "date_created": "2026-07-07T14:51:58.000",
    "date_modified": "2026-07-07T14:51:59.000",
    "request_status": "Pending",
    "responsible_agency": "Department of Sanitation",
    "final_address": "3906 Prytania St",
    "address_councildis": "B",
    "status": "Assigned to Contractor",
    "contractor": "IV Waste",
    "rowid": "1297609",
    "final_x": "3672667.36321",
    "final_y": "520459.226872",
    "longitude": "-90.09633770819607",
    "latitude": "29.925347388778505",
    "geocoded_column": {
      "latitude": "29.925347388778505",
      "longitude": "-90.09633770819607"
    }
  },
  {
    "service_request": "2026-1297608",
    "request_type": "Trash/Recycling",
    "request_reason": "Request a Large Item Pick Up",
    "date_created": "2026-07-07T14:51:24.000",
    "date_modified": "2026-07-07T14:51:25.000",
    "request_status": "Pending",
    "responsible_agency": "Department of Sanitation",
    "final_address": "404 Olivier St",
    "address_councildis": "C",
    "status": "Assigned to Contractor",
    "contractor": "Richards Disposal",
    "rowid": "1297608",
    "final_x": "3687284.65558",
    "final_y": "530271.761025",
    "longitude": "-90.04984865679002",
    "latitude": "29.951886550343776",
    "geocoded_column": {
      "latitude": "29.951886550343776",
      "longitude": "-90.04984865679002"
    }
  },
  {
    "service_request": "2026-1297607",
    "request_type": "Roads and Streets",
    "request_reason": "Sidewalk Damaged or Missing",
    "date_created": "2026-07-07T14:50:01.000",
    "date_modified": "2026-07-07T14:50:03.000",
    "request_status": "Pending",
    "responsible_agency": "Department of Public Works",
    "final_address": "839 Marigny St",
    "address_councildis": "C",
    "status": "Pending",
    "rowid": "1297607",
    "final_x": "3685516.64591",
    "final_y": "535576.06023",
    "longitude": "-90.0552443670129",
    "latitude": "29.966525884647336",
    "geocoded_column": {
      "latitude": "29.966525884647336",
      "longitude": "-90.0552443670129"
    }
  },
  {
    "service_request": "2026-1297606",
    "request_type": "Trash/Recycling",
    "request_reason": "Order Recycling Cart",
    "date_created": "2026-07-07T14:48:42.000",
    "date_modified": "2026-07-07T14:48:44.000",
    "request_status": "Pending",
    "responsible_agency": "Department of Sanitation",
    "final_address": "17 Park Island Dr",
    "address_councildis": "A",
    "status": "Pending",
    "rowid": "1297606",
    "final_x": "3676406.93704",
    "final_y": "548061.440018",
    "longitude": "-90.0835827075162",
    "latitude": "30.001132608904296",
    "geocoded_column": {
      "latitude": "30.001132608904296",
      "longitude": "-90.0835827075162"
    }
  },
  {
    "service_request": "2026-1297605",
    "request_type": "Trash/Recycling",
    "request_reason": "Illegal Dumping",
    "date_created": "2026-07-07T14:48:25.000",
    "date_modified": "2026-07-07T14:49:33.000",
    "request_status": "Pending",
    "responsible_agency": "Department of Code Enforcement",
    "final_address": "6500 BLK Dwyer Rd",
    "address_councildis": "E",
    "status": "Pending",
    "rowid": "1297605",
    "final_x": "3698651.91335",
    "final_y": "555447.943682",
    "longitude": "-90.013040495556",
    "latitude": "30.020756833959393",
    "geocoded_column": {
      "latitude": "30.020756833959393",
      "longitude": "-90.013040495556"
    }
  },
  {
    "service_request": "2026-1297604",
    "request_type": "Trash/Recycling",
    "request_reason": "Repair Recycling Cart",
    "date_created": "2026-07-07T14:47:46.000",
    "date_modified": "2026-07-07T14:47:48.000",
    "request_status": "Pending",
    "responsible_agency": "Department of Sanitation",
    "final_address": "2522 Pauline St",
    "address_councildis": "D",
    "status": "Pending",
    "rowid": "1297604",
    "final_x": "3692538.97853",
    "final_y": "540996.425995",
    "longitude": "-90.03287373698312",
    "latitude": "29.981212718838666",
    "geocoded_column": {
      "latitude": "29.981212718838666",
      "longitude": "-90.03287373698312"
    }
  },
  {
    "service_request": "2026-1297603",
    "request_type": "Trash/Recycling",
    "request_reason": "Order Second Trash Cart",
    "date_created": "2026-07-07T14:44:54.000",
    "date_modified": "2026-07-07T14:44:56.000",
    "request_status": "Pending",
    "responsible_agency": "Department of Sanitation",
    "final_address": "4801 Warren Dr",
    "address_councildis": "E",
    "status": "Assigned to Contractor",
    "contractor": "Waste Pro",
    "rowid": "1297603",
    "final_x": "3713506.88869",
    "final_y": "556505.944922",
    "longitude": "-89.96606375579896",
    "latitude": "30.023186911014083",
    "geocoded_column": {
      "latitude": "30.023186911014083",
      "longitude": "-89.96606375579896"
    }
  },
  {
    "service_request": "2026-1297602",
    "request_type": "Trash/Recycling",
    "request_reason": "Illegal Dumping",
    "date_created": "2026-07-07T14:44:14.000",
    "date_modified": "2026-07-07T14:44:16.000",
    "request_status": "Pending",
    "responsible_agency": "Department of Sanitation",
    "final_address": "7721 N Coronet Ct",
    "address_councildis": "E",
    "status": "Pending",
    "rowid": "1297602",
    "final_x": "3702527.38634",
    "final_y": "557614.604507",
    "longitude": "-90.00071560942095",
    "latitude": "30.02659096224969",
    "geocoded_column": {
      "latitude": "30.02659096224969",
      "longitude": "-90.00071560942095"
    }
  },
  {
    "service_request": "2026-1297601",
    "request_type": "Trash/Recycling",
    "request_reason": "Request a Large Item Pick Up",
    "date_created": "2026-07-07T14:43:20.000",
    "date_modified": "2026-07-07T14:43:22.000",
    "request_status": "Pending",
    "responsible_agency": "Department of Sanitation",
    "final_address": "634 Poland Ave",
    "address_councildis": "C",
    "status": "Assigned to Contractor",
    "contractor": "IV Waste",
    "rowid": "1297601",
    "final_x": "3692593.85469",
    "final_y": "533452.665924",
    "longitude": "-90.03297081102086",
    "latitude": "29.960468340207676",
    "geocoded_column": {
      "latitude": "29.960468340207676",
      "longitude": "-90.03297081102086"
    }
  },
  {
    "service_request": "2026-1297600",
    "request_type": "Mosquito, Termite & Rodent Control",
    "request_reason": "Rodent Complaint (Mice & Rats)",
    "date_created": "2026-07-07T14:42:45.000",
    "date_modified": "2026-07-07T14:44:11.000",
    "request_status": "Pending",
    "responsible_agency": "Mosquito, Termite & Rodent Control Board",
    "final_address": "3127 N Galvez St",
    "address_councildis": "D",
    "status": "Pending",
    "rowid": "1297600",
    "final_x": "3690246.75721",
    "final_y": "539722.887946",
    "longitude": "-90.04015898382465",
    "latitude": "29.97778227640921",
    "geocoded_column": {
      "latitude": "29.97778227640921",
      "longitude": "-90.04015898382465"
    }
  },
  {
    "service_request": "2026-1297599",
    "request_type": "Trash/Recycling",
    "request_reason": "Request a Large Item Pick Up",
    "date_created": "2026-07-07T14:39:59.000",
    "date_modified": "2026-07-07T14:40:00.000",
    "request_status": "Pending",
    "responsible_agency": "Department of Sanitation",
    "final_address": "4668 Nottingham Dr",
    "address_councildis": "E",
    "status": "Assigned to Contractor",
    "contractor": "Waste Pro",
    "rowid": "1297599",
    "final_x": "3716354.88408",
    "final_y": "556511.874202",
    "longitude": "-89.9570645888135",
    "latitude": "30.02310946454923",
    "geocoded_column": {
      "latitude": "30.02310946454923",
      "longitude": "-89.9570645888135"
    }
  },
  {
    "service_request": "2026-1297597",
    "request_type": "Trash/Recycling",
    "request_reason": "Order Second Trash Cart",
    "date_created": "2026-07-07T14:39:36.000",
    "date_modified": "2026-07-07T14:39:37.000",
    "request_status": "Pending",
    "responsible_agency": "Department of Sanitation",
    "final_address": "3711 Annunciation St",
    "address_councildis": "B",
    "status": "Assigned to Contractor",
    "contractor": "IV Waste",
    "rowid": "1297597",
    "final_x": "3673780.05332",
    "final_y": "518113.531574",
    "longitude": "-90.09290544754711",
    "latitude": "29.91886440194959",
    "geocoded_column": {
      "latitude": "29.91886440194959",
      "longitude": "-90.09290544754711"
    }
  },
  {
    "service_request": "2026-1297598",
    "request_type": "Trash/Recycling",
    "request_reason": "Repair Trash Cart",
    "date_created": "2026-07-07T14:39:36.000",
    "date_modified": "2026-07-07T14:39:37.000",
    "request_status": "Pending",
    "responsible_agency": "Department of Sanitation",
    "final_address": "3541 Roger Williams St",
    "address_councildis": "D",
    "status": "Assigned to Contractor",
    "contractor": "IV Waste",
    "rowid": "1297598",
    "final_x": "3675991.69006",
    "final_y": "544022.646286",
    "longitude": "-90.08503350690363",
    "latitude": "29.99003978863607",
    "geocoded_column": {
      "latitude": "29.99003978863607",
      "longitude": "-90.08503350690363"
    }
  },
  {
    "service_request": "2026-1297596",
    "request_type": "Tree Service",
    "request_reason": "Dead or Dying Tree",
    "date_created": "2026-07-07T14:39:23.000",
    "date_modified": "2026-07-07T14:39:24.000",
    "request_status": "Pending",
    "responsible_agency": "Department of Parks & Parkways",
    "final_address": "3632 Annunciation St",
    "address_councildis": "B",
    "status": "Pending",
    "rowid": "1297596",
    "final_x": "3674267.00705",
    "final_y": "518151.686006",
    "longitude": "-90.09136707956479",
    "latitude": "29.918954810507653",
    "geocoded_column": {
      "latitude": "29.918954810507653",
      "longitude": "-90.09136707956479"
    }
  },
  {
    "service_request": "2026-1297595",
    "request_type": "Trash/Recycling",
    "request_reason": "Replace Trash Cart",
    "date_created": "2026-07-07T14:32:22.000",
    "date_modified": "2026-07-07T14:32:24.000",
    "request_status": "Pending",
    "responsible_agency": "Department of Sanitation",
    "final_address": "1234 Vallette St",
    "address_councildis": "C",
    "status": "Assigned to Contractor",
    "contractor": "Richards Disposal",
    "rowid": "1297595",
    "final_x": "3687450.34383",
    "final_y": "526962.890878",
    "longitude": "-90.04944255903094",
    "latitude": "29.942783181580175",
    "geocoded_column": {
      "latitude": "29.942783181580175",
      "longitude": "-90.04944255903094"
    }
  },
  {
    "service_request": "2026-1297594",
    "request_type": "Trash/Recycling",
    "request_reason": "Request a Large Item Pick Up",
    "date_created": "2026-07-07T14:31:24.000",
    "date_modified": "2026-07-07T14:31:26.000",
    "request_status": "Pending",
    "responsible_agency": "Department of Sanitation",
    "final_address": "1866 N Gayoso St",
    "address_councildis": "D",
    "status": "Assigned to Contractor",
    "contractor": "IV Waste",
    "rowid": "1297594",
    "final_x": "3679560.32066",
    "final_y": "542500.626381",
    "longitude": "-90.07381400196529",
    "latitude": "29.985747385385363",
    "geocoded_column": {
      "latitude": "29.985747385385363",
      "longitude": "-90.07381400196529"
    }
  },
  {
    "service_request": "2026-1297593",
    "request_type": "Trash/Recycling",
    "request_reason": "Request a Large Item Pick Up",
    "date_created": "2026-07-07T14:25:16.000",
    "date_modified": "2026-07-07T14:25:19.000",
    "request_status": "Pending",
    "responsible_agency": "Department of Sanitation",
    "final_address": "2880 Annette St",
    "address_councildis": "D",
    "status": "Assigned to Contractor",
    "contractor": "IV Waste",
    "rowid": "1297593",
    "final_x": "3682553.52495",
    "final_y": "542932.754893",
    "longitude": "-90.06434456819787",
    "latitude": "29.986844779177545",
    "geocoded_column": {
      "latitude": "29.986844779177545",
      "longitude": "-90.06434456819787"
    }
  },
  {
    "service_request": "2026-1297592",
    "request_type": "Abandoned Vehicles",
    "request_reason": "Abandoned/Junk Vehicles",
    "date_created": "2026-07-07T14:23:19.000",
    "date_modified": "2026-07-07T14:23:21.000",
    "request_status": "Pending",
    "responsible_agency": "Department of Public Works",
    "final_address": "11100 Whiteside Rd",
    "address_councildis": "E",
    "status": "Pending",
    "rowid": "1297592",
    "final_x": "3711709.35275",
    "final_y": "564874.827746",
    "longitude": "-89.97142922030477",
    "latitude": "30.046256858986137",
    "geocoded_column": {
      "latitude": "30.046256858986137",
      "longitude": "-89.97142922030477"
    }
  },
  {
    "service_request": "2026-1297591",
    "request_type": "Trash/Recycling",
    "request_reason": "Order Recycling Cart",
    "date_created": "2026-07-07T14:22:01.000",
    "date_modified": "2026-07-07T14:22:03.000",
    "request_status": "Pending",
    "responsible_agency": "Department of Sanitation",
    "final_address": "2421 Louisa St",
    "address_councildis": "D",
    "status": "Pending",
    "rowid": "1297591",
    "final_x": "3690869.01065",
    "final_y": "540944.059723",
    "longitude": "-90.03815010406343",
    "latitude": "29.981120739053335",
    "geocoded_column": {
      "latitude": "29.981120739053335",
      "longitude": "-90.03815010406343"
    }
  },
  {
    "service_request": "2026-1297590",
    "request_type": "Trash/Recycling",
    "request_reason": "Order Trash Cart",
    "date_created": "2026-07-07T14:20:58.000",
    "date_modified": "2026-07-07T14:21:00.000",
    "request_status": "Pending",
    "responsible_agency": "Department of Sanitation",
    "final_address": "2421 Louisa St",
    "address_councildis": "D",
    "status": "Assigned to Contractor",
    "contractor": "IV Waste",
    "rowid": "1297590",
    "final_x": "3690869.01065",
    "final_y": "540944.059723",
    "longitude": "-90.03815010406343",
    "latitude": "29.981120739053335",
    "geocoded_column": {
      "latitude": "29.981120739053335",
      "longitude": "-90.03815010406343"
    }
  },
  {
    "service_request": "2026-1297589",
    "request_type": "Roads and Streets",
    "request_reason": "Street Subsidence (Sinking)",
    "date_created": "2026-07-07T14:20:44.000",
    "date_modified": "2026-07-07T14:20:45.000",
    "request_status": "Pending",
    "responsible_agency": "Sewerage & Water Board",
    "final_address": "2006 Audubon St",
    "address_councildis": "A",
    "status": "Pending",
    "rowid": "1297589",
    "final_x": "3665948.1104",
    "final_y": "528832.655936",
    "longitude": "-90.1172678416555",
    "latitude": "29.948569389807318",
    "geocoded_column": {
      "latitude": "29.948569389807318",
      "longitude": "-90.1172678416555"
    }
  },
  {
    "service_request": "2026-1297588",
    "request_type": "Drainage",
    "request_reason": "Catch Basin Not Draining",
    "date_created": "2026-07-07T14:20:40.000",
    "date_modified": "2026-07-07T14:20:42.000",
    "request_status": "Pending",
    "responsible_agency": "Sewerage & Water Board",
    "final_address": "1700 BLK Fern St",
    "address_councildis": "A",
    "status": "Pending",
    "rowid": "1297588",
    "final_x": "3663836.27301",
    "final_y": "529278.45501",
    "longitude": "-90.12392097456826",
    "latitude": "29.9498566520303",
    "geocoded_column": {
      "latitude": "29.9498566520303",
      "longitude": "-90.12392097456826"
    }
  },
  {
    "service_request": "2026-1297587",
    "request_type": "Trash/Recycling",
    "request_reason": "Order Recycling Cart",
    "date_created": "2026-07-07T14:19:52.000",
    "date_modified": "2026-07-07T14:19:54.000",
    "request_status": "Pending",
    "responsible_agency": "Department of Sanitation",
    "final_address": "2423 Louisa St",
    "address_councildis": "D",
    "status": "Pending",
    "rowid": "1297587",
    "final_x": "3690872.49321",
    "final_y": "540956.253003",
    "longitude": "-90.0381386692916",
    "latitude": "29.981154157979553",
    "geocoded_column": {
      "latitude": "29.981154157979553",
      "longitude": "-90.0381386692916"
    }
  },
  {
    "service_request": "2026-1297586",
    "request_type": "Trash/Recycling",
    "request_reason": "Order Trash Cart",
    "date_created": "2026-07-07T14:18:47.000",
    "date_modified": "2026-07-07T14:18:49.000",
    "request_status": "Pending",
    "responsible_agency": "Department of Sanitation",
    "final_address": "2423 Louisa St",
    "address_councildis": "D",
    "status": "Assigned to Contractor",
    "contractor": "IV Waste",
    "rowid": "1297586",
    "final_x": "3690872.49321",
    "final_y": "540956.253003",
    "longitude": "-90.0381386692916",
    "latitude": "29.981154157979553",
    "geocoded_column": {
      "latitude": "29.981154157979553",
      "longitude": "-90.0381386692916"
    }
  },
  {
    "service_request": "2026-1297585",
    "request_type": "Trash/Recycling",
    "request_reason": "Replace Trash Cart",
    "date_created": "2026-07-07T14:12:11.000",
    "date_modified": "2026-07-07T14:12:13.000",
    "request_status": "Pending",
    "responsible_agency": "Department of Sanitation",
    "final_address": "7921 Oleander St",
    "address_councildis": "B",
    "status": "Assigned to Contractor",
    "contractor": "IV Waste",
    "rowid": "1297585",
    "final_x": "3667244.11207",
    "final_y": "533274.893956",
    "longitude": "-90.11302642893132",
    "latitude": "29.96074620817269",
    "geocoded_column": {
      "latitude": "29.96074620817269",
      "longitude": "-90.11302642893132"
    }
  },