[
  {
    "service_request": "2023-966478",
    "request_type": "Trash/Recycling",
    "request_reason": "Request a Large Item Pick Up",
    "date_created": "2023-01-13T00:12:00.000",
    "date_modified": "2023-01-13T00:12:01.000",
    "request_status": "Pending",
    "responsible_agency": "Department of Sanitation",
    "final_address": "2716 New Orleans St, New Orleans, Louisiana, 70119",
    "address_councildis": "D",
    "status": "Assigned to Contractor",
    "contractor": "IV Waste",
    "rowid": "966478",
    "final_x": "3681857.74901",
    "final_y": "542496.847309",
    "longitude": "-90.06655748857781",
    "latitude": "29.98566735576039",
    "geocoded_column": {
      "latitude": "29.98566735576039",
      "longitude": "-90.06655748857781"
    }
  },
  {
    "service_request": "2023-966477",
    "request_type": "Trash/Recycling",
    "request_reason": "MIssed Recycling Pick-Up",
    "date_created": "2023-01-12T23:35:32.000",
    "date_modified": "2023-01-12T23:35:33.000",
    "request_status": "Pending",
    "responsible_agency": "Department of Sanitation",
    "final_address": "1421 General Pershing St",
    "address_councildis": "B",
    "status": "Assigned to Contractor",
    "contractor": "Richards Disposal",
    "rowid": "966477",
    "final_x": "3671361.78433",
    "final_y": "520550.771576",
    "longitude": "-90.10045591150714",
    "latitude": "29.925637797976027",
    "geocoded_column": {
      "latitude": "29.925637797976027",
      "longitude": "-90.10045591150714"
    }
  },
  {
    "service_request": "2023-966476",
    "request_type": "Health Related Request",
    "request_reason": "Noise Ordinance Complaint",
    "date_created": "2023-01-12T23:32:50.000",
    "date_modified": "2023-01-12T23:32:50.000",
    "request_status": "Pending",
    "responsible_agency": "Health Department",
    "final_address": "2234 Jena St",
    "address_councildis": "B",
    "status": "Pending",
    "rowid": "966476",
    "final_x": "3670157.72423",
    "final_y": "523264.315195",
    "longitude": "-90.10416488514937",
    "latitude": "29.93313474221991",
    "geocoded_column": {
      "latitude": "29.93313474221991",
      "longitude": "-90.10416488514937"
    }
  },
  {
    "service_request": "2023-966475",
    "request_type": "Health Related Request",
    "request_reason": "Noise Ordinance Complaint",
    "date_created": "2023-01-12T23:30:55.000",
    "date_modified": "2023-01-12T23:30:55.000",
    "request_status": "Pending",
    "responsible_agency": "Health Department",
    "final_address": "1009 N Claiborne Ave, New Orleans, Louisiana, 70116",
    "address_councildis": "D",
    "status": "Pending",
    "rowid": "966475",
    "final_x": "3680417.66101",
    "final_y": "535635.218886",
    "longitude": "-90.07134484150656",
    "latitude": "29.966843952035386",
    "geocoded_column": {
      "latitude": "29.966843952035386",
      "longitude": "-90.07134484150656"
    }
  },
  {
    "service_request": "2023-966474",
    "request_type": "Trash/Recycling",
    "request_reason": "Repair Trash Cart",
    "date_created": "2023-01-12T23:29:25.000",
    "date_modified": "2023-01-12T23:29:26.000",
    "request_status": "Pending",
    "responsible_agency": "Department of Sanitation",
    "final_address": "18 Yellowstone Dr",
    "address_councildis": "C",
    "status": "Assigned to Contractor",
    "contractor": "Richards Disposal",
    "rowid": "966474",
    "final_x": "3699904.76445",
    "final_y": "517928.701302",
    "longitude": "-90.01045054384645",
    "latitude": "29.917552690750128",
    "geocoded_column": {
      "latitude": "29.917552690750128",
      "longitude": "-90.01045054384645"
    }
  },
  {
    "service_request": "2023-966473",
    "request_type": "Trash/Recycling",
    "request_reason": "Start Trash Service",
    "date_created": "2023-01-12T22:55:58.000",
    "date_modified": "2023-01-12T22:55:58.000",
    "request_status": "Pending",
    "responsible_agency": "Department of Sanitation",
    "final_address": "2230 Palmer Ave",
    "address_councildis": "A",
    "status": "Assigned to Contractor",
    "contractor": "Richards Disposal",
    "rowid": "966473",
    "final_x": "3666104.76992",
    "final_y": "525191.795453",
    "longitude": "-90.11689523990219",
    "latitude": "29.938553623063118",
    "geocoded_column": {
      "latitude": "29.938553623063118",
      "longitude": "-90.11689523990219"
    }
  },
  {
    "service_request": "2023-966472",
    "request_type": "Trash/Recycling",
    "request_reason": "Missed Trash Pick-Up",
    "date_created": "2023-01-12T22:28:43.000",
    "date_modified": "2023-01-12T22:28:44.000",
    "request_status": "Pending",
    "responsible_agency": "Department of Sanitation",
    "final_address": "2309 Seminole Ln",
    "address_councildis": "B",
    "status": "Assigned to Contractor",
    "contractor": "Richards Disposal",
    "rowid": "966472",
    "final_x": "3673876.99803",
    "final_y": "528332.710464",
    "longitude": "-90.0922500643891",
    "latitude": "29.946960943205077",
    "geocoded_column": {
      "latitude": "29.946960943205077",
      "longitude": "-90.0922500643891"
    }
  },
  {
    "service_request": "2023-966471",
    "request_type": "Property Maintenance",
    "request_reason": "Property Maintenance",
    "date_created": "2023-01-12T22:24:18.000",
    "date_modified": "2023-01-12T22:24:18.000",
    "request_status": "Pending",
    "responsible_agency": "Department of Code Enforcement",
    "final_address": "727 Montegut St",
    "address_councildis": "C",
    "status": "Pending",
    "rowid": "966471",
    "final_x": "3688139.15126",
    "final_y": "534854.942598",
    "longitude": "-90.0469881119465",
    "latitude": "29.96446236937054",
    "geocoded_column": {
      "latitude": "29.96446236937054",
      "longitude": "-90.0469881119465"
    }
  },
  {
    "service_request": "2023-966470",
    "request_type": "Property Maintenance",
    "request_reason": "Property Maintenance",
    "date_created": "2023-01-12T22:19:11.000",
    "date_modified": "2023-01-12T22:19:11.000",
    "request_status": "Pending",
    "responsible_agency": "Department of Code Enforcement",
    "final_address": "2941 Royal St",
    "address_councildis": "C",
    "status": "Pending",
    "rowid": "966470",
    "final_x": "3688009.61871",
    "final_y": "534739.417222",
    "longitude": "-90.04740125897936",
    "latitude": "29.96414871259372",
    "geocoded_column": {
      "latitude": "29.96414871259372",
      "longitude": "-90.04740125897936"
    }
  },
  {
    "service_request": "2023-966468",
    "request_type": "Trash/Recycling",
    "request_reason": "Missed Trash Pick-Up",
    "date_created": "2023-01-12T21:48:14.000",
    "date_modified": "2023-01-12T21:48:15.000",
    "request_status": "Pending",
    "responsible_agency": "Department of Sanitation",
    "final_address": "7920 Forshey St",
    "address_councildis": "B",
    "status": "Assigned to Contractor",
    "contractor": "Richards Disposal",
    "rowid": "966468",
    "final_x": "3667434.12033",
    "final_y": "533486.52986",
    "longitude": "-90.11241929667231",
    "latitude": "29.96132257164784",
    "geocoded_column": {
      "latitude": "29.96132257164784",
      "longitude": "-90.11241929667231"
    }
  },
  {
    "service_request": "2023-966467",
    "request_type": "Trash/Recycling",
    "request_reason": "Request a Large Item Pick Up",
    "date_created": "2023-01-12T21:44:15.000",
    "date_modified": "2023-01-12T21:44:16.000",
    "request_status": "Pending",
    "responsible_agency": "Department of Sanitation",
    "final_address": "411 Pelican Ave",
    "address_councildis": "C",
    "status": "Assigned to Contractor",
    "contractor": "Richards Disposal",
    "rowid": "966467",
    "final_x": "3686612.06633",
    "final_y": "530512.98221",
    "longitude": "-90.05196385233124",
    "latitude": "29.952570524448763",
    "geocoded_column": {
      "latitude": "29.952570524448763",
      "longitude": "-90.05196385233124"
    }
  },
  {
    "service_request": "2023-966466",
    "request_type": "Trash/Recycling",
    "request_reason": "Missed Trash Pick-Up",
    "date_created": "2023-01-12T21:25:48.000",
    "date_modified": "2023-01-12T21:25:49.000",
    "request_status": "Pending",
    "responsible_agency": "Department of Sanitation",
    "final_address": "738 Jackson Ave",
    "address_councildis": "B",
    "status": "Assigned to Contractor",
    "contractor": "Richards Disposal",
    "rowid": "966466",
    "final_x": "3679510.92687",
    "final_y": "521140.963961",
    "longitude": "-90.0747110882147",
    "latitude": "29.927017023590142",
    "geocoded_column": {
      "latitude": "29.927017023590142",
      "longitude": "-90.0747110882147"
    }
  },
  {
    "service_request": "2023-966465",
    "request_type": "Trash/Recycling",
    "request_reason": "Request a Large Item Pick Up",
    "date_created": "2023-01-12T21:22:04.000",
    "date_modified": "2023-01-12T21:22:04.000",
    "request_status": "Pending",
    "responsible_agency": "Department of Sanitation",
    "final_address": "4420 Mithra St",
    "address_councildis": "D",
    "status": "Assigned to Contractor",
    "contractor": "IV Waste",
    "rowid": "966465",
    "final_x": "3690229.16252",
    "final_y": "553204.916823",
    "longitude": "-90.03973383611464",
    "latitude": "30.014853509644038",
    "geocoded_column": {
      "latitude": "30.014853509644038",
      "longitude": "-90.03973383611464"
    }
  },
  {
    "service_request": "2023-966464",
    "request_type": "Trash/Recycling",
    "request_reason": "Missed Trash Pick-Up",
    "date_created": "2023-01-12T21:20:53.000",
    "date_modified": "2023-01-12T21:20:53.000",
    "request_status": "Pending",
    "responsible_agency": "Department of Sanitation",
    "final_address": "1922 Adams St, New Orleans, Louisiana, 70118",
    "address_councildis": "A",
    "status": "Assigned to Contractor",
    "contractor": "Richards Disposal",
    "rowid": "966464",
    "final_x": "3664814.87687",
    "final_y": "529368.983105",
    "longitude": "-90.12082803266622",
    "latitude": "29.95007713748382",
    "geocoded_column": {
      "latitude": "29.95007713748382",
      "longitude": "-90.12082803266622"
    }
  },
  {
    "service_request": "2023-966463",
    "request_type": "Trash/Recycling",
    "request_reason": "Missed Trash Pick-Up",
    "date_created": "2023-01-12T21:20:08.000",
    "date_modified": "2023-01-12T21:20:08.000",
    "request_status": "Pending",
    "responsible_agency": "Department of Sanitation",
    "final_address": "3710 Rue Nichole",
    "address_councildis": "C",
    "status": "Assigned to Contractor",
    "contractor": "Richards Disposal",
    "rowid": "966463",
    "final_x": "3704039.69956",
    "final_y": "516867.321781",
    "longitude": "-89.99743802954038",
    "latitude": "29.914502350349572",
    "geocoded_column": {
      "latitude": "29.914502350349572",
      "longitude": "-89.99743802954038"
    }
  },
  {
    "service_request": "2023-966462",
    "request_type": "Roads/Drainage",
    "request_reason": "Street Subsidence (Sinking)",
    "date_created": "2023-01-12T21:16:21.000",
    "date_modified": "2023-01-12T21:16:21.000",
    "request_status": "Pending",
    "responsible_agency": "Department of Public Works",
    "final_address": "4963 Kendall Dr",
    "address_councildis": "D",
    "status": "Pending",
    "rowid": "966462",
    "final_x": "3690302.31318",
    "final_y": "551917.096662",
    "longitude": "-90.03954865837888",
    "latitude": "30.011310209744813",
    "geocoded_column": {
      "latitude": "30.011310209744813",
      "longitude": "-90.03954865837888"
    }
  },
  {
    "service_request": "2023-966461",
    "request_type": "Trash/Recycling",
    "request_reason": "MIssed Recycling Pick-Up",
    "date_created": "2023-01-12T20:56:06.000",
    "date_modified": "2023-01-12T20:56:07.000",
    "request_status": "Pending",
    "responsible_agency": "Department of Sanitation",
    "final_address": "1316 Joseph St",
    "address_councildis": "A",
    "status": "Assigned to Contractor",
    "contractor": "Richards Disposal",
    "rowid": "966461",
    "final_x": "3666473.94887",
    "final_y": "520699.303481",
    "longitude": "-90.11588039620861",
    "latitude": "29.926189917459155",
    "geocoded_column": {
      "latitude": "29.926189917459155",
      "longitude": "-90.11588039620861"
    }
  },
  {
    "service_request": "2023-966460",
    "request_type": "Trash/Recycling",
    "request_reason": "Missed Trash Pick-Up",
    "date_created": "2023-01-12T20:55:17.000",
    "date_modified": "2023-01-12T20:55:18.000",
    "request_status": "Pending",
    "responsible_agency": "Department of Sanitation",
    "final_address": "1521 Camp St",
    "address_councildis": "B",
    "status": "Assigned to Contractor",
    "contractor": "Richards Disposal",
    "rowid": "966460",
    "final_x": "3679648.90357",
    "final_y": "523777.585211",
    "longitude": "-90.07418407009807",
    "latitude": "29.93426269844592",
    "geocoded_column": {
      "latitude": "29.93426269844592",
      "longitude": "-90.07418407009807"
    }
  },
  {
    "service_request": "2023-966459",
    "request_type": "Trash/Recycling",
    "request_reason": "Missed Trash Pick-Up",
    "date_created": "2023-01-12T20:47:40.000",
    "date_modified": "2023-01-12T20:47:41.000",
    "request_status": "Pending",
    "responsible_agency": "Department of Sanitation",
    "final_address": "7522 Jeannette St",
    "address_councildis": "A",
    "status": "Assigned to Contractor",
    "contractor": "Richards Disposal",
    "rowid": "966459",
    "final_x": "3664069.328",
    "final_y": "527748.667711",
    "longitude": "-90.12323612034218",
    "latitude": "29.945643463521094",
    "geocoded_column": {
      "latitude": "29.945643463521094",
      "longitude": "-90.12323612034218"
    }
  },
  {
    "service_request": "2023-966458",
    "request_type": "Trash/Recycling",
    "request_reason": "Missed Trash Pick-Up",
    "date_created": "2023-01-12T20:47:26.000",
    "date_modified": "2023-01-12T20:47:27.000",
    "request_status": "Pending",
    "responsible_agency": "Department of Sanitation",
    "final_address": "823 Pine St",
    "address_councildis": "A",
    "status": "Assigned to Contractor",
    "contractor": "Richards Disposal",
    "rowid": "966458",
    "final_x": "3663272.84583",
    "final_y": "525629.625469",
    "longitude": "-90.12582139404927",
    "latitude": "29.93983987886029",
    "geocoded_column": {
      "latitude": "29.93983987886029",
      "longitude": "-90.12582139404927"
    }
  },
  {
    "service_request": "2023-966457",
    "request_type": "Trash/Recycling",
    "request_reason": "Missed Trash Pick-Up",
    "date_created": "2023-01-12T20:40:09.000",
    "date_modified": "2023-01-12T20:40:10.000",
    "request_status": "Pending",
    "responsible_agency": "Department of Sanitation",
    "final_address": "3435 Fern St",
    "address_councildis": "B",
    "status": "Assigned to Contractor",
    "contractor": "Richards Disposal",
    "rowid": "966457",
    "final_x": "3668041.973",
    "final_y": "533833.566533",
    "longitude": "-90.11048810306579",
    "latitude": "29.96225898485484",
    "geocoded_column": {
      "latitude": "29.96225898485484",
      "longitude": "-90.11048810306579"
    }
  },
  {
    "service_request": "2023-966456",
    "request_type": "Trash/Recycling",
    "request_reason": "Order Trash Cart",
    "date_created": "2023-01-12T20:39:16.000",
    "date_modified": "2023-01-12T20:39:17.000",
    "request_status": "Pending",
    "responsible_agency": "Department of Sanitation",
    "final_address": "2306 Toledano St",
    "address_councildis": "B",
    "status": "Assigned to Contractor",
    "contractor": "Richards Disposal",
    "rowid": "966456",
    "final_x": "3673506.9522",
    "final_y": "524062.14502",
    "longitude": "-90.09356432869428",
    "latitude": "29.93522930046196",
    "geocoded_column": {
      "latitude": "29.93522930046196",
      "longitude": "-90.09356432869428"
    }
  },
  {
    "service_request": "2023-966455",
    "request_type": "Trash/Recycling",
    "request_reason": "Missed Trash Pick-Up",
    "date_created": "2023-01-12T20:39:12.000",
    "date_modified": "2023-01-12T20:39:13.000",
    "request_status": "Pending",
    "responsible_agency": "Department of Sanitation",
    "final_address": "3435 Fern St",
    "address_councildis": "B",
    "status": "Assigned to Contractor",
    "contractor": "Richards Disposal",
    "rowid": "966455",
    "final_x": "3668041.973",
    "final_y": "533833.566533",
    "longitude": "-90.11048810306579",
    "latitude": "29.96225898485484",
    "geocoded_column": {
      "latitude": "29.96225898485484",
      "longitude": "-90.11048810306579"
    }
  },
  {
    "service_request": "2023-966454",
    "request_type": "Traffic Signals/Signs/Striping/Streetlights",
    "request_reason": "Request for Stop Sign",
    "date_created": "2023-01-12T20:36:46.000",
    "date_modified": "2023-01-12T20:36:46.000",
    "request_status": "Pending",
    "responsible_agency": "Department of Public Works",
    "final_address": "7000 Magazine St",
    "address_councildis": "A",
    "status": "Pending",
    "rowid": "966454",
    "final_x": "3661280.38598",
    "final_y": "520886.714681",
    "longitude": "-90.13226886896472",
    "latitude": "29.926855949490943",
    "geocoded_column": {
      "latitude": "29.926855949490943",
      "longitude": "-90.13226886896472"
    }
  },
  {
    "service_request": "2023-966453",
    "request_type": "Trash/Recycling",
    "request_reason": "Order Trash Cart",
    "date_created": "2023-01-12T20:35:27.000",
    "date_modified": "2023-01-12T20:35:28.000",
    "request_status": "Pending",
    "responsible_agency": "Department of Sanitation",
    "final_address": "3420 W St Roch Ave",
    "address_councildis": "D",
    "status": "Assigned to Contractor",
    "contractor": "IV Waste",
    "rowid": "966453",
    "final_x": "3685501.59938",
    "final_y": "545413.80584",
    "longitude": "-90.05494527100136",
    "latitude": "29.993576682297764",
    "geocoded_column": {
      "latitude": "29.993576682297764",
      "longitude": "-90.05494527100136"
    }
  },
  {
    "service_request": "2023-966452",
    "request_type": "Trash/Recycling",
    "request_reason": "Missed Trash Pick-Up",
    "date_created": "2023-01-12T20:34:53.000",
    "date_modified": "2023-01-12T20:34:54.000",
    "request_status": "Pending",
    "responsible_agency": "Department of Sanitation",
    "final_address": "918 Adams St",
    "address_councildis": "A",
    "status": "Assigned to Contractor",
    "contractor": "Richards Disposal",
    "rowid": "966452",
    "final_x": "3662423.56602",
    "final_y": "526745.989694",
    "longitude": "-90.12846564561201",
    "latitude": "29.942934107239786",
    "geocoded_column": {
      "latitude": "29.942934107239786",
      "longitude": "-90.12846564561201"
    }
  },
  {
    "service_request": "2023-966451",
    "request_type": "Trash/Recycling",
    "request_reason": "Missed Trash Pick-Up",
    "date_created": "2023-01-12T20:30:33.000",
    "date_modified": "2023-01-12T20:30:33.000",
    "request_status": "Pending",
    "responsible_agency": "Department of Sanitation",
    "final_address": "2115 Constance St",
    "address_councildis": "B",
    "status": "Assigned to Contractor",
    "contractor": "Richards Disposal",
    "rowid": "966451",
    "final_x": "3679259.75983",
    "final_y": "521956.557818",
    "longitude": "-90.0754756938959",
    "latitude": "29.929267223608083",
    "geocoded_column": {
      "latitude": "29.929267223608083",
      "longitude": "-90.0754756938959"
    }
  },
  {
    "service_request": "2023-966450",
    "request_type": "Roads/Drainage",
    "request_reason": "Bicycle Hazardous Incident Reporting",
    "date_created": "2023-01-12T20:24:14.000",
    "date_modified": "2023-01-12T20:24:14.000",
    "request_status": "Pending",
    "responsible_agency": "Health Department",
    "final_address": "803 Elysian Fields Ave",
    "address_councildis": "C",
    "status": "Pending",
    "rowid": "966450",
    "final_x": "3685173.27369",
    "final_y": "535276.443846",
    "longitude": "-90.05633927557189",
    "latitude": "29.965712570144284",
    "geocoded_column": {
      "latitude": "29.965712570144284",
      "longitude": "-90.05633927557189"
    }
  },
  {
    "service_request": "2023-966449",
    "request_type": "Trash/Recycling",
    "request_reason": "Missed Trash Pick-Up",
    "date_created": "2023-01-12T20:19:14.000",
    "date_modified": "2023-01-12T20:19:15.000",
    "request_status": "Pending",
    "responsible_agency": "Department of Sanitation",
    "final_address": "4535 Croyden Ave",
    "address_councildis": "C",
    "status": "Assigned to Contractor",
    "contractor": "Richards Disposal",
    "rowid": "966449",
    "final_x": "3702282.76497",
    "final_y": "523914.246652",
    "longitude": "-90.00272518767098",
    "latitude": "29.933935165961632",
    "geocoded_column": {
      "latitude": "29.933935165961632",
      "longitude": "-90.00272518767098"
    }
  },
  {
    "service_request": "2023-966448",
    "request_type": "Trash/Recycling",
    "request_reason": "MIssed Recycling Pick-Up",
    "date_created": "2023-01-12T20:18:18.000",
    "date_modified": "2023-01-12T20:18:19.000",
    "request_status": "Pending",
    "responsible_agency": "Department of Sanitation",
    "final_address": "1716 Peniston St",
    "address_councildis": "B",
    "status": "Assigned to Contractor",
    "contractor": "Richards Disposal",
    "rowid": "966448",
    "final_x": "3672703.25512",
    "final_y": "521676.042169",
    "longitude": "-90.09618293650352",
    "latitude": "29.928692174491566",
    "geocoded_column": {
      "latitude": "29.928692174491566",
      "longitude": "-90.09618293650352"
    }
  },
  {
    "service_request": "2023-966447",
    "request_type": "Trash/Recycling",
    "request_reason": "Missed Trash Pick-Up",
    "date_created": "2023-01-12T20:16:08.000",
    "date_modified": "2023-01-12T20:16:08.000",
    "request_status": "Pending",
    "responsible_agency": "Department of Sanitation",
    "final_address": "2234 Upperline St",
    "address_councildis": "B",
    "status": "Assigned to Contractor",
    "contractor": "Richards Disposal",
    "rowid": "966447",
    "final_x": "3669058.16033",
    "final_y": "523103.464955",
    "longitude": "-90.10764157652953",
    "latitude": "29.93272484293292",
    "geocoded_column": {
      "latitude": "29.93272484293292",
      "longitude": "-90.10764157652953"
    }
  },
  {
    "service_request": "2023-966446",
    "request_type": "Trash/Recycling",
    "request_reason": "MIssed Recycling Pick-Up",
    "date_created": "2023-01-12T20:11:23.000",
    "date_modified": "2023-01-12T20:11:23.000",
    "request_status": "Pending",
    "responsible_agency": "Department of Sanitation",
    "final_address": "417 Henry Clay Ave",
    "address_councildis": "A",
    "status": "Assigned to Contractor",
    "contractor": "Richards Disposal",
    "rowid": "966446",
    "final_x": "3663375.75616",
    "final_y": "518379.00959",
    "longitude": "-90.12573773977351",
    "latitude": "29.919899984815505",
    "geocoded_column": {
      "latitude": "29.919899984815505",
      "longitude": "-90.12573773977351"
    }
  },
  {
    "service_request": "2023-966445",
    "request_type": "Roads/Drainage",
    "request_reason": "Pothole",
    "date_created": "2023-01-12T20:05:53.000",
    "date_modified": "2023-01-12T20:05:53.000",
    "request_status": "Pending",
    "responsible_agency": "Department of Public Works",
    "final_address": "7500 Burke Ave",
    "address_councildis": "E",
    "status": "Pending",
    "rowid": "966445",
    "final_x": "3705646.81105",
    "final_y": "562478.778975",
    "longitude": "-89.99067854623524",
    "latitude": "30.039865411319333",
    "geocoded_column": {
      "latitude": "30.039865411319333",
      "longitude": "-89.99067854623524"
    }
  },
  {
    "service_request": "2023-966444",
    "request_type": "Trash/Recycling",
    "request_reason": "Repair Trash Cart",
    "date_created": "2023-01-12T20:04:36.000",
    "date_modified": "2023-01-12T20:04:37.000",
    "request_status": "Pending",
    "responsible_agency": "Department of Sanitation",
    "final_address": "24 Yellowstone Dr",
    "address_councildis": "C",
    "status": "Assigned to Contractor",
    "contractor": "Richards Disposal",
    "rowid": "966444",
    "final_x": "3700049.99831",
    "final_y": "517821.463542",
    "longitude": "-90.0099960340999",
    "latitude": "29.917253212199025",
    "geocoded_column": {
      "latitude": "29.917253212199025",
      "longitude": "-90.0099960340999"
    }
  },
  {
    "service_request": "2023-966443",
    "request_type": "Trash/Recycling",
    "request_reason": "Order Recycling Cart",
    "date_created": "2023-01-12T20:04:26.000",
    "date_modified": "2023-01-12T20:04:26.000",
    "request_status": "Pending",
    "responsible_agency": "Department of Sanitation",
    "final_address": "4801 Cernay St",
    "address_councildis": "E",
    "status": "Pending",
    "rowid": "966443",
    "final_x": "3727807.39526",
    "final_y": "561655.197663",
    "longitude": "-89.92067737024284",
    "latitude": "30.03686829069371",
    "geocoded_column": {
      "latitude": "30.03686829069371",
      "longitude": "-89.92067737024284"
    }
  },
  {
    "service_request": "2023-966442",
    "request_type": "Trash/Recycling",
    "request_reason": "Request a Large Item Pick Up",
    "date_created": "2023-01-12T20:03:40.000",
    "date_modified": "2023-01-12T20:03:41.000",
    "request_status": "Pending",
    "responsible_agency": "Department of Sanitation",
    "final_address": "3225 Cherry St",
    "address_councildis": "A",
    "status": "Assigned to Contractor",
    "contractor": "Richards Disposal",
    "rowid": "966442",
    "final_x": "3663806.12845",
    "final_y": "536622.753479",
    "longitude": "-90.12377136566627",
    "latitude": "29.97005195096284",
    "geocoded_column": {
      "latitude": "29.97005195096284",
      "longitude": "-90.12377136566627"
    }
  },
  {
    "service_request": "2023-966440",
    "request_type": "Trash/Recycling",
    "request_reason": "Order Trash Cart",
    "date_created": "2023-01-12T20:00:11.000",
    "date_modified": "2023-01-12T20:00:12.000",
    "request_status": "Pending",
    "responsible_agency": "Department of Sanitation",
    "final_address": "2025 Frenchmen St",
    "address_councildis": "D",
    "status": "Assigned to Contractor",
    "contractor": "IV Waste",
    "rowid": "966440",
    "final_x": "3684349.86172",
    "final_y": "539802.584714",
    "longitude": "-90.05878058662003",
    "latitude": "29.978183089686308",
    "geocoded_column": {
      "latitude": "29.978183089686308",
      "longitude": "-90.05878058662003"
    }
  },
  {
    "service_request": "2023-966439",
    "request_type": "Trash/Recycling",
    "request_reason": "Missed Trash Pick-Up",
    "date_created": "2023-01-12T19:56:13.000",
    "date_modified": "2023-01-12T19:56:13.000",
    "request_status": "Pending",
    "responsible_agency": "Department of Sanitation",
    "final_address": "3731 Rue Delphine",
    "address_councildis": "C",
    "status": "Assigned to Contractor",
    "contractor": "Richards Disposal",
    "rowid": "966439",
    "final_x": "3702964.07876",
    "final_y": "516808.361077",
    "longitude": "-90.00083519715507",
    "latitude": "29.914374666451153",
    "geocoded_column": {
      "latitude": "29.914374666451153",
      "longitude": "-90.00083519715507"
    }
  },
  {
    "service_request": "2023-966438",
    "request_type": "Trash/Recycling",
    "request_reason": "Missed Trash Pick-Up",
    "date_created": "2023-01-12T19:52:56.000",
    "date_modified": "2023-01-12T19:52:57.000",
    "request_status": "Pending",
    "responsible_agency": "Department of Sanitation",
    "final_address": "3 Grand Canyon Ct",
    "address_councildis": "C",
    "status": "Assigned to Contractor",
    "contractor": "Richards Disposal",
    "rowid": "966438",
    "final_x": "3699417.76042",
    "final_y": "517268.744437",
    "longitude": "-90.012011754422",
    "latitude": "29.91575348490815",
    "geocoded_column": {
      "latitude": "29.91575348490815",
      "longitude": "-90.012011754422"
    }
  },
  {
    "service_request": "2023-966437",
    "request_type": "Trash/Recycling",
    "request_reason": "Missed Trash Pick-Up",
    "date_created": "2023-01-12T19:48:58.000",
    "date_modified": "2023-01-12T19:48:58.000",
    "request_status": "Pending",
    "responsible_agency": "Department of Sanitation",
    "final_address": "619 Park Blvd",
    "address_councildis": "C",
    "status": "Assigned to Contractor",
    "contractor": "Richards Disposal",
    "rowid": "966437",
    "final_x": "3687752.29494",
    "final_y": "525837.715965",
    "longitude": "-90.04852906278668",
    "latitude": "29.939680025572795",
    "geocoded_column": {
      "latitude": "29.939680025572795",
      "longitude": "-90.04852906278668"
    }
  },
  {
    "service_request": "2023-966436",
    "request_type": "Abandoned Vehicles",
    "request_reason": "Abandoned/Junk Vehicles",
    "date_created": "2023-01-12T19:47:44.000",
    "date_modified": "2023-01-12T19:47:44.000",
    "request_status": "Pending",
    "responsible_agency": "Department of Public Works",
    "final_address": "1334 St Bernard Ave",
    "address_councildis": "C",
    "status": "Pending",
    "rowid": "966436",
    "final_x": "3682684.29973",
    "final_y": "536788.052296",
    "longitude": "-90.06414648075155",
    "latitude": "29.96994500907147",
    "geocoded_column": {
      "latitude": "29.96994500907147",
      "longitude": "-90.06414648075155"
    }
  },
  {
    "service_request": "2023-966435",
    "request_type": "Trash/Recycling",
    "request_reason": "Missed Trash Pick-Up",
    "date_created": "2023-01-12T19:47:33.000",
    "date_modified": "2023-01-12T19:47:33.000",
    "request_status": "Pending",
    "responsible_agency": "Department of Sanitation",
    "final_address": "619 Vallette St",
    "address_councildis": "C",
    "status": "Assigned to Contractor",
    "contractor": "Richards Disposal",
    "rowid": "966435",
    "final_x": "3687472.47919",
    "final_y": "529337.372289",
    "longitude": "-90.04928866248403",
    "latitude": "29.949311514874175",
    "geocoded_column": {
      "latitude": "29.949311514874175",
      "longitude": "-90.04928866248403"
    }
  },
  {
    "service_request": "2023-966434",
    "request_type": "Traffic Signals/Signs/Striping/Streetlights",
    "request_reason": "Street Light Outage/Malfunction",
    "date_created": "2023-01-12T19:46:06.000",
    "date_modified": "2023-01-12T19:46:07.000",
    "request_status": "Pending",
    "responsible_agency": "Department of Public Works",
    "final_address": "619 Park Blvd",
    "address_councildis": "C",
    "status": "Assigned to Contractor",
    "contractor": "Legacy Professional Services",
    "rowid": "966434",
    "final_x": "3687752.29494",
    "final_y": "525837.715965",
    "longitude": "-90.04852906278668",
    "latitude": "29.939680025572795",
    "geocoded_column": {
      "latitude": "29.939680025572795",
      "longitude": "-90.04852906278668"
    }
  },
  {
    "service_request": "2023-966433",
    "request_type": "Abandoned Vehicles",
    "request_reason": "Abandoned/Junk Vehicles",
    "date_created": "2023-01-12T19:38:39.000",
    "date_modified": "2023-01-12T19:38:39.000",
    "request_status": "Pending",
    "responsible_agency": "Department of Public Works",
    "final_address": "1328 St Bernard Ave",
    "address_councildis": "C",
    "status": "Pending",
    "rowid": "966433",
    "final_x": "3682712.52284",
    "final_y": "536735.540615",
    "longitude": "-90.06405918653729",
    "latitude": "29.96979976049472",
    "geocoded_column": {
      "latitude": "29.96979976049472",
      "longitude": "-90.06405918653729"
    }
  },
  {
    "service_request": "2023-966432",
    "request_type": "Trash/Recycling",
    "request_reason": "MIssed Recycling Pick-Up",
    "date_created": "2023-01-12T19:34:37.000",
    "date_modified": "2023-01-12T19:34:37.000",
    "request_status": "Pending",
    "responsible_agency": "Department of Sanitation",
    "final_address": "803 Ninth St",
    "address_councildis": "B",
    "status": "Assigned to Contractor",
    "contractor": "Richards Disposal",
    "rowid": "966432",
    "final_x": "3676461.4788",
    "final_y": "519194.761335",
    "longitude": "-90.08440437194298",
    "latitude": "29.921757346520323",
    "geocoded_column": {
      "latitude": "29.921757346520323",
      "longitude": "-90.08440437194298"
    }
  },
  {
    "service_request": "2023-966431",
    "request_type": "Trash/Recycling",
    "request_reason": "MIssed Recycling Pick-Up",
    "date_created": "2023-01-12T19:30:14.000",
    "date_modified": "2023-01-12T19:30:15.000",
    "request_status": "Pending",
    "responsible_agency": "Department of Sanitation",
    "final_address": "2021 Royal St",
    "address_councildis": "C",
    "status": "Assigned to Contractor",
    "contractor": "IV Waste",
    "rowid": "966431",
    "final_x": "3684527.59791",
    "final_y": "534848.98311",
    "longitude": "-90.05839331258237",
    "latitude": "29.964556970942553",
    "geocoded_column": {
      "latitude": "29.964556970942553",
      "longitude": "-90.05839331258237"
    }
  },
  {
    "service_request": "2023-966430",
    "request_type": "Traffic Signals/Signs/Striping/Streetlights",
    "request_reason": "Street Light Outage/Malfunction",
    "date_created": "2023-01-12T19:29:27.000",
    "date_modified": "2023-01-12T19:29:28.000",
    "request_status": "Pending",
    "responsible_agency": "Department of Public Works",
    "final_address": "5715 Clara St",
    "address_councildis": "A",
    "status": "Assigned to Contractor",
    "contractor": "Legacy Professional Services",
    "rowid": "966430",
    "final_x": "3667298.12385",
    "final_y": "525205.131389",
    "longitude": "-90.11312723580134",
    "latitude": "29.938555403636897",
    "geocoded_column": {
      "latitude": "29.938555403636897",
      "longitude": "-90.11312723580134"
    }
  },
  {
    "service_request": "2023-966429",
    "request_type": "Trash/Recycling",
    "request_reason": "Missed Trash Pick-Up",
    "date_created": "2023-01-12T19:24:40.000",
    "date_modified": "2023-01-12T19:24:41.000",
    "request_status": "Pending",
    "responsible_agency": "Department of Sanitation",
    "final_address": "3731 Plymouth Pl",
    "address_councildis": "C",
    "status": "Assigned to Contractor",
    "contractor": "Richards Disposal",
    "rowid": "966429",
    "final_x": "3702667.2417",
    "final_y": "516705.234677",
    "longitude": "-90.00177589138066",
    "latitude": "29.91410059244047",
    "geocoded_column": {
      "latitude": "29.91410059244047",
      "longitude": "-90.00177589138066"
    }
  },
  {
    "service_request": "2023-966428",
    "request_type": "Trash/Recycling",
    "request_reason": "Missed Trash Pick-Up",
    "date_created": "2023-01-12T19:24:00.000",
    "date_modified": "2023-01-12T19:24:00.000",
    "request_status": "Pending",
    "responsible_agency": "Department of Sanitation",
    "final_address": "815 Alvar St",
    "address_councildis": "C",
    "status": "Assigned to Contractor",
    "contractor": "IV Waste",
    "rowid": "966428",
    "final_x": "3691271.06576",
    "final_y": "534364.009669",
    "longitude": "-90.03711533961227",
    "latitude": "29.963015427565928",
    "geocoded_column": {
      "latitude": "29.963015427565928",
      "longitude": "-90.03711533961227"
    }
  },
  {
    "service_request": "2023-966427",
    "request_type": "Trash/Recycling",
    "request_reason": "MIssed Recycling Pick-Up",
    "date_created": "2023-01-12T19:19:18.000",
    "date_modified": "2023-01-12T19:19:18.000",
    "request_status": "Pending",
    "responsible_agency": "Department of Sanitation",
    "final_address": "525 Valence St",
    "address_councildis": "B",
    "status": "Assigned to Contractor",
    "contractor": "Richards Disposal",
    "rowid": "966427",
    "final_x": "3670104.71431",
    "final_y": "517559.903222",
    "longitude": "-90.10452535843264",
    "latitude": "29.917450989671014",
    "geocoded_column": {
      "latitude": "29.917450989671014",
      "longitude": "-90.10452535843264"
    }
  },
  {
    "service_request": "2023-966426",
    "request_type": "Trash/Recycling",
    "request_reason": "Missed Trash Pick-Up",
    "date_created": "2023-01-12T19:16:46.000",
    "date_modified": "2023-01-12T19:16:47.000",
    "request_status": "Pending",
    "responsible_agency": "Department of Sanitation",
    "final_address": "3013 Hyman Pl",
    "address_councildis": "C",
    "status": "Assigned to Contractor",
    "contractor": "Richards Disposal",
    "rowid": "966426",
    "final_x": "3700952.24349",
    "final_y": "520050.60812",
    "longitude": "-90.00706673886198",
    "latitude": "29.92335391308665",
    "geocoded_column": {
      "latitude": "29.92335391308665",
      "longitude": "-90.00706673886198"
    }
  },
  {
    "service_request": "2023-966425",
    "request_type": "Traffic Signals/Signs/Striping/Streetlights",
    "request_reason": "Street Light Outage/Malfunction",
    "date_created": "2023-01-12T19:15:33.000",
    "date_modified": "2023-01-12T21:59:29.000",
    "request_status": "Pending",
    "responsible_agency": "Department of Public Works",
    "final_address": "New Orleans,LA",
    "address_councildis": "A",
    "status": "Assigned to Contractor",
    "contractor": "Legacy Professional Services",
    "rowid": "966425",
    "final_x": "3667160.0",
    "final_y": "525201.48",
    "longitude": "-90.11356343143918",
    "latitude": "29.938549407208843",
    "geocoded_column": {
      "latitude": "29.938549407208843",
      "longitude": "-90.11356343143918"
    }
  },
  {
    "service_request": "2023-966424",
    "request_type": "Trash/Recycling",
    "request_reason": "Missed Trash Pick-Up",
    "date_created": "2023-01-12T19:15:01.000",
    "date_modified": "2023-01-12T19:15:02.000",
    "request_status": "Pending",
    "responsible_agency": "Department of Sanitation",
    "final_address": "2416 Urquhart St",
    "address_councildis": "C",
    "status": "Assigned to Contractor",
    "contractor": "IV Waste",
    "rowid": "966424",
    "final_x": "3686629.94358",
    "final_y": "537127.63188",
    "longitude": "-90.05167378694782",
    "latitude": "29.970757974020632",
    "geocoded_column": {
      "latitude": "29.970757974020632",
      "longitude": "-90.05167378694782"
    }
  },
  {
    "service_request": "2023-966423",
    "request_type": "Trash/Recycling",
    "request_reason": "MIssed Recycling Pick-Up",
    "date_created": "2023-01-12T19:10:38.000",
    "date_modified": "2023-01-12T19:10:39.000",
    "request_status": "Pending",
    "responsible_agency": "Department of Sanitation",
    "final_address": "3013 Hyman Pl",
    "address_councildis": "C",
    "status": "Assigned to Contractor",
    "contractor": "Richards Disposal",
    "rowid": "966423",
    "final_x": "3700952.24349",
    "final_y": "520050.60812",
    "longitude": "-90.00706673886198",
    "latitude": "29.92335391308665",
    "geocoded_column": {
      "latitude": "29.92335391308665",
      "longitude": "-90.00706673886198"
    }
  },
  {
    "service_request": "2023-966422",
    "request_type": "Trash/Recycling",
    "request_reason": "Order Trash Cart",
    "date_created": "2023-01-12T19:10:34.000",
    "date_modified": "2023-01-12T19:10:35.000",
    "request_status": "Pending",
    "responsible_agency": "Department of Sanitation",
    "final_address": "7801 Newcastle St",
    "address_councildis": "E",
    "status": "Assigned to Contractor",
    "contractor": "Waste Pro",
    "rowid": "966422",
    "final_x": "3697130.85187",
    "final_y": "559885.856989",
    "longitude": "-90.01768557086321",
    "latitude": "30.03300750391188",
    "geocoded_column": {
      "latitude": "30.03300750391188",
      "longitude": "-90.01768557086321"
    }
  },
  {
    "service_request": "2023-966421",
    "request_type": "Trash/Recycling",
    "request_reason": "Missed Trash Pick-Up",
    "date_created": "2023-01-12T19:02:41.000",
    "date_modified": "2023-01-12T19:02:41.000",
    "request_status": "Pending",
    "responsible_agency": "Department of Sanitation",
    "final_address": "1100 BLK Erato St",
    "address_councildis": "B",
    "status": "Assigned to Contractor",
    "contractor": "Richards Disposal",
    "rowid": "966421",
    "final_x": "3680445.10659",
    "final_y": "525673.260777",
    "longitude": "-90.07160458486368",
    "latitude": "29.939451096502534",
    "geocoded_column": {
      "latitude": "29.939451096502534",
      "longitude": "-90.07160458486368"
    }
  },
  {
    "service_request": "2023-966420",
    "request_type": "Trash/Recycling",
    "request_reason": "MIssed Recycling Pick-Up",
    "date_created": "2023-01-12T18:57:03.000",
    "date_modified": "2023-01-12T18:57:04.000",
    "request_status": "Pending",
    "responsible_agency": "Department of Sanitation",
    "final_address": "4839 Constance St",
    "address_councildis": "B",
    "status": "Assigned to Contractor",
    "contractor": "Richards Disposal",
    "rowid": "966420",
    "final_x": "3669330.31207",
    "final_y": "518318.385782",
    "longitude": "-90.10694409317796",
    "latitude": "29.919559390119236",
    "geocoded_column": {
      "latitude": "29.919559390119236",
      "longitude": "-90.10694409317796"
    }
  },
  {
    "service_request": "2023-966419",
    "request_type": "Trash/Recycling",
    "request_reason": "MIssed Recycling Pick-Up",
    "date_created": "2023-01-12T18:54:39.000",
    "date_modified": "2023-01-12T18:54:40.000",
    "request_status": "Pending",
    "responsible_agency": "Department of Sanitation",
    "final_address": "2931 St Thomas St",
    "address_councildis": "B",
    "status": "Assigned to Contractor",
    "contractor": "Richards Disposal",
    "rowid": "966419",
    "final_x": "3677395.83694",
    "final_y": "518901.021623",
    "longitude": "-90.08146513097275",
    "latitude": "29.92092162089272",
    "geocoded_column": {
      "latitude": "29.92092162089272",
      "longitude": "-90.08146513097275"
    }
  },
  {
    "service_request": "2023-966418",
    "request_type": "Traffic Signals/Signs/Striping/Streetlights",
    "request_reason": "Street Light Outage/Malfunction",
    "date_created": "2023-01-12T18:52:51.000",
    "date_modified": "2023-01-12T18:52:52.000",
    "request_status": "Pending",
    "responsible_agency": "Department of Public Works",
    "final_address": "4518 Arthur Dr",
    "address_councildis": "E",
    "status": "Assigned to Contractor",
    "contractor": "Legacy Professional Services",
    "rowid": "966418",
    "final_x": "3707756.90628",
    "final_y": "554081.838872",
    "longitude": "-89.98432246865461",
    "latitude": "30.016708962983042",
    "geocoded_column": {
      "latitude": "30.016708962983042",
      "longitude": "-89.98432246865461"
    }
  },
  {
    "service_request": "2023-966417",
    "request_type": "Roads/Drainage",
    "request_reason": "Pothole",
    "date_created": "2023-01-12T18:52:37.000",
    "date_modified": "2023-01-12T18:52:37.000",
    "request_status": "Pending",
    "responsible_agency": "Department of Public Works",
    "final_address": "4700 Tullis Dr",
    "address_councildis": "C",
    "status": "Pending",
    "rowid": "966417",
    "final_x": "3701223.51428",
    "final_y": "512101.329521",
    "longitude": "-90.00650100871677",
    "latitude": "29.901487465451417",
    "geocoded_column": {
      "latitude": "29.901487465451417",
      "longitude": "-90.00650100871677"
    }
  },
  {
    "service_request": "2023-966416",
    "request_type": "Trash/Recycling",
    "request_reason": "MIssed Recycling Pick-Up",
    "date_created": "2023-01-12T18:52:14.000",
    "date_modified": "2023-01-12T18:52:15.000",
    "request_status": "Pending",
    "responsible_agency": "Department of Sanitation",
    "final_address": "702 Washington Ave",
    "address_councildis": "B",
    "status": "Assigned to Contractor",
    "contractor": "Richards Disposal",
    "rowid": "966416",
    "final_x": "3677804.5339",
    "final_y": "519561.826295",
    "longitude": "-90.08015224693371",
    "latitude": "29.92272633588398",
    "geocoded_column": {
      "latitude": "29.92272633588398",
      "longitude": "-90.08015224693371"
    }
  },
  {
    "service_request": "2023-966413",
    "request_type": "Trash/Recycling",
    "request_reason": "MIssed Recycling Pick-Up",
    "date_created": "2023-01-12T18:46:12.000",
    "date_modified": "2023-01-12T18:46:13.000",
    "request_status": "Pending",
    "responsible_agency": "Department of Sanitation",
    "final_address": "5514 Constance St",
    "address_councildis": "A",
    "status": "Assigned to Contractor",
    "contractor": "Richards Disposal",
    "rowid": "966413",
    "final_x": "3666221.69946",
    "final_y": "518467.225078",
    "longitude": "-90.11675148870607",
    "latitude": "29.920059771153777",
    "geocoded_column": {
      "latitude": "29.920059771153777",
      "longitude": "-90.11675148870607"
    }
  },
  {
    "service_request": "2023-966412",
    "request_type": "Trash/Recycling",
    "request_reason": "Missed Trash Pick-Up",
    "date_created": "2023-01-12T18:46:04.000",
    "date_modified": "2023-01-12T18:46:04.000",
    "request_status": "Pending",
    "responsible_agency": "Department of Sanitation",
    "final_address": "115 Vallette St",
    "address_councildis": "C",
    "status": "Assigned to Contractor",
    "contractor": "Richards Disposal",
    "rowid": "966412",
    "final_x": "3687559.76905",
    "final_y": "531309.957762",
    "longitude": "-90.0489432360965",
    "latitude": "29.954732758635625",
    "geocoded_column": {
      "latitude": "29.954732758635625",
      "longitude": "-90.0489432360965"
    }
  },
  {
    "service_request": "2023-966411",
    "request_type": "Trash/Recycling",
    "request_reason": "Missed Trash Pick-Up",
    "date_created": "2023-01-12T18:40:12.000",
    "date_modified": "2023-01-12T18:40:13.000",
    "request_status": "Pending",
    "responsible_agency": "Department of Sanitation",
    "final_address": "7822 Willow St",
    "address_councildis": "A",
    "status": "Assigned to Contractor",
    "contractor": "Richards Disposal",
    "rowid": "966411",
    "final_x": "3663105.3712",
    "final_y": "528224.341824",
    "longitude": "-90.12626384169725",
    "latitude": "29.946979371673763",
    "geocoded_column": {
      "latitude": "29.946979371673763",
      "longitude": "-90.12626384169725"
    }
  },
  {
    "service_request": "2023-966410",
    "request_type": "Trash/Recycling",
    "request_reason": "MIssed Recycling Pick-Up",
    "date_created": "2023-01-12T18:39:46.000",
    "date_modified": "2023-01-12T18:39:47.000",
    "request_status": "Pending",
    "responsible_agency": "Department of Sanitation",
    "final_address": "714 Bordeaux St",
    "address_councildis": "B",
    "status": "Assigned to Contractor",
    "contractor": "Richards Disposal",
    "rowid": "966410",
    "final_x": "3669614.75047",
    "final_y": "518031.758902",
    "longitude": "-90.10605595028083",
    "latitude": "29.918762882743955",
    "geocoded_column": {
      "latitude": "29.918762882743955",
      "longitude": "-90.10605595028083"
    }
  },
  {
    "service_request": "2023-966409",
    "request_type": "Trash/Recycling",
    "request_reason": "Missed Trash Pick-Up",
    "date_created": "2023-01-12T18:36:31.000",
    "date_modified": "2023-01-12T18:36:32.000",
    "request_status": "Pending",
    "responsible_agency": "Department of Sanitation",
    "final_address": "7826 Willow St",
    "address_councildis": "A",
    "status": "Assigned to Contractor",
    "contractor": "Richards Disposal",
    "rowid": "966409",
    "final_x": "3663079.54611",
    "final_y": "528246.742528",
    "longitude": "-90.12634463644493",
    "latitude": "29.94704171444825",
    "geocoded_column": {
      "latitude": "29.94704171444825",
      "longitude": "-90.12634463644493"
    }
  },
  {
    "service_request": "2023-966408",
    "request_type": "Trash/Recycling",
    "request_reason": "Request a Large Item Pick Up",
    "date_created": "2023-01-12T18:35:23.000",
    "date_modified": "2023-01-12T18:35:24.000",
    "request_status": "Pending",
    "responsible_agency": "Department of Sanitation",
    "final_address": "4657 Chantilly Dr",
    "address_councildis": "E",
    "status": "Assigned to Contractor",
    "contractor": "Waste Pro",
    "rowid": "966408",
    "final_x": "3701002.63217",
    "final_y": "553779.226711",
    "longitude": "-90.00567405799599",
    "latitude": "30.016093812742938",
    "geocoded_column": {
      "latitude": "30.016093812742938",
      "longitude": "-90.00567405799599"
    }
  },
  {
    "service_request": "2023-966407",
    "request_type": "Trash/Recycling",
    "request_reason": "Request a Large Item Pick Up",
    "date_created": "2023-01-12T18:35:06.000",
    "date_modified": "2023-01-12T18:35:07.000",
    "request_status": "Pending",
    "responsible_agency": "Department of Sanitation",
    "final_address": "4431 Dryades St",
    "address_councildis": "B",
    "status": "Assigned to Contractor",
    "contractor": "Richards Disposal",
    "rowid": "966407",
    "final_x": "3670430.30036",
    "final_y": "521998.170298",
    "longitude": "-90.10334728513378",
    "latitude": "29.929645207312603",
    "geocoded_column": {
      "latitude": "29.929645207312603",
      "longitude": "-90.10334728513378"
    }
  },
  {
    "service_request": "2023-966406",
    "request_type": "Roads/Drainage",
    "request_reason": "Catch Basin - Broken/Damage",
    "date_created": "2023-01-12T18:30:55.000",
    "date_modified": "2023-01-12T18:30:55.000",
    "request_status": "Pending",
    "responsible_agency": "Department of Public Works",
    "final_address": "239 Cypress Grove Ct",
    "address_councildis": "C",
    "status": "Pending",
    "rowid": "966406",
    "final_x": "3704642.21681",
    "final_y": "512070.473585",
    "longitude": "-89.99571303852397",
    "latitude": "29.901293327985957",
    "geocoded_column": {
      "latitude": "29.901293327985957",
      "longitude": "-89.99571303852397"
    }
  },
  {
    "service_request": "2023-966405",
    "request_type": "Trash/Recycling",
    "request_reason": "Missed Trash Pick-Up",
    "date_created": "2023-01-12T18:30:50.000",
    "date_modified": "2023-01-12T18:30:51.000",
    "request_status": "Pending",
    "responsible_agency": "Department of Sanitation",
    "final_address": "4916 Carondelet St",
    "address_councildis": "B",
    "status": "Assigned to Contractor",
    "contractor": "Richards Disposal",
    "rowid": "966405",
    "final_x": "3668888.81063",
    "final_y": "521012.255673",
    "longitude": "-90.10824678520471",
    "latitude": "29.926979664804104",
    "geocoded_column": {
      "latitude": "29.926979664804104",
      "longitude": "-90.10824678520471"
    }
  },
  {
    "service_request": "2023-966404",
    "request_type": "Trash/Recycling",
    "request_reason": "Request a Large Item Pick Up",
    "date_created": "2023-01-12T18:28:19.000",
    "date_modified": "2023-01-12T18:28:20.000",
    "request_status": "Pending",
    "responsible_agency": "Department of Sanitation",
    "final_address": "21 Maryland Dr",
    "address_councildis": "A",
    "status": "Assigned to Contractor",
    "contractor": "IV Waste",
    "rowid": "966404",
    "final_x": "3663680.08749",
    "final_y": "540634.953035",
    "longitude": "-90.1240356907984",
    "latitude": "29.981087824061696",
    "geocoded_column": {
      "latitude": "29.981087824061696",
      "longitude": "-90.1240356907984"
    }
  },
  {
    "service_request": "2023-966403",
    "request_type": "Trash/Recycling",
    "request_reason": "MIssed Recycling Pick-Up",
    "date_created": "2023-01-12T18:28:04.000",
    "date_modified": "2023-01-12T18:28:05.000",
    "request_status": "Pending",
    "responsible_agency": "Department of Sanitation",
    "final_address": "6100 Block of Patton St, New Orleans, Louisiana, 70118",
    "status": "Assigned to Contractor",
    "rowid": "966403",
    "longitude": "0.0",
    "latitude": "0.0",
    "geocoded_column": {
      "latitude": "0.0",
      "longitude": "0.0"
    }
  },
  {
    "service_request": "2023-966402",
    "request_type": "Trash/Recycling",
    "request_reason": "MIssed Recycling Pick-Up",
    "date_created": "2023-01-12T18:26:05.000",
    "date_modified": "2023-01-12T18:26:06.000",
    "request_status": "Pending",
    "responsible_agency": "Department of Sanitation",
    "final_address": "1337 State St",
    "address_councildis": "A",
    "status": "Assigned to Contractor",
    "contractor": "Richards Disposal",
    "rowid": "966402",
    "final_x": "3665410.92103",
    "final_y": "521082.616825",
    "longitude": "-90.11922326261714",
    "latitude": "29.927274922157512",
    "geocoded_column": {
      "latitude": "29.927274922157512",
      "longitude": "-90.11922326261714"
    }
  },
  {
    "service_request": "2023-966401",
    "request_type": "Trash/Recycling",
    "request_reason": "Missed Trash Pick-Up",
    "date_created": "2023-01-12T18:21:37.000",
    "date_modified": "2023-01-12T18:21:37.000",
    "request_status": "Pending",
    "responsible_agency": "Department of Sanitation",
    "final_address": "81 Neron Pl",
    "address_councildis": "A",
    "status": "Assigned to Contractor",
    "contractor": "Richards Disposal",
    "rowid": "966401",
    "final_x": "3666098.25524",
    "final_y": "529983.516417",
    "longitude": "-90.1167551885446",
    "latitude": "29.95172950042253",
    "geocoded_column": {
      "latitude": "29.95172950042253",
      "longitude": "-90.1167551885446"
    }
  },
  {
    "service_request": "2023-966400",
    "request_type": "Trash/Recycling",
    "request_reason": "MIssed Recycling Pick-Up",
    "date_created": "2023-01-12T18:21:03.000",
    "date_modified": "2023-01-12T18:21:04.000",
    "request_status": "Pending",
    "responsible_agency": "Department of Sanitation",
    "final_address": "1657 Valmont St",
    "address_councildis": "B",
    "status": "Assigned to Contractor",
    "contractor": "Richards Disposal",
    "rowid": "966400",
    "final_x": "3667973.22317",
    "final_y": "521710.997305",
    "longitude": "-90.11111353672626",
    "latitude": "29.92892786736696",
    "geocoded_column": {
      "latitude": "29.92892786736696",
      "longitude": "-90.11111353672626"
    }
  },
  {
    "service_request": "2023-966399",
    "request_type": "Abandoned Vehicles",
    "request_reason": "Abandoned/Junk Vehicles",
    "date_created": "2023-01-12T18:20:48.000",
    "date_modified": "2023-01-12T18:20:48.000",
    "request_status": "Pending",
    "responsible_agency": "Department of Public Works",
    "final_address": "600 N Bernadotte St",
    "address_councildis": "A",
    "status": "Pending",
    "rowid": "966399",
    "final_x": "3669948.53332",
    "final_y": "541490.253708",
    "longitude": "-90.10420808618231",
    "latitude": "29.983256214868547",
    "geocoded_column": {
      "latitude": "29.983256214868547",
      "longitude": "-90.10420808618231"
    }
  },
  {
    "service_request": "2023-966398",
    "request_type": "Trash/Recycling",
    "request_reason": "Missed Trash Pick-Up",
    "date_created": "2023-01-12T18:19:02.000",
    "date_modified": "2023-01-12T18:19:03.000",
    "request_status": "Pending",
    "responsible_agency": "Department of Sanitation",
    "final_address": "4924 S Galvez St",
    "address_councildis": "B",
    "status": "Assigned to Contractor",
    "contractor": "Richards Disposal",
    "rowid": "966398",
    "final_x": "3669058.46734",
    "final_y": "527328.267967",
    "longitude": "-90.10749792228911",
    "latitude": "29.944341679852773",
    "geocoded_column": {
      "latitude": "29.944341679852773",
      "longitude": "-90.10749792228911"
    }
  },
  {
    "service_request": "2023-966397",
    "request_type": "Roads/Drainage",
    "request_reason": "Pothole",
    "date_created": "2023-01-12T18:17:14.000",
    "date_modified": "2023-01-12T18:17:14.000",
    "request_status": "Pending",
    "responsible_agency": "Department of Public Works",
    "final_address": "6979 Argonne Blvd",
    "address_councildis": "A",
    "status": "Pending",
    "rowid": "966397",
    "final_x": "3670831.17435",
    "final_y": "553776.279319",
    "longitude": "-90.10100289335857",
    "latitude": "30.017012443624704",
    "geocoded_column": {
      "latitude": "30.017012443624704",
      "longitude": "-90.10100289335857"
    }
  },
  {
    "service_request": "2023-966396",
    "request_type": "Trash/Recycling",
    "request_reason": "Missed Trash Pick-Up",
    "date_created": "2023-01-12T18:16:29.000",
    "date_modified": "2023-01-12T18:16:30.000",
    "request_status": "Pending",
    "responsible_agency": "Department of Sanitation",
    "final_address": "454 Abalon Ct",
    "address_councildis": "C",
    "status": "Assigned to Contractor",
    "contractor": "Richards Disposal",
    "rowid": "966396",
    "final_x": "3689133.76438",
    "final_y": "529978.628865",
    "longitude": "-90.04402048060025",
    "latitude": "29.95102345629149",
    "geocoded_column": {
      "latitude": "29.95102345629149",
      "longitude": "-90.04402048060025"
    }
  },
  {
    "service_request": "2023-966395",
    "request_type": "Property Maintenance",
    "request_reason": "Property Maintenance",
    "date_created": "2023-01-12T18:13:33.000",
    "date_modified": "2023-01-12T18:13:33.000",
    "request_status": "Pending",
    "responsible_agency": "Department of Code Enforcement",
    "final_address": "1800 N Claiborne Ave",
    "address_councildis": "C",
    "status": "Pending",
    "rowid": "966395",
    "final_x": "3683436.21679",
    "final_y": "537873.607689",
    "longitude": "-90.06173381116747",
    "latitude": "29.972906987633188",
    "geocoded_column": {
      "latitude": "29.972906987633188",
      "longitude": "-90.06173381116747"
    }
  },
  {
    "service_request": "2023-966394",
    "request_type": "Trash/Recycling",
    "request_reason": "Missed Trash Pick-Up",
    "date_created": "2023-01-12T18:12:46.000",
    "date_modified": "2023-01-12T18:12:47.000",
    "request_status": "Pending",
    "responsible_agency": "Department of Sanitation",
    "final_address": "2123 Broadway St",
    "address_councildis": "A",
    "status": "Assigned to Contractor",
    "contractor": "Richards Disposal",
    "rowid": "966394",
    "final_x": "3666112.92826",
    "final_y": "529285.727937",
    "longitude": "-90.11673225146713",
    "latitude": "29.9498103802666",
    "geocoded_column": {
      "latitude": "29.9498103802666",
      "longitude": "-90.11673225146713"
    }
  },
  {
    "service_request": "2023-966392",
    "request_type": "Trash/Recycling",
    "request_reason": "MIssed Recycling Pick-Up",
    "date_created": "2023-01-12T18:07:27.000",
    "date_modified": "2023-01-12T18:07:28.000",
    "request_status": "Pending",
    "responsible_agency": "Department of Sanitation",
    "final_address": "829 Pleasant St",
    "address_councildis": "B",
    "status": "Assigned to Contractor",
    "contractor": "Richards Disposal",
    "rowid": "966392",
    "final_x": "3675973.1444",
    "final_y": "519111.475319",
    "longitude": "-90.08594869846623",
    "latitude": "29.92154296342679",
    "geocoded_column": {
      "latitude": "29.92154296342679",
      "longitude": "-90.08594869846623"
    }
  },
  {
    "service_request": "2023-966391",
    "request_type": "Trash/Recycling",
    "request_reason": "MIssed Recycling Pick-Up",
    "date_created": "2023-01-12T17:56:50.000",
    "date_modified": "2023-01-12T17:56:51.000",
    "request_status": "Pending",
    "responsible_agency": "Department of Sanitation",
    "final_address": "607 Webster St",
    "address_councildis": "A",
    "status": "Assigned to Contractor",
    "contractor": "Richards Disposal",
    "rowid": "966391",
    "final_x": "3663956.76691",
    "final_y": "518835.797303",
    "longitude": "-90.12388854395607",
    "latitude": "29.921139158835498",
    "geocoded_column": {
      "latitude": "29.921139158835498",
      "longitude": "-90.12388854395607"
    }
  },
  {
    "service_request": "2023-966390",
    "request_type": "Trash/Recycling",
    "request_reason": "Missed Trash Pick-Up",
    "date_created": "2023-01-12T17:53:46.000",
    "date_modified": "2023-01-12T17:53:47.000",
    "request_status": "Pending",
    "responsible_agency": "Department of Sanitation",
    "final_address": "7628 Jeannette St",
    "address_councildis": "A",
    "status": "Assigned to Contractor",
    "contractor": "Richards Disposal",
    "rowid": "966390",
    "final_x": "3663848.18592",
    "final_y": "527966.194367",
    "longitude": "-90.1239270926007",
    "latitude": "29.946248011815257",
    "geocoded_column": {
      "latitude": "29.946248011815257",
      "longitude": "-90.1239270926007"
    }
  },
  {
    "service_request": "2023-966389",
    "request_type": "Trash/Recycling",
    "request_reason": "MIssed Recycling Pick-Up",
    "date_created": "2023-01-12T17:48:40.000",
    "date_modified": "2023-01-12T17:48:41.000",
    "request_status": "Pending",
    "responsible_agency": "Department of Sanitation",
    "final_address": "5700 BLK Durham Dr",
    "address_councildis": "C",
    "status": "Assigned to Contractor",
    "contractor": "Richards Disposal",
    "rowid": "966389",
    "final_x": "3705421.23971",
    "final_y": "518776.147275",
    "longitude": "-89.99300697509183",
    "latitude": "29.91970659987525",
    "geocoded_column": {
      "latitude": "29.91970659987525",
      "longitude": "-89.99300697509183"
    }
  },
  {
    "service_request": "2023-966388",
    "request_type": "Trash/Recycling",
    "request_reason": "Missed Trash Pick-Up",
    "date_created": "2023-01-12T17:48:17.000",
    "date_modified": "2023-01-12T17:48:18.000",
    "request_status": "Pending",
    "responsible_agency": "Department of Sanitation",
    "final_address": "5700 BLK Durham Dr",
    "address_councildis": "C",
    "status": "Assigned to Contractor",
    "contractor": "Richards Disposal",
    "rowid": "966388",
    "final_x": "3705421.23971",
    "final_y": "518776.147275",
    "longitude": "-89.99300697509183",
    "latitude": "29.91970659987525",
    "geocoded_column": {
      "latitude": "29.91970659987525",
      "longitude": "-89.99300697509183"
    }
  },
  {
    "service_request": "2023-966387",
    "request_type": "Trash/Recycling",
    "request_reason": "MIssed Recycling Pick-Up",
    "date_created": "2023-01-12T17:46:32.000",
    "date_modified": "2023-01-12T17:46:33.000",
    "request_status": "Pending",
    "responsible_agency": "Department of Sanitation",
    "final_address": "2635 Joseph St",
    "address_councildis": "A",
    "status": "Assigned to Contractor",
    "contractor": "Richards Disposal",
    "rowid": "966387",
    "final_x": "3667722.56378",
    "final_y": "525707.261885",
    "longitude": "-90.11177032979522",
    "latitude": "29.93992366603247",
    "geocoded_column": {
      "latitude": "29.93992366603247",
      "longitude": "-90.11177032979522"
    }
  },
  {
    "service_request": "2023-966386",
    "request_type": "Trash/Recycling",
    "request_reason": "MIssed Recycling Pick-Up",
    "date_created": "2023-01-12T17:45:41.000",
    "date_modified": "2023-01-12T17:45:42.000",
    "request_status": "Pending",
    "responsible_agency": "Department of Sanitation",
    "final_address": "4432 Carondelet St",
    "address_councildis": "B",
    "status": "Assigned to Contractor",
    "contractor": "Richards Disposal",
    "rowid": "966386",
    "final_x": "3670522.76123",
    "final_y": "521137.070841",
    "longitude": "-90.10308458771543",
    "latitude": "29.92727472993611",
    "geocoded_column": {
      "latitude": "29.92727472993611",
      "longitude": "-90.10308458771543"
    }
  },
  {
    "service_request": "2023-966385",
    "request_type": "Trash/Recycling",
    "request_reason": "MIssed Recycling Pick-Up",
    "date_created": "2023-01-12T17:45:28.000",
    "date_modified": "2023-01-12T17:45:29.000",
    "request_status": "Pending",
    "responsible_agency": "Department of Sanitation",
    "final_address": "2709 Jefferson Ave",
    "address_councildis": "B",
    "status": "Assigned to Contractor",
    "contractor": "Richards Disposal",
    "rowid": "966385",
    "final_x": "3668282.16122",
    "final_y": "525367.069373",
    "longitude": "-90.11001505912849",
    "latitude": "29.93897183041499",
    "geocoded_column": {
      "latitude": "29.93897183041499",
      "longitude": "-90.11001505912849"
    }
  },
  {
    "service_request": "2023-966384",
    "request_type": "Trash/Recycling",
    "request_reason": "Missed Trash Pick-Up",
    "date_created": "2023-01-12T17:44:17.000",
    "date_modified": "2023-01-12T17:44:18.000",
    "request_status": "Pending",
    "responsible_agency": "Department of Sanitation",
    "final_address": "5631 Carlisle Ct",
    "address_councildis": "C",
    "status": "Assigned to Contractor",
    "contractor": "Richards Disposal",
    "rowid": "966384",
    "final_x": "3704458.48279",
    "final_y": "516508.616757",
    "longitude": "-89.99612942905648",
    "latitude": "29.91350260303831",
    "geocoded_column": {
      "latitude": "29.91350260303831",
      "longitude": "-89.99612942905648"
    }
  },
  {
    "service_request": "2023-966383",
    "request_type": "Trash/Recycling",
    "request_reason": "Missed Trash Pick-Up",
    "date_created": "2023-01-12T17:42:48.000",
    "date_modified": "2023-01-12T17:42:49.000",
    "request_status": "Pending",
    "responsible_agency": "Department of Sanitation",
    "final_address": "3401 River Oaks Dr",
    "address_councildis": "C",
    "status": "Assigned to Contractor",
    "contractor": "Richards Disposal",
    "rowid": "966383",
    "final_x": "3701359.94935",
    "final_y": "518663.246647",
    "longitude": "-90.00583051068091",
    "latitude": "29.919526163552817",
    "geocoded_column": {
      "latitude": "29.919526163552817",
      "longitude": "-90.00583051068091"
    }
  },
  {
    "service_request": "2023-966382",
    "request_type": "Trash/Recycling",
    "request_reason": "Missed Trash Pick-Up",
    "date_created": "2023-01-12T17:41:19.000",
    "date_modified": "2023-01-12T17:41:20.000",
    "request_status": "Pending",
    "responsible_agency": "Department of Sanitation",
    "final_address": "4527 Croyden Ave",
    "address_councildis": "C",
    "status": "Assigned to Contractor",
    "contractor": "Richards Disposal",
    "rowid": "966382",
    "final_x": "3702189.13937",
    "final_y": "523964.281852",
    "longitude": "-90.00301892373895",
    "latitude": "29.934075734489756",
    "geocoded_column": {
      "latitude": "29.934075734489756",
      "longitude": "-90.00301892373895"
    }
  },
  {
    "service_request": "2023-966381",
    "request_type": "Trash/Recycling",
    "request_reason": "Missed Trash Pick-Up",
    "date_created": "2023-01-12T17:40:07.000",
    "date_modified": "2023-01-12T17:40:08.000",
    "request_status": "Pending",
    "responsible_agency": "Department of Sanitation",
    "final_address": "7818 Freret St",
    "address_councildis": "A",
    "status": "Assigned to Contractor",
    "contractor": "Richards Disposal",
    "rowid": "966381",
    "final_x": "3662186.11207",
    "final_y": "527167.800703",
    "longitude": "-90.12920135397232",
    "latitude": "29.944100816464605",
    "geocoded_column": {
      "latitude": "29.944100816464605",
      "longitude": "-90.12920135397232"
    }
  },
  {
    "service_request": "2023-966380",
    "request_type": "Trash/Recycling",
    "request_reason": "Missed Trash Pick-Up",
    "date_created": "2023-01-12T17:39:48.000",
    "date_modified": "2023-01-12T17:39:48.000",
    "request_status": "Pending",
    "responsible_agency": "Department of Sanitation",
    "final_address": "2034 ellen park place",
    "status": "Assigned to Contractor",
    "rowid": "966380",
    "longitude": "0.0",
    "latitude": "0.0",
    "geocoded_column": {
      "latitude": "0.0",
      "longitude": "0.0"
    }
  },
  {
    "service_request": "2023-966379",
    "request_type": "Trash/Recycling",
    "request_reason": "Missed Trash Pick-Up",
    "date_created": "2023-01-12T17:39:41.000",
    "date_modified": "2023-01-12T17:39:41.000",
    "request_status": "Pending",
    "responsible_agency": "Department of Sanitation",
    "final_address": "7911 Jeannette St",
    "address_councildis": "A",
    "status": "Assigned to Contractor",
    "contractor": "Richards Disposal",
    "rowid": "966379",
    "final_x": "3663202.66061",
    "final_y": "528727.407936",
    "longitude": "-90.12593992459634",
    "latitude": "29.9483598234777",
    "geocoded_column": {
      "latitude": "29.9483598234777",
      "longitude": "-90.12593992459634"
    }
  },
  {
    "service_request": "2023-966378",
    "request_type": "Trash/Recycling",
    "request_reason": "MIssed Recycling Pick-Up",
    "date_created": "2023-01-12T17:38:01.000",
    "date_modified": "2023-01-12T17:38:02.000",
    "request_status": "Pending",
    "responsible_agency": "Department of Sanitation",
    "final_address": "2034 ellen park place",
    "status": "Assigned to Contractor",
    "rowid": "966378",
    "longitude": "0.0",
    "latitude": "0.0",
    "geocoded_column": {
      "latitude": "0.0",
      "longitude": "0.0"
    }
  },
  {
    "service_request": "2023-966377",
    "request_type": "Trash/Recycling",
    "request_reason": "Missed Trash Pick-Up",
    "date_created": "2023-01-12T17:32:56.000",
    "date_modified": "2023-01-12T17:32:57.000",
    "request_status": "Pending",
    "responsible_agency": "Department of Sanitation",
    "final_address": "11400 S St Andrews Cir",
    "address_councildis": "E",
    "status": "Assigned to Contractor",
    "contractor": "Waste Pro",
    "rowid": "966377",
    "final_x": "3719330.95756",
    "final_y": "559317.730653",
    "longitude": "-89.94755374569046",
    "latitude": "30.030725819685053",
    "geocoded_column": {
      "latitude": "30.030725819685053",
      "longitude": "-89.94755374569046"
    }
  },
  {
    "service_request": "2023-966376",
    "request_type": "Roads/Drainage",
    "request_reason": "Leaking Hydrant",
    "date_created": "2023-01-12T17:32:47.000",
    "date_modified": "2023-01-12T17:32:47.000",
    "request_status": "Pending",
    "responsible_agency": "Department of Public Works",
    "final_address": "Story St & Joseph St, New Orleans, Louisiana, 70115",
    "status": "Pending",
    "rowid": "966376",
    "longitude": "0.0",
    "latitude": "0.0",
    "geocoded_column": {
      "latitude": "0.0",
      "longitude": "0.0"
    }
  },
  {
    "service_request": "2023-966375",
    "request_type": "Trash/Recycling",
    "request_reason": "Missed Trash Pick-Up",
    "date_created": "2023-01-12T17:28:56.000",
    "date_modified": "2023-01-12T17:28:56.000",
    "request_status": "Pending",
    "responsible_agency": "Department of Sanitation",
    "final_address": "800 BLK Felicity St",
    "address_councildis": "B",
    "status": "Assigned to Contractor",
    "contractor": "Richards Disposal",
    "rowid": "966375",
    "final_x": "3680798.59014",
    "final_y": "522234.2086",
    "longitude": "-90.07060824199478",
    "latitude": "29.929984132977193",
    "geocoded_column": {
      "latitude": "29.929984132977193",
      "longitude": "-90.07060824199478"
    }
  },
  {
    "service_request": "2023-966374",
    "request_type": "Mayor's Request",
    "request_reason": "Requests to the Mayor",
    "date_created": "2023-01-12T17:28:40.000",
    "date_modified": "2023-01-12T17:28:40.000",
    "request_status": "Pending",
    "responsible_agency": "Executive Office of the Mayor",
    "status": "Pending",
    "rowid": "966374",
    "longitude": "0.0",
    "latitude": "0.0",
    "geocoded_column": {
      "latitude": "0.0",
      "longitude": "0.0"
    }
  },
  {
    "service_request": "2023-966373",
    "request_type": "Trash/Recycling",
    "request_reason": "MIssed Recycling Pick-Up",
    "date_created": "2023-01-12T17:28:39.000",
    "date_modified": "2023-01-12T17:28:40.000",
    "request_status": "Pending",
    "responsible_agency": "Department of Sanitation",
    "final_address": "535 Arabella St",
    "address_councildis": "A",
    "status": "Assigned to Contractor",
    "contractor": "Richards Disposal",
    "rowid": "966373",
    "final_x": "3665709.33741",
    "final_y": "518227.41503",
    "longitude": "-90.11837680203152",
    "latitude": "29.9194153167254",
    "geocoded_column": {
      "latitude": "29.9194153167254",
      "longitude": "-90.11837680203152"
    }
  },
  {
    "service_request": "2023-966372",
    "request_type": "Trash/Recycling",
    "request_reason": "Order Trash Cart",
    "date_created": "2023-01-12T17:27:30.000",
    "date_modified": "2023-01-12T17:27:31.000",
    "request_status": "Pending",
    "responsible_agency": "Department of Sanitation",
    "final_address": "1600 Andry St",
    "address_councildis": "E",
    "status": "Assigned to Contractor",
    "contractor": "Waste Pro",
    "rowid": "966372",
    "final_x": "3697658.40752",
    "final_y": "535865.195463",
    "longitude": "-90.01689054612523",
    "latitude": "29.96694292831665",
    "geocoded_column": {
      "latitude": "29.96694292831665",
      "longitude": "-90.01689054612523"
    }
  },
  {
    "service_request": "2023-966371",
    "request_type": "Trash/Recycling",
    "request_reason": "MIssed Recycling Pick-Up",
    "date_created": "2023-01-12T17:27:17.000",
    "date_modified": "2023-01-12T17:27:17.000",
    "request_status": "Pending",
    "responsible_agency": "Department of Sanitation",
    "final_address": "726 Valence St",
    "address_councildis": "B",
    "status": "Assigned to Contractor",
    "contractor": "Richards Disposal",
    "rowid": "966371",
    "final_x": "3669891.52602",
    "final_y": "518132.654326",
    "longitude": "-90.10517889836925",
    "latitude": "29.91903215904445",
    "geocoded_column": {
      "latitude": "29.91903215904445",
      "longitude": "-90.10517889836925"
    }
  },
  {
    "service_request": "2023-966370",
    "request_type": "Trash/Recycling",
    "request_reason": "Missed Trash Pick-Up",
    "date_created": "2023-01-12T17:24:12.000",
    "date_modified": "2023-01-12T17:24:13.000",
    "request_status": "Pending",
    "responsible_agency": "Department of Sanitation",
    "final_address": "1808 Nunez St",
    "address_councildis": "C",
    "status": "Assigned to Contractor",
    "contractor": "Richards Disposal",
    "rowid": "966370",
    "final_x": "3687274.65193",
    "final_y": "524779.665276",
    "longitude": "-90.05007445491319",
    "latitude": "29.936785460973063",
    "geocoded_column": {
      "latitude": "29.936785460973063",
      "longitude": "-90.05007445491319"
    }
  },
  {
    "service_request": "2023-966368",
    "request_type": "Trash/Recycling",
    "request_reason": "Missed Trash Pick-Up",
    "date_created": "2023-01-12T17:16:27.000",
    "date_modified": "2023-01-12T17:16:28.000",
    "request_status": "Pending",
    "responsible_agency": "Department of Sanitation",
    "final_address": "1100 BLK Orange St",
    "address_councildis": "B",
    "status": "Assigned to Contractor",
    "contractor": "Richards Disposal",
    "rowid": "966368",
    "final_x": "3679915.26841",
    "final_y": "523526.206016",
    "longitude": "-90.07335189143392",
    "latitude": "29.933563437427424",
    "geocoded_column": {
      "latitude": "29.933563437427424",
      "longitude": "-90.07335189143392"
    }
  },
  {
    "service_request": "2023-966367",
    "request_type": "Trash/Recycling",
    "request_reason": "MIssed Recycling Pick-Up",
    "date_created": "2023-01-12T17:15:49.000",
    "date_modified": "2023-01-12T17:15:49.000",
    "request_status": "Pending",
    "responsible_agency": "Department of Sanitation",
    "final_address": "1700 BLK Lamanche St",
    "address_councildis": "E",
    "status": "Assigned to Contractor",
    "contractor": "Waste Pro",
    "rowid": "966367",
    "final_x": "3699012.92116",
    "final_y": "536099.243534",
    "longitude": "-90.01260449608203",
    "latitude": "29.967543617374695",
    "geocoded_column": {
      "latitude": "29.967543617374695",
      "longitude": "-90.01260449608203"
    }
  },
  {
    "service_request": "2023-966366",
    "request_type": "Trash/Recycling",
    "request_reason": "Missed Trash Pick-Up",
    "date_created": "2023-01-12T17:15:44.000",
    "date_modified": "2023-01-12T17:15:44.000",
    "request_status": "Pending",
    "responsible_agency": "Department of Sanitation",
    "final_address": "2519 Bristol Pl",
    "address_councildis": "C",
    "status": "Assigned to Contractor",
    "contractor": "Richards Disposal",
    "rowid": "966366",
    "final_x": "3702572.8218",
    "final_y": "521759.55609",
    "longitude": "-90.00188853799541",
    "latitude": "29.928001251950622",
    "geocoded_column": {
      "latitude": "29.928001251950622",
      "longitude": "-90.00188853799541"
    }
  },
  {
    "service_request": "2023-966365",
    "request_type": "Trash/Recycling",
    "request_reason": "Missed Trash Pick-Up",
    "date_created": "2023-01-12T17:15:38.000",
    "date_modified": "2023-01-12T17:15:39.000",
    "request_status": "Pending",
    "responsible_agency": "Department of Sanitation",
    "final_address": "2519 Bristol Pl",
    "address_councildis": "C",
    "status": "Assigned to Contractor",
    "contractor": "Richards Disposal",
    "rowid": "966365",
    "final_x": "3702572.8218",
    "final_y": "521759.55609",
    "longitude": "-90.00188853799541",
    "latitude": "29.928001251950622",
    "geocoded_column": {
      "latitude": "29.928001251950622",
      "longitude": "-90.00188853799541"
    }
  },
  {
    "service_request": "2023-966364",
    "request_type": "Trash/Recycling",
    "request_reason": "Missed Trash Pick-Up",
    "date_created": "2023-01-12T17:14:54.000",
    "date_modified": "2023-01-12T17:14:55.000",
    "request_status": "Pending",
    "responsible_agency": "Department of Sanitation",
    "final_address": "1700 BLK Lamanche St",
    "address_councildis": "E",
    "status": "Assigned to Contractor",
    "contractor": "Waste Pro",
    "rowid": "966364",
    "final_x": "3699012.92116",
    "final_y": "536099.243534",
    "longitude": "-90.01260449608203",
    "latitude": "29.967543617374695",
    "geocoded_column": {
      "latitude": "29.967543617374695",
      "longitude": "-90.01260449608203"
    }
  },
  {
    "service_request": "2023-966363",
    "request_type": "Trash/Recycling",
    "request_reason": "Order Recycling Cart",
    "date_created": "2023-01-12T17:13:08.000",
    "date_modified": "2023-01-12T17:13:09.000",
    "request_status": "Pending",
    "responsible_agency": "Department of Sanitation",
    "final_address": "3119 Iberville St",
    "address_councildis": "B",
    "status": "Pending",
    "rowid": "966363",
    "final_x": "3674222.81896",
    "final_y": "536548.324423",
    "longitude": "-90.0908769086551",
    "latitude": "29.969540832733",
    "geocoded_column": {
      "latitude": "29.969540832733",
      "longitude": "-90.0908769086551"
    }
  },
  {
    "service_request": "2023-966362",
    "request_type": "Trash/Recycling",
    "request_reason": "MIssed Recycling Pick-Up",
    "date_created": "2023-01-12T17:08:52.000",
    "date_modified": "2023-01-12T17:08:53.000",
    "request_status": "Pending",
    "responsible_agency": "Department of Sanitation",
    "final_address": "6016 St Charles Ave",
    "address_councildis": "A",
    "status": "Assigned to Contractor",
    "contractor": "Richards Disposal",
    "rowid": "966362",
    "final_x": "3665536.5257",
    "final_y": "522450.08089",
    "longitude": "-90.11878100278054",
    "latitude": "29.931031355859783",
    "geocoded_column": {
      "latitude": "29.931031355859783",
      "longitude": "-90.11878100278054"
    }
  },
  {
    "service_request": "2023-966361",
    "request_type": "Trash/Recycling",
    "request_reason": "MIssed Recycling Pick-Up",
    "date_created": "2023-01-12T17:08:41.000",
    "date_modified": "2023-01-12T17:08:42.000",
    "request_status": "Pending",
    "responsible_agency": "Department of Sanitation",
    "final_address": "4732 Palmyra St",
    "address_councildis": "A",
    "status": "Assigned to Contractor",
    "contractor": "Richards Disposal",
    "rowid": "966361",
    "final_x": "3668373.98023",
    "final_y": "539367.133258",
    "longitude": "-90.10925299554165",
    "latitude": "29.977464699072513",
    "geocoded_column": {
      "latitude": "29.977464699072513",
      "longitude": "-90.10925299554165"
    }
  },
  {
    "service_request": "2023-966360",
    "request_type": "Trash/Recycling",
    "request_reason": "Missed Trash Pick-Up",
    "date_created": "2023-01-12T17:05:08.000",
    "date_modified": "2023-01-12T17:05:11.000",
    "request_status": "Pending",
    "responsible_agency": "Department of Sanitation",
    "final_address": "3570 Somerset Dr",
    "address_councildis": "C",
    "status": "Assigned to Contractor",
    "contractor": "Richards Disposal",
    "rowid": "966360",
    "final_x": "3702537.16938",
    "final_y": "517646.107126",
    "longitude": "-90.00215193916038",
    "latitude": "29.91669182508758",
    "geocoded_column": {
      "latitude": "29.91669182508758",
      "longitude": "-90.00215193916038"
    }
  },
  {
    "service_request": "2023-966359",
    "request_type": "Trash/Recycling",
    "request_reason": "Missed Trash Pick-Up",
    "date_created": "2023-01-12T17:04:56.000",
    "date_modified": "2023-01-12T17:04:57.000",
    "request_status": "Pending",
    "responsible_agency": "Department of Sanitation",
    "final_address": "7620 Freret St",
    "address_councildis": "A",
    "status": "Assigned to Contractor",
    "contractor": "Richards Disposal",
    "rowid": "966359",
    "final_x": "3662656.53639",
    "final_y": "526746.596222",
    "longitude": "-90.12773007790707",
    "latitude": "29.94292903702424",
    "geocoded_column": {
      "latitude": "29.94292903702424",
      "longitude": "-90.12773007790707"
    }
  },
  {
    "service_request": "2023-966358",
    "request_type": "Trash/Recycling",
    "request_reason": "Missed Trash Pick-Up",
    "date_created": "2023-01-12T17:04:19.000",
    "date_modified": "2023-01-12T17:04:20.000",
    "request_status": "Pending",
    "responsible_agency": "Department of Sanitation",
    "final_address": "1614 Opelousas Ave",
    "address_councildis": "C",
    "status": "Assigned to Contractor",
    "contractor": "Richards Disposal",
    "rowid": "966358",
    "final_x": "3690405.86364",
    "final_y": "529085.611392",
    "longitude": "-90.04003566863395",
    "latitude": "29.94852854639118",
    "geocoded_column": {
      "latitude": "29.94852854639118",
      "longitude": "-90.04003566863395"
    }
  },
  {
    "service_request": "2023-966357",
    "request_type": "Trash/Recycling",
    "request_reason": "Missed Trash Pick-Up",
    "date_created": "2023-01-12T17:03:55.000",
    "date_modified": "2023-01-12T17:03:55.000",
    "request_status": "Pending",
    "responsible_agency": "Department of Sanitation",
    "final_address": "1831 Bordeaux St",
    "address_councildis": "B",
    "status": "Assigned to Contractor",
    "contractor": "Richards Disposal",
    "rowid": "966357",
    "final_x": "3669331.87892",
    "final_y": "521703.529722",
    "longitude": "-90.10682477262996",
    "latitude": "29.928867415105458",
    "geocoded_column": {
      "latitude": "29.928867415105458",
      "longitude": "-90.10682477262996"
    }
  },
  {
    "service_request": "2023-966356",
    "request_type": "Trash/Recycling",
    "request_reason": "MIssed Recycling Pick-Up",
    "date_created": "2023-01-12T17:03:49.000",
    "date_modified": "2023-01-12T17:03:50.000",
    "request_status": "Pending",
    "responsible_agency": "Department of Sanitation",
    "final_address": "3570 Somerset Dr",
    "address_councildis": "C",
    "status": "Assigned to Contractor",
    "contractor": "Richards Disposal",
    "rowid": "966356",
    "final_x": "3702537.16938",
    "final_y": "517646.107126",
    "longitude": "-90.00215193916038",
    "latitude": "29.91669182508758",
    "geocoded_column": {
      "latitude": "29.91669182508758",
      "longitude": "-90.00215193916038"
    }
  },
  {
    "service_request": "2023-966355",
    "request_type": "Trash/Recycling",
    "request_reason": "MIssed Recycling Pick-Up",
    "date_created": "2023-01-12T17:02:24.000",
    "date_modified": "2023-01-12T17:02:24.000",
    "request_status": "Pending",
    "responsible_agency": "Department of Sanitation",
    "final_address": "5215 Constance St",
    "address_councildis": "B",
    "status": "Assigned to Contractor",
    "contractor": "Richards Disposal",
    "rowid": "966355",
    "final_x": "3667901.60884",
    "final_y": "518277.073398",
    "longitude": "-90.11145520532415",
    "latitude": "29.919487763093834",
    "geocoded_column": {
      "latitude": "29.919487763093834",
      "longitude": "-90.11145520532415"
    }
  },
  {
    "service_request": "2023-966354",
    "request_type": "Trash/Recycling",
    "request_reason": "Request a Large Item Pick Up",
    "date_created": "2023-01-12T16:58:15.000",
    "date_modified": "2023-01-12T16:58:16.000",
    "request_status": "Pending",
    "responsible_agency": "Department of Sanitation",
    "final_address": "2506 Jena St",
    "address_councildis": "B",
    "status": "Assigned to Contractor",
    "contractor": "Richards Disposal",
    "rowid": "966354",
    "final_x": "3670086.9554",
    "final_y": "524074.015868",
    "longitude": "-90.1043608819218",
    "latitude": "29.935363245807558",
    "geocoded_column": {
      "latitude": "29.935363245807558",
      "longitude": "-90.1043608819218"
    }
  },
  {
    "service_request": "2023-966353",
    "request_type": "Trash/Recycling",
    "request_reason": "MIssed Recycling Pick-Up",
    "date_created": "2023-01-12T16:56:12.000",
    "date_modified": "2023-01-12T16:56:13.000",
    "request_status": "Pending",
    "responsible_agency": "Department of Sanitation",
    "final_address": "822 Cadiz St",
    "address_councildis": "B",
    "status": "Assigned to Contractor",
    "contractor": "Richards Disposal",
    "rowid": "966353",
    "final_x": "3670225.06657",
    "final_y": "518532.550967",
    "longitude": "-90.10411253805376",
    "latitude": "29.9201219138685",
    "geocoded_column": {
      "latitude": "29.9201219138685",
      "longitude": "-90.10411253805376"
    }
  },
  {
    "service_request": "2023-966352",
    "request_type": "Traffic Signals/Signs/Striping/Streetlights",
    "request_reason": "Additional signage",
    "date_created": "2023-01-12T16:54:00.000",
    "date_modified": "2023-01-12T16:54:00.000",
    "request_status": "Pending",
    "responsible_agency": "Department of Public Works",
    "final_address": "8701 Airline Hwy",
    "address_councildis": "A",
    "status": "Pending",
    "rowid": "966352",
    "final_x": "3666945.24378",
    "final_y": "537182.141704",
    "longitude": "-90.11383888598499",
    "latitude": "29.97149859377334",
    "geocoded_column": {
      "latitude": "29.97149859377334",
      "longitude": "-90.11383888598499"
    }
  },
  {
    "service_request": "2023-966351",
    "request_type": "Trash/Recycling",
    "request_reason": "MIssed Recycling Pick-Up",
    "date_created": "2023-01-12T16:51:03.000",
    "date_modified": "2023-01-12T16:51:04.000",
    "request_status": "Pending",
    "responsible_agency": "Department of Sanitation",
    "final_address": "5828 Fontainebleau Dr",
    "address_councildis": "A",
    "status": "Assigned to Contractor",
    "contractor": "Richards Disposal",
    "rowid": "966351",
    "final_x": "3668265.82676",
    "final_y": "529787.230337",
    "longitude": "-90.10991763154549",
    "latitude": "29.951126319376307",
    "geocoded_column": {
      "latitude": "29.951126319376307",
      "longitude": "-90.10991763154549"
    }
  },
  {
    "service_request": "2023-966350",
    "request_type": "Trash/Recycling",
    "request_reason": "Order Trash Cart",
    "date_created": "2023-01-12T16:46:18.000",
    "date_modified": "2023-01-12T16:46:20.000",
    "request_status": "Pending",
    "responsible_agency": "Department of Sanitation",
    "final_address": "2187 Law St",
    "address_councildis": "D",
    "status": "Assigned to Contractor",
    "contractor": "IV Waste",
    "rowid": "966350",
    "final_x": "3684347.73231",
    "final_y": "541896.125068",
    "longitude": "-90.058713759303",
    "latitude": "29.983939654808243",
    "geocoded_column": {
      "latitude": "29.983939654808243",
      "longitude": "-90.058713759303"
    }
  },
  {
    "service_request": "2023-966349",
    "request_type": "Trash/Recycling",
    "request_reason": "MIssed Recycling Pick-Up",
    "date_created": "2023-01-12T16:43:28.000",
    "date_modified": "2023-01-12T16:43:29.000",
    "request_status": "Pending",
    "responsible_agency": "Department of Sanitation",
    "final_address": "3200 BLK Ursulines Ave",
    "address_councildis": "A",
    "status": "Assigned to Contractor",
    "contractor": "Richards Disposal",
    "rowid": "966349",
    "final_x": "3675744.49263",
    "final_y": "539597.059373",
    "longitude": "-90.08596651723748",
    "latitude": "29.97787835643237",
    "geocoded_column": {
      "latitude": "29.97787835643237",
      "longitude": "-90.08596651723748"
    }
  },
  {
    "service_request": "2023-966348",
    "request_type": "Trash/Recycling",
    "request_reason": "Missed Trash Pick-Up",
    "date_created": "2023-01-12T16:43:09.000",
    "date_modified": "2023-01-12T16:43:10.000",
    "request_status": "Pending",
    "responsible_agency": "Department of Sanitation",
    "final_address": "1618 S Liberty St",
    "address_councildis": "B",
    "status": "Assigned to Contractor",
    "contractor": "Richards Disposal",
    "rowid": "966348",
    "final_x": "3676745.19873",
    "final_y": "526531.537982",
    "longitude": "-90.08325613022687",
    "latitude": "29.941922581934552",
    "geocoded_column": {
      "latitude": "29.941922581934552",
      "longitude": "-90.08325613022687"
    }
  },
  {
    "service_request": "2023-966347",
    "request_type": "Trash/Recycling",
    "request_reason": "MIssed Recycling Pick-Up",
    "date_created": "2023-01-12T16:42:06.000",
    "date_modified": "2023-01-12T16:42:07.000",
    "request_status": "Pending",
    "responsible_agency": "Department of Sanitation",
    "final_address": "3011 Sullen Pl",
    "address_councildis": "C",
    "status": "Assigned to Contractor",
    "contractor": "Richards Disposal",
    "rowid": "966347",
    "final_x": "3707785.08331",
    "final_y": "519617.937592",
    "longitude": "-89.98551429608008",
    "latitude": "29.921944987773887",
    "geocoded_column": {
      "latitude": "29.921944987773887",
      "longitude": "-89.98551429608008"
    }
  },
  {
    "service_request": "2023-966346",
    "request_type": "Trash/Recycling",
    "request_reason": "Replace Trash Cart",
    "date_created": "2023-01-12T16:38:20.000",
    "date_modified": "2023-01-12T16:38:20.000",
    "request_status": "Pending",
    "responsible_agency": "Department of Sanitation",
    "final_address": "1230 Fern St",
    "address_councildis": "A",
    "status": "Assigned to Contractor",
    "contractor": "Richards Disposal",
    "rowid": "966346",
    "final_x": "3662678.67994",
    "final_y": "528063.165119",
    "longitude": "-90.12761642555292",
    "latitude": "29.9465485400234",
    "geocoded_column": {
      "latitude": "29.9465485400234",
      "longitude": "-90.12761642555292"
    }
  },
  {
    "service_request": "2023-966345",
    "request_type": "Trash/Recycling",
    "request_reason": "Missed Trash Pick-Up",
    "date_created": "2023-01-12T16:37:40.000",
    "date_modified": "2023-01-12T16:37:41.000",
    "request_status": "Pending",
    "responsible_agency": "Department of Sanitation",
    "final_address": "1131 Orange St",
    "address_councildis": "B",
    "status": "Assigned to Contractor",
    "contractor": "Richards Disposal",
    "rowid": "966345",
    "final_x": "3679856.47944",
    "final_y": "523577.759035",
    "longitude": "-90.07353569564594",
    "latitude": "29.933706968638734",
    "geocoded_column": {
      "latitude": "29.933706968638734",
      "longitude": "-90.07353569564594"
    }
  },
  {
    "service_request": "2023-966344",
    "request_type": "Trash/Recycling",
    "request_reason": "MIssed Recycling Pick-Up",
    "date_created": "2023-01-12T16:36:13.000",
    "date_modified": "2023-01-12T16:48:35.000",
    "request_status": "Pending",
    "responsible_agency": "Department of Sanitation",
    "final_address": "2226 1st St, New Orleans, Louisiana, 70113",
    "address_councildis": "B",
    "status": "Assigned to Contractor",
    "contractor": "Richards Disposal",
    "rowid": "966344",
    "final_x": "3675615.71937",
    "final_y": "525165.855485",
    "longitude": "-90.08686904210113",
    "latitude": "29.938201237394686",
    "geocoded_column": {
      "latitude": "29.938201237394686",
      "longitude": "-90.08686904210113"
    }
  },
  {
    "service_request": "2023-966343",
    "request_type": "Traffic Signals/Signs/Striping/Streetlights",
    "request_reason": "Street Name Sign Damaged or Missing",
    "date_created": "2023-01-12T16:35:31.000",
    "date_modified": "2023-01-12T16:35:31.000",
    "request_status": "Pending",
    "responsible_agency": "Department of Public Works",
    "final_address": "MORRISON EXIT & I 10 W SERVICE RD",
    "address_councildis": "E",
    "status": "Pending",
    "rowid": "966343",
    "final_x": "3697830.95",
    "final_y": "557835.25",
    "longitude": "-90.01554773250923",
    "latitude": "30.027347000729335",
    "geocoded_column": {
      "latitude": "30.027347000729335",
      "longitude": "-90.01554773250923"
    }
  },
  {
    "service_request": "2023-966342",
    "request_type": "Traffic Signals/Signs/Striping/Streetlights",
    "request_reason": "Street Name Sign Damaged or Missing",
    "date_created": "2023-01-12T16:33:52.000",
    "date_modified": "2023-01-12T16:33:52.000",
    "request_status": "Pending",
    "responsible_agency": "Department of Public Works",
    "final_address": "LARK ST & MARIGNY ST",
    "address_councildis": "D",
    "status": "Pending",
    "rowid": "966342",
    "final_x": "3683638.7",
    "final_y": "557771.28",
    "longitude": "-90.06039622242679",
    "latitude": "30.027612263428093",
    "geocoded_column": {
      "latitude": "30.027612263428093",
      "longitude": "-90.06039622242679"
    }
  },
  {
    "service_request": "2023-966341",
    "request_type": "Traffic Signals/Signs/Striping/Streetlights",
    "request_reason": "Street Name Sign Damaged or Missing",
    "date_created": "2023-01-12T16:32:42.000",
    "date_modified": "2023-01-12T16:32:43.000",
    "request_status": "Pending",
    "responsible_agency": "Department of Public Works",
    "final_address": "MAYO RD & I 10 E SERVICE RD",
    "address_councildis": "E",
    "status": "Pending",
    "rowid": "966341",
    "final_x": "3701854.2",
    "final_y": "557812.58",
    "longitude": "-90.00283552595192",
    "latitude": "30.027156828587792",
    "geocoded_column": {
      "latitude": "30.027156828587792",
      "longitude": "-90.00283552595192"
    }
  },
  {
    "service_request": "2023-966339",
    "request_type": "Property Maintenance",
    "request_reason": "Property Maintenance",
    "date_created": "2023-01-12T16:30:43.000",
    "date_modified": "2023-01-12T16:30:43.000",
    "request_status": "Pending",
    "responsible_agency": "Department of Code Enforcement",
    "final_address": "3024 Cleveland Ave",
    "address_councildis": "B",
    "status": "Pending",
    "rowid": "966339",
    "final_x": "3673888.39496",
    "final_y": "535643.062534",
    "longitude": "-90.09196402196679",
    "latitude": "29.96706163492703",
    "geocoded_column": {
      "latitude": "29.96706163492703",
      "longitude": "-90.09196402196679"
    }
  },
  {
    "service_request": "2023-966338",
    "request_type": "Traffic Signals/Signs/Striping/Streetlights",
    "request_reason": "Street Light Outage/Malfunction",
    "date_created": "2023-01-12T16:28:58.000",
    "date_modified": "2023-01-12T16:29:38.000",
    "request_status": "Pending",
    "responsible_agency": "Department of Public Works",
    "final_address": "FRANKLIN AVE & LEON C SIMON DR",
    "address_councildis": "D",
    "status": "Assigned to Contractor",
    "contractor": "Legacy Professional Services",
    "rowid": "966338",
    "final_x": "3686215.6",
    "final_y": "557350.08",
    "longitude": "-90.05226831351399",
    "latitude": "30.026375154078544",
    "geocoded_column": {
      "latitude": "30.026375154078544",
      "longitude": "-90.05226831351399"
    }
  },
  {
    "service_request": "2023-966337",
    "request_type": "Trash/Recycling",
    "request_reason": "Missed Trash Pick-Up",
    "date_created": "2023-01-12T16:28:29.000",
    "date_modified": "2023-01-12T16:28:30.000",
    "request_status": "Pending",
    "responsible_agency": "Department of Sanitation",
    "final_address": "536 Aurora Oaks Dr",
    "address_councildis": "C",
    "status": "Assigned to Contractor",
    "contractor": "Richards Disposal",
    "rowid": "966337",
    "final_x": "3701332.50109",
    "final_y": "521196.421113",
    "longitude": "-90.00582451379836",
    "latitude": "29.926492396103765",
    "geocoded_column": {
      "latitude": "29.926492396103765",
      "longitude": "-90.00582451379836"
    }
  },
  {
    "service_request": "2023-966336",
    "request_type": "Trash/Recycling",
    "request_reason": "Missed Trash Pick-Up",
    "date_created": "2023-01-12T16:27:24.000",
    "date_modified": "2023-01-12T16:27:25.000",
    "request_status": "Pending",
    "responsible_agency": "Department of Sanitation",
    "final_address": "2200 BLK Brainard St",
    "address_councildis": "B",
    "status": "Assigned to Contractor",
    "contractor": "Richards Disposal",
    "rowid": "966336",
    "final_x": "3676980.84646",
    "final_y": "524079.728531",
    "longitude": "-90.08259663544442",
    "latitude": "29.935173841387464",
    "geocoded_column": {
      "latitude": "29.935173841387464",
      "longitude": "-90.08259663544442"
    }
  },
  {
    "service_request": "2023-966335",
    "request_type": "Trash/Recycling",
    "request_reason": "Order Recycling Cart",
    "date_created": "2023-01-12T16:26:49.000",
    "date_modified": "2023-01-12T16:26:49.000",
    "request_status": "Pending",
    "responsible_agency": "Department of Sanitation",
    "final_address": "5705 Warrington Dr",
    "address_councildis": "D",
    "status": "Pending",
    "rowid": "966335",
    "final_x": "3680888.26293",
    "final_y": "553733.160535",
    "longitude": "-90.06922816009819",
    "latitude": "30.01659264142165",
    "geocoded_column": {
      "latitude": "30.01659264142165",
      "longitude": "-90.06922816009819"
    }
  },