[
  {
    "service_request": "2021-842659",
    "request_type": "Mayor's Request",
    "request_reason": "Requests to the Mayor",
    "date_created": "2021-11-17T00:34:29.000",
    "date_modified": "2021-11-17T00:34:29.000",
    "request_status": "Pending",
    "responsible_agency": "Executive Office of the Mayor",
    "status": "Pending",
    "rowid": "842659",
    "longitude": "0.0",
    "latitude": "0.0",
    "geocoded_column": {
      "latitude": "0.0",
      "longitude": "0.0"
    }
  },
  {
    "service_request": "2021-842658",
    "request_type": "Property Maintenance",
    "request_reason": "Property Maintenance",
    "date_created": "2021-11-16T23:11:44.000",
    "date_modified": "2021-11-16T23:11:44.000",
    "request_status": "Pending",
    "responsible_agency": "Department of Code Enforcement",
    "final_address": "2524 Touro St",
    "address_councildis": "D",
    "status": "Pending",
    "rowid": "842658",
    "final_x": "3683771.25897",
    "final_y": "541628.877196",
    "longitude": "-90.06054394729743",
    "latitude": "29.983222437129236",
    "geocoded_column": {
      "latitude": "29.983222437129236",
      "longitude": "-90.06054394729743"
    }
  },
  {
    "service_request": "2021-842657",
    "request_type": "Abandoned Vehicles",
    "request_reason": "Vehicle Blocking Your Driveway",
    "date_created": "2021-11-16T22:44:12.000",
    "date_modified": "2021-11-16T22:44:12.000",
    "request_status": "Pending",
    "responsible_agency": "Department of Public Works",
    "final_address": "624 Webster St A",
    "address_councildis": "A",
    "status": "Pending",
    "rowid": "842657",
    "final_x": "3663917.37895",
    "final_y": "518988.279095",
    "longitude": "-90.12400779486175",
    "latitude": "29.92155957927547",
    "geocoded_column": {
      "latitude": "29.92155957927547",
      "longitude": "-90.12400779486175"
    }
  },
  {
    "service_request": "2021-842656",
    "request_type": "Traffic Signals/Signs/Striping/Streetlights",
    "request_reason": "Request for Traffic Calming due to Speeding",
    "date_created": "2021-11-16T21:42:08.000",
    "date_modified": "2021-11-16T21:42:08.000",
    "request_status": "Pending",
    "responsible_agency": "Department of Public Works",
    "final_address": "2909 Baronne St",
    "address_councildis": "B",
    "status": "Pending",
    "rowid": "842656",
    "final_x": "3674986.64789",
    "final_y": "522836.456443",
    "longitude": "-90.08893494854145",
    "latitude": "29.931814950830415",
    "geocoded_column": {
      "latitude": "29.931814950830415",
      "longitude": "-90.08893494854145"
    }
  },
  {
    "service_request": "2021-842655",
    "request_type": "Traffic Signals/Signs/Striping/Streetlights",
    "request_reason": "Street Light Outage/Malfunction",
    "date_created": "2021-11-16T21:13:52.000",
    "date_modified": "2021-11-16T22:02:55.000",
    "request_status": "Pending",
    "responsible_agency": "Department of Public Works",
    "final_address": "8118 Pritchard Pl",
    "address_councildis": "A",
    "status": "Pending",
    "contractor": "Royal Engineering",
    "rowid": "842655",
    "final_x": "3665898.52135",
    "final_y": "532918.817284",
    "longitude": "-90.117287493424",
    "latitude": "29.959806449312165",
    "geocoded_column": {
      "latitude": "29.959806449312165",
      "longitude": "-90.117287493424"
    }
  },
  {
    "service_request": "2021-842654",
    "request_type": "Property Maintenance",
    "request_reason": "Property Maintenance",
    "date_created": "2021-11-16T21:10:08.000",
    "date_modified": "2021-11-16T21:10:08.000",
    "request_status": "Pending",
    "responsible_agency": "Department of Code Enforcement",
    "final_address": "1201 St Bernard Ave",
    "address_councildis": "C",
    "status": "Pending",
    "rowid": "842654",
    "final_x": "3683096.09794",
    "final_y": "536294.029191",
    "longitude": "-90.06286328220617",
    "latitude": "29.96857406799968",
    "geocoded_column": {
      "latitude": "29.96857406799968",
      "longitude": "-90.06286328220617"
    }
  },
  {
    "service_request": "2021-842653",
    "request_type": "Property Maintenance",
    "request_reason": "Property Maintenance",
    "date_created": "2021-11-16T21:07:48.000",
    "date_modified": "2021-11-16T21:07:48.000",
    "request_status": "Pending",
    "responsible_agency": "Department of Code Enforcement",
    "final_address": "1709 Marais St",
    "address_councildis": "C",
    "status": "Pending",
    "rowid": "842653",
    "final_x": "3683199.03132",
    "final_y": "536555.745607",
    "longitude": "-90.06252904692543",
    "latitude": "29.969290559099438",
    "geocoded_column": {
      "latitude": "29.969290559099438",
      "longitude": "-90.06252904692543"
    }
  },
  {
    "service_request": "2021-842652",
    "request_type": "Trash/Recycling",
    "request_reason": "Request a Large Item Pick Up",
    "date_created": "2021-11-16T20:51:58.000",
    "date_modified": "2021-11-16T20:51:58.000",
    "request_status": "Pending",
    "responsible_agency": "Department of Sanitation",
    "final_address": "1532 Riviera Ave",
    "address_councildis": "D",
    "status": "Assigned to Contractor",
    "contractor": "Metro Disposal",
    "rowid": "842652",
    "final_x": "3678963.03304",
    "final_y": "550868.395093",
    "longitude": "-90.07541043565506",
    "latitude": "30.008773828610128",
    "geocoded_column": {
      "latitude": "30.008773828610128",
      "longitude": "-90.07541043565506"
    }
  },
  {
    "service_request": "2021-842651",
    "request_type": "Roads/Drainage",
    "request_reason": "Street Subsidence (Sinking)",
    "date_created": "2021-11-16T20:47:09.000",
    "date_modified": "2021-11-16T20:47:09.000",
    "request_status": "Pending",
    "responsible_agency": "Department of Public Works",
    "final_address": "625 Olivier St",
    "address_councildis": "C",
    "status": "Pending",
    "rowid": "842651",
    "final_x": "3687245.97455",
    "final_y": "529272.816577",
    "longitude": "-90.05000611937857",
    "latitude": "29.949140986081456",
    "geocoded_column": {
      "latitude": "29.949140986081456",
      "longitude": "-90.05000611937857"
    }
  },
  {
    "service_request": "2021-842650",
    "request_type": "Traffic Signals/Signs/Striping/Streetlights",
    "request_reason": "Street Light Knocked Down/Leaning",
    "date_created": "2021-11-16T20:11:41.000",
    "date_modified": "2021-11-16T20:11:42.000",
    "request_status": "Pending",
    "responsible_agency": "Department of Public Works",
    "final_address": "6116 Marshal Foch St",
    "address_councildis": "A",
    "status": "Pending",
    "contractor": "Royal Engineering",
    "rowid": "842650",
    "final_x": "3669830.23226",
    "final_y": "547986.20021",
    "longitude": "-90.10436168185274",
    "latitude": "30.00112132131696",
    "geocoded_column": {
      "latitude": "30.00112132131696",
      "longitude": "-90.10436168185274"
    }
  },
  {
    "service_request": "2021-842649",
    "request_type": "Roads/Drainage",
    "request_reason": "Pothole",
    "date_created": "2021-11-16T19:43:25.000",
    "date_modified": "2021-11-16T20:03:10.000",
    "request_status": "Pending",
    "responsible_agency": "Department of Public Works",
    "final_address": "500 Cadiz St",
    "address_councildis": "B",
    "status": "Pending",
    "rowid": "842649",
    "final_x": "3670403.41204",
    "final_y": "517449.026102",
    "longitude": "-90.10358629155458",
    "latitude": "29.917137301309374",
    "geocoded_column": {
      "latitude": "29.917137301309374",
      "longitude": "-90.10358629155458"
    }
  },
  {
    "service_request": "2021-842648",
    "request_type": "Traffic Signals/Signs/Striping/Streetlights",
    "request_reason": "Street Light Outage/Malfunction",
    "date_created": "2021-11-16T19:23:23.000",
    "date_modified": "2021-11-16T19:23:24.000",
    "request_status": "Pending",
    "responsible_agency": "Department of Public Works",
    "final_address": "100 Woodland Pl",
    "address_councildis": "C",
    "status": "Pending",
    "contractor": "Royal Engineering",
    "rowid": "842648",
    "final_x": "3705905.60177",
    "final_y": "521960.669562",
    "longitude": "-89.99136036996275",
    "latitude": "29.928447338614497",
    "geocoded_column": {
      "latitude": "29.928447338614497",
      "longitude": "-89.99136036996275"
    }
  },
  {
    "service_request": "2021-842647",
    "request_type": "Trash/Recycling",
    "request_reason": "Return Recycling Cart",
    "date_created": "2021-11-16T19:21:13.000",
    "date_modified": "2021-11-16T19:21:13.000",
    "request_status": "Pending",
    "responsible_agency": "Department of Sanitation",
    "final_address": "3560 Rue Nichole",
    "address_councildis": "C",
    "status": "Pending",
    "rowid": "842647",
    "final_x": "3704058.7059",
    "final_y": "517432.460918",
    "longitude": "-89.99735724187994",
    "latitude": "29.916055679406043",
    "geocoded_column": {
      "latitude": "29.916055679406043",
      "longitude": "-89.99735724187994"
    }
  },
  {
    "service_request": "2021-842646",
    "request_type": "Traffic Signals/Signs/Striping/Streetlights",
    "request_reason": "Street Light Outage/Malfunction",
    "date_created": "2021-11-16T18:57:43.000",
    "date_modified": "2021-11-16T18:57:44.000",
    "request_status": "Pending",
    "responsible_agency": "Department of Public Works",
    "final_address": "3000 Mandeville St",
    "address_councildis": "D",
    "status": "Pending",
    "contractor": "Royal Engineering",
    "rowid": "842646",
    "final_x": "3685095.57615",
    "final_y": "543766.560974",
    "longitude": "-90.05628582541625",
    "latitude": "29.98905979535421",
    "geocoded_column": {
      "latitude": "29.98905979535421",
      "longitude": "-90.05628582541625"
    }
  },
  {
    "service_request": "2021-842645",
    "request_type": "Traffic Signals/Signs/Striping/Streetlights",
    "request_reason": "Street Light Outage/Malfunction",
    "date_created": "2021-11-16T18:56:03.000",
    "date_modified": "2021-11-16T18:56:04.000",
    "request_status": "Pending",
    "responsible_agency": "Department of Public Works",
    "final_address": "JACKSON AVE & ANNUNCIATION ST",
    "address_councildis": "B",
    "status": "Pending",
    "contractor": "Royal Engineering",
    "rowid": "842645",
    "final_x": "3679502.8",
    "final_y": "521194.98",
    "longitude": "-90.07473486967793",
    "latitude": "29.927165795495878",
    "geocoded_column": {
      "latitude": "29.927165795495878",
      "longitude": "-90.07473486967793"
    }
  },
  {
    "service_request": "2021-842644",
    "request_type": "Trash/Recycling",
    "request_reason": "Illegal Dumping",
    "date_created": "2021-11-16T18:42:05.000",
    "date_modified": "2021-11-16T19:02:47.000",
    "request_status": "Pending",
    "responsible_agency": "Department of Code Enforcement",
    "final_address": "2730 N Prieur St",
    "address_councildis": "D",
    "status": "Pending",
    "rowid": "842644",
    "final_x": "3688429.05372",
    "final_y": "539291.529098",
    "longitude": "-90.04591520988794",
    "latitude": "29.976652473916804",
    "geocoded_column": {
      "latitude": "29.976652473916804",
      "longitude": "-90.04591520988794"
    }
  },
  {
    "service_request": "2021-842643",
    "request_type": "Traffic Signals/Signs/Striping/Streetlights",
    "request_reason": "Street Light Outage/Malfunction",
    "date_created": "2021-11-16T18:37:33.000",
    "date_modified": "2021-11-16T18:37:34.000",
    "request_status": "Pending",
    "responsible_agency": "Department of Public Works",
    "final_address": "922 Burdette St",
    "address_councildis": "A",
    "status": "Pending",
    "contractor": "Royal Engineering",
    "rowid": "842643",
    "final_x": "3662175.25658",
    "final_y": "526996.054398",
    "longitude": "-90.12924132614656",
    "latitude": "29.943628882567197",
    "geocoded_column": {
      "latitude": "29.943628882567197",
      "longitude": "-90.12924132614656"
    }
  },
  {
    "service_request": "2021-842642",
    "request_type": "Traffic Signals/Signs/Striping/Streetlights",
    "request_reason": "Street Light Outage/Malfunction",
    "date_created": "2021-11-16T18:34:56.000",
    "date_modified": "2021-11-16T18:34:56.000",
    "request_status": "Pending",
    "responsible_agency": "Department of Public Works",
    "final_address": "922 Burdette St",
    "address_councildis": "A",
    "status": "Pending",
    "contractor": "Royal Engineering",
    "rowid": "842642",
    "final_x": "3662175.25658",
    "final_y": "526996.054398",
    "longitude": "-90.12924132614656",
    "latitude": "29.943628882567197",
    "geocoded_column": {
      "latitude": "29.943628882567197",
      "longitude": "-90.12924132614656"
    }
  },
  {
    "service_request": "2021-842641",
    "request_type": "Traffic Signals/Signs/Striping/Streetlights",
    "request_reason": "Street Light Outage/Malfunction",
    "date_created": "2021-11-16T18:28:47.000",
    "date_modified": "2021-11-16T19:02:49.000",
    "request_status": "Pending",
    "responsible_agency": "Department of Public Works",
    "final_address": "5582 Tullis Dr",
    "address_councildis": "C",
    "status": "Pending",
    "contractor": "Royal Engineering",
    "rowid": "842641",
    "final_x": "3704650.66743",
    "final_y": "512353.252721",
    "longitude": "-89.99567595098128",
    "latitude": "29.90207060332377",
    "geocoded_column": {
      "latitude": "29.90207060332377",
      "longitude": "-89.99567595098128"
    }
  },
  {
    "service_request": "2021-842640",
    "request_type": "Parks & Parkways",
    "request_reason": "Request Tree Service (Right of Way/Public Property)",
    "date_created": "2021-11-16T18:22:05.000",
    "date_modified": "2021-11-16T18:22:05.000",
    "request_status": "Pending",
    "responsible_agency": "Department of Parks & Parkway",
    "final_address": "2117 Broadway St",
    "address_councildis": "A",
    "status": "Pending",
    "rowid": "842640",
    "final_x": "3666052.55514",
    "final_y": "529214.847552",
    "longitude": "-90.11692525377937",
    "latitude": "29.949617244626136",
    "geocoded_column": {
      "latitude": "29.949617244626136",
      "longitude": "-90.11692525377937"
    }
  },
  {
    "service_request": "2021-842639",
    "request_type": "Trash/Recycling",
    "request_reason": "Missed Trash Pick-Up",
    "date_created": "2021-11-16T18:15:54.000",
    "date_modified": "2021-11-16T18:15:54.000",
    "request_status": "Pending",
    "responsible_agency": "Department of Sanitation",
    "final_address": "1432 Chartres St",
    "address_councildis": "C",
    "status": "Assigned to Contractor",
    "contractor": "Metro Disposal",
    "rowid": "842639",
    "final_x": "3684565.83516",
    "final_y": "534395.091845",
    "longitude": "-90.0582885121374",
    "latitude": "29.96330775661264",
    "geocoded_column": {
      "latitude": "29.96330775661264",
      "longitude": "-90.0582885121374"
    }
  },
  {
    "service_request": "2021-842638",
    "request_type": "COVID-19",
    "request_reason": "COVID-19 Business Non-Compliance",
    "date_created": "2021-11-16T17:37:12.000",
    "date_modified": "2021-11-16T17:37:13.000",
    "request_status": "Pending",
    "responsible_agency": "Safety and Permits",
    "final_address": "7623 Maple St",
    "address_councildis": "A",
    "status": "Pending",
    "rowid": "842638",
    "final_x": "3662232.9209",
    "final_y": "526281.023038",
    "longitude": "-90.12908298998885",
    "latitude": "29.941661107748946",
    "geocoded_column": {
      "latitude": "29.941661107748946",
      "longitude": "-90.12908298998885"
    }
  },
  {
    "service_request": "2021-842637",
    "request_type": "COVID-19",
    "request_reason": "COVID-19 Business Non-Compliance",
    "date_created": "2021-11-16T17:35:16.000",
    "date_modified": "2021-11-16T17:35:17.000",
    "request_status": "Pending",
    "responsible_agency": "Safety and Permits",
    "final_address": "3800 Canal St",
    "address_councildis": "A",
    "status": "Pending",
    "rowid": "842637",
    "final_x": "3671986.09812",
    "final_y": "537548.763208",
    "longitude": "-90.09790661212993",
    "latitude": "29.972358200415535",
    "geocoded_column": {
      "latitude": "29.972358200415535",
      "longitude": "-90.09790661212993"
    }
  },
  {
    "service_request": "2021-842635",
    "request_type": "Trash/Recycling",
    "request_reason": "Illegal Dumping",
    "date_created": "2021-11-16T17:29:09.000",
    "date_modified": "2021-11-16T18:02:16.000",
    "request_status": "Pending",
    "responsible_agency": "Department of Sanitation",
    "final_address": "7196 Florita Ct",
    "address_councildis": "D",
    "status": "Pending",
    "rowid": "842635",
    "final_x": "3694866.48426",
    "final_y": "556885.154714",
    "longitude": "-90.02494942795865",
    "latitude": "30.02482800967555",
    "geocoded_column": {
      "latitude": "30.02482800967555",
      "longitude": "-90.02494942795865"
    }
  },
  {
    "service_request": "2021-842634",
    "request_type": "Trash/Recycling",
    "request_reason": "Illegal Dumping",
    "date_created": "2021-11-16T17:28:14.000",
    "date_modified": "2021-11-16T17:28:14.000",
    "request_status": "Pending",
    "responsible_agency": "Department of Sanitation",
    "final_address": "2625 St Charles Ave",
    "address_councildis": "B",
    "status": "Pending",
    "rowid": "842634",
    "final_x": "3676207.21755",
    "final_y": "522817.423867",
    "longitude": "-90.08508239447315",
    "latitude": "29.931726112586126",
    "geocoded_column": {
      "latitude": "29.931726112586126",
      "longitude": "-90.08508239447315"
    }
  },
  {
    "service_request": "2021-842633",
    "request_type": "Parks & Parkways",
    "request_reason": "Request Tree Service (Right of Way/Public Property)",
    "date_created": "2021-11-16T17:16:06.000",
    "date_modified": "2021-11-16T17:16:06.000",
    "request_status": "Pending",
    "responsible_agency": "Department of Parks & Parkway",
    "final_address": "JEFFERSON AVE & ATLANTA ST",
    "address_councildis": "A",
    "status": "Pending",
    "rowid": "842633",
    "final_x": "3667203.8",
    "final_y": "520847.58",
    "longitude": "-90.1135714748582",
    "latitude": "29.926576287987693",
    "geocoded_column": {
      "latitude": "29.926576287987693",
      "longitude": "-90.1135714748582"
    }
  },
  {
    "service_request": "2021-842632",
    "request_type": "Traffic Signals/Signs/Striping/Streetlights",
    "request_reason": "Street Light Outage/Malfunction",
    "date_created": "2021-11-16T17:11:45.000",
    "date_modified": "2021-11-16T17:11:46.000",
    "request_status": "Pending",
    "responsible_agency": "Department of Public Works",
    "final_address": "2775 Odin St",
    "address_councildis": "D",
    "status": "Pending",
    "contractor": "Royal Engineering",
    "rowid": "842632",
    "final_x": "3687908.431",
    "final_y": "553461.347991",
    "longitude": "-90.0470571173313",
    "latitude": "30.015630436931243",
    "geocoded_column": {
      "latitude": "30.015630436931243",
      "longitude": "-90.0470571173313"
    }
  },
  {
    "service_request": "2021-842631",
    "request_type": "Property Maintenance",
    "request_reason": "Property Maintenance",
    "date_created": "2021-11-16T16:53:33.000",
    "date_modified": "2021-11-16T16:53:33.000",
    "request_status": "Pending",
    "responsible_agency": "Department of Code Enforcement",
    "final_address": "1515 Tupelo St",
    "address_councildis": "E",
    "status": "Pending",
    "rowid": "842631",
    "final_x": "3700140.42621",
    "final_y": "534834.082182",
    "longitude": "-90.00909000906893",
    "latitude": "29.964029095372034",
    "geocoded_column": {
      "latitude": "29.964029095372034",
      "longitude": "-90.00909000906893"
    }
  },
  {
    "service_request": "2021-842630",
    "request_type": "Roads/Drainage",
    "request_reason": "Ditch Issue",
    "date_created": "2021-11-16T16:53:00.000",
    "date_modified": "2021-11-16T16:53:01.000",
    "case_close_date": "2021-08-29T19:00:00.000",
    "request_status": "Pending",
    "responsible_agency": "Department of Public Works",
    "final_address": "2412 Gallier St",
    "address_councildis": "D",
    "status": "Pending",
    "rowid": "842630",
    "final_x": "3691651.29443",
    "final_y": "540631.172683",
    "longitude": "-90.03569050019357",
    "latitude": "29.98023607482228",
    "geocoded_column": {
      "latitude": "29.98023607482228",
      "longitude": "-90.03569050019357"
    }
  },
  {
    "service_request": "2021-842627",
    "request_type": "Safety & Permits",
    "request_reason": "Licenses & Permits",
    "date_created": "2021-11-16T16:42:47.000",
    "date_modified": "2021-11-16T16:42:47.000",
    "request_status": "Pending",
    "responsible_agency": "Safety and Permits",
    "final_address": "2622 N Villere St",
    "address_councildis": "C",
    "status": "Pending",
    "rowid": "842627",
    "final_x": "3687598.2774",
    "final_y": "537488.924616",
    "longitude": "-90.0486028844993",
    "latitude": "29.97172158507525",
    "geocoded_column": {
      "latitude": "29.97172158507525",
      "longitude": "-90.0486028844993"
    }
  },
  {
    "service_request": "2021-842626",
    "request_type": "Health Related Questions",
    "request_reason": "Noise Ordinance Complaint",
    "date_created": "2021-11-16T16:37:41.000",
    "date_modified": "2021-11-16T16:37:42.000",
    "request_status": "Pending",
    "responsible_agency": "Health Department",
    "final_address": "5116 Magazine St",
    "address_councildis": "B",
    "status": "Pending",
    "rowid": "842626",
    "final_x": "3668186.61677",
    "final_y": "518415.80127",
    "longitude": "-90.11055090156405",
    "latitude": "29.919860861122398",
    "geocoded_column": {
      "latitude": "29.919860861122398",
      "longitude": "-90.11055090156405"
    }
  },
  {
    "service_request": "2021-842624",
    "request_type": "Trash/Recycling",
    "request_reason": "Replace Trash Cart",
    "date_created": "2021-11-16T16:31:55.000",
    "date_modified": "2021-11-16T16:31:56.000",
    "request_status": "Pending",
    "responsible_agency": "Department of Sanitation",
    "final_address": "6044 Pontchartrain Blvd",
    "address_councildis": "A",
    "status": "Assigned to Contractor",
    "contractor": "Metro Disposal",
    "rowid": "842624",
    "final_x": "3666044.79367",
    "final_y": "547886.639634",
    "longitude": "-90.1163235885975",
    "latitude": "30.000958658626733",
    "geocoded_column": {
      "latitude": "30.000958658626733",
      "longitude": "-90.1163235885975"
    }
  },
  {
    "service_request": "2021-842621",
    "request_type": "Roads/Drainage",
    "request_reason": "Pothole",
    "date_created": "2021-11-16T16:25:38.000",
    "date_modified": "2021-11-16T16:25:39.000",
    "request_status": "Pending",
    "responsible_agency": "Department of Public Works",
    "final_address": "4919 Piety Dr",
    "address_councildis": "D",
    "status": "Pending",
    "rowid": "842621",
    "final_x": "3691484.2838",
    "final_y": "551980.216214",
    "longitude": "-90.03581208813061",
    "latitude": "30.011447016084638",
    "geocoded_column": {
      "latitude": "30.011447016084638",
      "longitude": "-90.03581208813061"
    }
  },
  {
    "service_request": "2021-842620",
    "request_type": "Property Maintenance",
    "request_reason": "Property Maintenance",
    "date_created": "2021-11-16T16:23:56.000",
    "date_modified": "2021-11-16T16:23:57.000",
    "request_status": "Pending",
    "responsible_agency": "Department of Code Enforcement",
    "final_address": "4911 Piety Dr",
    "address_councildis": "D",
    "status": "Pending",
    "rowid": "842620",
    "final_x": "3691506.88182",
    "final_y": "551928.933078",
    "longitude": "-90.03574252678328",
    "latitude": "30.011305302814833",
    "geocoded_column": {
      "latitude": "30.011305302814833",
      "longitude": "-90.03574252678328"
    }
  },
  {
    "service_request": "2021-842619",
    "request_type": "Trash/Recycling",
    "request_reason": "Missed Trash Pick-Up",
    "date_created": "2021-11-16T16:22:12.000",
    "date_modified": "2021-11-16T17:02:40.000",
    "request_status": "Pending",
    "responsible_agency": "Department of Sanitation",
    "final_address": "2831 St Claude Ave",
    "address_councildis": "C",
    "status": "Assigned to Contractor",
    "contractor": "Metro Disposal",
    "rowid": "842619",
    "final_x": "3688006.00092",
    "final_y": "536358.873159",
    "longitude": "-90.04735528804302",
    "latitude": "29.96860176320759",
    "geocoded_column": {
      "latitude": "29.96860176320759",
      "longitude": "-90.04735528804302"
    }
  },
  {
    "service_request": "2021-842618",
    "request_type": "Roads/Drainage",
    "request_reason": "Damaged Sidewalk",
    "date_created": "2021-11-16T16:16:28.000",
    "date_modified": "2021-11-16T16:16:28.000",
    "request_status": "Pending",
    "responsible_agency": "Department of Public Works",
    "final_address": "2955 Maurepas St",
    "address_councildis": "A",
    "status": "Pending",
    "rowid": "842618",
    "final_x": "3677325.39803",
    "final_y": "540747.878411",
    "longitude": "-90.08093373756589",
    "latitude": "29.980995296011066",
    "geocoded_column": {
      "latitude": "29.980995296011066",
      "longitude": "-90.08093373756589"
    }
  },
  {
    "service_request": "2021-842616",
    "request_type": "Property Maintenance",
    "request_reason": "Property Maintenance",
    "date_created": "2021-11-16T16:13:19.000",
    "date_modified": "2021-11-16T16:13:19.000",
    "request_status": "Pending",
    "responsible_agency": "Department of Code Enforcement",
    "final_address": "630 S Pierce St",
    "address_councildis": "B",
    "status": "Pending",
    "rowid": "842616",
    "final_x": "3670152.23745",
    "final_y": "536250.884167",
    "longitude": "-90.1037422633502",
    "latitude": "29.968843708522623",
    "geocoded_column": {
      "latitude": "29.968843708522623",
      "longitude": "-90.1037422633502"
    }
  },
  {
    "service_request": "2021-842615",
    "request_type": "Trash/Recycling",
    "request_reason": "Replace Trash Cart",
    "date_created": "2021-11-16T16:07:26.000",
    "date_modified": "2021-11-16T16:07:26.000",
    "request_status": "Pending",
    "responsible_agency": "Department of Sanitation",
    "final_address": "4127 Clara St",
    "address_councildis": "B",
    "status": "Assigned to Contractor",
    "contractor": "Richards Disposal",
    "rowid": "842615",
    "final_x": "3671361.41972",
    "final_y": "525216.677821",
    "longitude": "-90.10029856578707",
    "latitude": "29.93846754869464",
    "geocoded_column": {
      "latitude": "29.93846754869464",
      "longitude": "-90.10029856578707"
    }
  },
  {
    "service_request": "2021-842614",
    "request_type": "Trash/Recycling",
    "request_reason": "Dead Animal Pick Up",
    "date_created": "2021-11-16T16:07:00.000",
    "date_modified": "2021-11-16T16:07:01.000",
    "request_status": "Pending",
    "responsible_agency": "Department of Sanitation",
    "final_address": "14500 BLK Hayne Blvd",
    "address_councildis": "E",
    "status": "Assigned to Contractor",
    "contractor": "Metro Disposal",
    "rowid": "842614",
    "final_x": "3719111.90984",
    "final_y": "574536.240479",
    "longitude": "-89.94766437084314",
    "latitude": "30.072577720353166",
    "geocoded_column": {
      "latitude": "30.072577720353166",
      "longitude": "-89.94766437084314"
    }
  },
  {
    "service_request": "2021-842612",
    "request_type": "Traffic Signals/Signs/Striping/Streetlights",
    "request_reason": "Street Light Knocked Down/Leaning",
    "date_created": "2021-11-16T16:04:13.000",
    "date_modified": "2021-11-16T16:04:14.000",
    "request_status": "Pending",
    "responsible_agency": "Department of Public Works",
    "final_address": "1476 Constance St",
    "address_councildis": "B",
    "status": "Pending",
    "contractor": "Royal Engineering",
    "rowid": "842612",
    "final_x": "3680602.55157",
    "final_y": "523791.914619",
    "longitude": "-90.07117293665539",
    "latitude": "29.934273249923518",
    "geocoded_column": {
      "latitude": "29.934273249923518",
      "longitude": "-90.07117293665539"
    }
  },
  {
    "service_request": "2021-842611",
    "request_type": "Traffic Signals/Signs/Striping/Streetlights",
    "request_reason": "Request for Stop Sign",
    "date_created": "2021-11-16T16:00:15.000",
    "date_modified": "2021-11-16T16:02:13.000",
    "request_status": "Pending",
    "responsible_agency": "Department of Public Works",
    "final_address": "CAMPUS BLVD & ATHIS CT",
    "address_councildis": "D",
    "status": "Pending",
    "rowid": "842611",
    "final_x": "3688703.6",
    "final_y": "554762.58",
    "longitude": "-90.0444985097643",
    "latitude": "30.01918377490802",
    "geocoded_column": {
      "latitude": "30.01918377490802",
      "longitude": "-90.0444985097643"
    }
  },
  {
    "service_request": "2021-842610",
    "request_type": "Traffic Signals/Signs/Striping/Streetlights",
    "request_reason": "Traffic Sign Missing/Damaged",
    "date_created": "2021-11-16T15:59:54.000",
    "date_modified": "2021-11-16T16:02:15.000",
    "request_status": "Pending",
    "responsible_agency": "Department of Public Works",
    "final_address": "N CLAIBORNE AVE & ST BERNARD AVE",
    "address_councildis": "C",
    "status": "Pending",
    "rowid": "842610",
    "final_x": "3682234.31",
    "final_y": "537715.64",
    "longitude": "-90.06553517869295",
    "latitude": "29.972509251901485",
    "geocoded_column": {
      "latitude": "29.972509251901485",
      "longitude": "-90.06553517869295"
    }
  },
  {
    "service_request": "2021-842609",
    "request_type": "Safety & Permits",
    "request_reason": "School Bus Complaints",
    "date_created": "2021-11-16T15:59:14.000",
    "date_modified": "2021-11-16T15:59:14.000",
    "request_status": "Pending",
    "responsible_agency": "Safety and Permits",
    "status": "Pending",
    "rowid": "842609",
    "longitude": "0.0",
    "latitude": "0.0",
    "geocoded_column": {
      "latitude": "0.0",
      "longitude": "0.0"
    }
  },
  {
    "service_request": "2021-842608",
    "request_type": "Traffic Signals/Signs/Striping/Streetlights",
    "request_reason": "Street Light Outage/Malfunction",
    "date_created": "2021-11-16T15:57:40.000",
    "date_modified": "2021-11-16T15:57:41.000",
    "request_status": "Pending",
    "responsible_agency": "Department of Public Works",
    "final_address": "1210 N Dorgenois St",
    "address_councildis": "D",
    "status": "Pending",
    "contractor": "Royal Engineering",
    "rowid": "842608",
    "final_x": "3678452.09736",
    "final_y": "538147.062665",
    "longitude": "-90.07746514995603",
    "latitude": "29.973810040841588",
    "geocoded_column": {
      "latitude": "29.973810040841588",
      "longitude": "-90.07746514995603"
    }
  },
  {
    "service_request": "2021-842606",
    "request_type": "Traffic Signals/Signs/Striping/Streetlights",
    "request_reason": "Street Light Outage/Malfunction",
    "date_created": "2021-11-16T15:50:48.000",
    "date_modified": "2021-11-16T15:50:49.000",
    "request_status": "Pending",
    "responsible_agency": "Department of Public Works",
    "final_address": "1810 Tupelo St",
    "address_councildis": "E",
    "status": "Pending",
    "contractor": "Royal Engineering",
    "rowid": "842606",
    "final_x": "3700456.58788",
    "final_y": "536056.508295",
    "longitude": "-90.00804695707714",
    "latitude": "29.967380277334588",
    "geocoded_column": {
      "latitude": "29.967380277334588",
      "longitude": "-90.00804695707714"
    }
  },
  {
    "service_request": "2021-842605",
    "request_type": "Trash/Recycling",
    "request_reason": "Missed Trash Pick-Up",
    "date_created": "2021-11-16T15:50:20.000",
    "date_modified": "2021-11-16T15:50:21.000",
    "request_status": "Pending",
    "responsible_agency": "Department of Sanitation",
    "final_address": "1625 Harmony St",
    "address_councildis": "B",
    "status": "Assigned to Contractor",
    "contractor": "Richards Disposal",
    "rowid": "842605",
    "final_x": "3674801.57864",
    "final_y": "522014.876986",
    "longitude": "-90.08954734612644",
    "latitude": "29.929561398952",
    "geocoded_column": {
      "latitude": "29.929561398952",
      "longitude": "-90.08954734612644"
    }
  },
  {
    "service_request": "2021-842603",
    "request_type": "Traffic Signals/Signs/Striping/Streetlights",
    "request_reason": "Traffic Sign Missing/Damaged",
    "date_created": "2021-11-16T15:45:52.000",
    "date_modified": "2021-11-16T15:45:52.000",
    "request_status": "Pending",
    "responsible_agency": "Department of Public Works",
    "final_address": "BENSON CT & HUNTINGTON PARK DR",
    "address_councildis": "E",
    "status": "Pending",
    "rowid": "842603",
    "final_x": "3705479.8",
    "final_y": "560244.88",
    "longitude": "-89.99128903544968",
    "latitude": "30.033728448558485",
    "geocoded_column": {
      "latitude": "30.033728448558485",
      "longitude": "-89.99128903544968"
    }
  },
  {
    "service_request": "2021-842602",
    "request_type": "Roads/Drainage",
    "request_reason": "Debris in Roadway",
    "date_created": "2021-11-16T15:43:21.000",
    "date_modified": "2021-11-16T16:02:17.000",
    "request_status": "Pending",
    "responsible_agency": "Department of Public Works",
    "final_address": "BUCHANAN ST & MILTON ST",
    "address_councildis": "D",
    "status": "Pending",
    "rowid": "842602",
    "final_x": "3677374.7",
    "final_y": "546066.68",
    "longitude": "-90.0805943558866",
    "latitude": "29.995618664027827",
    "geocoded_column": {
      "latitude": "29.995618664027827",
      "longitude": "-90.0805943558866"
    }
  },
  {
    "service_request": "2021-842599",
    "request_type": "Trash/Recycling",
    "request_reason": "Request a Large Item Pick Up",
    "date_created": "2021-11-16T15:39:08.000",
    "date_modified": "2021-11-16T15:39:09.000",
    "request_status": "Pending",
    "responsible_agency": "Department of Sanitation",
    "final_address": "1900 Independence St",
    "address_councildis": "D",
    "status": "Assigned to Contractor",
    "contractor": "Metro Disposal",
    "rowid": "842599",
    "final_x": "3691665.2895",
    "final_y": "538559.976265",
    "longitude": "-90.03572037990013",
    "latitude": "29.974540586819774",
    "geocoded_column": {
      "latitude": "29.974540586819774",
      "longitude": "-90.03572037990013"
    }
  },
  {
    "service_request": "2021-842598",
    "request_type": "Trash/Recycling",
    "request_reason": "Missed Trash Pick-Up",
    "date_created": "2021-11-16T15:34:25.000",
    "date_modified": "2021-11-16T16:02:20.000",
    "request_status": "Pending",
    "responsible_agency": "Department of Sanitation",
    "final_address": "2116 Chartres St, New Orleans, Louisiana, 70116",
    "address_councildis": "C",
    "status": "Assigned to Contractor",
    "contractor": "Metro Disposal",
    "rowid": "842598",
    "final_x": "3684875.33154",
    "final_y": "534459.265733",
    "longitude": "-90.05730890241797",
    "latitude": "29.963474739350968",
    "geocoded_column": {
      "latitude": "29.963474739350968",
      "longitude": "-90.05730890241797"
    }
  },
  {
    "service_request": "2021-842595",
    "request_type": "Property Maintenance",
    "request_reason": "Property Maintenance",
    "date_created": "2021-11-16T15:21:59.000",
    "date_modified": "2021-11-16T15:21:59.000",
    "request_status": "Pending",
    "responsible_agency": "Department of Code Enforcement",
    "final_address": "2533 N Claiborne Ave",
    "address_councildis": "D",
    "status": "Pending",
    "rowid": "842595",
    "final_x": "3687350.83778",
    "final_y": "538382.790537",
    "longitude": "-90.04935270188535",
    "latitude": "29.974187028868418",
    "geocoded_column": {
      "latitude": "29.974187028868418",
      "longitude": "-90.04935270188535"
    }
  },
  {
    "service_request": "2021-842594",
    "request_type": "Trash/Recycling",
    "request_reason": "Replace Trash Cart",
    "date_created": "2021-11-16T15:17:12.000",
    "date_modified": "2021-11-16T17:34:59.000",
    "request_status": "Pending",
    "responsible_agency": "Department of Sanitation",
    "final_address": "New Orleans,LA",
    "address_councildis": "E",
    "status": "Assigned to Contractor",
    "contractor": "Metro Disposal",
    "rowid": "842594",
    "final_x": "3710595.11947",
    "final_y": "567682.127652",
    "longitude": "-89.97484554511844",
    "latitude": "30.054012165527325",
    "geocoded_column": {
      "latitude": "30.054012165527325",
      "longitude": "-89.97484554511844"
    }
  },
  {
    "service_request": "2021-842592",
    "request_type": "Trash/Recycling",
    "request_reason": "Request a Large Item Pick Up",
    "date_created": "2021-11-16T15:15:39.000",
    "date_modified": "2021-11-16T16:02:25.000",
    "request_status": "Pending",
    "responsible_agency": "Department of Sanitation",
    "final_address": "1023 Richard St",
    "address_councildis": "B",
    "status": "Assigned to Contractor",
    "contractor": "Richards Disposal",
    "rowid": "842592",
    "final_x": "3680213.45237",
    "final_y": "523110.398075",
    "longitude": "-90.07242498608905",
    "latitude": "29.932411083454486",
    "geocoded_column": {
      "latitude": "29.932411083454486",
      "longitude": "-90.07242498608905"
    }
  },
  {
    "service_request": "2021-842591",
    "request_type": "Roads/Drainage",
    "request_reason": "Street Subsidence (Sinking)",
    "date_created": "2021-11-16T15:14:21.000",
    "date_modified": "2021-11-16T16:02:26.000",
    "request_status": "Pending",
    "responsible_agency": "Department of Public Works",
    "final_address": "625 Olivier St",
    "address_councildis": "C",
    "status": "Pending",
    "rowid": "842591",
    "final_x": "3687245.97455",
    "final_y": "529272.816577",
    "longitude": "-90.05000611937857",
    "latitude": "29.949140986081456",
    "geocoded_column": {
      "latitude": "29.949140986081456",
      "longitude": "-90.05000611937857"
    }
  },
  {
    "service_request": "2021-842590",
    "request_type": "Traffic Signals/Signs/Striping/Streetlights",
    "request_reason": "Street Light Outage/Malfunction",
    "date_created": "2021-11-16T15:14:17.000",
    "date_modified": "2021-11-16T15:14:18.000",
    "request_status": "Pending",
    "responsible_agency": "Department of Public Works",
    "final_address": "1838 Audubon St",
    "address_councildis": "A",
    "status": "Pending",
    "contractor": "Royal Engineering",
    "rowid": "842590",
    "final_x": "3665740.6386",
    "final_y": "528383.197824",
    "longitude": "-90.11793797279248",
    "latitude": "29.947339578090958",
    "geocoded_column": {
      "latitude": "29.947339578090958",
      "longitude": "-90.11793797279248"
    }
  },
  {
    "service_request": "2021-842589",
    "request_type": "Trash/Recycling",
    "request_reason": "Repair Trash Cart",
    "date_created": "2021-11-16T15:13:04.000",
    "date_modified": "2021-11-16T15:13:05.000",
    "request_status": "Pending",
    "responsible_agency": "Department of Sanitation",
    "final_address": "720 Lyons St",
    "address_councildis": "B",
    "status": "Assigned to Contractor",
    "contractor": "Richards Disposal",
    "rowid": "842589",
    "final_x": "3669236.32513",
    "final_y": "518035.45087",
    "longitude": "-90.10725032042382",
    "latitude": "29.918784174085456",
    "geocoded_column": {
      "latitude": "29.918784174085456",
      "longitude": "-90.10725032042382"
    }
  },
  {
    "service_request": "2021-842588",
    "request_type": "Traffic Signals/Signs/Striping/Streetlights",
    "request_reason": "Street Light Outage/Malfunction",
    "date_created": "2021-11-16T15:11:41.000",
    "date_modified": "2021-11-16T17:34:07.000",
    "request_status": "Pending",
    "responsible_agency": "Department of Public Works",
    "final_address": "6971 Camberley Ct, New Orleans, Louisiana, 70128",
    "address_councildis": "E",
    "status": "Pending",
    "contractor": "Royal Engineering",
    "rowid": "842588",
    "final_x": "3713746.87877",
    "final_y": "564385.910305",
    "longitude": "-89.96500811304813",
    "latitude": "30.044845788438092",
    "geocoded_column": {
      "latitude": "30.044845788438092",
      "longitude": "-89.96500811304813"
    }
  },
  {
    "service_request": "2021-842586",
    "request_type": "Trash/Recycling",
    "request_reason": "Request a Large Item Pick Up",
    "date_created": "2021-11-16T15:10:48.000",
    "date_modified": "2021-11-16T15:10:48.000",
    "request_status": "Pending",
    "responsible_agency": "Department of Sanitation",
    "final_address": "600 S Genois St",
    "address_councildis": "B",
    "status": "Assigned to Contractor",
    "contractor": "Richards Disposal",
    "rowid": "842586",
    "final_x": "3671423.86753",
    "final_y": "535559.12615",
    "longitude": "-90.09974988599511",
    "latitude": "29.966904023659424",
    "geocoded_column": {
      "latitude": "29.966904023659424",
      "longitude": "-90.09974988599511"
    }
  },
  {
    "service_request": "2021-842585",
    "request_type": "Traffic Signals/Signs/Striping/Streetlights",
    "request_reason": "Traffic Signal Malfunctioning/Damaged",
    "date_created": "2021-11-16T15:09:56.000",
    "date_modified": "2021-11-16T16:53:42.000",
    "request_status": "Pending",
    "responsible_agency": "Department of Public Works",
    "final_address": "New Orleans,LA",
    "address_councildis": "B",
    "rowid": "842585",
    "final_x": "3679502.8",
    "final_y": "521194.98",
    "longitude": "-90.07473486967793",
    "latitude": "29.927165795495878",
    "geocoded_column": {
      "latitude": "29.927165795495878",
      "longitude": "-90.07473486967793"
    }
  },
  {
    "service_request": "2021-842581",
    "request_type": "Trash/Recycling",
    "request_reason": "Illegal Dumping",
    "date_created": "2021-11-16T15:05:32.000",
    "date_modified": "2021-11-16T15:05:32.000",
    "request_status": "Pending",
    "responsible_agency": "Department of Sanitation",
    "final_address": "8942 Belfast St",
    "address_councildis": "A",
    "status": "Pending",
    "rowid": "842581",
    "final_x": "3663257.48416",
    "final_y": "534442.356741",
    "longitude": "-90.12557662778944",
    "latitude": "29.96407248992585",
    "geocoded_column": {
      "latitude": "29.96407248992585",
      "longitude": "-90.12557662778944"
    }
  },
  {
    "service_request": "2021-842580",
    "request_type": "Abandoned Vehicles",
    "request_reason": "Abandoned/Junk Vehicles",
    "date_created": "2021-11-16T15:02:34.000",
    "date_modified": "2021-11-16T21:38:46.000",
    "request_status": "Pending",
    "responsible_agency": "Department of Public Works",
    "status": "Inspected",
    "rowid": "842580",
    "longitude": "0.0",
    "latitude": "0.0",
    "geocoded_column": {
      "latitude": "0.0",
      "longitude": "0.0"
    }
  },
  {
    "service_request": "2021-842577",
    "request_type": "Roads/Drainage",
    "request_reason": "Street Subsidence (Sinking)",
    "date_created": "2021-11-16T14:58:41.000",
    "date_modified": "2021-11-16T14:58:41.000",
    "request_status": "Pending",
    "responsible_agency": "Department of Public Works",
    "final_address": "1465 Steeple Chase Ln",
    "address_councildis": "C",
    "status": "Pending",
    "rowid": "842577",
    "final_x": "3699946.37648",
    "final_y": "525877.212285",
    "longitude": "-90.01002945261389",
    "latitude": "29.939407033991635",
    "geocoded_column": {
      "latitude": "29.939407033991635",
      "longitude": "-90.01002945261389"
    }
  },
  {
    "service_request": "2021-842576",
    "request_type": "Traffic Signals/Signs/Striping/Streetlights",
    "request_reason": "Street Light Outage/Malfunction",
    "date_created": "2021-11-16T14:54:33.000",
    "date_modified": "2021-11-16T14:54:34.000",
    "request_status": "Pending",
    "responsible_agency": "Department of Public Works",
    "final_address": "3113 St Anthony Ave",
    "address_councildis": "D",
    "status": "Pending",
    "contractor": "Royal Engineering",
    "rowid": "842576",
    "final_x": "3682954.14191",
    "final_y": "544108.86491",
    "longitude": "-90.06303798414923",
    "latitude": "29.99006646056799",
    "geocoded_column": {
      "latitude": "29.99006646056799",
      "longitude": "-90.06303798414923"
    }
  },
  {
    "service_request": "2021-842574",
    "request_type": "Trash/Recycling",
    "request_reason": "Missed Trash Pick-Up",
    "date_created": "2021-11-16T14:48:22.000",
    "date_modified": "2021-11-16T15:02:05.000",
    "request_status": "Pending",
    "responsible_agency": "Department of Sanitation",
    "final_address": "4901 Magazine St",
    "address_councildis": "B",
    "status": "Assigned to Contractor",
    "contractor": "Richards Disposal",
    "rowid": "842574",
    "final_x": "3668963.20423",
    "final_y": "518623.701815",
    "longitude": "-90.10809256867677",
    "latitude": "29.920409711602925",
    "geocoded_column": {
      "latitude": "29.920409711602925",
      "longitude": "-90.10809256867677"
    }
  },
  {
    "service_request": "2021-842573",
    "request_type": "Trash/Recycling",
    "request_reason": "Replace Trash Cart",
    "date_created": "2021-11-16T14:43:29.000",
    "date_modified": "2021-11-16T14:43:30.000",
    "request_status": "Pending",
    "responsible_agency": "Department of Sanitation",
    "final_address": "5633 Ada Pl",
    "address_councildis": "A",
    "status": "Assigned to Contractor",
    "contractor": "Metro Disposal",
    "rowid": "842573",
    "final_x": "3668676.92705",
    "final_y": "544942.186959",
    "longitude": "-90.10810790695004",
    "latitude": "29.992785297587734",
    "geocoded_column": {
      "latitude": "29.992785297587734",
      "longitude": "-90.10810790695004"
    }
  },
  {
    "service_request": "2021-842572",
    "request_type": "Traffic Signals/Signs/Striping/Streetlights",
    "request_reason": "Traffic Sign Missing/Damaged",
    "date_created": "2021-11-16T14:41:35.000",
    "date_modified": "2021-11-16T14:41:36.000",
    "request_status": "Pending",
    "responsible_agency": "Department of Public Works",
    "final_address": "N TONTI ST & FRENCHMEN ST",
    "address_councildis": "D",
    "status": "Pending",
    "contractor": "Royal Engineering",
    "rowid": "842572",
    "final_x": "3684235.5",
    "final_y": "540690.28",
    "longitude": "-90.05911060345451",
    "latitude": "29.980627437615333",
    "geocoded_column": {
      "latitude": "29.980627437615333",
      "longitude": "-90.05911060345451"
    }
  },
  {
    "service_request": "2021-842571",
    "request_type": "Traffic Signals/Signs/Striping/Streetlights",
    "request_reason": "Street Light Outage/Malfunction",
    "date_created": "2021-11-16T14:40:48.000",
    "date_modified": "2021-11-16T14:40:48.000",
    "request_status": "Pending",
    "responsible_agency": "Department of Public Works",
    "final_address": "N TONTI ST & FRENCHMEN ST",
    "address_councildis": "D",
    "status": "Pending",
    "contractor": "Royal Engineering",
    "rowid": "842571",
    "final_x": "3684235.5",
    "final_y": "540690.28",
    "longitude": "-90.05911060345451",
    "latitude": "29.980627437615333",
    "geocoded_column": {
      "latitude": "29.980627437615333",
      "longitude": "-90.05911060345451"
    }
  },
  {
    "service_request": "2021-842570",
    "request_type": "Abandoned Vehicles",
    "request_reason": "Abandoned/Junk Vehicles",
    "date_created": "2021-11-16T14:40:26.000",
    "date_modified": "2021-11-16T14:40:26.000",
    "request_status": "Pending",
    "responsible_agency": "Department of Public Works",
    "final_address": "7129 Foch Rd",
    "address_councildis": "D",
    "status": "Pending",
    "rowid": "842570",
    "final_x": "3696517.32944",
    "final_y": "557086.386266",
    "longitude": "-90.0197257676665",
    "latitude": "30.025329385293723",
    "geocoded_column": {
      "latitude": "30.025329385293723",
      "longitude": "-90.0197257676665"
    }
  },
  {
    "service_request": "2021-842569",
    "request_type": "Trash/Recycling",
    "request_reason": "Replace Trash Cart",
    "date_created": "2021-11-16T14:37:44.000",
    "date_modified": "2021-11-16T15:02:07.000",
    "request_status": "Pending",
    "responsible_agency": "Department of Sanitation",
    "final_address": "704 N Claiborne Ave",
    "address_councildis": "C",
    "status": "Assigned to Contractor",
    "contractor": "Richards Disposal",
    "rowid": "842569",
    "final_x": "3679855.98338",
    "final_y": "534548.098565",
    "longitude": "-90.07315637551983",
    "latitude": "29.96387174020195",
    "geocoded_column": {
      "latitude": "29.96387174020195",
      "longitude": "-90.07315637551983"
    }
  },
  {
    "service_request": "2021-842568",
    "request_type": "Trash/Recycling",
    "request_reason": "Replace Trash Cart",
    "date_created": "2021-11-16T14:37:30.000",
    "date_modified": "2021-11-16T14:37:31.000",
    "request_status": "Pending",
    "responsible_agency": "Department of Sanitation",
    "final_address": "2820 Conti St",
    "address_councildis": "B",
    "status": "Assigned to Contractor",
    "contractor": "Richards Disposal",
    "rowid": "842568",
    "final_x": "3675427.63989",
    "final_y": "536464.615431",
    "longitude": "-90.08707485345657",
    "latitude": "29.969274684599064",
    "geocoded_column": {
      "latitude": "29.969274684599064",
      "longitude": "-90.08707485345657"
    }
  },
  {
    "service_request": "2021-842567",
    "request_type": "Trash/Recycling",
    "request_reason": "Repair Trash Cart",
    "date_created": "2021-11-16T14:35:19.000",
    "date_modified": "2021-11-16T15:02:08.000",
    "request_status": "Pending",
    "responsible_agency": "Department of Sanitation",
    "final_address": "1016 N Broad St",
    "address_councildis": "D",
    "status": "Assigned to Contractor",
    "contractor": "Richards Disposal",
    "rowid": "842567",
    "final_x": "3677552.02414",
    "final_y": "537921.267145",
    "longitude": "-90.0803155783038",
    "latitude": "29.973216275271955",
    "geocoded_column": {
      "latitude": "29.973216275271955",
      "longitude": "-90.0803155783038"
    }
  },
  {
    "service_request": "2021-842566",
    "request_type": "Trash/Recycling",
    "request_reason": "Request a Large Item Pick Up",
    "date_created": "2021-11-16T14:32:11.000",
    "date_modified": "2021-11-16T15:02:09.000",
    "request_status": "Pending",
    "responsible_agency": "Department of Sanitation",
    "final_address": "6635 Coventry St",
    "address_councildis": "E",
    "status": "Assigned to Contractor",
    "contractor": "Metro Disposal",
    "rowid": "842566",
    "final_x": "3697730.2929",
    "final_y": "559373.122973",
    "longitude": "-90.01580992205524",
    "latitude": "30.03157874409579",
    "geocoded_column": {
      "latitude": "30.03157874409579",
      "longitude": "-90.01580992205524"
    }
  },
  {
    "service_request": "2021-842561",
    "request_type": "Traffic Signals/Signs/Striping/Streetlights",
    "request_reason": "Street Light Outage/Malfunction",
    "date_created": "2021-11-16T14:11:09.000",
    "date_modified": "2021-11-16T15:02:10.000",
    "request_status": "Pending",
    "responsible_agency": "Department of Public Works",
    "final_address": "5946 Brighton Pl",
    "address_councildis": "C",
    "status": "Pending",
    "contractor": "Royal Engineering",
    "rowid": "842561",
    "final_x": "3705983.48305",
    "final_y": "520142.026488",
    "longitude": "-89.99118176394408",
    "latitude": "29.923444197018583",
    "geocoded_column": {
      "latitude": "29.923444197018583",
      "longitude": "-89.99118176394408"
    }
  },
  {
    "service_request": "2021-842560",
    "request_type": "Trash/Recycling",
    "request_reason": "Request a Large Item Pick Up",
    "date_created": "2021-11-16T14:05:29.000",
    "date_modified": "2021-11-16T14:05:29.000",
    "request_status": "Pending",
    "responsible_agency": "Department of Sanitation",
    "final_address": "614 Esplanade Ave",
    "address_councildis": "C",
    "status": "Assigned to Contractor",
    "contractor": "Empire Services",
    "rowid": "842560",
    "final_x": "3684193.25231",
    "final_y": "534226.798277",
    "longitude": "-90.05947099322388",
    "latitude": "29.962856401929088",
    "geocoded_column": {
      "latitude": "29.962856401929088",
      "longitude": "-90.05947099322388"
    }
  },
  {
    "service_request": "2021-842559",
    "request_type": "Trash/Recycling",
    "request_reason": "Request a Large Item Pick Up",
    "date_created": "2021-11-16T14:05:18.000",
    "date_modified": "2021-11-16T15:02:12.000",
    "request_status": "Pending",
    "responsible_agency": "Department of Sanitation",
    "final_address": "1907 Ellen Park Pl",
    "address_councildis": "C",
    "status": "Assigned to Contractor",
    "contractor": "Richards Disposal",
    "rowid": "842559",
    "final_x": "3702874.2881",
    "final_y": "523908.827964",
    "longitude": "-90.00085798677532",
    "latitude": "29.933901365581594",
    "geocoded_column": {
      "latitude": "29.933901365581594",
      "longitude": "-90.00085798677532"
    }
  },
  {
    "service_request": "2021-842558",
    "request_type": "Property Maintenance",
    "request_reason": "Property Maintenance",
    "date_created": "2021-11-16T14:02:48.000",
    "date_modified": "2021-11-16T14:02:48.000",
    "request_status": "Pending",
    "responsible_agency": "Department of Code Enforcement",
    "final_address": "2024 N Robertson St",
    "address_councildis": "C",
    "status": "Pending",
    "rowid": "842558",
    "final_x": "3684339.02005",
    "final_y": "537704.635336",
    "longitude": "-90.05888852598366",
    "latitude": "29.972414793137105",
    "geocoded_column": {
      "latitude": "29.972414793137105",
      "longitude": "-90.05888852598366"
    }
  },
  {
    "service_request": "2021-842556",
    "request_type": "Traffic Signals/Signs/Striping/Streetlights",
    "request_reason": "Street Light Outage/Malfunction",
    "date_created": "2021-11-16T13:58:06.000",
    "date_modified": "2021-11-16T13:58:07.000",
    "request_status": "Pending",
    "responsible_agency": "Department of Public Works",
    "final_address": "4548 Werner Dr",
    "address_councildis": "E",
    "status": "Pending",
    "contractor": "Royal Engineering",
    "rowid": "842556",
    "final_x": "3704808.57803",
    "final_y": "554069.325784",
    "longitude": "-89.99363832927672",
    "latitude": "30.01676966967883",
    "geocoded_column": {
      "latitude": "30.01676966967883",
      "longitude": "-89.99363832927672"
    }
  },
  {
    "service_request": "2021-842555",
    "request_type": "Trash/Recycling",
    "request_reason": "Missed Trash Pick-Up",
    "date_created": "2021-11-16T13:55:21.000",
    "date_modified": "2021-11-16T13:55:22.000",
    "request_status": "Pending",
    "responsible_agency": "Department of Sanitation",
    "final_address": "934 St Roch Ave",
    "address_councildis": "C",
    "status": "Assigned to Contractor",
    "contractor": "Metro Disposal",
    "rowid": "842555",
    "final_x": "3686500.32444",
    "final_y": "535989.495687",
    "longitude": "-90.05212332931238",
    "latitude": "29.96763248217114",
    "geocoded_column": {
      "latitude": "29.96763248217114",
      "longitude": "-90.05212332931238"
    }
  },
  {
    "service_request": "2021-842554",
    "request_type": "Traffic Signals/Signs/Striping/Streetlights",
    "request_reason": "Street Light Outage/Malfunction",
    "date_created": "2021-11-16T13:53:57.000",
    "date_modified": "2021-11-16T13:53:58.000",
    "request_status": "Pending",
    "responsible_agency": "Department of Public Works",
    "final_address": "4600 Werner Dr",
    "address_councildis": "E",
    "status": "Pending",
    "contractor": "Royal Engineering",
    "rowid": "842554",
    "final_x": "3704779.67146",
    "final_y": "554363.566936",
    "longitude": "-89.9937187922202",
    "latitude": "30.017579649004546",
    "geocoded_column": {
      "latitude": "30.017579649004546",
      "longitude": "-89.9937187922202"
    }
  },
  {
    "service_request": "2021-842551",
    "request_type": "Traffic Signals/Signs/Striping/Streetlights",
    "request_reason": "Street Light Outage/Malfunction",
    "date_created": "2021-11-16T13:51:33.000",
    "date_modified": "2021-11-16T13:51:34.000",
    "request_status": "Pending",
    "responsible_agency": "Department of Public Works",
    "final_address": "2100 BLK N Robertson St",
    "address_councildis": "C",
    "status": "Pending",
    "contractor": "Royal Engineering",
    "rowid": "842551",
    "final_x": "3684657.18413",
    "final_y": "537755.827491",
    "longitude": "-90.057881910091",
    "latitude": "29.97254581959484",
    "geocoded_column": {
      "latitude": "29.97254581959484",
      "longitude": "-90.057881910091"
    }
  },
  {
    "service_request": "2021-842550",
    "request_type": "Trash/Recycling",
    "request_reason": "Order Recycling Cart",
    "date_created": "2021-11-16T13:49:44.000",
    "date_modified": "2021-11-16T14:02:24.000",
    "request_status": "Pending",
    "responsible_agency": "Department of Sanitation",
    "final_address": "3122 Hamilton St",
    "address_councildis": "A",
    "status": "Pending",
    "rowid": "842550",
    "final_x": "3664036.48359",
    "final_y": "535942.806919",
    "longitude": "-90.12306655849386",
    "latitude": "29.96817563412154",
    "geocoded_column": {
      "latitude": "29.96817563412154",
      "longitude": "-90.12306655849386"
    }
  },
  {
    "service_request": "2021-842548",
    "request_type": "Property Maintenance",
    "request_reason": "Property Maintenance",
    "date_created": "2021-11-16T13:39:58.000",
    "date_modified": "2021-11-16T13:39:58.000",
    "request_status": "Pending",
    "responsible_agency": "Department of Code Enforcement",
    "final_address": "3421 Georgia St",
    "address_councildis": "C",
    "status": "Pending",
    "rowid": "842548",
    "final_x": "3692922.85469",
    "final_y": "521261.035001",
    "longitude": "-90.03236900597565",
    "latitude": "29.92693528293576",
    "geocoded_column": {
      "latitude": "29.92693528293576",
      "longitude": "-90.03236900597565"
    }
  },
  {
    "service_request": "2021-842547",
    "request_type": "Trash/Recycling",
    "request_reason": "Replace Trash Cart",
    "date_created": "2021-11-16T13:39:41.000",
    "date_modified": "2021-11-16T13:39:42.000",
    "request_status": "Pending",
    "responsible_agency": "Department of Sanitation",
    "final_address": "5716 Laurel St",
    "address_councildis": "A",
    "status": "Assigned to Contractor",
    "contractor": "Richards Disposal",
    "rowid": "842547",
    "final_x": "3665445.68039",
    "final_y": "517932.344054",
    "longitude": "-90.11921890736036",
    "latitude": "29.918611648140505",
    "geocoded_column": {
      "latitude": "29.918611648140505",
      "longitude": "-90.11921890736036"
    }
  },
  {
    "service_request": "2021-842546",
    "request_type": "Trash/Recycling",
    "request_reason": "Replace Trash Cart",
    "date_created": "2021-11-16T13:39:38.000",
    "date_modified": "2021-11-16T14:02:27.000",
    "request_status": "Pending",
    "responsible_agency": "Department of Sanitation",
    "final_address": "New Orleans,LA",
    "status": "Assigned to Contractor",
    "rowid": "842546",
    "longitude": "0.0",
    "latitude": "0.0",
    "geocoded_column": {
      "latitude": "0.0",
      "longitude": "0.0"
    }
  },
  {
    "service_request": "2021-842545",
    "request_type": "Trash/Recycling",
    "request_reason": "Missed Trash Pick-Up",
    "date_created": "2021-11-16T13:37:41.000",
    "date_modified": "2021-11-16T13:37:41.000",
    "request_status": "Pending",
    "responsible_agency": "Department of Sanitation",
    "final_address": "5335 St Charles Ave",
    "address_councildis": "B",
    "status": "Assigned to Contractor",
    "contractor": "Richards Disposal",
    "rowid": "842545",
    "final_x": "3667657.76039",
    "final_y": "521550.158521",
    "longitude": "-90.1121148042707",
    "latitude": "29.92849486045484",
    "geocoded_column": {
      "latitude": "29.92849486045484",
      "longitude": "-90.1121148042707"
    }
  },
  {
    "service_request": "2021-842544",
    "request_type": "Property Maintenance",
    "request_reason": "Property Maintenance",
    "date_created": "2021-11-16T13:36:29.000",
    "date_modified": "2021-11-16T13:36:29.000",
    "request_status": "Pending",
    "responsible_agency": "Department of Code Enforcement",
    "final_address": "7610 Avalon Way",
    "address_councildis": "E",
    "status": "Pending",
    "rowid": "842544",
    "final_x": "3709007.3235",
    "final_y": "564579.261985",
    "longitude": "-89.97997997552581",
    "latitude": "30.045532199645777",
    "geocoded_column": {
      "latitude": "30.045532199645777",
      "longitude": "-89.97997997552581"
    }
  },
  {
    "service_request": "2021-842543",
    "request_type": "Trash/Recycling",
    "request_reason": "Order Recycling Cart",
    "date_created": "2021-11-16T13:35:07.000",
    "date_modified": "2021-11-16T14:02:28.000",
    "request_status": "Pending",
    "responsible_agency": "Department of Sanitation",
    "final_address": "9925 E Wheaton Cir",
    "address_councildis": "E",
    "status": "Pending",
    "rowid": "842543",
    "final_x": "3708968.65668",
    "final_y": "562468.679903",
    "longitude": "-89.9801809536589",
    "latitude": "30.03973019774688",
    "geocoded_column": {
      "latitude": "30.03973019774688",
      "longitude": "-89.9801809536589"
    }
  },
  {
    "service_request": "2021-842542",
    "request_type": "Trash/Recycling",
    "request_reason": "Missed Trash Pick-Up",
    "date_created": "2021-11-16T13:34:37.000",
    "date_modified": "2021-11-16T13:34:38.000",
    "request_status": "Pending",
    "responsible_agency": "Department of Sanitation",
    "final_address": "190 W Greenbrier Dr",
    "address_councildis": "E",
    "status": "Assigned to Contractor",
    "contractor": "Metro Disposal",
    "rowid": "842542",
    "final_x": "3716817.04978",
    "final_y": "564889.968098",
    "longitude": "-89.95528588790133",
    "latitude": "30.046130575278024",
    "geocoded_column": {
      "latitude": "30.046130575278024",
      "longitude": "-89.95528588790133"
    }
  },
  {
    "service_request": "2021-842541",
    "request_type": "Abandoned Vehicles",
    "request_reason": "Abandoned/Junk Vehicles",
    "date_created": "2021-11-16T13:34:33.000",
    "date_modified": "2021-11-16T13:34:33.000",
    "request_status": "Pending",
    "responsible_agency": "Department of Public Works",
    "final_address": "3000 BLK Cleveland Ave",
    "address_councildis": "B",
    "status": "Pending",
    "rowid": "842541",
    "final_x": "3673954.92732",
    "final_y": "535635.21231",
    "longitude": "-90.09175418067387",
    "latitude": "29.9670380673593",
    "geocoded_column": {
      "latitude": "29.9670380673593",
      "longitude": "-90.09175418067387"
    }
  },
  {
    "service_request": "2021-842540",
    "request_type": "Property Maintenance",
    "request_reason": "Property Maintenance",
    "date_created": "2021-11-16T13:32:41.000",
    "date_modified": "2021-11-16T14:02:30.000",
    "request_status": "Pending",
    "responsible_agency": "Department of Code Enforcement",
    "final_address": "2011 Montegut St",
    "address_councildis": "D",
    "status": "Pending",
    "rowid": "842540",
    "final_x": "3689343.47081",
    "final_y": "539617.429706",
    "longitude": "-90.0430156159529",
    "latitude": "29.977520303538",
    "geocoded_column": {
      "latitude": "29.977520303538",
      "longitude": "-90.0430156159529"
    }
  },
  {
    "service_request": "2021-842539",
    "request_type": "Traffic Signals/Signs/Striping/Streetlights",
    "request_reason": "Street Light Outage/Malfunction",
    "date_created": "2021-11-16T13:27:19.000",
    "date_modified": "2021-11-16T14:02:32.000",
    "request_status": "Pending",
    "responsible_agency": "Department of Public Works",
    "final_address": "4556 Marque Dr",
    "address_councildis": "E",
    "status": "Pending",
    "contractor": "Royal Engineering",
    "rowid": "842539",
    "final_x": "3710118.04331",
    "final_y": "554568.90812",
    "longitude": "-89.97684412631453",
    "latitude": "30.017971568491106",
    "geocoded_column": {
      "latitude": "30.017971568491106",
      "longitude": "-89.97684412631453"
    }
  },
  {
    "service_request": "2021-842538",
    "request_type": "Trash/Recycling",
    "request_reason": "Order Recycling Cart",
    "date_created": "2021-11-16T13:26:49.000",
    "date_modified": "2021-11-16T14:02:35.000",
    "request_status": "Pending",
    "responsible_agency": "Department of Sanitation",
    "final_address": "1423 Joseph St",
    "address_councildis": "A",
    "status": "Pending",
    "rowid": "842538",
    "final_x": "3666661.0738",
    "final_y": "521201.896697",
    "longitude": "-90.11527282891059",
    "latitude": "29.927566421614916",
    "geocoded_column": {
      "latitude": "29.927566421614916",
      "longitude": "-90.11527282891059"
    }
  },
  {
    "service_request": "2021-842537",
    "request_type": "Abandoned Vehicles",
    "request_reason": "Abandoned/Junk Vehicles",
    "date_created": "2021-11-16T13:24:00.000",
    "date_modified": "2021-11-16T17:33:30.000",
    "request_status": "Pending",
    "responsible_agency": "Department of Public Works",
    "final_address": "New Orleans,LA",
    "address_councildis": "B",
    "rowid": "842537",
    "final_x": "3670699.5",
    "final_y": "518380.98",
    "longitude": "-90.10262011389452",
    "latitude": "29.9196911385645",
    "geocoded_column": {
      "latitude": "29.9196911385645",
      "longitude": "-90.10262011389452"
    }
  },
  {
    "service_request": "2021-842536",
    "request_type": "Roads/Drainage",
    "request_reason": "Catch Basin - Clogged",
    "date_created": "2021-11-16T13:20:21.000",
    "date_modified": "2021-11-16T14:02:39.000",
    "request_status": "Pending",
    "responsible_agency": "Department of Public Works",
    "final_address": "726 City Park Ave",
    "address_councildis": "A",
    "status": "Pending",
    "rowid": "842536",
    "final_x": "3670259.3595",
    "final_y": "541726.30254",
    "longitude": "-90.10321832930451",
    "latitude": "29.98389609717358",
    "geocoded_column": {
      "latitude": "29.98389609717358",
      "longitude": "-90.10321832930451"
    }
  },
  {
    "service_request": "2021-842535",
    "request_type": "Roads/Drainage",
    "request_reason": "Catch Basin - Clogged",
    "date_created": "2021-11-16T13:19:33.000",
    "date_modified": "2021-11-16T14:02:41.000",
    "request_status": "Pending",
    "responsible_agency": "Department of Public Works",
    "final_address": "726 City Park Ave",
    "address_councildis": "A",
    "status": "Pending",
    "rowid": "842535",
    "final_x": "3670259.3595",
    "final_y": "541726.30254",
    "longitude": "-90.10321832930451",
    "latitude": "29.98389609717358",
    "geocoded_column": {
      "latitude": "29.98389609717358",
      "longitude": "-90.10321832930451"
    }
  },
  {
    "service_request": "2021-842534",
    "request_type": "Roads/Drainage",
    "request_reason": "Catch Basin - Clogged",
    "date_created": "2021-11-16T13:18:39.000",
    "date_modified": "2021-11-16T14:02:42.000",
    "request_status": "Pending",
    "responsible_agency": "Department of Public Works",
    "final_address": "726 City Park Ave",
    "address_councildis": "A",
    "status": "Pending",
    "rowid": "842534",
    "final_x": "3670259.3595",
    "final_y": "541726.30254",
    "longitude": "-90.10321832930451",
    "latitude": "29.98389609717358",
    "geocoded_column": {
      "latitude": "29.98389609717358",
      "longitude": "-90.10321832930451"
    }
  },
  {
    "service_request": "2021-842533",
    "request_type": "Traffic Signals/Signs/Striping/Streetlights",
    "request_reason": "Street Light Outage/Malfunction",
    "date_created": "2021-11-16T13:16:01.000",
    "date_modified": "2021-11-16T13:16:02.000",
    "request_status": "Pending",
    "responsible_agency": "Department of Public Works",
    "final_address": "5627 Bancroft Dr",
    "address_councildis": "D",
    "status": "Pending",
    "contractor": "Royal Engineering",
    "rowid": "842533",
    "final_x": "3676656.26229",
    "final_y": "552846.181527",
    "longitude": "-90.08263008027579",
    "latitude": "30.014281464072237",
    "geocoded_column": {
      "latitude": "30.014281464072237",
      "longitude": "-90.08263008027579"
    }
  },
  {
    "service_request": "2021-842532",
    "request_type": "Traffic Signals/Signs/Striping/Streetlights",
    "request_reason": "Street Light Outage/Malfunction",
    "date_created": "2021-11-16T13:14:39.000",
    "date_modified": "2021-11-16T13:14:40.000",
    "request_status": "Pending",
    "responsible_agency": "Department of Public Works",
    "final_address": "2332 St Roch Ave",
    "address_councildis": "D",
    "status": "Pending",
    "contractor": "Royal Engineering",
    "rowid": "842532",
    "final_x": "3686035.60994",
    "final_y": "541107.75438",
    "longitude": "-90.0534103559482",
    "latitude": "29.981720179528647",
    "geocoded_column": {
      "latitude": "29.981720179528647",
      "longitude": "-90.0534103559482"
    }
  },
  {
    "service_request": "2021-842530",
    "request_type": "Abandoned Vehicles",
    "request_reason": "Abandoned/Junk Vehicles",
    "date_created": "2021-11-16T13:03:44.000",
    "date_modified": "2021-11-16T13:03:44.000",
    "request_status": "Pending",
    "responsible_agency": "Department of Public Works",
    "final_address": "2317 Flood St",
    "address_councildis": "E",
    "status": "Pending",
    "rowid": "842530",
    "final_x": "3698998.22621",
    "final_y": "538480.105033",
    "longitude": "-90.01256423630662",
    "latitude": "29.97409059506249",
    "geocoded_column": {
      "latitude": "29.97409059506249",
      "longitude": "-90.01256423630662"
    }
  },
  {
    "service_request": "2021-842529",
    "request_type": "Roads/Drainage",
    "request_reason": "Street Subsidence (Sinking)",
    "date_created": "2021-11-16T13:03:19.000",
    "date_modified": "2021-11-16T13:03:25.000",
    "request_status": "Pending",
    "responsible_agency": "Department of Public Works",
    "final_address": "7925 Belfast St",
    "address_councildis": "A",
    "status": "Pending",
    "rowid": "842529",
    "final_x": "3666024.33383",
    "final_y": "532020.702403",
    "longitude": "-90.11692031142124",
    "latitude": "29.957333255599167",
    "geocoded_column": {
      "latitude": "29.957333255599167",
      "longitude": "-90.11692031142124"
    }
  },
  {
    "service_request": "2021-842528",
    "request_type": "Traffic Signals/Signs/Striping/Streetlights",
    "request_reason": "Street Light Outage/Malfunction",
    "date_created": "2021-11-16T13:02:06.000",
    "date_modified": "2021-11-16T13:02:07.000",
    "request_status": "Pending",
    "responsible_agency": "Department of Public Works",
    "final_address": "4935 Sandalwood St",
    "address_councildis": "E",
    "status": "Pending",
    "contractor": "Royal Engineering",
    "rowid": "842528",
    "final_x": "3712187.38507",
    "final_y": "557327.370459",
    "longitude": "-89.97020218058597",
    "latitude": "30.02548873409783",
    "geocoded_column": {
      "latitude": "30.02548873409783",
      "longitude": "-89.97020218058597"
    }
  },
  {
    "service_request": "2021-842527",
    "request_type": "Roads/Drainage",
    "request_reason": "Street Subsidence (Sinking)",
    "date_created": "2021-11-16T13:00:11.000",
    "date_modified": "2021-11-16T13:00:11.000",
    "request_status": "Pending",
    "responsible_agency": "Department of Public Works",
    "final_address": "FLORIDA AVE & CAFFIN AVE",
    "address_councildis": "E",
    "status": "Pending",
    "rowid": "842527",
    "final_x": "3699624.7",
    "final_y": "539777.78",
    "longitude": "-90.01053838894725",
    "latitude": "29.977638860244692",
    "geocoded_column": {
      "latitude": "29.977638860244692",
      "longitude": "-90.01053838894725"
    }
  },
  {
    "service_request": "2021-842526",
    "request_type": "Trash/Recycling",
    "request_reason": "Request a Large Item Pick Up",
    "date_created": "2021-11-16T12:56:33.000",
    "date_modified": "2021-11-16T12:56:34.000",
    "request_status": "Pending",
    "responsible_agency": "Department of Sanitation",
    "final_address": "2112 Philip St",
    "address_councildis": "B",
    "status": "Assigned to Contractor",
    "contractor": "Richards Disposal",
    "rowid": "842526",
    "final_x": "3676062.35195",
    "final_y": "524916.654204",
    "longitude": "-90.08546754831025",
    "latitude": "29.937502648644184",
    "geocoded_column": {
      "latitude": "29.937502648644184",
      "longitude": "-90.08546754831025"
    }
  },
  {
    "service_request": "2021-842525",
    "request_type": "Trash/Recycling",
    "request_reason": "Order Recycling Cart",
    "date_created": "2021-11-16T12:54:46.000",
    "date_modified": "2021-11-16T13:03:28.000",
    "request_status": "Pending",
    "responsible_agency": "Department of Sanitation",
    "final_address": "830 Deslonde St, New Orleans, Louisiana, 70117",
    "address_councildis": "E",
    "status": "Pending",
    "rowid": "842525",
    "final_x": "3695096.40342",
    "final_y": "533527.162116",
    "longitude": "-90.02506562237743",
    "latitude": "29.960594850123556",
    "geocoded_column": {
      "latitude": "29.960594850123556",
      "longitude": "-90.02506562237743"
    }
  },
  {
    "service_request": "2021-842524",
    "request_type": "Trash/Recycling",
    "request_reason": "Missed Trash Pick-Up",
    "date_created": "2021-11-16T12:53:04.000",
    "date_modified": "2021-11-16T13:03:30.000",
    "request_status": "Pending",
    "responsible_agency": "Department of Sanitation",
    "final_address": "2404 New Orleans St",
    "address_councildis": "D",
    "status": "Assigned to Contractor",
    "contractor": "Metro Disposal",
    "rowid": "842524",
    "final_x": "3681987.29941",
    "final_y": "540954.311051",
    "longitude": "-90.06620217157287",
    "latitude": "29.981421983035652",
    "geocoded_column": {
      "latitude": "29.981421983035652",
      "longitude": "-90.06620217157287"
    }
  },
  {
    "service_request": "2021-842523",
    "request_type": "Trash/Recycling",
    "request_reason": "Illegal Dumping",
    "date_created": "2021-11-16T12:52:38.000",
    "date_modified": "2021-11-16T12:52:38.000",
    "request_status": "Pending",
    "responsible_agency": "Department of Sanitation",
    "final_address": "2819 Monticello Ave",
    "address_councildis": "A",
    "status": "Pending",
    "rowid": "842523",
    "final_x": "3662570.33248",
    "final_y": "535889.527815",
    "longitude": "-90.127698517255",
    "latitude": "29.968071633556796",
    "geocoded_column": {
      "latitude": "29.968071633556796",
      "longitude": "-90.127698517255"
    }
  },
  {
    "service_request": "2021-842521",
    "request_type": "Safety & Permits",
    "request_reason": "Licenses & Permits",
    "date_created": "2021-11-16T12:51:24.000",
    "date_modified": "2021-11-16T12:51:24.000",
    "request_status": "Pending",
    "responsible_agency": "Safety and Permits",
    "final_address": "3131 N Dorgenois St",
    "address_councildis": "D",
    "status": "Pending",
    "rowid": "842521",
    "final_x": "3690577.14025",
    "final_y": "541260.34766",
    "longitude": "-90.03906067531078",
    "latitude": "29.981999486126035",
    "geocoded_column": {
      "latitude": "29.981999486126035",
      "longitude": "-90.03906067531078"
    }
  },
  {
    "service_request": "2021-842520",
    "request_type": "Trash/Recycling",
    "request_reason": "Request a Large Item Pick Up",
    "date_created": "2021-11-16T12:50:17.000",
    "date_modified": "2021-11-16T12:50:18.000",
    "request_status": "Pending",
    "responsible_agency": "Department of Sanitation",
    "final_address": "1515 Jefferson Ave",
    "address_councildis": "B",
    "status": "Assigned to Contractor",
    "contractor": "Richards Disposal",
    "rowid": "842520",
    "final_x": "3667248.21767",
    "final_y": "520687.835257",
    "longitude": "-90.11343662860484",
    "latitude": "29.926135740304627",
    "geocoded_column": {
      "latitude": "29.926135740304627",
      "longitude": "-90.11343662860484"
    }
  },
  {
    "service_request": "2021-842518",
    "request_type": "Trash/Recycling",
    "request_reason": "Request a Large Item Pick Up",
    "date_created": "2021-11-16T12:46:34.000",
    "date_modified": "2021-11-16T13:03:33.000",
    "request_status": "Pending",
    "responsible_agency": "Department of Sanitation",
    "final_address": "1525 France St, New Orleans, Louisiana, 70117",
    "address_councildis": "D",
    "status": "Assigned to Contractor",
    "contractor": "Metro Disposal",
    "rowid": "842518",
    "final_x": "3692843.47555",
    "final_y": "536850.637064",
    "longitude": "-90.0320607061227",
    "latitude": "29.969803771562",
    "geocoded_column": {
      "latitude": "29.969803771562",
      "longitude": "-90.0320607061227"
    }
  },
  {
    "service_request": "2021-842517",
    "request_type": "Traffic Signals/Signs/Striping/Streetlights",
    "request_reason": "Street Light Outage/Malfunction",
    "date_created": "2021-11-16T12:46:27.000",
    "date_modified": "2021-11-16T12:46:46.000",
    "request_status": "Pending",
    "responsible_agency": "Department of Public Works",
    "final_address": "11230 Notaway Ln",
    "address_councildis": "E",
    "status": "Pending",
    "contractor": "Royal Engineering",
    "rowid": "842517",
    "final_x": "3717796.49663",
    "final_y": "559354.882781",
    "longitude": "-89.95240120176913",
    "latitude": "30.03087891065198",
    "geocoded_column": {
      "latitude": "30.03087891065198",
      "longitude": "-89.95240120176913"
    }
  },
  {
    "service_request": "2021-842516",
    "request_type": "Trash/Recycling",
    "request_reason": "Order Recycling Cart",
    "date_created": "2021-11-16T12:45:42.000",
    "date_modified": "2021-11-16T13:03:35.000",
    "request_status": "Pending",
    "responsible_agency": "Department of Sanitation",
    "final_address": "2032 Lamanche St A",
    "address_councildis": "E",
    "status": "Pending",
    "rowid": "842516",
    "final_x": "3699303.26064",
    "final_y": "537326.670088",
    "longitude": "-90.01164289249485",
    "latitude": "29.970909393942105",
    "geocoded_column": {
      "latitude": "29.970909393942105",
      "longitude": "-90.01164289249485"
    }
  },
  {
    "service_request": "2021-842515",
    "request_type": "Trash/Recycling",
    "request_reason": "Order Trash Cart",
    "date_created": "2021-11-16T12:45:21.000",
    "date_modified": "2021-11-16T13:03:37.000",
    "request_status": "Pending",
    "responsible_agency": "Department of Sanitation",
    "final_address": "2032 Lamanche St A",
    "address_councildis": "E",
    "status": "Assigned to Contractor",
    "contractor": "Metro Disposal",
    "rowid": "842515",
    "final_x": "3699303.26064",
    "final_y": "537326.670088",
    "longitude": "-90.01164289249485",
    "latitude": "29.970909393942105",
    "geocoded_column": {
      "latitude": "29.970909393942105",
      "longitude": "-90.01164289249485"
    }
  },
  {
    "service_request": "2021-842514",
    "request_type": "Trash/Recycling",
    "request_reason": "Start Trash Service",
    "date_created": "2021-11-16T12:45:07.000",
    "date_modified": "2021-11-16T13:03:38.000",
    "request_status": "Pending",
    "responsible_agency": "Department of Sanitation",
    "final_address": "2032 Lamanche St A",
    "address_councildis": "E",
    "status": "Assigned to Contractor",
    "contractor": "Metro Disposal",
    "rowid": "842514",
    "final_x": "3699303.26064",
    "final_y": "537326.670088",
    "longitude": "-90.01164289249485",
    "latitude": "29.970909393942105",
    "geocoded_column": {
      "latitude": "29.970909393942105",
      "longitude": "-90.01164289249485"
    }
  },
  {
    "service_request": "2021-842513",
    "request_type": "Trash/Recycling",
    "request_reason": "Missed Trash Pick-Up",
    "date_created": "2021-11-16T12:43:14.000",
    "date_modified": "2021-11-16T13:03:40.000",
    "request_status": "Pending",
    "responsible_agency": "Department of Sanitation",
    "final_address": "1507 Upperline St",
    "address_councildis": "B",
    "status": "Assigned to Contractor",
    "contractor": "Richards Disposal",
    "rowid": "842513",
    "final_x": "3669127.65575",
    "final_y": "520479.239608",
    "longitude": "-90.10751081191844",
    "latitude": "29.925507016314405",
    "geocoded_column": {
      "latitude": "29.925507016314405",
      "longitude": "-90.10751081191844"
    }
  },
  {
    "service_request": "2021-842512",
    "request_type": "Trash/Recycling",
    "request_reason": "Order Recycling Cart",
    "date_created": "2021-11-16T12:39:50.000",
    "date_modified": "2021-11-16T12:39:50.000",
    "request_status": "Pending",
    "responsible_agency": "Department of Sanitation",
    "final_address": "15 New Basin Way",
    "address_councildis": "A",
    "status": "Pending",
    "rowid": "842512",
    "final_x": "3666709.58644",
    "final_y": "554486.420568",
    "longitude": "-90.11400158315534",
    "latitude": "30.01908632080221",
    "geocoded_column": {
      "latitude": "30.01908632080221",
      "longitude": "-90.11400158315534"
    }
  },
  {
    "service_request": "2021-842510",
    "request_type": "Abandoned Vehicles",
    "request_reason": "Abandoned/Junk Vehicles",
    "date_created": "2021-11-16T12:36:35.000",
    "date_modified": "2021-11-16T12:37:15.000",
    "request_status": "Pending",
    "responsible_agency": "Department of Public Works",
    "final_address": "1705 Burdette St",
    "address_councildis": "A",
    "status": "Pending",
    "rowid": "842510",
    "final_x": "3664052.14503",
    "final_y": "528930.482496",
    "longitude": "-90.12325096702352",
    "latitude": "29.948893572976004",
    "geocoded_column": {
      "latitude": "29.948893572976004",
      "longitude": "-90.12325096702352"
    }
  },
  {
    "service_request": "2021-842508",
    "request_type": "Trash/Recycling",
    "request_reason": "Order Recycling Cart",
    "date_created": "2021-11-16T12:33:16.000",
    "date_modified": "2021-11-16T12:33:16.000",
    "request_status": "Pending",
    "responsible_agency": "Department of Sanitation",
    "final_address": "6149 Bellaire Dr",
    "address_councildis": "A",
    "status": "Pending",
    "rowid": "842508",
    "final_x": "3664428.31924",
    "final_y": "548662.264723",
    "longitude": "-90.12140426565533",
    "latitude": "30.003138469912788",
    "geocoded_column": {
      "latitude": "30.003138469912788",
      "longitude": "-90.12140426565533"
    }
  },
  {
    "service_request": "2021-842507",
    "request_type": "Trash/Recycling",
    "request_reason": "Illegal Dumping",
    "date_created": "2021-11-16T12:32:04.000",
    "date_modified": "2021-11-16T12:32:04.000",
    "request_status": "Pending",
    "responsible_agency": "Department of Sanitation",
    "final_address": "2120 Third St",
    "address_councildis": "B",
    "status": "Pending",
    "rowid": "842507",
    "final_x": "3675328.54555",
    "final_y": "524498.900988",
    "longitude": "-90.08779856595386",
    "latitude": "29.936375917342183",
    "geocoded_column": {
      "latitude": "29.936375917342183",
      "longitude": "-90.08779856595386"
    }
  },
  {
    "service_request": "2021-842505",
    "request_type": "Abandoned Vehicles",
    "request_reason": "Abandoned/Junk Vehicles",
    "date_created": "2021-11-16T12:26:38.000",
    "date_modified": "2021-11-16T12:26:38.000",
    "request_status": "Pending",
    "responsible_agency": "Department of Public Works",
    "final_address": "1705 Burdette St",
    "address_councildis": "A",
    "status": "Pending",
    "rowid": "842505",
    "final_x": "3664052.14503",
    "final_y": "528930.482496",
    "longitude": "-90.12325096702352",
    "latitude": "29.948893572976004",
    "geocoded_column": {
      "latitude": "29.948893572976004",
      "longitude": "-90.12325096702352"
    }
  },
  {
    "service_request": "2021-842504",
    "request_type": "Trash/Recycling",
    "request_reason": "Order Recycling Cart",
    "date_created": "2021-11-16T12:26:08.000",
    "date_modified": "2021-11-16T13:03:43.000",
    "request_status": "Pending",
    "responsible_agency": "Department of Sanitation",
    "final_address": "2424 St Claude Ave",
    "address_councildis": "C",
    "status": "Pending",
    "rowid": "842504",
    "final_x": "3686715.77417",
    "final_y": "536408.955655",
    "longitude": "-90.05142811583245",
    "latitude": "29.968779225176352",
    "geocoded_column": {
      "latitude": "29.968779225176352",
      "longitude": "-90.05142811583245"
    }
  },
  {
    "service_request": "2021-842503",
    "request_type": "Trash/Recycling",
    "request_reason": "Illegal Dumping",
    "date_created": "2021-11-16T12:23:54.000",
    "date_modified": "2021-11-16T13:03:46.000",
    "request_status": "Pending",
    "responsible_agency": "Department of Sanitation",
    "final_address": "6918 Mayo Rd",
    "address_councildis": "E",
    "status": "Pending",
    "rowid": "842503",
    "final_x": "3701650.48439",
    "final_y": "558307.871708",
    "longitude": "-90.00346107986195",
    "latitude": "30.028525191982617",
    "geocoded_column": {
      "latitude": "30.028525191982617",
      "longitude": "-90.00346107986195"
    }
  },
  {
    "service_request": "2021-842502",
    "request_type": "Traffic Signals/Signs/Striping/Streetlights",
    "request_reason": "Street Light Outage/Malfunction",
    "date_created": "2021-11-16T12:16:22.000",
    "date_modified": "2021-11-16T13:03:47.000",
    "request_status": "Pending",
    "responsible_agency": "Department of Public Works",
    "final_address": "1777 Pace Blvd",
    "address_councildis": "C",
    "status": "Pending",
    "contractor": "Royal Engineering",
    "rowid": "842502",
    "final_x": "3694255.26051",
    "final_y": "523827.861499",
    "longitude": "-90.0280706701395",
    "latitude": "29.933951517726715",
    "geocoded_column": {
      "latitude": "29.933951517726715",
      "longitude": "-90.0280706701395"
    }
  },
  {
    "service_request": "2021-842501",
    "request_type": "Trash/Recycling",
    "request_reason": "Replace Trash Cart",
    "date_created": "2021-11-16T12:16:20.000",
    "date_modified": "2021-11-16T12:16:21.000",
    "request_status": "Pending",
    "responsible_agency": "Department of Sanitation",
    "final_address": "6337 Louisville St",
    "address_councildis": "A",
    "status": "Assigned to Contractor",
    "contractor": "Metro Disposal",
    "rowid": "842501",
    "final_x": "3668054.05511",
    "final_y": "549683.018132",
    "longitude": "-90.10991556056241",
    "latitude": "30.005839243452886",
    "geocoded_column": {
      "latitude": "30.005839243452886",
      "longitude": "-90.10991556056241"
    }
  },
  {
    "service_request": "2021-842498",
    "request_type": "Roads/Drainage",
    "request_reason": "Road Shoulder Repair",
    "date_created": "2021-11-16T12:00:38.000",
    "date_modified": "2021-11-16T12:09:12.000",
    "request_status": "Pending",
    "responsible_agency": "Department of Public Works",
    "final_address": "3350 Dumaine St",
    "address_councildis": "A",
    "status": "Pending",
    "rowid": "842498",
    "final_x": "3674782.02805",
    "final_y": "539279.033546",
    "longitude": "-90.0890172272328",
    "latitude": "29.977032668431008",
    "geocoded_column": {
      "latitude": "29.977032668431008",
      "longitude": "-90.0890172272328"
    }
  },
  {
    "service_request": "2021-842496",
    "request_type": "Trash/Recycling",
    "request_reason": "Replace Trash Cart",
    "date_created": "2021-11-16T11:56:47.000",
    "date_modified": "2021-11-16T11:56:50.000",
    "request_status": "Pending",
    "responsible_agency": "Department of Sanitation",
    "final_address": "2303 Annette St",
    "address_councildis": "D",
    "status": "Assigned to Contractor",
    "contractor": "Metro Disposal",
    "rowid": "842496",
    "final_x": "3682815.40047",
    "final_y": "540622.756107",
    "longitude": "-90.06359825431379",
    "latitude": "29.980485116907346",
    "geocoded_column": {
      "latitude": "29.980485116907346",
      "longitude": "-90.06359825431379"
    }
  },
  {
    "service_request": "2021-842495",
    "request_type": "Traffic Signals/Signs/Striping/Streetlights",
    "request_reason": "Traffic Sign Missing/Damaged",
    "date_created": "2021-11-16T11:53:51.000",
    "date_modified": "2021-11-16T12:09:14.000",
    "request_status": "Pending",
    "responsible_agency": "Department of Public Works",
    "final_address": "1001 Moss St",
    "address_councildis": "A",
    "status": "Pending",
    "rowid": "842495",
    "final_x": "3674754.80488",
    "final_y": "539804.45889",
    "longitude": "-90.08908518705304",
    "latitude": "29.97847822116159",
    "geocoded_column": {
      "latitude": "29.97847822116159",
      "longitude": "-90.08908518705304"
    }
  },
  {
    "service_request": "2021-842494",
    "request_type": "Trash/Recycling",
    "request_reason": "Missed Trash Pick-Up",
    "date_created": "2021-11-16T11:51:08.000",
    "date_modified": "2021-11-16T16:29:14.000",
    "case_close_date": "2021-11-16T10:29:14.000",
    "request_status": "Closed",
    "responsible_agency": "Department of Sanitation",
    "final_address": "929 Royal St, New Orleans, Louisiana, 70116",
    "address_councildis": "C",
    "status": "Assigned to Contractor",
    "contractor": "Empire Services",
    "contractor_action": "Completed",
    "rowid": "842494",
    "final_x": "3683121.21429",
    "final_y": "533249.144388",
    "longitude": "-90.06289057921627",
    "latitude": "29.960200916125935",
    "geocoded_column": {
      "latitude": "29.960200916125935",
      "longitude": "-90.06289057921627"
    }
  },
  {
    "service_request": "2021-842492",
    "request_type": "Mayor's Request",
    "request_reason": "Requests to the Mayor",
    "date_created": "2021-11-16T11:50:53.000",
    "date_modified": "2021-11-16T15:16:20.000",
    "case_close_date": "2021-11-16T09:16:20.000",
    "request_status": "Closed",
    "responsible_agency": "Executive Office of the Mayor",
    "status": "Resolved",
    "rowid": "842492",
    "longitude": "0.0",
    "latitude": "0.0",
    "geocoded_column": {
      "latitude": "0.0",
      "longitude": "0.0"
    }
  },
  {
    "service_request": "2021-842491",
    "request_type": "Abandoned Vehicles",
    "request_reason": "Abandoned/Junk Vehicles",
    "date_created": "2021-11-16T11:48:41.000",
    "date_modified": "2021-11-16T12:09:20.000",
    "request_status": "Pending",
    "responsible_agency": "Department of Public Works",
    "final_address": "New Orleans,LA",
    "address_councildis": "D",
    "rowid": "842491",
    "final_x": "3680455.86095",
    "final_y": "537797.528776",
    "longitude": "-90.07114898701577",
    "latitude": "29.972788403971855",
    "geocoded_column": {
      "latitude": "29.972788403971855",
      "longitude": "-90.07114898701577"
    }
  },
  {
    "service_request": "2021-842490",
    "request_type": "Trash/Recycling",
    "request_reason": "Replace Trash Cart",
    "date_created": "2021-11-16T11:48:21.000",
    "date_modified": "2021-11-16T11:48:24.000",
    "request_status": "Pending",
    "responsible_agency": "Department of Sanitation",
    "final_address": "1221 Marais St",
    "address_councildis": "C",
    "status": "Assigned to Contractor",
    "contractor": "Richards Disposal",
    "rowid": "842490",
    "final_x": "3681790.92604",
    "final_y": "535650.933766",
    "longitude": "-90.06700752684003",
    "latitude": "29.966845503457595",
    "geocoded_column": {
      "latitude": "29.966845503457595",
      "longitude": "-90.06700752684003"
    }
  },
  {
    "service_request": "2021-842489",
    "request_type": "Trash/Recycling",
    "request_reason": "Illegal Dumping",
    "date_created": "2021-11-16T11:47:01.000",
    "date_modified": "2021-11-16T11:47:01.000",
    "request_status": "Pending",
    "responsible_agency": "Department of Sanitation",
    "final_address": "3429 Willow St",
    "address_councildis": "B",
    "status": "Pending",
    "rowid": "842489",
    "final_x": "3672111.01671",
    "final_y": "525707.958653",
    "longitude": "-90.09791528442003",
    "latitude": "29.939796210044815",
    "geocoded_column": {
      "latitude": "29.939796210044815",
      "longitude": "-90.09791528442003"
    }
  },
  {
    "service_request": "2021-842487",
    "request_type": "Trash/Recycling",
    "request_reason": "Illegal Dumping",
    "date_created": "2021-11-16T11:44:04.000",
    "date_modified": "2021-11-16T11:45:18.000",
    "request_status": "Pending",
    "responsible_agency": "Department of Sanitation",
    "final_address": "2500 BLK Peniston St",
    "address_councildis": "B",
    "status": "Pending",
    "rowid": "842487",
    "final_x": "3672088.31294",
    "final_y": "524397.856832",
    "longitude": "-90.09803155476428",
    "latitude": "29.93619452852128",
    "geocoded_column": {
      "latitude": "29.93619452852128",
      "longitude": "-90.09803155476428"
    }
  },
  {
    "service_request": "2021-842486",
    "request_type": "Property Maintenance",
    "request_reason": "Property Maintenance",
    "date_created": "2021-11-16T11:42:14.000",
    "date_modified": "2021-11-16T11:42:14.000",
    "request_status": "Pending",
    "responsible_agency": "Department of Code Enforcement",
    "final_address": "1716 Marais St",
    "address_councildis": "C",
    "status": "Pending",
    "rowid": "842486",
    "final_x": "3683256.45538",
    "final_y": "536503.134855",
    "longitude": "-90.06234954052441",
    "latitude": "29.969144146440083",
    "geocoded_column": {
      "latitude": "29.969144146440083",
      "longitude": "-90.06234954052441"
    }
  },
  {
    "service_request": "2021-842485",
    "request_type": "Roads/Drainage",
    "request_reason": "Damaged Sidewalk",
    "date_created": "2021-11-16T11:39:18.000",
    "date_modified": "2021-11-16T13:47:07.000",
    "case_close_date": "2021-11-16T07:47:07.000",
    "request_status": "Closed",
    "responsible_agency": "Department of Public Works",
    "final_address": "4005 Athis Ct",
    "address_councildis": "D",
    "status": "Referred to External Agency",
    "rowid": "842485",
    "final_x": "3688447.75036",
    "final_y": "554442.470936",
    "longitude": "-90.04531827373037",
    "latitude": "30.01831150407048",
    "geocoded_column": {
      "latitude": "30.01831150407048",
      "longitude": "-90.04531827373037"
    }
  },
  {
    "service_request": "2021-842484",
    "request_type": "Trash/Recycling",
    "request_reason": "Replace Trash Cart",
    "date_created": "2021-11-16T11:38:21.000",
    "date_modified": "2021-11-16T12:09:22.000",
    "request_status": "Pending",
    "responsible_agency": "Department of Sanitation",
    "final_address": "1817 Marengo St",
    "address_councildis": "B",
    "status": "Assigned to Contractor",
    "contractor": "Richards Disposal",
    "rowid": "842484",
    "final_x": "3671919.85275",
    "final_y": "521863.627834",
    "longitude": "-90.09864959943006",
    "latitude": "29.929231209134276",
    "geocoded_column": {
      "latitude": "29.929231209134276",
      "longitude": "-90.09864959943006"
    }
  },
  {
    "service_request": "2021-842483",
    "request_type": "Traffic Signals/Signs/Striping/Streetlights",
    "request_reason": "Traffic Signal Malfunctioning/Damaged",
    "date_created": "2021-11-16T11:37:41.000",
    "date_modified": "2021-11-16T11:37:41.000",
    "request_status": "Pending",
    "responsible_agency": "Department of Public Works",
    "final_address": "2000 S Claiborne Ave",
    "address_councildis": "B",
    "status": "Pending",
    "rowid": "842483",
    "final_x": "3674991.67361",
    "final_y": "527839.434367",
    "longitude": "-90.08874753355181",
    "latitude": "29.945571352231877",
    "geocoded_column": {
      "latitude": "29.945571352231877",
      "longitude": "-90.08874753355181"
    }
  },
  {
    "service_request": "2021-842482",
    "request_type": "Trash/Recycling",
    "request_reason": "Missed Trash Pick-Up",
    "date_created": "2021-11-16T11:37:26.000",
    "date_modified": "2021-11-16T11:37:27.000",
    "request_status": "Pending",
    "responsible_agency": "Department of Sanitation",
    "final_address": "4004 Athis Ct",
    "address_councildis": "D",
    "status": "Assigned to Contractor",
    "contractor": "Metro Disposal",
    "rowid": "842482",
    "final_x": "3688659.57699",
    "final_y": "554443.811992",
    "longitude": "-90.0446489345107",
    "latitude": "30.018308642625556",
    "geocoded_column": {
      "latitude": "30.018308642625556",
      "longitude": "-90.0446489345107"
    }
  },
  {
    "service_request": "2021-842481",
    "request_type": "Mayor's Request",
    "request_reason": "Requests to the Mayor",
    "date_created": "2021-11-16T11:37:19.000",
    "date_modified": "2021-11-16T11:37:19.000",
    "request_status": "Pending",
    "responsible_agency": "Executive Office of the Mayor",
    "final_address": "909 Semmes St",
    "address_councildis": "C",
    "status": "Pending",
    "rowid": "842481",
    "final_x": "3688528.59747",
    "final_y": "524025.1831",
    "longitude": "-90.04614245762163",
    "latitude": "29.934672215766103",
    "geocoded_column": {
      "latitude": "29.934672215766103",
      "longitude": "-90.04614245762163"
    }
  },
  {
    "service_request": "2021-842480",
    "request_type": "Property Maintenance",
    "request_reason": "Property Maintenance",
    "date_created": "2021-11-16T11:35:36.000",
    "date_modified": "2021-11-16T11:35:36.000",
    "request_status": "Pending",
    "responsible_agency": "Department of Code Enforcement",
    "final_address": "2917 Hollygrove St",
    "address_councildis": "A",
    "status": "Pending",
    "rowid": "842480",
    "final_x": "3663861.59386",
    "final_y": "535132.014982",
    "longitude": "-90.12364590189583",
    "latitude": "29.965951301256847",
    "geocoded_column": {
      "latitude": "29.965951301256847",
      "longitude": "-90.12364590189583"
    }
  },