[
  {
    "service_request": "2024-1146829",
    "request_type": "Trash/Recycling",
    "request_reason": "Order Recycling Cart",
    "date_created": "2024-11-06T23:05:46.000",
    "date_modified": "2024-11-06T23:05:46.000",
    "request_status": "Pending",
    "responsible_agency": "Department of Sanitation",
    "final_address": "4716 S Liberty St",
    "address_councildis": "B",
    "status": "Pending",
    "rowid": "1146829",
    "final_x": "3669365.85294",
    "final_y": "523187.305339",
    "longitude": "-90.10666737937747",
    "latitude": "29.932946323380396",
    "geocoded_column": {
      "latitude": "29.932946323380396",
      "longitude": "-90.10666737937747"
    }
  },
  {
    "service_request": "2024-1146828",
    "request_type": "Trash/Recycling",
    "request_reason": "Replace Trash Cart",
    "date_created": "2024-11-06T23:05:03.000",
    "date_modified": "2024-11-06T23:05:04.000",
    "request_status": "Pending",
    "responsible_agency": "Department of Sanitation",
    "final_address": "4716 S Liberty St",
    "address_councildis": "B",
    "status": "Assigned to Contractor",
    "contractor": "IV Waste",
    "rowid": "1146828",
    "final_x": "3669365.85294",
    "final_y": "523187.305339",
    "longitude": "-90.10666737937747",
    "latitude": "29.932946323380396",
    "geocoded_column": {
      "latitude": "29.932946323380396",
      "longitude": "-90.10666737937747"
    }
  },
  {
    "service_request": "2024-1146827",
    "request_type": "Parks & Parkways",
    "request_reason": "Request Tree Service (Right of Way/Public Property)",
    "date_created": "2024-11-06T22:10:00.000",
    "date_modified": "2024-11-06T22:10:00.000",
    "request_status": "Pending",
    "responsible_agency": "Department of Parks & Parkway",
    "final_address": "1700 Fern St",
    "address_councildis": "A",
    "status": "Pending",
    "rowid": "1146827",
    "final_x": "3663710.84243",
    "final_y": "529199.635968",
    "longitude": "-90.12431964450678",
    "latitude": "29.949643564749703",
    "geocoded_column": {
      "latitude": "29.949643564749703",
      "longitude": "-90.12431964450678"
    }
  },
  {
    "service_request": "2024-1146826",
    "request_type": "Trash/Recycling",
    "request_reason": "Order Second Trash Cart",
    "date_created": "2024-11-06T22:00:08.000",
    "date_modified": "2024-11-06T22:00:10.000",
    "request_status": "Pending",
    "responsible_agency": "Department of Sanitation",
    "final_address": "2425 Clouet St",
    "address_councildis": "D",
    "status": "Assigned to Contractor",
    "contractor": "IV Waste",
    "rowid": "1146826",
    "final_x": "3690319.25699",
    "final_y": "541095.504588",
    "longitude": "-90.0398810685789",
    "latitude": "29.981554233430504",
    "geocoded_column": {
      "latitude": "29.981554233430504",
      "longitude": "-90.0398810685789"
    }
  },
  {
    "service_request": "2024-1146825",
    "request_type": "Trash/Recycling",
    "request_reason": "Replace Recycling Cart",
    "date_created": "2024-11-06T21:52:05.000",
    "date_modified": "2024-11-06T21:52:05.000",
    "request_status": "Pending",
    "responsible_agency": "Department of Sanitation",
    "final_address": "10000 BLK Michoud Blvd",
    "address_councildis": "E",
    "status": "Pending",
    "rowid": "1146825",
    "final_x": "3724536.88849",
    "final_y": "568998.643614",
    "longitude": "-89.93072865980727",
    "latitude": "30.057170174761637",
    "geocoded_column": {
      "latitude": "30.057170174761637",
      "longitude": "-89.93072865980727"
    }
  },
  {
    "service_request": "2024-1146824",
    "request_type": "Trash/Recycling",
    "request_reason": "Order Trash Cart",
    "date_created": "2024-11-06T21:46:49.000",
    "date_modified": "2024-11-06T21:46:50.000",
    "request_status": "Pending",
    "responsible_agency": "Department of Sanitation",
    "final_address": "10000 BLK Michoud Blvd",
    "address_councildis": "E",
    "status": "Assigned to Contractor",
    "contractor": "Waste Pro",
    "rowid": "1146824",
    "final_x": "3724602.10456",
    "final_y": "568986.719426",
    "longitude": "-89.9305229853507",
    "latitude": "30.057135193088275",
    "geocoded_column": {
      "latitude": "30.057135193088275",
      "longitude": "-89.9305229853507"
    }
  },
  {
    "service_request": "2024-1146823",
    "request_type": "Trash/Recycling",
    "request_reason": "Request a Large Item Pick Up",
    "date_created": "2024-11-06T21:40:57.000",
    "date_modified": "2024-11-06T21:40:58.000",
    "request_status": "Pending",
    "responsible_agency": "Department of Sanitation",
    "final_address": "11211 N Idlewood Ct, New Orleans, Louisiana, 70128",
    "address_councildis": "E",
    "status": "Assigned to Contractor",
    "contractor": "Waste Pro",
    "rowid": "1146823",
    "final_x": "3716025.86207",
    "final_y": "560277.469149",
    "longitude": "-89.9579613954362",
    "latitude": "30.03347420878148",
    "geocoded_column": {
      "latitude": "30.03347420878148",
      "longitude": "-89.9579613954362"
    }
  },
  {
    "service_request": "2024-1146822",
    "request_type": "Streetlights",
    "request_reason": "Streetlight Outage/Malfunction",
    "date_created": "2024-11-06T21:12:18.000",
    "date_modified": "2024-11-06T21:12:19.000",
    "request_status": "Pending",
    "responsible_agency": "Department of Public Works",
    "final_address": "8003 Jeannette St",
    "address_councildis": "A",
    "status": "Pending",
    "contractor": "Legacy Professional Services",
    "rowid": "1146822",
    "final_x": "3662993.83802",
    "final_y": "528918.341824",
    "longitude": "-90.1265929181658",
    "latitude": "29.94889087904273",
    "geocoded_column": {
      "latitude": "29.94889087904273",
      "longitude": "-90.1265929181658"
    }
  },
  {
    "service_request": "2024-1146821",
    "request_type": "Streetlights",
    "request_reason": "Streetlight Outage/Malfunction",
    "date_created": "2024-11-06T21:00:28.000",
    "date_modified": "2024-11-06T21:00:29.000",
    "request_status": "Pending",
    "responsible_agency": "Department of Public Works",
    "final_address": "1714 Short St",
    "address_councildis": "A",
    "status": "Pending",
    "contractor": "Legacy Professional Services",
    "rowid": "1146821",
    "final_x": "3663526.96685",
    "final_y": "529503.445185",
    "longitude": "-90.12489010928246",
    "latitude": "29.950484275613384",
    "geocoded_column": {
      "latitude": "29.950484275613384",
      "longitude": "-90.12489010928246"
    }
  },
  {
    "service_request": "2024-1146820",
    "request_type": "Abandoned Vehicles",
    "request_reason": "Abandoned/Junk Vehicles",
    "date_created": "2024-11-06T20:57:45.000",
    "date_modified": "2024-11-06T20:57:45.000",
    "request_status": "Pending",
    "responsible_agency": "Department of Public Works",
    "final_address": "2721 St Charles Ave",
    "address_councildis": "B",
    "status": "Pending",
    "rowid": "1146820",
    "final_x": "3675986.84929",
    "final_y": "522658.374394",
    "longitude": "-90.08578353976071",
    "latitude": "29.93129537744499",
    "geocoded_column": {
      "latitude": "29.93129537744499",
      "longitude": "-90.08578353976071"
    }
  },
  {
    "service_request": "2024-1146819",
    "request_type": "Trash/Recycling",
    "request_reason": "Request a Large Item Pick Up",
    "date_created": "2024-11-06T20:51:32.000",
    "date_modified": "2024-11-06T20:51:33.000",
    "request_status": "Pending",
    "responsible_agency": "Department of Sanitation",
    "final_address": "2219 Lizardi St",
    "address_councildis": "E",
    "status": "Assigned to Contractor",
    "contractor": "Waste Pro",
    "rowid": "1146819",
    "final_x": "3697800.89232",
    "final_y": "538357.231625",
    "longitude": "-90.01635012861777",
    "latitude": "29.97379063170156",
    "geocoded_column": {
      "latitude": "29.97379063170156",
      "longitude": "-90.01635012861777"
    }
  },
  {
    "service_request": "2024-1146818",
    "request_type": "Abandoned Vehicles",
    "request_reason": "Vehicle Blocking Your Driveway",
    "date_created": "2024-11-06T20:34:16.000",
    "date_modified": "2024-11-06T20:34:16.000",
    "request_status": "Pending",
    "responsible_agency": "Department of Public Works",
    "final_address": "2709 Magnolia St",
    "address_councildis": "B",
    "status": "Pending",
    "rowid": "1146818",
    "final_x": "3675174.2676",
    "final_y": "526815.296382",
    "longitude": "-90.08820616135127",
    "latitude": "29.942749855604525",
    "geocoded_column": {
      "latitude": "29.942749855604525",
      "longitude": "-90.08820616135127"
    }
  },
  {
    "service_request": "2024-1146817",
    "request_type": "Streetlights",
    "request_reason": "Streetlight Outage/Malfunction",
    "date_created": "2024-11-06T20:31:32.000",
    "date_modified": "2024-11-06T20:31:33.000",
    "request_status": "Pending",
    "responsible_agency": "Department of Public Works",
    "final_address": "7913 Hickory St",
    "address_councildis": "A",
    "status": "Pending",
    "contractor": "Legacy Professional Services",
    "rowid": "1146817",
    "final_x": "3663875.82279",
    "final_y": "529535.359937",
    "longitude": "-90.12378753442114",
    "latitude": "29.950561909808542",
    "geocoded_column": {
      "latitude": "29.950561909808542",
      "longitude": "-90.12378753442114"
    }
  },
  {
    "service_request": "2024-1146816",
    "request_type": "Trash/Recycling",
    "request_reason": "Replace Recycling Cart",
    "date_created": "2024-11-06T18:51:13.000",
    "date_modified": "2024-11-06T18:51:13.000",
    "request_status": "Pending",
    "responsible_agency": "Department of Sanitation",
    "final_address": "4822 Coliseum St",
    "address_councildis": "B",
    "status": "Pending",
    "rowid": "1146816",
    "final_x": "3669276.34996",
    "final_y": "519600.875896",
    "longitude": "-90.10707110212263",
    "latitude": "29.92308742011755",
    "geocoded_column": {
      "latitude": "29.92308742011755",
      "longitude": "-90.10707110212263"
    }
  },
  {
    "service_request": "2024-1146815",
    "request_type": "Streetlights",
    "request_reason": "Streetlight Outage/Malfunction",
    "date_created": "2024-11-06T18:29:32.000",
    "date_modified": "2024-11-06T18:29:33.000",
    "request_status": "Pending",
    "responsible_agency": "Department of Public Works",
    "final_address": "3513 Dauphine St",
    "address_councildis": "C",
    "status": "Pending",
    "contractor": "Legacy Professional Services",
    "rowid": "1146815",
    "final_x": "3690304.78652",
    "final_y": "534493.252677",
    "longitude": "-90.04016211492578",
    "latitude": "29.963400821552874",
    "geocoded_column": {
      "latitude": "29.963400821552874",
      "longitude": "-90.04016211492578"
    }
  },
  {
    "service_request": "2024-1146814",
    "request_type": "Trash/Recycling",
    "request_reason": "Request a Large Item Pick Up",
    "date_created": "2024-11-06T17:45:28.000",
    "date_modified": "2024-11-06T17:45:29.000",
    "request_status": "Pending",
    "responsible_agency": "Department of Sanitation",
    "final_address": "5512 Constance St",
    "address_councildis": "A",
    "status": "Assigned to Contractor",
    "contractor": "IV Waste",
    "rowid": "1146814",
    "final_x": "3666235.67949",
    "final_y": "518464.33343",
    "longitude": "-90.11670745721872",
    "latitude": "29.92005141188264",
    "geocoded_column": {
      "latitude": "29.92005141188264",
      "longitude": "-90.11670745721872"
    }
  },
  {
    "service_request": "2024-1146813",
    "request_type": "Trash/Recycling",
    "request_reason": "Request a Large Item Pick Up",
    "date_created": "2024-11-06T17:36:58.000",
    "date_modified": "2024-11-06T17:36:59.000",
    "request_status": "Pending",
    "responsible_agency": "Department of Sanitation",
    "final_address": "7917 Redfish St",
    "address_councildis": "E",
    "status": "Assigned to Contractor",
    "contractor": "Waste Pro",
    "rowid": "1146813",
    "final_x": "3698642.52983",
    "final_y": "560953.74851",
    "longitude": "-90.0128696655094",
    "latitude": "30.035895980814814",
    "geocoded_column": {
      "latitude": "30.035895980814814",
      "longitude": "-90.0128696655094"
    }
  },
  {
    "service_request": "2024-1146812",
    "request_type": "Streetlights",
    "request_reason": "Streetlight Outage/Malfunction",
    "date_created": "2024-11-06T17:11:05.000",
    "date_modified": "2024-11-06T17:11:06.000",
    "request_status": "Pending",
    "responsible_agency": "Department of Public Works",
    "final_address": "6220 Colbert St",
    "address_councildis": "A",
    "status": "Pending",
    "contractor": "Legacy Professional Services",
    "rowid": "1146812",
    "final_x": "3667472.42612",
    "final_y": "548919.283603",
    "longitude": "-90.1117787913836",
    "latitude": "30.00375630154051",
    "geocoded_column": {
      "latitude": "30.00375630154051",
      "longitude": "-90.1117787913836"
    }
  },
  {
    "service_request": "2024-1146811",
    "request_type": "Streetlights",
    "request_reason": "Streetlight Outage/Malfunction",
    "date_created": "2024-11-06T17:06:36.000",
    "date_modified": "2024-11-06T17:06:37.000",
    "request_status": "Pending",
    "responsible_agency": "Department of Public Works",
    "final_address": "6666 Spanish Fort Blvd",
    "address_councildis": "D",
    "status": "Pending",
    "contractor": "Legacy Professional Services",
    "rowid": "1146811",
    "final_x": "3673693.87323",
    "final_y": "556362.43593",
    "longitude": "-90.09186939961795",
    "latitude": "30.02403847908834",
    "geocoded_column": {
      "latitude": "30.02403847908834",
      "longitude": "-90.09186939961795"
    }
  },
  {
    "service_request": "2024-1146810",
    "request_type": "Trash/Recycling",
    "request_reason": "Missed Trash Pick-Up",
    "date_created": "2024-11-06T16:56:40.000",
    "date_modified": "2024-11-06T16:56:41.000",
    "request_status": "Pending",
    "responsible_agency": "Department of Sanitation",
    "final_address": "6051 Louisville St",
    "address_councildis": "A",
    "status": "Assigned to Contractor",
    "contractor": "IV Waste",
    "rowid": "1146810",
    "final_x": "3667878.37921",
    "final_y": "547742.226386",
    "longitude": "-90.1105359958544",
    "latitude": "30.000507896128276",
    "geocoded_column": {
      "latitude": "30.000507896128276",
      "longitude": "-90.1105359958544"
    }
  },
  {
    "service_request": "2024-1146809",
    "request_type": "Trash/Recycling",
    "request_reason": "Request a Large Item Pick Up",
    "date_created": "2024-11-06T16:52:58.000",
    "date_modified": "2024-11-06T16:52:59.000",
    "request_status": "Pending",
    "responsible_agency": "Department of Sanitation",
    "final_address": "1018 Washington Ave",
    "address_councildis": "B",
    "status": "Assigned to Contractor",
    "contractor": "IV Waste",
    "rowid": "1146809",
    "final_x": "3677109.33102",
    "final_y": "520622.566456",
    "longitude": "-90.08231017109834",
    "latitude": "29.925663916064426",
    "geocoded_column": {
      "latitude": "29.925663916064426",
      "longitude": "-90.08231017109834"
    }
  },
  {
    "service_request": "2024-1146808",
    "request_type": "Trash/Recycling",
    "request_reason": "Request a Large Item Pick Up",
    "date_created": "2024-11-06T16:52:27.000",
    "date_modified": "2024-11-06T16:52:27.000",
    "request_status": "Pending",
    "responsible_agency": "Department of Sanitation",
    "final_address": "1015 Deslonde St",
    "address_councildis": "E",
    "status": "Assigned to Contractor",
    "contractor": "Waste Pro",
    "rowid": "1146808",
    "final_x": "3695355.75824",
    "final_y": "534121.023749",
    "longitude": "-90.0242252104938",
    "latitude": "29.96221961507531",
    "geocoded_column": {
      "latitude": "29.96221961507531",
      "longitude": "-90.0242252104938"
    }
  },
  {
    "service_request": "2024-1146807",
    "request_type": "Trash/Recycling",
    "request_reason": "Illegal Dumping",
    "date_created": "2024-11-06T16:47:57.000",
    "date_modified": "2024-11-06T16:47:58.000",
    "request_status": "Pending",
    "responsible_agency": "Department of Sanitation",
    "final_address": "ARTS ST & BENEFIT ST",
    "address_councildis": "D",
    "status": "Pending",
    "rowid": "1146807",
    "final_x": "3686555.3",
    "final_y": "544581.18",
    "longitude": "-90.05164622076124",
    "latitude": "29.991254892731117",
    "geocoded_column": {
      "latitude": "29.991254892731117",
      "longitude": "-90.05164622076124"
    }
  },
  {
    "service_request": "2024-1146806",
    "request_type": "Traffic Signals",
    "request_reason": "Traffic Signal Malfunctioning or Damaged",
    "date_created": "2024-11-06T16:45:57.000",
    "date_modified": "2024-11-06T16:45:57.000",
    "request_status": "Pending",
    "responsible_agency": "Department of Public Works",
    "final_address": "CANAL ST & BURGUNDY ST",
    "address_councildis": "C",
    "status": "Pending",
    "rowid": "1146806",
    "final_x": "3680365.6",
    "final_y": "531366.28",
    "longitude": "-90.07165769160682",
    "latitude": "29.955107399111597",
    "geocoded_column": {
      "latitude": "29.955107399111597",
      "longitude": "-90.07165769160682"
    }
  },
  {
    "service_request": "2024-1146805",
    "request_type": "Trash/Recycling",
    "request_reason": "Request a Large Item Pick Up",
    "date_created": "2024-11-06T16:44:42.000",
    "date_modified": "2024-11-06T16:44:43.000",
    "request_status": "Pending",
    "responsible_agency": "Department of Sanitation",
    "final_address": "8240 Curran Rd",
    "address_councildis": "E",
    "status": "Assigned to Contractor",
    "contractor": "Waste Pro",
    "rowid": "1146805",
    "final_x": "3702958.69207",
    "final_y": "561906.285599",
    "longitude": "-89.99919484292683",
    "latitude": "30.038377613964986",
    "geocoded_column": {
      "latitude": "30.038377613964986",
      "longitude": "-89.99919484292683"
    }
  },
  {
    "service_request": "2024-1146804",
    "request_type": "Trash/Recycling",
    "request_reason": "Order Second Trash Cart",
    "date_created": "2024-11-06T16:41:32.000",
    "date_modified": "2024-11-06T16:41:33.000",
    "request_status": "Pending",
    "responsible_agency": "Department of Sanitation",
    "final_address": "2049 Halsey Ave",
    "address_councildis": "C",
    "status": "Assigned to Contractor",
    "contractor": "Richards Disposal",
    "rowid": "1146804",
    "final_x": "3697684.84432",
    "final_y": "523294.231931",
    "longitude": "-90.01726302790252",
    "latitude": "29.93237635226288",
    "geocoded_column": {
      "latitude": "29.93237635226288",
      "longitude": "-90.01726302790252"
    }
  },
  {
    "service_request": "2024-1146803",
    "request_type": "Safety & Permits",
    "request_reason": "Zoning Enforcement",
    "date_created": "2024-11-06T16:40:43.000",
    "date_modified": "2024-11-06T16:41:44.000",
    "request_status": "Pending",
    "responsible_agency": "Safety and Permits",
    "final_address": "5400 BLK Royal St",
    "address_councildis": "E",
    "status": "Pending",
    "rowid": "1146803",
    "final_x": "3697027.44154",
    "final_y": "532417.675438",
    "longitude": "-90.01900800830484",
    "latitude": "29.957483389282366",
    "geocoded_column": {
      "latitude": "29.957483389282366",
      "longitude": "-90.01900800830484"
    }
  },
  {
    "service_request": "2024-1146802",
    "request_type": "Trash/Recycling",
    "request_reason": "Request a Large Item Pick Up",
    "date_created": "2024-11-06T16:23:27.000",
    "date_modified": "2024-11-06T16:23:27.000",
    "request_status": "Pending",
    "responsible_agency": "Department of Sanitation",
    "final_address": "2328 Forstall St",
    "address_councildis": "E",
    "status": "Assigned to Contractor",
    "contractor": "Waste Pro",
    "rowid": "1146802",
    "final_x": "3697522.6465",
    "final_y": "538937.558986",
    "longitude": "-90.01720783311293",
    "latitude": "29.975395113464828",
    "geocoded_column": {
      "latitude": "29.975395113464828",
      "longitude": "-90.01720783311293"
    }
  },
  {
    "service_request": "2024-1146801",
    "request_type": "Property Maintenance",
    "request_reason": "Property Maintenance",
    "date_created": "2024-11-06T16:17:08.000",
    "date_modified": "2024-11-06T16:30:22.000",
    "request_status": "Pending",
    "responsible_agency": "Department of Code Enforcement",
    "final_address": "1684 Soniat St",
    "address_councildis": "B",
    "rowid": "1146801",
    "final_x": "3668372.63674",
    "final_y": "521734.278074",
    "longitude": "-90.10985187937145",
    "latitude": "29.92898016137301",
    "geocoded_column": {
      "latitude": "29.92898016137301",
      "longitude": "-90.10985187937145"
    }
  },
  {
    "service_request": "2024-1146800",
    "request_type": "Trash/Recycling",
    "request_reason": "Request a Large Item Pick Up",
    "date_created": "2024-11-06T16:09:52.000",
    "date_modified": "2024-11-06T16:09:53.000",
    "request_status": "Pending",
    "responsible_agency": "Department of Sanitation",
    "final_address": "7940 Pebble Dr",
    "address_councildis": "E",
    "status": "Assigned to Contractor",
    "contractor": "Waste Pro",
    "rowid": "1146800",
    "final_x": "3714323.18008",
    "final_y": "569929.520038",
    "longitude": "-89.96297721778893",
    "latitude": "30.06006951325848",
    "geocoded_column": {
      "latitude": "30.06006951325848",
      "longitude": "-89.96297721778893"
    }
  },
  {
    "service_request": "2024-1146799",
    "request_type": "Trash/Recycling",
    "request_reason": "Request a Large Item Pick Up",
    "date_created": "2024-11-06T15:59:33.000",
    "date_modified": "2024-11-06T15:59:34.000",
    "request_status": "Pending",
    "responsible_agency": "Department of Sanitation",
    "final_address": "6262 Pratt Dr",
    "address_councildis": "D",
    "status": "Assigned to Contractor",
    "contractor": "IV Waste",
    "rowid": "1146799",
    "final_x": "3679774.98434",
    "final_y": "556625.39433",
    "longitude": "-90.0726451043129",
    "latitude": "30.024578954078674",
    "geocoded_column": {
      "latitude": "30.024578954078674",
      "longitude": "-90.0726451043129"
    }
  },
  {
    "service_request": "2024-1146798",
    "request_type": "Trash/Recycling",
    "request_reason": "Request a Large Item Pick Up",
    "date_created": "2024-11-06T15:56:56.000",
    "date_modified": "2024-11-06T15:56:57.000",
    "request_status": "Pending",
    "responsible_agency": "Department of Sanitation",
    "final_address": "427 S Olympia St",
    "address_councildis": "A",
    "status": "Assigned to Contractor",
    "contractor": "IV Waste",
    "rowid": "1146798",
    "final_x": "3668490.86734",
    "final_y": "538467.548041",
    "longitude": "-90.10891418605041",
    "latitude": "29.97498770846052",
    "geocoded_column": {
      "latitude": "29.97498770846052",
      "longitude": "-90.10891418605041"
    }
  },
  {
    "service_request": "2024-1146797",
    "request_type": "Trash/Recycling",
    "request_reason": "Request a Large Item Pick Up",
    "date_created": "2024-11-06T15:55:03.000",
    "date_modified": "2024-11-06T15:55:04.000",
    "request_status": "Pending",
    "responsible_agency": "Department of Sanitation",
    "final_address": "7131 Cove Dr",
    "address_councildis": "E",
    "status": "Assigned to Contractor",
    "contractor": "Waste Pro",
    "rowid": "1146797",
    "final_x": "3700319.29898",
    "final_y": "558756.521948",
    "longitude": "-90.00765113245635",
    "latitude": "30.029801221213713",
    "geocoded_column": {
      "latitude": "30.029801221213713",
      "longitude": "-90.00765113245635"
    }
  },
  {
    "service_request": "2024-1146796",
    "request_type": "Roads and Streets",
    "request_reason": "Pothole",
    "date_created": "2024-11-06T15:47:47.000",
    "date_modified": "2024-11-06T15:47:48.000",
    "request_status": "Pending",
    "responsible_agency": "Department of Public Works",
    "final_address": "3500 BLK Clematis St",
    "address_councildis": "D",
    "status": "Pending",
    "rowid": "1146796",
    "final_x": "3686484.96918",
    "final_y": "545861.240414",
    "longitude": "-90.0518231576351",
    "latitude": "29.994776763214116",
    "geocoded_column": {
      "latitude": "29.994776763214116",
      "longitude": "-90.0518231576351"
    }
  },
  {
    "service_request": "2024-1146795",
    "request_type": "Trash/Recycling",
    "request_reason": "Request a Large Item Pick Up",
    "date_created": "2024-11-06T15:45:44.000",
    "date_modified": "2024-11-06T15:45:45.000",
    "request_status": "Pending",
    "responsible_agency": "Department of Sanitation",
    "final_address": "6118 Royal St",
    "address_councildis": "E",
    "status": "Assigned to Contractor",
    "contractor": "Waste Pro",
    "rowid": "1146795",
    "final_x": "3699045.2817",
    "final_y": "531726.012931",
    "longitude": "-90.01266148099712",
    "latitude": "29.955517766267953",
    "geocoded_column": {
      "latitude": "29.955517766267953",
      "longitude": "-90.01266148099712"
    }
  },
  {
    "service_request": "2024-1146794",
    "request_type": "Roads and Streets",
    "request_reason": "Pothole",
    "date_created": "2024-11-06T15:45:37.000",
    "date_modified": "2024-11-06T15:45:38.000",
    "request_status": "Pending",
    "responsible_agency": "Department of Public Works",
    "final_address": "3651 Clematis St",
    "address_councildis": "D",
    "status": "Pending",
    "rowid": "1146794",
    "final_x": "3686222.16284",
    "final_y": "546394.976656",
    "longitude": "-90.0526344859876",
    "latitude": "29.996252425455083",
    "geocoded_column": {
      "latitude": "29.996252425455083",
      "longitude": "-90.0526344859876"
    }
  },
  {
    "service_request": "2024-1146793",
    "request_type": "Trash/Recycling",
    "request_reason": "Order Trash Cart",
    "date_created": "2024-11-06T15:44:17.000",
    "date_modified": "2024-11-06T15:44:18.000",
    "request_status": "Pending",
    "responsible_agency": "Department of Sanitation",
    "final_address": "2205 Magic St",
    "address_councildis": "D",
    "status": "Assigned to Contractor",
    "contractor": "IV Waste",
    "rowid": "1146793",
    "final_x": "3678146.50459",
    "final_y": "535620.515078",
    "longitude": "-90.07851766204962",
    "latitude": "29.96687210531102",
    "geocoded_column": {
      "latitude": "29.96687210531102",
      "longitude": "-90.07851766204962"
    }
  },
  {
    "service_request": "2024-1146792",
    "request_type": "Trash/Recycling",
    "request_reason": "Return Trash Cart",
    "date_created": "2024-11-06T15:42:40.000",
    "date_modified": "2024-11-06T15:42:41.000",
    "request_status": "Pending",
    "responsible_agency": "Department of Sanitation",
    "final_address": "1728 Piety St",
    "address_councildis": "D",
    "status": "Assigned to Contractor",
    "contractor": "IV Waste",
    "rowid": "1146792",
    "final_x": "3690424.78819",
    "final_y": "538299.985993",
    "longitude": "-90.03964744109541",
    "latitude": "29.973864274730683",
    "geocoded_column": {
      "latitude": "29.973864274730683",
      "longitude": "-90.03964744109541"
    }
  },
  {
    "service_request": "2024-1146791",
    "request_type": "Trash/Recycling",
    "request_reason": "Return Trash Cart",
    "date_created": "2024-11-06T15:41:38.000",
    "date_modified": "2024-11-06T15:41:40.000",
    "request_status": "Pending",
    "responsible_agency": "Department of Sanitation",
    "final_address": "1728 Piety St",
    "address_councildis": "D",
    "status": "Assigned to Contractor",
    "contractor": "IV Waste",
    "rowid": "1146791",
    "final_x": "3690424.78819",
    "final_y": "538299.985993",
    "longitude": "-90.03964744109541",
    "latitude": "29.973864274730683",
    "geocoded_column": {
      "latitude": "29.973864274730683",
      "longitude": "-90.03964744109541"
    }
  },
  {
    "service_request": "2024-1146790",
    "request_type": "Trash/Recycling",
    "request_reason": "Request a Large Item Pick Up",
    "date_created": "2024-11-06T15:41:35.000",
    "date_modified": "2024-11-06T15:41:36.000",
    "request_status": "Pending",
    "responsible_agency": "Department of Sanitation",
    "final_address": "13616 N Cavelier Dr",
    "address_councildis": "E",
    "status": "Assigned to Contractor",
    "contractor": "Waste Pro",
    "rowid": "1146790",
    "final_x": "3724101.32409",
    "final_y": "569699.523366",
    "longitude": "-89.93207830630612",
    "latitude": "30.059111952183287",
    "geocoded_column": {
      "latitude": "30.059111952183287",
      "longitude": "-89.93207830630612"
    }
  },
  {
    "service_request": "2024-1146789",
    "request_type": "Trash/Recycling",
    "request_reason": "Order Trash Cart",
    "date_created": "2024-11-06T15:40:58.000",
    "date_modified": "2024-11-06T15:41:00.000",
    "request_status": "Pending",
    "responsible_agency": "Department of Sanitation",
    "final_address": "1728 Piety St",
    "address_councildis": "D",
    "status": "Assigned to Contractor",
    "contractor": "IV Waste",
    "rowid": "1146789",
    "final_x": "3690424.78819",
    "final_y": "538299.985993",
    "longitude": "-90.03964744109541",
    "latitude": "29.973864274730683",
    "geocoded_column": {
      "latitude": "29.973864274730683",
      "longitude": "-90.03964744109541"
    }
  },
  {
    "service_request": "2024-1146788",
    "request_type": "Health Related Request",
    "request_reason": "Homeless Encampment Complaint",
    "date_created": "2024-11-06T15:38:06.000",
    "date_modified": "2024-11-06T15:38:40.000",
    "request_status": "Pending",
    "responsible_agency": "Health Department",
    "final_address": "CLAIBORNE DR & N CARROLLTON AVE",
    "address_councildis": "A",
    "status": "Pending",
    "rowid": "1146788",
    "final_x": "3674037.5",
    "final_y": "541573.88",
    "longitude": "-90.09129012597217",
    "latitude": "29.983364920264897",
    "geocoded_column": {
      "latitude": "29.983364920264897",
      "longitude": "-90.09129012597217"
    }
  },
  {
    "service_request": "2024-1146787",
    "request_type": "Streetlights",
    "request_reason": "Streetlight Outage/Malfunction",
    "date_created": "2024-11-06T15:31:57.000",
    "date_modified": "2024-11-06T15:31:58.000",
    "request_status": "Pending",
    "responsible_agency": "Department of Public Works",
    "final_address": "941 St Maurice Ave",
    "address_councildis": "E",
    "status": "Pending",
    "contractor": "Legacy Professional Services",
    "rowid": "1146787",
    "final_x": "3699685.28688",
    "final_y": "532707.71098",
    "longitude": "-90.01060480372436",
    "latitude": "29.95819678869321",
    "geocoded_column": {
      "latitude": "29.95819678869321",
      "longitude": "-90.01060480372436"
    }
  },
  {
    "service_request": "2024-1146786",
    "request_type": "Trash/Recycling",
    "request_reason": "Order Second Trash Cart",
    "date_created": "2024-11-06T15:31:51.000",
    "date_modified": "2024-11-06T15:31:52.000",
    "request_status": "Pending",
    "responsible_agency": "Department of Sanitation",
    "final_address": "3811 Carondelet St",
    "address_councildis": "B",
    "status": "Assigned to Contractor",
    "contractor": "IV Waste",
    "rowid": "1146786",
    "final_x": "3672669.66024",
    "final_y": "521484.956921",
    "longitude": "-90.09629550102866",
    "latitude": "29.92816774885329",
    "geocoded_column": {
      "latitude": "29.92816774885329",
      "longitude": "-90.09629550102866"
    }
  },
  {
    "service_request": "2024-1146785",
    "request_type": "Trash/Recycling",
    "request_reason": "Illegal Dumping",
    "date_created": "2024-11-06T15:31:24.000",
    "date_modified": "2024-11-06T15:34:54.000",
    "request_status": "Pending",
    "responsible_agency": "Department of Sanitation",
    "final_address": "7900 BLK Lamb Rd",
    "address_councildis": "E",
    "status": "Pending",
    "rowid": "1146785",
    "final_x": "3696581.71966",
    "final_y": "560468.263037",
    "longitude": "-90.01939976666517",
    "latitude": "30.034626221822098",
    "geocoded_column": {
      "latitude": "30.034626221822098",
      "longitude": "-90.01939976666517"
    }
  },
  {
    "service_request": "2024-1146784",
    "request_type": "Streetlights",
    "request_reason": "Streetlight Outage/Malfunction",
    "date_created": "2024-11-06T15:31:07.000",
    "date_modified": "2024-11-06T15:31:08.000",
    "request_status": "Pending",
    "responsible_agency": "Department of Public Works",
    "final_address": "1026 St Maurice Ave",
    "address_councildis": "E",
    "status": "Pending",
    "contractor": "Legacy Professional Services",
    "rowid": "1146784",
    "final_x": "3699701.7226",
    "final_y": "532943.680452",
    "longitude": "-90.0105443026389",
    "latitude": "29.958845099076424",
    "geocoded_column": {
      "latitude": "29.958845099076424",
      "longitude": "-90.0105443026389"
    }
  },
  {
    "service_request": "2024-1146783",
    "request_type": "Trash/Recycling",
    "request_reason": "Request a Large Item Pick Up",
    "date_created": "2024-11-06T15:30:34.000",
    "date_modified": "2024-11-06T15:30:35.000",
    "request_status": "Pending",
    "responsible_agency": "Department of Sanitation",
    "final_address": "1826 Delery St",
    "address_councildis": "E",
    "status": "Assigned to Contractor",
    "contractor": "Waste Pro",
    "rowid": "1146783",
    "final_x": "3701448.8817",
    "final_y": "535632.097222",
    "longitude": "-90.0049288374051",
    "latitude": "29.966181705029264",
    "geocoded_column": {
      "latitude": "29.966181705029264",
      "longitude": "-90.0049288374051"
    }
  },
  {
    "service_request": "2024-1146782",
    "request_type": "Trash/Recycling",
    "request_reason": "Request a Large Item Pick Up",
    "date_created": "2024-11-06T15:27:09.000",
    "date_modified": "2024-11-06T15:27:10.000",
    "request_status": "Pending",
    "responsible_agency": "Department of Sanitation",
    "final_address": "1300 Marais St",
    "address_councildis": "C",
    "status": "Assigned to Contractor",
    "contractor": "IV Waste",
    "rowid": "1146782",
    "final_x": "3681986.97263",
    "final_y": "535711.077959",
    "longitude": "-90.06638631231606",
    "latitude": "29.96700492041323",
    "geocoded_column": {
      "latitude": "29.96700492041323",
      "longitude": "-90.06638631231606"
    }
  },
  {
    "service_request": "2024-1146781",
    "request_type": "Parks & Parkways",
    "request_reason": "Request Tree Service (Right of Way/Public Property)",
    "date_created": "2024-11-06T15:26:46.000",
    "date_modified": "2024-11-06T15:26:47.000",
    "request_status": "Pending",
    "responsible_agency": "Department of Parks & Parkway",
    "final_address": "1300 Marais St",
    "address_councildis": "C",
    "status": "Pending",
    "rowid": "1146781",
    "final_x": "3681986.97263",
    "final_y": "535711.077959",
    "longitude": "-90.06638631231606",
    "latitude": "29.96700492041323",
    "geocoded_column": {
      "latitude": "29.96700492041323",
      "longitude": "-90.06638631231606"
    }
  },
  {
    "service_request": "2024-1146780",
    "request_type": "Mosquito, Termite & Rodent Control",
    "request_reason": "Rodent Complaint (Rats)",
    "date_created": "2024-11-06T15:25:17.000",
    "date_modified": "2024-11-06T15:25:17.000",
    "request_status": "Pending",
    "responsible_agency": "Mosquito, Termite & Rodent Control Board",
    "final_address": "2433 N Claiborne Ave",
    "address_councildis": "D",
    "status": "Pending",
    "rowid": "1146780",
    "final_x": "3686634.76962",
    "final_y": "538325.563593",
    "longitude": "-90.05161622739914",
    "latitude": "29.974051718516314",
    "geocoded_column": {
      "latitude": "29.974051718516314",
      "longitude": "-90.05161622739914"
    }
  },
  {
    "service_request": "2024-1146779",
    "request_type": "Trash/Recycling",
    "request_reason": "Request a Large Item Pick Up",
    "date_created": "2024-11-06T15:24:32.000",
    "date_modified": "2024-11-06T15:24:33.000",
    "request_status": "Pending",
    "responsible_agency": "Department of Sanitation",
    "final_address": "7145 Downman Rd",
    "address_councildis": "D",
    "status": "Assigned to Contractor",
    "contractor": "Waste Pro",
    "rowid": "1146779",
    "final_x": "3695294.48867",
    "final_y": "556839.897242",
    "longitude": "-90.02359864589498",
    "latitude": "30.024690123887616",
    "geocoded_column": {
      "latitude": "30.024690123887616",
      "longitude": "-90.02359864589498"
    }
  },
  {
    "service_request": "2024-1146778",
    "request_type": "Mosquito, Termite & Rodent Control",
    "request_reason": "Rodent Complaint (Rats)",
    "date_created": "2024-11-06T15:24:12.000",
    "date_modified": "2024-11-06T15:24:13.000",
    "request_status": "Pending",
    "responsible_agency": "Mosquito, Termite & Rodent Control Board",
    "final_address": "1606 Music St",
    "address_councildis": "D",
    "status": "Pending",
    "rowid": "1146778",
    "final_x": "3686662.90198",
    "final_y": "538369.657801",
    "longitude": "-90.05152582137718",
    "latitude": "29.974172096822983",
    "geocoded_column": {
      "latitude": "29.974172096822983",
      "longitude": "-90.05152582137718"
    }
  },
  {
    "service_request": "2024-1146777",
    "request_type": "Drainage",
    "request_reason": "Catch Basin Clogged",
    "date_created": "2024-11-06T15:23:11.000",
    "date_modified": "2024-11-06T15:23:11.000",
    "request_status": "Pending",
    "responsible_agency": "Department of Public Works",
    "final_address": "4645 Freret St",
    "address_councildis": "B",
    "status": "Pending",
    "rowid": "1146777",
    "final_x": "3669522.96263",
    "final_y": "524037.168764",
    "longitude": "-90.10614265980237",
    "latitude": "29.935278549150258",
    "geocoded_column": {
      "latitude": "29.935278549150258",
      "longitude": "-90.10614265980237"
    }
  },
  {
    "service_request": "2024-1146776",
    "request_type": "Drainage",
    "request_reason": "Catch Basin Damaged",
    "date_created": "2024-11-06T15:22:06.000",
    "date_modified": "2024-11-06T15:22:07.000",
    "request_status": "Pending",
    "responsible_agency": "Department of Public Works",
    "final_address": "1606 Music St",
    "address_councildis": "D",
    "status": "Pending",
    "rowid": "1146776",
    "final_x": "3686662.90198",
    "final_y": "538369.657801",
    "longitude": "-90.05152582137718",
    "latitude": "29.974172096822983",
    "geocoded_column": {
      "latitude": "29.974172096822983",
      "longitude": "-90.05152582137718"
    }
  },
  {
    "service_request": "2024-1146775",
    "request_type": "Drainage",
    "request_reason": "Catch Basin Clogged",
    "date_created": "2024-11-06T15:20:00.000",
    "date_modified": "2024-11-06T15:20:00.000",
    "request_status": "Pending",
    "responsible_agency": "Department of Public Works",
    "final_address": "2123 Ursulines Ave",
    "address_councildis": "D",
    "status": "Pending",
    "rowid": "1146775",
    "final_x": "3679385.3421",
    "final_y": "536853.335304",
    "longitude": "-90.07456264402391",
    "latitude": "29.9702245772427",
    "geocoded_column": {
      "latitude": "29.9702245772427",
      "longitude": "-90.07456264402391"
    }
  },
  {
    "service_request": "2024-1146774",
    "request_type": "Trash/Recycling",
    "request_reason": "Request a Large Item Pick Up",
    "date_created": "2024-11-06T15:17:30.000",
    "date_modified": "2024-11-06T15:17:31.000",
    "request_status": "Pending",
    "responsible_agency": "Department of Sanitation",
    "final_address": "PONTCHARTRAIN BLVD & 14TH ST",
    "address_councildis": "A",
    "status": "Assigned to Contractor",
    "contractor": "IV Waste",
    "rowid": "1146774",
    "final_x": "3666114.8",
    "final_y": "548077.88",
    "longitude": "-90.11609601432181",
    "latitude": "30.001482459012003",
    "geocoded_column": {
      "latitude": "30.001482459012003",
      "longitude": "-90.11609601432181"
    }
  },
  {
    "service_request": "2024-1146773",
    "request_type": "Trash/Recycling",
    "request_reason": "Replace Trash Cart",
    "date_created": "2024-11-06T15:14:32.000",
    "date_modified": "2024-11-06T15:14:34.000",
    "request_status": "Pending",
    "responsible_agency": "Department of Sanitation",
    "final_address": "814 Marengo St",
    "address_councildis": "B",
    "status": "Assigned to Contractor",
    "contractor": "IV Waste",
    "rowid": "1146773",
    "final_x": "3672142.59419",
    "final_y": "518643.234999",
    "longitude": "-90.09805604250643",
    "latitude": "29.920369557882324",
    "geocoded_column": {
      "latitude": "29.920369557882324",
      "longitude": "-90.09805604250643"
    }
  },
  {
    "service_request": "2024-1146772",
    "request_type": "Parks & Parkways",
    "request_reason": "Request Tree Service (Right of Way/Public Property)",
    "date_created": "2024-11-06T15:13:07.000",
    "date_modified": "2024-11-06T15:13:08.000",
    "request_status": "Pending",
    "responsible_agency": "Department of Parks & Parkway",
    "final_address": "KENILWORTH ST & VICKSBURG ST",
    "address_councildis": "A",
    "status": "Pending",
    "rowid": "1146772",
    "final_x": "3668716.1",
    "final_y": "545611.98",
    "longitude": "-90.10796154015407",
    "latitude": "29.994625846371157",
    "geocoded_column": {
      "latitude": "29.994625846371157",
      "longitude": "-90.10796154015407"
    }
  },
  {
    "service_request": "2024-1146771",
    "request_type": "Roads and Streets",
    "request_reason": "Pothole",
    "date_created": "2024-11-06T15:12:58.000",
    "date_modified": "2024-11-06T15:12:58.000",
    "request_status": "Pending",
    "responsible_agency": "Department of Public Works",
    "final_address": "1800 BLK Thalia St",
    "address_councildis": "B",
    "status": "Pending",
    "rowid": "1146771",
    "final_x": "3678406.45057",
    "final_y": "526402.786549",
    "longitude": "-90.07801566054985",
    "latitude": "29.941518619291305",
    "geocoded_column": {
      "latitude": "29.941518619291305",
      "longitude": "-90.07801566054985"
    }
  },
  {
    "service_request": "2024-1146770",
    "request_type": "Trash/Recycling",
    "request_reason": "Illegal Dumping",
    "date_created": "2024-11-06T15:12:44.000",
    "date_modified": "2024-11-06T15:12:44.000",
    "request_status": "Pending",
    "responsible_agency": "Department of Sanitation",
    "final_address": "8600 Lake Forest Blvd",
    "address_councildis": "E",
    "status": "Pending",
    "rowid": "1146770",
    "final_x": "3706233.01867",
    "final_y": "557882.382491",
    "longitude": "-89.98899638685525",
    "latitude": "30.027208226926486",
    "geocoded_column": {
      "latitude": "30.027208226926486",
      "longitude": "-89.98899638685525"
    }
  },
  {
    "service_request": "2024-1146769",
    "request_type": "Parks & Parkways",
    "request_reason": "Request Tree Service (Right of Way/Public Property)",
    "date_created": "2024-11-06T15:10:43.000",
    "date_modified": "2024-11-06T15:10:44.000",
    "request_status": "Pending",
    "responsible_agency": "Department of Parks & Parkway",
    "final_address": "2 Chatham Dr",
    "address_councildis": "D",
    "status": "Pending",
    "rowid": "1146769",
    "final_x": "3680398.15317",
    "final_y": "551033.291413",
    "longitude": "-90.07087068427232",
    "latitude": "30.009183835511617",
    "geocoded_column": {
      "latitude": "30.009183835511617",
      "longitude": "-90.07087068427232"
    }
  },
  {
    "service_request": "2024-1146768",
    "request_type": "Trash/Recycling",
    "request_reason": "Request a Large Item Pick Up",
    "date_created": "2024-11-06T15:08:54.000",
    "date_modified": "2024-11-06T15:08:55.000",
    "request_status": "Pending",
    "responsible_agency": "Department of Sanitation",
    "final_address": "1943 Port St",
    "address_councildis": "D",
    "status": "Assigned to Contractor",
    "contractor": "IV Waste",
    "rowid": "1146768",
    "final_x": "3688298.99011",
    "final_y": "539705.577738",
    "longitude": "-90.04631130171201",
    "latitude": "29.97779497890893",
    "geocoded_column": {
      "latitude": "29.97779497890893",
      "longitude": "-90.04631130171201"
    }
  },
  {
    "service_request": "2024-1146767",
    "request_type": "Trash/Recycling",
    "request_reason": "MIssed Recycling Pick-Up",
    "date_created": "2024-11-06T15:07:22.000",
    "date_modified": "2024-11-06T16:08:30.000",
    "case_close_date": "2024-11-06T10:08:30.000",
    "request_status": "Closed",
    "responsible_agency": "Department of Sanitation",
    "final_address": "6511 S Claiborne Ave",
    "address_councildis": "A",
    "status": "Invalid Request",
    "contractor": "IV Waste",
    "contractor_action": "Invalid",
    "rowid": "1146767",
    "final_x": "3666787.61857",
    "final_y": "528985.805568",
    "longitude": "-90.1146120081786",
    "latitude": "29.948965976484548",
    "geocoded_column": {
      "latitude": "29.948965976484548",
      "longitude": "-90.1146120081786"
    }
  },
  {
    "service_request": "2024-1146766",
    "request_type": "Trash/Recycling",
    "request_reason": "Request a Large Item Pick Up",
    "date_created": "2024-11-06T15:03:13.000",
    "date_modified": "2024-11-06T15:03:14.000",
    "request_status": "Pending",
    "responsible_agency": "Department of Sanitation",
    "final_address": "11227 Asphodel Dr",
    "address_councildis": "E",
    "status": "Assigned to Contractor",
    "contractor": "Waste Pro",
    "rowid": "1146766",
    "final_x": "3717530.6604",
    "final_y": "559651.497821",
    "longitude": "-89.9532299518182",
    "latitude": "30.031703289235452",
    "geocoded_column": {
      "latitude": "30.031703289235452",
      "longitude": "-89.9532299518182"
    }
  },
  {
    "service_request": "2024-1146765",
    "request_type": "Trash/Recycling",
    "request_reason": "Order Trash Cart",
    "date_created": "2024-11-06T15:01:22.000",
    "date_modified": "2024-11-06T15:01:24.000",
    "request_status": "Pending",
    "responsible_agency": "Department of Sanitation",
    "final_address": "4834 Galahad Dr",
    "address_councildis": "E",
    "status": "Assigned to Contractor",
    "contractor": "Waste Pro",
    "rowid": "1146765",
    "final_x": "3707066.82033",
    "final_y": "556189.091482",
    "longitude": "-89.98642456659093",
    "latitude": "30.02252541231085",
    "geocoded_column": {
      "latitude": "30.02252541231085",
      "longitude": "-89.98642456659093"
    }
  },
  {
    "service_request": "2024-1146764",
    "request_type": "Trash/Recycling",
    "request_reason": "Request a Large Item Pick Up",
    "date_created": "2024-11-06T15:01:05.000",
    "date_modified": "2024-11-06T15:01:06.000",
    "request_status": "Pending",
    "responsible_agency": "Department of Sanitation",
    "final_address": "203 Fairfax Pl",
    "address_councildis": "C",
    "status": "Assigned to Contractor",
    "contractor": "Richards Disposal",
    "rowid": "1146764",
    "final_x": "3706132.38078",
    "final_y": "517360.447861",
    "longitude": "-89.9908146283407",
    "latitude": "29.91579102482397",
    "geocoded_column": {
      "latitude": "29.91579102482397",
      "longitude": "-89.9908146283407"
    }
  },
  {
    "service_request": "2024-1146763",
    "request_type": "Roads and Streets",
    "request_reason": "Sidewalk Damaged or Missing",
    "date_created": "2024-11-06T15:00:52.000",
    "date_modified": "2024-11-06T15:00:52.000",
    "request_status": "Pending",
    "responsible_agency": "Department of Public Works",
    "final_address": "900 BLK Dauphine St",
    "address_councildis": "C",
    "status": "Pending",
    "rowid": "1146763",
    "final_x": "3682539.15851",
    "final_y": "533633.404634",
    "longitude": "-90.06471515226373",
    "latitude": "29.961275232498913",
    "geocoded_column": {
      "latitude": "29.961275232498913",
      "longitude": "-90.06471515226373"
    }
  },
  {
    "service_request": "2024-1146762",
    "request_type": "Trash/Recycling",
    "request_reason": "Order Trash Cart",
    "date_created": "2024-11-06T15:00:37.000",
    "date_modified": "2024-11-06T15:00:38.000",
    "request_status": "Pending",
    "responsible_agency": "Department of Sanitation",
    "final_address": "7277 Canal Blvd",
    "address_councildis": "D",
    "status": "Assigned to Contractor",
    "contractor": "IV Waste",
    "rowid": "1146762",
    "final_x": "3669376.43719",
    "final_y": "555423.754649",
    "longitude": "-90.10554350000865",
    "latitude": "30.02158535459421",
    "geocoded_column": {
      "latitude": "30.02158535459421",
      "longitude": "-90.10554350000865"
    }
  },
  {
    "service_request": "2024-1146761",
    "request_type": "Trash/Recycling",
    "request_reason": "Illegal Dumping",
    "date_created": "2024-11-06T15:00:01.000",
    "date_modified": "2024-11-06T15:00:01.000",
    "request_status": "Pending",
    "responsible_agency": "Department of Sanitation",
    "final_address": "2022 Stephen Girard St",
    "address_councildis": "D",
    "status": "Pending",
    "rowid": "1146761",
    "final_x": "3682725.95055",
    "final_y": "548687.823187",
    "longitude": "-90.0635985032073",
    "latitude": "30.002663917495155",
    "geocoded_column": {
      "latitude": "30.002663917495155",
      "longitude": "-90.0635985032073"
    }
  },
  {
    "service_request": "2024-1146760",
    "request_type": "Roads and Streets",
    "request_reason": "Sidewalk Damaged or Missing",
    "date_created": "2024-11-06T14:59:35.000",
    "date_modified": "2024-11-06T14:59:35.000",
    "request_status": "Pending",
    "responsible_agency": "Department of Public Works",
    "final_address": "900 BLK Dauphine St",
    "address_councildis": "C",
    "status": "Pending",
    "rowid": "1146760",
    "final_x": "3682539.15851",
    "final_y": "533633.404634",
    "longitude": "-90.06471515226373",
    "latitude": "29.961275232498913",
    "geocoded_column": {
      "latitude": "29.961275232498913",
      "longitude": "-90.06471515226373"
    }
  },
  {
    "service_request": "2024-1146759",
    "request_type": "Roads and Streets",
    "request_reason": "Sidewalk Damaged or Missing",
    "date_created": "2024-11-06T14:58:05.000",
    "date_modified": "2024-11-06T14:58:05.000",
    "request_status": "Pending",
    "responsible_agency": "Department of Public Works",
    "final_address": "900 BLK Dauphine St",
    "address_councildis": "C",
    "status": "Pending",
    "rowid": "1146759",
    "final_x": "3682539.15851",
    "final_y": "533633.404634",
    "longitude": "-90.06471515226373",
    "latitude": "29.961275232498913",
    "geocoded_column": {
      "latitude": "29.961275232498913",
      "longitude": "-90.06471515226373"
    }
  },
  {
    "service_request": "2024-1146758",
    "request_type": "Trash/Recycling",
    "request_reason": "Request a Large Item Pick Up",
    "date_created": "2024-11-06T14:57:04.000",
    "date_modified": "2024-11-06T14:57:05.000",
    "request_status": "Pending",
    "responsible_agency": "Department of Sanitation",
    "final_address": "6757 Deanne St",
    "address_councildis": "D",
    "status": "Assigned to Contractor",
    "contractor": "Waste Pro",
    "rowid": "1146758",
    "final_x": "3695975.38294",
    "final_y": "555687.789593",
    "longitude": "-90.02148882506809",
    "latitude": "30.02150084725312",
    "geocoded_column": {
      "latitude": "30.02150084725312",
      "longitude": "-90.02148882506809"
    }
  },
  {
    "service_request": "2024-1146757",
    "request_type": "Roads and Streets",
    "request_reason": "Push-up/Pavement Expansion",
    "date_created": "2024-11-06T14:55:50.000",
    "date_modified": "2024-11-06T14:55:50.000",
    "request_status": "Pending",
    "responsible_agency": "Department of Public Works",
    "final_address": "900 BLK Dauphine St",
    "address_councildis": "C",
    "status": "Pending",
    "rowid": "1146757",
    "final_x": "3682539.15851",
    "final_y": "533633.404634",
    "longitude": "-90.06471515226373",
    "latitude": "29.961275232498913",
    "geocoded_column": {
      "latitude": "29.961275232498913",
      "longitude": "-90.06471515226373"
    }
  },
  {
    "service_request": "2024-1146756",
    "request_type": "Trash/Recycling",
    "request_reason": "Order Recycling Cart",
    "date_created": "2024-11-06T14:54:34.000",
    "date_modified": "2024-11-06T14:54:35.000",
    "request_status": "Pending",
    "responsible_agency": "Department of Sanitation",
    "final_address": "1220 St Roch Ave",
    "address_councildis": "C",
    "status": "Pending",
    "rowid": "1146756",
    "final_x": "3686364.70953",
    "final_y": "536964.05076",
    "longitude": "-90.05251720147659",
    "latitude": "29.970316337850523",
    "geocoded_column": {
      "latitude": "29.970316337850523",
      "longitude": "-90.05251720147659"
    }
  },
  {
    "service_request": "2024-1146755",
    "request_type": "Trash/Recycling",
    "request_reason": "Return Recycling Cart",
    "date_created": "2024-11-06T14:54:15.000",
    "date_modified": "2024-11-06T14:54:16.000",
    "request_status": "Pending",
    "responsible_agency": "Department of Sanitation",
    "final_address": "1220 St Roch Ave",
    "address_councildis": "C",
    "status": "Pending",
    "rowid": "1146755",
    "final_x": "3686364.70953",
    "final_y": "536964.05076",
    "longitude": "-90.05251720147659",
    "latitude": "29.970316337850523",
    "geocoded_column": {
      "latitude": "29.970316337850523",
      "longitude": "-90.05251720147659"
    }
  },
  {
    "service_request": "2024-1146754",
    "request_type": "Trash/Recycling",
    "request_reason": "Repair Trash Cart",
    "date_created": "2024-11-06T14:52:54.000",
    "date_modified": "2024-11-06T14:52:55.000",
    "request_status": "Pending",
    "responsible_agency": "Department of Sanitation",
    "final_address": "1220 St Roch Ave",
    "address_councildis": "C",
    "status": "Assigned to Contractor",
    "contractor": "IV Waste",
    "rowid": "1146754",
    "final_x": "3686364.70953",
    "final_y": "536964.05076",
    "longitude": "-90.05251720147659",
    "latitude": "29.970316337850523",
    "geocoded_column": {
      "latitude": "29.970316337850523",
      "longitude": "-90.05251720147659"
    }
  },
  {
    "service_request": "2024-1146753",
    "request_type": "Streetlights",
    "request_reason": "Streetlight Outage/Malfunction",
    "date_created": "2024-11-06T14:52:08.000",
    "date_modified": "2024-11-06T14:52:10.000",
    "request_status": "Pending",
    "responsible_agency": "Department of Public Works",
    "final_address": "300 BLK N Norman C Francis Pkwy",
    "address_councildis": "B",
    "status": "Pending",
    "contractor": "Legacy Professional Services",
    "rowid": "1146753",
    "final_x": "3673879.11251",
    "final_y": "537458.999673",
    "longitude": "-90.09193120590845",
    "latitude": "29.972055124354156",
    "geocoded_column": {
      "latitude": "29.972055124354156",
      "longitude": "-90.09193120590845"
    }
  },
  {
    "service_request": "2024-1146752",
    "request_type": "Abandoned Vehicles",
    "request_reason": "Abandoned/Junk Vehicles",
    "date_created": "2024-11-06T14:50:45.000",
    "date_modified": "2024-11-06T14:52:22.000",
    "request_status": "Pending",
    "responsible_agency": "Department of Public Works",
    "final_address": "2100 Pleasure St",
    "address_councildis": "D",
    "status": "Pending",
    "rowid": "1146752",
    "final_x": "3683565.33199",
    "final_y": "545036.391119",
    "longitude": "-90.06107486928018",
    "latitude": "29.992598183228445",
    "geocoded_column": {
      "latitude": "29.992598183228445",
      "longitude": "-90.06107486928018"
    }
  },
  {
    "service_request": "2024-1146751",
    "request_type": "Trash/Recycling",
    "request_reason": "Request a Large Item Pick Up",
    "date_created": "2024-11-06T14:49:26.000",
    "date_modified": "2024-11-06T14:49:27.000",
    "request_status": "Pending",
    "responsible_agency": "Department of Sanitation",
    "final_address": "1726 Touro St",
    "address_councildis": "D",
    "status": "Assigned to Contractor",
    "contractor": "IV Waste",
    "rowid": "1146751",
    "final_x": "3684007.18729",
    "final_y": "538664.457353",
    "longitude": "-90.05990282228291",
    "latitude": "29.975064113509408",
    "geocoded_column": {
      "latitude": "29.975064113509408",
      "longitude": "-90.05990282228291"
    }
  },
  {
    "service_request": "2024-1146750",
    "request_type": "Abandoned Vehicles",
    "request_reason": "Abandoned/Junk Vehicles",
    "date_created": "2024-11-06T14:47:22.000",
    "date_modified": "2024-11-06T14:48:18.000",
    "request_status": "Pending",
    "responsible_agency": "Department of Public Works",
    "final_address": "1861 Brutus St",
    "address_councildis": "D",
    "status": "Pending",
    "rowid": "1146750",
    "final_x": "3681463.69704",
    "final_y": "550140.502356",
    "longitude": "-90.06753543078176",
    "latitude": "30.006696663633733",
    "geocoded_column": {
      "latitude": "30.006696663633733",
      "longitude": "-90.06753543078176"
    }
  },
  {
    "service_request": "2024-1146749",
    "request_type": "Trash/Recycling",
    "request_reason": "Repair Trash Cart",
    "date_created": "2024-11-06T14:44:10.000",
    "date_modified": "2024-11-06T14:44:11.000",
    "request_status": "Pending",
    "responsible_agency": "Department of Sanitation",
    "final_address": "915 Conrad St",
    "address_councildis": "A",
    "status": "Assigned to Contractor",
    "contractor": "IV Waste",
    "rowid": "1146749",
    "final_x": "3670633.12558",
    "final_y": "554246.873816",
    "longitude": "-90.10161266412445",
    "latitude": "30.018312266356883",
    "geocoded_column": {
      "latitude": "30.018312266356883",
      "longitude": "-90.10161266412445"
    }
  },
  {
    "service_request": "2024-1146748",
    "request_type": "Abandoned Vehicles",
    "request_reason": "Abandoned/Junk Vehicles",
    "date_created": "2024-11-06T14:42:41.000",
    "date_modified": "2024-11-06T14:46:01.000",
    "request_status": "Pending",
    "responsible_agency": "Department of Public Works",
    "final_address": "1861 Brutus St",
    "address_councildis": "D",
    "status": "Pending",
    "rowid": "1146748",
    "final_x": "3681463.69704",
    "final_y": "550140.502356",
    "longitude": "-90.06753543078176",
    "latitude": "30.006696663633733",
    "geocoded_column": {
      "latitude": "30.006696663633733",
      "longitude": "-90.06753543078176"
    }
  },
  {
    "service_request": "2024-1146747",
    "request_type": "Trash/Recycling",
    "request_reason": "Repair Trash Cart",
    "date_created": "2024-11-06T14:41:07.000",
    "date_modified": "2024-11-06T14:41:08.000",
    "request_status": "Pending",
    "responsible_agency": "Department of Sanitation",
    "final_address": "4100 Constance St",
    "address_councildis": "B",
    "status": "Assigned to Contractor",
    "contractor": "IV Waste",
    "rowid": "1146747",
    "final_x": "3672164.72027",
    "final_y": "518489.468342",
    "longitude": "-90.0979914335622",
    "latitude": "29.919946092625132",
    "geocoded_column": {
      "latitude": "29.919946092625132",
      "longitude": "-90.0979914335622"
    }
  },
  {
    "service_request": "2024-1146746",
    "request_type": "Trash/Recycling",
    "request_reason": "Repair Trash Cart",
    "date_created": "2024-11-06T14:36:27.000",
    "date_modified": "2024-11-06T14:36:28.000",
    "request_status": "Pending",
    "responsible_agency": "Department of Sanitation",
    "final_address": "6026 Camp St",
    "address_councildis": "A",
    "status": "Assigned to Contractor",
    "contractor": "IV Waste",
    "rowid": "1146746",
    "final_x": "3664561.50279",
    "final_y": "519580.752248",
    "longitude": "-90.12195479478245",
    "latitude": "29.923169986667812",
    "geocoded_column": {
      "latitude": "29.923169986667812",
      "longitude": "-90.12195479478245"
    }
  },
  {
    "service_request": "2024-1146745",
    "request_type": "Trash/Recycling",
    "request_reason": "Request a Large Item Pick Up",
    "date_created": "2024-11-06T14:35:17.000",
    "date_modified": "2024-11-06T14:35:19.000",
    "request_status": "Pending",
    "responsible_agency": "Department of Sanitation",
    "final_address": "7307 Vanderkloot Ave",
    "address_councildis": "E",
    "status": "Assigned to Contractor",
    "contractor": "Waste Pro",
    "rowid": "1146745",
    "final_x": "3706426.62967",
    "final_y": "562441.188575",
    "longitude": "-89.98821549190617",
    "latitude": "30.03973690451955",
    "geocoded_column": {
      "latitude": "30.03973690451955",
      "longitude": "-89.98821549190617"
    }
  },
  {
    "service_request": "2024-1146744",
    "request_type": "Trash/Recycling",
    "request_reason": "Repair Recycling Cart",
    "date_created": "2024-11-06T14:33:23.000",
    "date_modified": "2024-11-06T14:33:24.000",
    "request_status": "Pending",
    "responsible_agency": "Department of Sanitation",
    "final_address": "7081 Ridgefield Dr",
    "address_councildis": "E",
    "status": "Pending",
    "rowid": "1146744",
    "final_x": "3719303.8341",
    "final_y": "569825.83383",
    "longitude": "-89.9472377740082",
    "latitude": "30.059619696522336",
    "geocoded_column": {
      "latitude": "30.059619696522336",
      "longitude": "-89.9472377740082"
    }
  },
  {
    "service_request": "2024-1146743",
    "request_type": "Trash/Recycling",
    "request_reason": "Illegal Dumping",
    "date_created": "2024-11-06T14:28:51.000",
    "date_modified": "2024-11-06T14:28:51.000",
    "request_status": "Pending",
    "responsible_agency": "Department of Sanitation",
    "final_address": "3534 Carondelet St",
    "address_councildis": "B",
    "status": "Pending",
    "rowid": "1146743",
    "final_x": "3673552.47502",
    "final_y": "521599.826681",
    "longitude": "-90.0935047246501",
    "latitude": "29.92845736759864",
    "geocoded_column": {
      "latitude": "29.92845736759864",
      "longitude": "-90.0935047246501"
    }
  },
  {
    "service_request": "2024-1146742",
    "request_type": "Parks & Parkways",
    "request_reason": "Request Tree Service (Right of Way/Public Property)",
    "date_created": "2024-11-06T14:27:02.000",
    "date_modified": "2024-11-06T14:27:03.000",
    "request_status": "Pending",
    "responsible_agency": "Department of Parks & Parkway",
    "final_address": "6125 General Haig St",
    "address_councildis": "A",
    "status": "Pending",
    "rowid": "1146742",
    "final_x": "3670659.59643",
    "final_y": "547948.51061",
    "longitude": "-90.10174292363858",
    "latitude": "30.00099320290879",
    "geocoded_column": {
      "latitude": "30.00099320290879",
      "longitude": "-90.10174292363858"
    }
  },
  {
    "service_request": "2024-1146741",
    "request_type": "Streetlights",
    "request_reason": "Streetlight Outage/Malfunction",
    "date_created": "2024-11-06T14:26:48.000",
    "date_modified": "2024-11-06T14:26:50.000",
    "request_status": "Pending",
    "responsible_agency": "Department of Public Works",
    "final_address": "LAHARPE ST & N DORGENOIS ST",
    "address_councildis": "D",
    "status": "Pending",
    "contractor": "Legacy Professional Services",
    "rowid": "1146741",
    "final_x": "3679332.2",
    "final_y": "539510.28",
    "longitude": "-90.0746382990075",
    "latitude": "29.97753186507511",
    "geocoded_column": {
      "latitude": "29.97753186507511",
      "longitude": "-90.0746382990075"
    }
  },
  {
    "service_request": "2024-1146740",
    "request_type": "Roads and Streets",
    "request_reason": "Debris in Driving Lanes",
    "date_created": "2024-11-06T14:14:47.000",
    "date_modified": "2024-11-06T14:14:48.000",
    "request_status": "Pending",
    "responsible_agency": "Department of Public Works",
    "final_address": "CHESTNUT ST & BROADWAY ST",
    "address_councildis": "A",
    "status": "Pending",
    "rowid": "1146740",
    "final_x": "3661104.38",
    "final_y": "521908.39",
    "longitude": "-90.1327906846767",
    "latitude": "29.92967030918368",
    "geocoded_column": {
      "latitude": "29.92967030918368",
      "longitude": "-90.1327906846767"
    }
  },
  {
    "service_request": "2024-1146739",
    "request_type": "Streetlights",
    "request_reason": "Streetlight Outage/Malfunction",
    "date_created": "2024-11-06T14:14:46.000",
    "date_modified": "2024-11-06T14:14:47.000",
    "request_status": "Pending",
    "responsible_agency": "Department of Public Works",
    "final_address": "6220 Colbert St",
    "address_councildis": "A",
    "status": "Pending",
    "contractor": "Legacy Professional Services",
    "rowid": "1146739",
    "final_x": "3667472.42612",
    "final_y": "548919.283603",
    "longitude": "-90.1117787913836",
    "latitude": "30.00375630154051",
    "geocoded_column": {
      "latitude": "30.00375630154051",
      "longitude": "-90.1117787913836"
    }
  },
  {
    "service_request": "2024-1146738",
    "request_type": "Property Maintenance",
    "request_reason": "Property Maintenance",
    "date_created": "2024-11-06T14:14:43.000",
    "date_modified": "2024-11-06T15:21:05.000",
    "case_close_date": "2024-11-06T09:21:05.000",
    "request_status": "Closed",
    "responsible_agency": "Department of Code Enforcement",
    "final_address": "3212 S Carrollton Ave",
    "address_councildis": "A",
    "status": "Wrong Agency",
    "rowid": "1146738",
    "final_x": "3666846.95655",
    "final_y": "533740.885061",
    "longitude": "-90.11426491812642",
    "latitude": "29.962039154420996",
    "geocoded_column": {
      "latitude": "29.962039154420996",
      "longitude": "-90.11426491812642"
    }
  },
  {
    "service_request": "2024-1146737",
    "request_type": "Trash/Recycling",
    "request_reason": "Request a Large Item Pick Up",
    "date_created": "2024-11-06T14:07:50.000",
    "date_modified": "2024-11-06T14:07:51.000",
    "request_status": "Pending",
    "responsible_agency": "Department of Sanitation",
    "final_address": "5441 Urquhart St",
    "address_councildis": "E",
    "status": "Assigned to Contractor",
    "contractor": "Waste Pro",
    "rowid": "1146737",
    "final_x": "3697705.59242",
    "final_y": "534643.904646",
    "longitude": "-90.01678585117743",
    "latitude": "29.963583323530717",
    "geocoded_column": {
      "latitude": "29.963583323530717",
      "longitude": "-90.01678585117743"
    }
  },
  {
    "service_request": "2024-1146736",
    "request_type": "Roads and Streets",
    "request_reason": "Debris in Driving Lanes",
    "date_created": "2024-11-06T14:03:34.000",
    "date_modified": "2024-11-06T14:03:35.000",
    "request_status": "Pending",
    "responsible_agency": "Department of Public Works",
    "final_address": "2409 Lowerline St",
    "address_councildis": "A",
    "status": "Pending",
    "rowid": "1146736",
    "final_x": "3666259.60333",
    "final_y": "530518.424706",
    "longitude": "-90.11622778632218",
    "latitude": "29.95319561274215",
    "geocoded_column": {
      "latitude": "29.95319561274215",
      "longitude": "-90.11622778632218"
    }
  },
  {
    "service_request": "2024-1146735",
    "request_type": "Trash/Recycling",
    "request_reason": "Request a Large Item Pick Up",
    "date_created": "2024-11-06T14:02:45.000",
    "date_modified": "2024-11-06T14:02:46.000",
    "request_status": "Pending",
    "responsible_agency": "Department of Sanitation",
    "final_address": "2258 Urquhart St",
    "address_councildis": "C",
    "status": "Assigned to Contractor",
    "contractor": "IV Waste",
    "rowid": "1146735",
    "final_x": "3685570.81718",
    "final_y": "536986.82836",
    "longitude": "-90.05502359261119",
    "latitude": "29.970403345146195",
    "geocoded_column": {
      "latitude": "29.970403345146195",
      "longitude": "-90.05502359261119"
    }
  },
  {
    "service_request": "2024-1146734",
    "request_type": "Trash/Recycling",
    "request_reason": "Request a Large Item Pick Up",
    "date_created": "2024-11-06T14:02:40.000",
    "date_modified": "2024-11-06T14:02:41.000",
    "request_status": "Pending",
    "responsible_agency": "Department of Sanitation",
    "final_address": "2805 Carondelet St",
    "address_councildis": "B",
    "status": "Assigned to Contractor",
    "contractor": "IV Waste",
    "rowid": "1146734",
    "final_x": "3675614.71253",
    "final_y": "522855.212091",
    "longitude": "-90.08695157086846",
    "latitude": "29.931847752664915",
    "geocoded_column": {
      "latitude": "29.931847752664915",
      "longitude": "-90.08695157086846"
    }
  },
  {
    "service_request": "2024-1146733",
    "request_type": "Trash/Recycling",
    "request_reason": "Request a Large Item Pick Up",
    "date_created": "2024-11-06T14:00:46.000",
    "date_modified": "2024-11-06T14:00:47.000",
    "request_status": "Pending",
    "responsible_agency": "Department of Sanitation",
    "final_address": "4667 Lurline St",
    "address_councildis": "E",
    "status": "Assigned to Contractor",
    "contractor": "Waste Pro",
    "rowid": "1146733",
    "final_x": "3712093.73816",
    "final_y": "555705.472025",
    "longitude": "-89.97055904046204",
    "latitude": "30.021032214684656",
    "geocoded_column": {
      "latitude": "30.021032214684656",
      "longitude": "-89.97055904046204"
    }
  },
  {
    "service_request": "2024-1146732",
    "request_type": "Trash/Recycling",
    "request_reason": "Request a Large Item Pick Up",
    "date_created": "2024-11-06T14:00:23.000",
    "date_modified": "2024-11-06T14:00:24.000",
    "request_status": "Pending",
    "responsible_agency": "Department of Sanitation",
    "final_address": "6552 Virgilian St",
    "address_councildis": "D",
    "status": "Assigned to Contractor",
    "contractor": "Waste Pro",
    "rowid": "1146732",
    "final_x": "3697192.93136",
    "final_y": "555436.854617",
    "longitude": "-90.01765082661952",
    "latitude": "30.020772486847964",
    "geocoded_column": {
      "latitude": "30.020772486847964",
      "longitude": "-90.01765082661952"
    }
  },
  {
    "service_request": "2024-1146731",
    "request_type": "Utility Poles",
    "request_reason": "Utility Pole Leaning",
    "date_created": "2024-11-06T13:58:02.000",
    "date_modified": "2024-11-06T13:58:09.000",
    "request_status": "Pending",
    "responsible_agency": "Utility Company Collective",
    "final_address": "1600 BLK Sixth St",
    "address_councildis": "B",
    "status": "Pending",
    "rowid": "1146731",
    "final_x": "3675379.85524",
    "final_y": "522422.353565",
    "longitude": "-90.08770784566441",
    "latitude": "29.930664554735262",
    "geocoded_column": {
      "latitude": "29.930664554735262",
      "longitude": "-90.08770784566441"
    }
  },
  {
    "service_request": "2024-1146730",
    "request_type": "Parks & Parkways",
    "request_reason": "Request Tree Service (Right of Way/Public Property)",
    "date_created": "2024-11-06T13:56:02.000",
    "date_modified": "2024-11-06T13:56:03.000",
    "request_status": "Pending",
    "responsible_agency": "Department of Parks & Parkway",
    "final_address": "LOWERLINE ST & S CLAIBORNE AVE & MOBILE ST",
    "address_councildis": "A",
    "status": "Pending",
    "rowid": "1146730",
    "final_x": "3666116.4",
    "final_y": "530443.68",
    "longitude": "-90.11668246817806",
    "latitude": "29.952994270869485",
    "geocoded_column": {
      "latitude": "29.952994270869485",
      "longitude": "-90.11668246817806"
    }
  },
  {
    "service_request": "2024-1146729",
    "request_type": "Trash/Recycling",
    "request_reason": "Order Trash Cart",
    "date_created": "2024-11-06T13:56:01.000",
    "date_modified": "2024-11-06T13:56:02.000",
    "request_status": "Pending",
    "responsible_agency": "Department of Sanitation",
    "final_address": "2807 New Orleans St",
    "address_councildis": "D",
    "status": "Assigned to Contractor",
    "contractor": "IV Waste",
    "rowid": "1146729",
    "final_x": "3681907.27528",
    "final_y": "542808.822157",
    "longitude": "-90.06639015980446",
    "latitude": "29.98652367129929",
    "geocoded_column": {
      "latitude": "29.98652367129929",
      "longitude": "-90.06639015980446"
    }
  },
  {
    "service_request": "2024-1146728",
    "request_type": "Trash/Recycling",
    "request_reason": "Order Recycling Cart",
    "date_created": "2024-11-06T13:55:26.000",
    "date_modified": "2024-11-06T13:55:26.000",
    "request_status": "Pending",
    "responsible_agency": "Department of Sanitation",
    "final_address": "2807 New Orleans St",
    "address_councildis": "D",
    "status": "Pending",
    "rowid": "1146728",
    "final_x": "3681907.27528",
    "final_y": "542808.822157",
    "longitude": "-90.06639015980446",
    "latitude": "29.98652367129929",
    "geocoded_column": {
      "latitude": "29.98652367129929",
      "longitude": "-90.06639015980446"
    }
  },
  {
    "service_request": "2024-1146727",
    "request_type": "Trash/Recycling",
    "request_reason": "Order Recycling Cart",
    "date_created": "2024-11-06T13:54:49.000",
    "date_modified": "2024-11-06T13:54:50.000",
    "request_status": "Pending",
    "responsible_agency": "Department of Sanitation",
    "final_address": "2805 New Orleans St",
    "address_councildis": "D",
    "status": "Pending",
    "rowid": "1146727",
    "final_x": "3681908.70498",
    "final_y": "542801.131981",
    "longitude": "-90.06638591250298",
    "latitude": "29.9865024825534",
    "geocoded_column": {
      "latitude": "29.9865024825534",
      "longitude": "-90.06638591250298"
    }
  },
  {
    "service_request": "2024-1146726",
    "request_type": "Trash/Recycling",
    "request_reason": "Order Trash Cart",
    "date_created": "2024-11-06T13:53:57.000",
    "date_modified": "2024-11-06T13:53:58.000",
    "request_status": "Pending",
    "responsible_agency": "Department of Sanitation",
    "final_address": "2805 New Orleans St",
    "address_councildis": "D",
    "status": "Assigned to Contractor",
    "contractor": "IV Waste",
    "rowid": "1146726",
    "final_x": "3681908.70498",
    "final_y": "542801.131981",
    "longitude": "-90.06638591250298",
    "latitude": "29.9865024825534",
    "geocoded_column": {
      "latitude": "29.9865024825534",
      "longitude": "-90.06638591250298"
    }
  },
  {
    "service_request": "2024-1146725",
    "request_type": "Trash/Recycling",
    "request_reason": "Request a Large Item Pick Up",
    "date_created": "2024-11-06T13:53:53.000",
    "date_modified": "2024-11-06T13:53:55.000",
    "request_status": "Pending",
    "responsible_agency": "Department of Sanitation",
    "final_address": "3020 Danneel St",
    "address_councildis": "B",
    "status": "Assigned to Contractor",
    "contractor": "IV Waste",
    "rowid": "1146725",
    "final_x": "3674301.642",
    "final_y": "523149.603195",
    "longitude": "-90.0910867230687",
    "latitude": "29.932696440552057",
    "geocoded_column": {
      "latitude": "29.932696440552057",
      "longitude": "-90.0910867230687"
    }
  },
  {
    "service_request": "2024-1146724",
    "request_type": "Trash/Recycling",
    "request_reason": "Request a Large Item Pick Up",
    "date_created": "2024-11-06T13:48:50.000",
    "date_modified": "2024-11-06T13:48:51.000",
    "request_status": "Pending",
    "responsible_agency": "Department of Sanitation",
    "final_address": "1311 Holiday Pl",
    "address_councildis": "C",
    "status": "Assigned to Contractor",
    "contractor": "Richards Disposal",
    "rowid": "1146724",
    "final_x": "3698941.80586",
    "final_y": "526583.417406",
    "longitude": "-90.01317530652271",
    "latitude": "29.941380714218354",
    "geocoded_column": {
      "latitude": "29.941380714218354",
      "longitude": "-90.01317530652271"
    }
  },
  {
    "service_request": "2024-1146723",
    "request_type": "Trash/Recycling",
    "request_reason": "Order Recycling Cart",
    "date_created": "2024-11-06T13:45:46.000",
    "date_modified": "2024-11-06T13:45:47.000",
    "request_status": "Pending",
    "responsible_agency": "Department of Sanitation",
    "final_address": "6443 Milne Blvd",
    "address_councildis": "A",
    "status": "Pending",
    "rowid": "1146723",
    "final_x": "3667449.09895",
    "final_y": "550526.808276",
    "longitude": "-90.11179834678744",
    "latitude": "30.008177118856192",
    "geocoded_column": {
      "latitude": "30.008177118856192",
      "longitude": "-90.11179834678744"
    }
  },
  {
    "service_request": "2024-1146722",
    "request_type": "Property Maintenance",
    "request_reason": "Property Maintenance",
    "date_created": "2024-11-06T13:44:30.000",
    "date_modified": "2024-11-06T14:07:50.000",
    "case_close_date": "2024-11-06T08:07:50.000",
    "request_status": "Closed",
    "responsible_agency": "Department of Code Enforcement",
    "final_address": "7801 S Coronet Ct",
    "address_councildis": "E",
    "status": "Referred to Code Enforcement",
    "rowid": "1146722",
    "final_x": "3702937.97361",
    "final_y": "557367.221915",
    "longitude": "-89.99942730798519",
    "latitude": "30.025897619526315",
    "geocoded_column": {
      "latitude": "30.025897619526315",
      "longitude": "-89.99942730798519"
    }
  },
  {
    "service_request": "2024-1146721",
    "request_type": "Roads and Streets",
    "request_reason": "Pothole",
    "date_created": "2024-11-06T13:43:59.000",
    "date_modified": "2024-11-06T13:43:59.000",
    "request_status": "Pending",
    "responsible_agency": "Department of Public Works",
    "final_address": "4000 Constance St",
    "address_councildis": "B",
    "status": "Pending",
    "rowid": "1146721",
    "final_x": "3672526.53006",
    "final_y": "518524.538359",
    "longitude": "-90.09684817851132",
    "latitude": "29.92003179335413",
    "geocoded_column": {
      "latitude": "29.92003179335413",
      "longitude": "-90.09684817851132"
    }
  },
  {
    "service_request": "2024-1146720",
    "request_type": "Traffic Signals",
    "request_reason": "Traffic Signal Malfunctioning or Damaged",
    "date_created": "2024-11-06T13:43:42.000",
    "date_modified": "2024-11-06T13:43:42.000",
    "request_status": "Pending",
    "responsible_agency": "Department of Public Works",
    "final_address": "DESIRE PKWY & OLD GENTILLY RD",
    "address_councildis": "D",
    "status": "Pending",
    "rowid": "1146720",
    "final_x": "3692223.3",
    "final_y": "549672.38",
    "longitude": "-90.03355995060957",
    "latitude": "30.005078288553808",
    "geocoded_column": {
      "latitude": "30.005078288553808",
      "longitude": "-90.03355995060957"
    }
  },
  {
    "service_request": "2024-1146719",
    "request_type": "Trash/Recycling",
    "request_reason": "Repair Trash Cart",
    "date_created": "2024-11-06T13:43:37.000",
    "date_modified": "2024-11-06T13:43:38.000",
    "request_status": "Pending",
    "responsible_agency": "Department of Sanitation",
    "final_address": "4585 Montegut Dr",
    "address_councildis": "D",
    "status": "Assigned to Contractor",
    "contractor": "IV Waste",
    "rowid": "1146719",
    "final_x": "3690014.94908",
    "final_y": "550606.777748",
    "longitude": "-90.04050326437357",
    "latitude": "30.007716233750774",
    "geocoded_column": {
      "latitude": "30.007716233750774",
      "longitude": "-90.04050326437357"
    }
  },
  {
    "service_request": "2024-1146718",
    "request_type": "Drainage",
    "request_reason": "Drainage Manhole Cover Missing or Damaged",
    "date_created": "2024-11-06T13:43:06.000",
    "date_modified": "2024-11-06T13:43:06.000",
    "request_status": "Pending",
    "responsible_agency": "Department of Public Works",
    "final_address": "2523 Verbena St",
    "address_councildis": "D",
    "status": "Pending",
    "rowid": "1146718",
    "final_x": "3686474.09129",
    "final_y": "547790.36309",
    "longitude": "-90.05178936379812",
    "latitude": "30.000081490439236",
    "geocoded_column": {
      "latitude": "30.000081490439236",
      "longitude": "-90.05178936379812"
    }
  },
  {
    "service_request": "2024-1146717",
    "request_type": "Traffic Signals",
    "request_reason": "Traffic Signal Malfunctioning or Damaged",
    "date_created": "2024-11-06T13:42:21.000",
    "date_modified": "2024-11-06T13:42:22.000",
    "request_status": "Pending",
    "responsible_agency": "Department of Public Works",
    "final_address": "CHEF MENTEUR HWY & DALE ST",
    "address_councildis": "E",
    "status": "Pending",
    "rowid": "1146717",
    "final_x": "3699724.2",
    "final_y": "551982.28",
    "longitude": "-90.00977889450225",
    "latitude": "30.011193557350975",
    "geocoded_column": {
      "latitude": "30.011193557350975",
      "longitude": "-90.00977889450225"
    }
  },
  {
    "service_request": "2024-1146716",
    "request_type": "Trash/Recycling",
    "request_reason": "Request a Large Item Pick Up",
    "date_created": "2024-11-06T13:41:51.000",
    "date_modified": "2024-11-06T13:41:52.000",
    "request_status": "Pending",
    "responsible_agency": "Department of Sanitation",
    "final_address": "7813 S Coronet Ct",
    "address_councildis": "E",
    "status": "Assigned to Contractor",
    "contractor": "Waste Pro",
    "rowid": "1146716",
    "final_x": "3703051.45764",
    "final_y": "557389.326171",
    "longitude": "-89.99906790265514",
    "latitude": "30.025954764660696",
    "geocoded_column": {
      "latitude": "30.025954764660696",
      "longitude": "-89.99906790265514"
    }
  },
  {
    "service_request": "2024-1146715",
    "request_type": "Trash/Recycling",
    "request_reason": "Request a Large Item Pick Up",
    "date_created": "2024-11-06T13:36:58.000",
    "date_modified": "2024-11-06T13:36:59.000",
    "request_status": "Pending",
    "responsible_agency": "Department of Sanitation",
    "final_address": "12 Pointe Coupee Pl",
    "address_councildis": "E",
    "status": "Assigned to Contractor",
    "contractor": "Waste Pro",
    "rowid": "1146715",
    "final_x": "3725329.60409",
    "final_y": "564550.884129",
    "longitude": "-89.92839540982747",
    "latitude": "30.04491399201208",
    "geocoded_column": {
      "latitude": "30.04491399201208",
      "longitude": "-89.92839540982747"
    }
  },
  {
    "service_request": "2024-1146714",
    "request_type": "Trash/Recycling",
    "request_reason": "Return Recycling Cart",
    "date_created": "2024-11-06T13:35:56.000",
    "date_modified": "2024-11-06T13:35:57.000",
    "request_status": "Pending",
    "responsible_agency": "Department of Sanitation",
    "final_address": "4118 Eve St",
    "address_councildis": "B",
    "status": "Pending",
    "rowid": "1146714",
    "final_x": "3670771.94401",
    "final_y": "530436.590466",
    "longitude": "-90.10198250852267",
    "latitude": "29.95283803304059",
    "geocoded_column": {
      "latitude": "29.95283803304059",
      "longitude": "-90.10198250852267"
    }
  },
  {
    "service_request": "2024-1146713",
    "request_type": "Trash/Recycling",
    "request_reason": "Request a Large Item Pick Up",
    "date_created": "2024-11-06T13:28:27.000",
    "date_modified": "2024-11-06T13:28:29.000",
    "request_status": "Pending",
    "responsible_agency": "Department of Sanitation",
    "final_address": "7901 Sandy Cove Dr",
    "address_councildis": "E",
    "status": "Assigned to Contractor",
    "contractor": "Waste Pro",
    "rowid": "1146713",
    "final_x": "3715064.60619",
    "final_y": "570176.955943",
    "longitude": "-89.96062426203768",
    "latitude": "30.060725458099952",
    "geocoded_column": {
      "latitude": "30.060725458099952",
      "longitude": "-89.96062426203768"
    }
  },
  {
    "service_request": "2024-1146712",
    "request_type": "Trash/Recycling",
    "request_reason": "Return Recycling Cart",
    "date_created": "2024-11-06T13:28:16.000",
    "date_modified": "2024-11-06T13:28:17.000",
    "request_status": "Pending",
    "responsible_agency": "Department of Sanitation",
    "final_address": "4116 Eve St",
    "address_councildis": "B",
    "status": "Pending",
    "rowid": "1146712",
    "final_x": "3670787.33153",
    "final_y": "530422.391426",
    "longitude": "-90.1019344032672",
    "latitude": "29.952798535665753",
    "geocoded_column": {
      "latitude": "29.952798535665753",
      "longitude": "-90.1019344032672"
    }
  },
  {
    "service_request": "2024-1146711",
    "request_type": "Trash/Recycling",
    "request_reason": "Return Trash Cart",
    "date_created": "2024-11-06T13:27:31.000",
    "date_modified": "2024-11-06T13:27:47.000",
    "request_status": "Pending",
    "responsible_agency": "Department of Sanitation",
    "final_address": "5637 Magazine St",
    "address_councildis": "A",
    "status": "Assigned to Contractor",
    "contractor": "IV Waste",
    "rowid": "1146711",
    "final_x": "3665890.58336",
    "final_y": "518965.310519",
    "longitude": "-90.11777998840697",
    "latitude": "29.921439012554742",
    "geocoded_column": {
      "latitude": "29.921439012554742",
      "longitude": "-90.11777998840697"
    }
  },
  {
    "service_request": "2024-1146710",
    "request_type": "Safety & Permits",
    "request_reason": "Zoning Enforcement",
    "date_created": "2024-11-06T13:24:52.000",
    "date_modified": "2024-11-06T13:24:53.000",
    "request_status": "Pending",
    "responsible_agency": "Safety and Permits",
    "final_address": "2500 BLK dAbadie St",
    "address_councildis": "D",
    "status": "Pending",
    "rowid": "1146710",
    "final_x": "3679895.11819",
    "final_y": "540470.016289",
    "longitude": "-90.07282706882421",
    "latitude": "29.98015379214438",
    "geocoded_column": {
      "latitude": "29.98015379214438",
      "longitude": "-90.07282706882421"
    }
  },
  {
    "service_request": "2024-1146709",
    "request_type": "Trash/Recycling",
    "request_reason": "Request a Large Item Pick Up",
    "date_created": "2024-11-06T13:20:36.000",
    "date_modified": "2024-11-06T13:20:37.000",
    "request_status": "Pending",
    "responsible_agency": "Department of Sanitation",
    "final_address": "5725 General Diaz St",
    "address_councildis": "A",
    "status": "Assigned to Contractor",
    "contractor": "IV Waste",
    "rowid": "1146709",
    "final_x": "3669398.32666",
    "final_y": "545538.721616",
    "longitude": "-90.10580894181041",
    "latitude": "29.99440433255263",
    "geocoded_column": {
      "latitude": "29.99440433255263",
      "longitude": "-90.10580894181041"
    }
  },
  {
    "service_request": "2024-1146708",
    "request_type": "Trash/Recycling",
    "request_reason": "Request a Large Item Pick Up",
    "date_created": "2024-11-06T13:19:12.000",
    "date_modified": "2024-11-06T13:19:13.000",
    "request_status": "Pending",
    "responsible_agency": "Department of Sanitation",
    "final_address": "5725 General Diaz St",
    "address_councildis": "A",
    "status": "Assigned to Contractor",
    "contractor": "IV Waste",
    "rowid": "1146708",
    "final_x": "3669398.32666",
    "final_y": "545538.721616",
    "longitude": "-90.10580894181041",
    "latitude": "29.99440433255263",
    "geocoded_column": {
      "latitude": "29.99440433255263",
      "longitude": "-90.10580894181041"
    }
  },
  {
    "service_request": "2024-1146707",
    "request_type": "Trash/Recycling",
    "request_reason": "Request a Large Item Pick Up",
    "date_created": "2024-11-06T13:16:59.000",
    "date_modified": "2024-11-06T13:17:01.000",
    "request_status": "Pending",
    "responsible_agency": "Department of Sanitation",
    "final_address": "6126 Royal St",
    "address_councildis": "E",
    "status": "Assigned to Contractor",
    "contractor": "Waste Pro",
    "rowid": "1146707",
    "final_x": "3699080.4522",
    "final_y": "531711.957827",
    "longitude": "-90.01255093745047",
    "latitude": "29.955478005039577",
    "geocoded_column": {
      "latitude": "29.955478005039577",
      "longitude": "-90.01255093745047"
    }
  },
  {
    "service_request": "2024-1146706",
    "request_type": "Trash/Recycling",
    "request_reason": "Request a Large Item Pick Up",
    "date_created": "2024-11-06T13:16:45.000",
    "date_modified": "2024-11-06T13:16:46.000",
    "request_status": "Pending",
    "responsible_agency": "Department of Sanitation",
    "final_address": "3015 Frenchmen St",
    "address_councildis": "D",
    "status": "Assigned to Contractor",
    "contractor": "IV Waste",
    "rowid": "1146706",
    "final_x": "3684032.09199",
    "final_y": "543791.564878",
    "longitude": "-90.05964417238299",
    "latitude": "29.98916109486121",
    "geocoded_column": {
      "latitude": "29.98916109486121",
      "longitude": "-90.05964417238299"
    }
  },
  {
    "service_request": "2024-1146705",
    "request_type": "Roads and Streets",
    "request_reason": "Pothole",
    "date_created": "2024-11-06T13:16:42.000",
    "date_modified": "2024-11-06T13:16:43.000",
    "request_status": "Pending",
    "responsible_agency": "Department of Public Works",
    "final_address": "S LOPEZ ST & CADIZ ST",
    "address_councildis": "A",
    "status": "Pending",
    "rowid": "1146705",
    "final_x": "3668890.2",
    "final_y": "528898.18",
    "longitude": "-90.10797618580513",
    "latitude": "29.948663376007744",
    "geocoded_column": {
      "latitude": "29.948663376007744",
      "longitude": "-90.10797618580513"
    }
  },
  {
    "service_request": "2024-1146704",
    "request_type": "Property Maintenance",
    "request_reason": "Property Maintenance",
    "date_created": "2024-11-06T13:13:02.000",
    "date_modified": "2024-11-06T13:46:15.000",
    "case_close_date": "2024-11-06T07:46:15.000",
    "request_status": "Closed",
    "responsible_agency": "Department of Code Enforcement",
    "final_address": "2459 N Galvez St",
    "address_councildis": "D",
    "status": "Referred to Code Enforcement",
    "rowid": "1146704",
    "final_x": "3686706.19215",
    "final_y": "540186.216139",
    "longitude": "-90.05132491248128",
    "latitude": "29.979165661592",
    "geocoded_column": {
      "latitude": "29.979165661592",
      "longitude": "-90.05132491248128"
    }
  },
  {
    "service_request": "2024-1146703",
    "request_type": "Trash/Recycling",
    "request_reason": "Illegal Dumping",
    "date_created": "2024-11-06T13:10:30.000",
    "date_modified": "2024-11-06T13:12:22.000",
    "request_status": "Pending",
    "responsible_agency": "Department of Sanitation",
    "final_address": "7519 Alabama St",
    "address_councildis": "D",
    "contractor": "Waste Pro",
    "rowid": "1146703",
    "final_x": "3695051.75606",
    "final_y": "558271.801308",
    "longitude": "-90.02431394701516",
    "latitude": "30.02863494255207",
    "geocoded_column": {
      "latitude": "30.02863494255207",
      "longitude": "-90.02431394701516"
    }
  },
  {
    "service_request": "2024-1146702",
    "request_type": "Trash/Recycling",
    "request_reason": "MIssed Recycling Pick-Up",
    "date_created": "2024-11-06T13:09:32.000",
    "date_modified": "2024-11-06T13:09:33.000",
    "request_status": "Pending",
    "responsible_agency": "Department of Sanitation",
    "final_address": "7835 Michigan St",
    "address_councildis": "E",
    "status": "Assigned to Contractor",
    "contractor": "Waste Pro",
    "rowid": "1146702",
    "final_x": "3711270.26168",
    "final_y": "567329.280996",
    "longitude": "-89.97272484704715",
    "latitude": "30.053019954498765",
    "geocoded_column": {
      "latitude": "30.053019954498765",
      "longitude": "-89.97272484704715"
    }
  },
  {
    "service_request": "2024-1146701",
    "request_type": "Drainage",
    "request_reason": "Catch Basin Clogged",
    "date_created": "2024-11-06T13:09:29.000",
    "date_modified": "2024-11-06T13:09:29.000",
    "request_status": "Pending",
    "responsible_agency": "Department of Public Works",
    "final_address": "CANAL ST & N NORMAN C FRANCIS PKWY & S NORMAN C FRANCIS PKWY",
    "address_councildis": "B",
    "status": "Pending",
    "rowid": "1146701",
    "final_x": "3673171.0",
    "final_y": "536825.08",
    "longitude": "-90.09418919581252",
    "latitude": "29.97033313521366",
    "geocoded_column": {
      "latitude": "29.97033313521366",
      "longitude": "-90.09418919581252"
    }
  },
  {
    "service_request": "2024-1146700",
    "request_type": "Trash/Recycling",
    "request_reason": "Order Recycling Cart",
    "date_created": "2024-11-06T13:08:54.000",
    "date_modified": "2024-11-06T13:08:55.000",
    "request_status": "Pending",
    "responsible_agency": "Department of Sanitation",
    "final_address": "4618 Press Dr",
    "address_councildis": "D",
    "status": "Pending",
    "rowid": "1146700",
    "final_x": "3689608.73519",
    "final_y": "550195.742676",
    "longitude": "-90.04180124592374",
    "latitude": "30.00659863408192",
    "geocoded_column": {
      "latitude": "30.00659863408192",
      "longitude": "-90.04180124592374"
    }
  },
  {
    "service_request": "2024-1146699",
    "request_type": "Trash/Recycling",
    "request_reason": "Dead Animal Pick Up",
    "date_created": "2024-11-06T13:06:30.000",
    "date_modified": "2024-11-06T15:02:57.000",
    "case_close_date": "2024-11-06T09:02:57.000",
    "request_status": "Closed",
    "responsible_agency": "Department of Sanitation",
    "final_address": "6099 Chef Menteur Hwy",
    "address_councildis": "D",
    "status": "Assigned to Contractor",
    "contractor": "Waste Pro",
    "contractor_action": "Completed",
    "rowid": "1146699",
    "final_x": "3697179.73751",
    "final_y": "551725.981525",
    "longitude": "-90.01782712927161",
    "latitude": "30.0105694016299",
    "geocoded_column": {
      "latitude": "30.0105694016299",
      "longitude": "-90.01782712927161"
    }
  },
  {
    "service_request": "2024-1146698",
    "request_type": "Trash/Recycling",
    "request_reason": "Order Recycling Cart",
    "date_created": "2024-11-06T13:05:32.000",
    "date_modified": "2024-11-06T13:05:33.000",
    "request_status": "Pending",
    "responsible_agency": "Department of Sanitation",
    "final_address": "1565 Rousselin Dr",
    "address_councildis": "D",
    "status": "Pending",
    "rowid": "1146698",
    "final_x": "3679223.59055",
    "final_y": "539855.544522",
    "longitude": "-90.07496934881216",
    "latitude": "29.978484503109456",
    "geocoded_column": {
      "latitude": "29.978484503109456",
      "longitude": "-90.07496934881216"
    }
  },
  {
    "service_request": "2024-1146697",
    "request_type": "Abandoned Vehicles",
    "request_reason": "Abandoned/Junk Vehicles",
    "date_created": "2024-11-06T13:01:56.000",
    "date_modified": "2024-11-06T13:01:57.000",
    "request_status": "Pending",
    "responsible_agency": "Department of Public Works",
    "final_address": "2702 Jonquil St",
    "address_councildis": "D",
    "status": "Pending",
    "rowid": "1146697",
    "final_x": "3687851.25795",
    "final_y": "547199.406801",
    "longitude": "-90.04745978528584",
    "latitude": "29.998414150862555",
    "geocoded_column": {
      "latitude": "29.998414150862555",
      "longitude": "-90.04745978528584"
    }
  },
  {
    "service_request": "2024-1146696",
    "request_type": "Trash/Recycling",
    "request_reason": "Illegal Dumping",
    "date_created": "2024-11-06T13:00:59.000",
    "date_modified": "2024-11-06T13:01:00.000",
    "request_status": "Pending",
    "responsible_agency": "Department of Sanitation",
    "final_address": "1400 BLK Touro St",
    "address_councildis": "C",
    "status": "Pending",
    "rowid": "1146696",
    "final_x": "3684128.8361",
    "final_y": "537528.72788",
    "longitude": "-90.05955849849164",
    "latitude": "29.97193753512108",
    "geocoded_column": {
      "latitude": "29.97193753512108",
      "longitude": "-90.05955849849164"
    }
  },
  {
    "service_request": "2024-1146695",
    "request_type": "Trash/Recycling",
    "request_reason": "Order Recycling Cart",
    "date_created": "2024-11-06T13:00:41.000",
    "date_modified": "2024-11-06T13:00:42.000",
    "request_status": "Pending",
    "responsible_agency": "Department of Sanitation",
    "final_address": "4019 Hamilton St",
    "address_councildis": "A",
    "status": "Pending",
    "rowid": "1146695",
    "final_x": "3666193.30317",
    "final_y": "538202.177033",
    "longitude": "-90.11617941449525",
    "latitude": "29.97432533434452",
    "geocoded_column": {
      "latitude": "29.97432533434452",
      "longitude": "-90.11617941449525"
    }
  },
  {
    "service_request": "2024-1146694",
    "request_type": "Trash/Recycling",
    "request_reason": "Order Trash Cart",
    "date_created": "2024-11-06T13:00:19.000",
    "date_modified": "2024-11-06T13:00:20.000",
    "request_status": "Pending",
    "responsible_agency": "Department of Sanitation",
    "final_address": "1208 Fats Domino Ave",
    "address_councildis": "E",
    "status": "Assigned to Contractor",
    "contractor": "Waste Pro",
    "rowid": "1146694",
    "final_x": "3698077.57091",
    "final_y": "534220.950341",
    "longitude": "-90.01562654850434",
    "latitude": "29.96240859267331",
    "geocoded_column": {
      "latitude": "29.96240859267331",
      "longitude": "-90.01562654850434"
    }
  },
  {
    "service_request": "2024-1146693",
    "request_type": "Trash/Recycling",
    "request_reason": "Order Recycling Cart",
    "date_created": "2024-11-06T12:59:40.000",
    "date_modified": "2024-11-06T12:59:41.000",
    "request_status": "Pending",
    "responsible_agency": "Department of Sanitation",
    "final_address": "4017 Hamilton St",
    "address_councildis": "A",
    "status": "Pending",
    "rowid": "1146693",
    "final_x": "3666176.72858",
    "final_y": "538183.876745",
    "longitude": "-90.11623237507303",
    "latitude": "29.97427549876059",
    "geocoded_column": {
      "latitude": "29.97427549876059",
      "longitude": "-90.11623237507303"
    }
  },
  {
    "service_request": "2024-1146692",
    "request_type": "Traffic Signals",
    "request_reason": "Traffic Signal Malfunctioning or Damaged",
    "date_created": "2024-11-06T12:57:54.000",
    "date_modified": "2024-11-06T12:57:54.000",
    "request_status": "Pending",
    "responsible_agency": "Department of Public Works",
    "final_address": "4716 Freret St",
    "address_councildis": "B",
    "status": "Pending",
    "rowid": "1146692",
    "final_x": "3669307.92724",
    "final_y": "523892.680124",
    "longitude": "-90.10682641124757",
    "latitude": "29.934887582629994",
    "geocoded_column": {
      "latitude": "29.934887582629994",
      "longitude": "-90.10682641124757"
    }
  },