[
  {
    "service_request": "2023-1018815",
    "request_type": "Trash/Recycling",
    "request_reason": "Replace Trash Cart",
    "date_created": "2023-07-20T01:03:25.000",
    "date_modified": "2023-07-20T01:03:25.000",
    "request_status": "Pending",
    "responsible_agency": "Department of Sanitation",
    "final_address": "4641 Corinne St",
    "address_councildis": "E",
    "status": "Assigned to Contractor",
    "contractor": "Waste Pro",
    "rowid": "1018815",
    "final_x": "3715159.35339",
    "final_y": "556364.58121",
    "longitude": "-89.96084773534669",
    "latitude": "30.022743896275905",
    "geocoded_column": {
      "latitude": "30.022743896275905",
      "longitude": "-89.96084773534669"
    }
  },
  {
    "service_request": "2023-1018814",
    "request_type": "Traffic Signals/Signs/Striping/Streetlights",
    "request_reason": "Street Light Outage/Malfunction",
    "date_created": "2023-07-20T00:48:34.000",
    "date_modified": "2023-07-20T00:48:35.000",
    "request_status": "Pending",
    "responsible_agency": "Department of Public Works",
    "final_address": "5331 Cameron Blvd",
    "address_councildis": "D",
    "status": "Assigned to Contractor",
    "contractor": "Legacy Professional Services",
    "rowid": "1018814",
    "final_x": "3682670.1389",
    "final_y": "552545.735062",
    "longitude": "-90.0636397693684",
    "latitude": "30.013273481584267",
    "geocoded_column": {
      "latitude": "30.013273481584267",
      "longitude": "-90.0636397693684"
    }
  },
  {
    "service_request": "2023-1018813",
    "request_type": "Trash/Recycling",
    "request_reason": "Request a Large Item Pick Up",
    "date_created": "2023-07-20T00:40:00.000",
    "date_modified": "2023-07-20T00:40:00.000",
    "request_status": "Pending",
    "responsible_agency": "Department of Sanitation",
    "final_address": "1900 Alvar St",
    "address_councildis": "D",
    "status": "Assigned to Contractor",
    "contractor": "IV Waste",
    "rowid": "1018813",
    "final_x": "3692199.55261",
    "final_y": "538443.840009",
    "longitude": "-90.03403721319523",
    "latitude": "29.97420460639893",
    "geocoded_column": {
      "latitude": "29.97420460639893",
      "longitude": "-90.03403721319523"
    }
  },
  {
    "service_request": "2023-1018812",
    "request_type": "Safety & Permits",
    "request_reason": "Licenses & Permits",
    "date_created": "2023-07-20T00:07:11.000",
    "date_modified": "2023-07-20T00:07:11.000",
    "request_status": "Pending",
    "responsible_agency": "Safety and Permits",
    "final_address": "2239 St Claude Ave",
    "address_councildis": "C",
    "status": "Pending",
    "rowid": "1018812",
    "final_x": "3685452.01986",
    "final_y": "536447.798023",
    "longitude": "-90.05541775244144",
    "latitude": "29.96892484287943",
    "geocoded_column": {
      "latitude": "29.96892484287943",
      "longitude": "-90.05541775244144"
    }
  },
  {
    "service_request": "2023-1018811",
    "request_type": "Traffic Signals/Signs/Striping/Streetlights",
    "request_reason": "Street Light Outage/Malfunction",
    "date_created": "2023-07-19T23:43:27.000",
    "date_modified": "2023-07-19T23:43:28.000",
    "request_status": "Pending",
    "responsible_agency": "Department of Public Works",
    "final_address": "2808 St Claude Ave",
    "address_councildis": "C",
    "status": "Assigned to Contractor",
    "contractor": "Legacy Professional Services",
    "rowid": "1018811",
    "final_x": "3687794.43516",
    "final_y": "536265.975559",
    "longitude": "-90.048026713356",
    "latitude": "29.96835285436863",
    "geocoded_column": {
      "latitude": "29.96835285436863",
      "longitude": "-90.048026713356"
    }
  },
  {
    "service_request": "2023-1018810",
    "request_type": "Traffic Signals/Signs/Striping/Streetlights",
    "request_reason": "Street Light Outage/Malfunction",
    "date_created": "2023-07-19T23:37:56.000",
    "date_modified": "2023-07-19T23:38:18.000",
    "request_status": "Pending",
    "responsible_agency": "Department of Public Works",
    "final_address": "2808 St Claude Ave",
    "address_councildis": "C",
    "status": "Assigned to Contractor",
    "contractor": "Legacy Professional Services",
    "rowid": "1018810",
    "final_x": "3687794.43516",
    "final_y": "536265.975559",
    "longitude": "-90.048026713356",
    "latitude": "29.96835285436863",
    "geocoded_column": {
      "latitude": "29.96835285436863",
      "longitude": "-90.048026713356"
    }
  },
  {
    "service_request": "2023-1018809",
    "request_type": "Roads/Drainage",
    "request_reason": "Pothole",
    "date_created": "2023-07-19T23:18:31.000",
    "date_modified": "2023-07-19T23:18:31.000",
    "request_status": "Pending",
    "responsible_agency": "Department of Public Works",
    "final_address": "1234 Henry Clay Ave",
    "address_councildis": "A",
    "status": "Pending",
    "rowid": "1018809",
    "final_x": "3664327.06445",
    "final_y": "521120.367609",
    "longitude": "-90.12264347982506",
    "latitude": "29.92741025864685",
    "geocoded_column": {
      "latitude": "29.92741025864685",
      "longitude": "-90.12264347982506"
    }
  },
  {
    "service_request": "2023-1018808",
    "request_type": "Trash/Recycling",
    "request_reason": "Request a Large Item Pick Up",
    "date_created": "2023-07-19T23:00:45.000",
    "date_modified": "2023-07-19T23:00:46.000",
    "request_status": "Pending",
    "responsible_agency": "Department of Sanitation",
    "final_address": "2530 Burgundy St",
    "address_councildis": "C",
    "status": "Assigned to Contractor",
    "contractor": "IV Waste",
    "rowid": "1018808",
    "final_x": "3686816.98095",
    "final_y": "535686.901319",
    "longitude": "-90.05113401597889",
    "latitude": "29.966790713589614",
    "geocoded_column": {
      "latitude": "29.966790713589614",
      "longitude": "-90.05113401597889"
    }
  },
  {
    "service_request": "2023-1018807",
    "request_type": "Property Maintenance",
    "request_reason": "Property Maintenance",
    "date_created": "2023-07-19T22:54:32.000",
    "date_modified": "2023-07-19T22:54:32.000",
    "request_status": "Pending",
    "responsible_agency": "Department of Code Enforcement",
    "final_address": "5700 Campus Blvd",
    "address_councildis": "D",
    "status": "Pending",
    "rowid": "1018807",
    "final_x": "3688816.27164",
    "final_y": "554389.254616",
    "longitude": "-90.04415577851262",
    "latitude": "30.018153783504978",
    "geocoded_column": {
      "latitude": "30.018153783504978",
      "longitude": "-90.04415577851262"
    }
  },
  {
    "service_request": "2023-1018806",
    "request_type": "Traffic Signals/Signs/Striping/Streetlights",
    "request_reason": "Street Light Outage/Malfunction",
    "date_created": "2023-07-19T22:50:24.000",
    "date_modified": "2023-07-19T22:50:24.000",
    "request_status": "Pending",
    "responsible_agency": "Department of Public Works",
    "final_address": " & PRESS DR",
    "address_councildis": "D",
    "status": "Assigned to Contractor",
    "contractor": "Legacy Professional Services",
    "rowid": "1018806",
    "final_x": "3687169.31",
    "final_y": "559124.89",
    "longitude": "-90.04919185681615",
    "latitude": "30.031225864695518",
    "geocoded_column": {
      "latitude": "30.031225864695518",
      "longitude": "-90.04919185681615"
    }
  },
  {
    "service_request": "2023-1018805",
    "request_type": "Property Maintenance",
    "request_reason": "Property Maintenance",
    "date_created": "2023-07-19T22:46:05.000",
    "date_modified": "2023-07-19T22:46:05.000",
    "request_status": "Pending",
    "responsible_agency": "Department of Code Enforcement",
    "final_address": "5700 Campus Blvd",
    "address_councildis": "D",
    "status": "Pending",
    "rowid": "1018805",
    "final_x": "3688816.27164",
    "final_y": "554389.254616",
    "longitude": "-90.04415577851262",
    "latitude": "30.018153783504978",
    "geocoded_column": {
      "latitude": "30.018153783504978",
      "longitude": "-90.04415577851262"
    }
  },
  {
    "service_request": "2023-1018804",
    "request_type": "Traffic Signals/Signs/Striping/Streetlights",
    "request_reason": "Road Surface Marking Maintenance-Bike Lane",
    "date_created": "2023-07-19T22:05:05.000",
    "date_modified": "2023-07-19T22:05:05.000",
    "request_status": "Pending",
    "responsible_agency": "Department of Public Works",
    "final_address": "2763 Banks St",
    "address_councildis": "B",
    "status": "Pending",
    "rowid": "1018804",
    "final_x": "3674242.81416",
    "final_y": "534518.297157",
    "longitude": "-90.09088327736426",
    "latitude": "29.96395834656929",
    "geocoded_column": {
      "latitude": "29.96395834656929",
      "longitude": "-90.09088327736426"
    }
  },
  {
    "service_request": "2023-1018803",
    "request_type": "Trash/Recycling",
    "request_reason": "Missed Trash Pick-Up",
    "date_created": "2023-07-19T22:01:14.000",
    "date_modified": "2023-07-19T22:01:14.000",
    "request_status": "Pending",
    "responsible_agency": "Department of Sanitation",
    "final_address": "5707 Willow St",
    "address_councildis": "A",
    "status": "Assigned to Contractor",
    "contractor": "Richards Disposal",
    "rowid": "1018803",
    "final_x": "3667503.34887",
    "final_y": "525488.772221",
    "longitude": "-90.11246977565567",
    "latitude": "29.93932931393179",
    "geocoded_column": {
      "latitude": "29.93932931393179",
      "longitude": "-90.11246977565567"
    }
  },
  {
    "service_request": "2023-1018802",
    "request_type": "Traffic Signals/Signs/Striping/Streetlights",
    "request_reason": "Street Light Outage/Malfunction",
    "date_created": "2023-07-19T21:58:04.000",
    "date_modified": "2023-07-19T21:58:04.000",
    "request_status": "Pending",
    "responsible_agency": "Department of Public Works",
    "final_address": "BANKS ST & S BROAD ST",
    "address_councildis": "B",
    "status": "Assigned to Contractor",
    "contractor": "Legacy Professional Services",
    "rowid": "1018802",
    "final_x": "3674610.8",
    "final_y": "534180.58",
    "longitude": "-90.08973278513542",
    "latitude": "29.963018761407483",
    "geocoded_column": {
      "latitude": "29.963018761407483",
      "longitude": "-90.08973278513542"
    }
  },
  {
    "service_request": "2023-1018801",
    "request_type": "Property Maintenance",
    "request_reason": "Property Maintenance",
    "date_created": "2023-07-19T21:50:39.000",
    "date_modified": "2023-07-19T21:50:39.000",
    "request_status": "Pending",
    "responsible_agency": "Department of Code Enforcement",
    "final_address": "3928 Camp St",
    "address_councildis": "B",
    "status": "Pending",
    "rowid": "1018801",
    "final_x": "3672744.11624",
    "final_y": "519274.568951",
    "longitude": "-90.09613580000077",
    "latitude": "29.922087680111307",
    "geocoded_column": {
      "latitude": "29.922087680111307",
      "longitude": "-90.09613580000077"
    }
  },
  {
    "service_request": "2023-1018800",
    "request_type": "Traffic Signals/Signs/Striping/Streetlights",
    "request_reason": "Street Light Outage/Malfunction",
    "date_created": "2023-07-19T21:39:57.000",
    "date_modified": "2023-07-19T21:39:58.000",
    "request_status": "Pending",
    "responsible_agency": "Department of Public Works",
    "final_address": "4668 Venus St",
    "address_councildis": "D",
    "status": "Assigned to Contractor",
    "contractor": "Legacy Professional Services",
    "rowid": "1018800",
    "final_x": "3686453.20386",
    "final_y": "550068.7773",
    "longitude": "-90.05177484673423",
    "latitude": "30.006346945916448",
    "geocoded_column": {
      "latitude": "30.006346945916448",
      "longitude": "-90.05177484673423"
    }
  },
  {
    "service_request": "2023-1018799",
    "request_type": "Trash/Recycling",
    "request_reason": "Replace Trash Cart",
    "date_created": "2023-07-19T21:37:49.000",
    "date_modified": "2023-07-19T21:37:49.000",
    "request_status": "Pending",
    "responsible_agency": "Department of Sanitation",
    "final_address": "432 Bermuda St",
    "address_councildis": "C",
    "status": "Assigned to Contractor",
    "contractor": "Richards Disposal",
    "rowid": "1018799",
    "final_x": "3686768.44815",
    "final_y": "530346.626434",
    "longitude": "-90.05147594675714",
    "latitude": "29.95210829351578",
    "geocoded_column": {
      "latitude": "29.95210829351578",
      "longitude": "-90.05147594675714"
    }
  },
  {
    "service_request": "2023-1018798",
    "request_type": "Abandoned Vehicles",
    "request_reason": "Abandoned/Junk Vehicles",
    "date_created": "2023-07-19T21:37:22.000",
    "date_modified": "2023-07-19T21:37:23.000",
    "request_status": "Pending",
    "responsible_agency": "Department of Public Works",
    "final_address": "1043 Horace St",
    "address_councildis": "C",
    "status": "Pending",
    "rowid": "1018798",
    "final_x": "3696345.50154",
    "final_y": "527437.080383",
    "longitude": "-90.02134143797412",
    "latitude": "29.943809986114676",
    "geocoded_column": {
      "latitude": "29.943809986114676",
      "longitude": "-90.02134143797412"
    }
  },
  {
    "service_request": "2023-1018797",
    "request_type": "Traffic Signals/Signs/Striping/Streetlights",
    "request_reason": "Street Light Outage/Malfunction",
    "date_created": "2023-07-19T21:22:25.000",
    "date_modified": "2023-07-19T21:22:25.000",
    "request_status": "Pending",
    "responsible_agency": "Department of Public Works",
    "final_address": "1922 Cadiz St",
    "address_councildis": "B",
    "status": "Assigned to Contractor",
    "contractor": "Legacy Professional Services",
    "rowid": "1018797",
    "final_x": "3669931.49338",
    "final_y": "522055.78521",
    "longitude": "-90.10491998456405",
    "latitude": "29.929818343244776",
    "geocoded_column": {
      "latitude": "29.929818343244776",
      "longitude": "-90.10491998456405"
    }
  },
  {
    "service_request": "2023-1018796",
    "request_type": "Traffic Signals/Signs/Striping/Streetlights",
    "request_reason": "Street Light Outage/Malfunction",
    "date_created": "2023-07-19T21:17:23.000",
    "date_modified": "2023-07-19T21:17:23.000",
    "request_status": "Pending",
    "responsible_agency": "Department of Public Works",
    "final_address": "508 Hillary St",
    "address_councildis": "A",
    "status": "Assigned to Contractor",
    "contractor": "Legacy Professional Services",
    "rowid": "1018796",
    "final_x": "3661683.83776",
    "final_y": "525445.337341",
    "longitude": "-90.13084425422231",
    "latitude": "29.93937909341921",
    "geocoded_column": {
      "latitude": "29.93937909341921",
      "longitude": "-90.13084425422231"
    }
  },
  {
    "service_request": "2023-1018795",
    "request_type": "Traffic Signals/Signs/Striping/Streetlights",
    "request_reason": "Street Light Outage/Malfunction",
    "date_created": "2023-07-19T21:14:29.000",
    "date_modified": "2023-07-19T21:14:30.000",
    "request_status": "Pending",
    "responsible_agency": "Department of Public Works",
    "final_address": "508 Hillary St",
    "address_councildis": "A",
    "status": "Assigned to Contractor",
    "contractor": "Legacy Professional Services",
    "rowid": "1018795",
    "final_x": "3661683.83776",
    "final_y": "525445.337341",
    "longitude": "-90.13084425422231",
    "latitude": "29.93937909341921",
    "geocoded_column": {
      "latitude": "29.93937909341921",
      "longitude": "-90.13084425422231"
    }
  },
  {
    "service_request": "2023-1018794",
    "request_type": "Parks & Parkways",
    "request_reason": "Request Tree Service (Right of Way/Public Property)",
    "date_created": "2023-07-19T20:48:53.000",
    "date_modified": "2023-07-19T20:48:54.000",
    "request_status": "Pending",
    "responsible_agency": "Department of Parks & Parkway",
    "final_address": "Columbus Street & Marais Street",
    "address_councildis": "C",
    "status": "Pending",
    "rowid": "1018794",
    "final_x": "3682666.57672",
    "final_y": "536380.946631",
    "longitude": "-90.0642166916763",
    "latitude": "29.96882614890167",
    "geocoded_column": {
      "latitude": "29.96882614890167",
      "longitude": "-90.0642166916763"
    }
  },
  {
    "service_request": "2023-1018793",
    "request_type": "Traffic Signals/Signs/Striping/Streetlights",
    "request_reason": "Street Light Outage/Malfunction",
    "date_created": "2023-07-19T20:45:48.000",
    "date_modified": "2023-07-19T20:45:49.000",
    "request_status": "Pending",
    "responsible_agency": "Department of Public Works",
    "final_address": "3641 Rue Nichole",
    "address_councildis": "C",
    "status": "Assigned to Contractor",
    "contractor": "Legacy Professional Services",
    "rowid": "1018793",
    "final_x": "3703931.91518",
    "final_y": "517122.099829",
    "longitude": "-89.99776885827487",
    "latitude": "29.91520635732211",
    "geocoded_column": {
      "latitude": "29.91520635732211",
      "longitude": "-89.99776885827487"
    }
  },
  {
    "service_request": "2023-1018792",
    "request_type": "Abandoned Vehicles",
    "request_reason": "Abandoned/Junk Vehicles",
    "date_created": "2023-07-19T20:25:16.000",
    "date_modified": "2023-07-19T20:26:05.000",
    "request_status": "Pending",
    "responsible_agency": "Department of Public Works",
    "final_address": "2558 Agriculture St",
    "address_councildis": "D",
    "status": "Pending",
    "rowid": "1018792",
    "final_x": "3687156.93961",
    "final_y": "543469.785358",
    "longitude": "-90.04978510865773",
    "latitude": "29.98818043678618",
    "geocoded_column": {
      "latitude": "29.98818043678618",
      "longitude": "-90.04978510865773"
    }
  },
  {
    "service_request": "2023-1018791",
    "request_type": "Trash/Recycling",
    "request_reason": "Request a Large Item Pick Up",
    "date_created": "2023-07-19T20:18:52.000",
    "date_modified": "2023-07-19T20:18:52.000",
    "request_status": "Pending",
    "responsible_agency": "Department of Sanitation",
    "final_address": "1433 Toledano St",
    "address_councildis": "B",
    "status": "Assigned to Contractor",
    "contractor": "Richards Disposal",
    "rowid": "1018791",
    "final_x": "3674899.49089",
    "final_y": "521012.759673",
    "longitude": "-90.08927260119415",
    "latitude": "29.92680297771542",
    "geocoded_column": {
      "latitude": "29.92680297771542",
      "longitude": "-90.08927260119415"
    }
  },
  {
    "service_request": "2023-1018790",
    "request_type": "Trash/Recycling",
    "request_reason": "Missed Trash Pick-Up",
    "date_created": "2023-07-19T20:16:51.000",
    "date_modified": "2023-07-19T20:16:52.000",
    "request_status": "Pending",
    "responsible_agency": "Department of Sanitation",
    "final_address": "6333 Music St",
    "address_councildis": "D",
    "status": "Assigned to Contractor",
    "contractor": "IV Waste",
    "rowid": "1018790",
    "final_x": "3685311.12853",
    "final_y": "556575.619994",
    "longitude": "-90.05515363174267",
    "latitude": "30.0242734500425",
    "geocoded_column": {
      "latitude": "30.0242734500425",
      "longitude": "-90.05515363174267"
    }
  },
  {
    "service_request": "2023-1018789",
    "request_type": "Mosquito, Termite & Rodent Control",
    "request_reason": "Mosquito Complaint",
    "date_created": "2023-07-19T20:03:41.000",
    "date_modified": "2023-07-19T20:03:41.000",
    "request_status": "Pending",
    "responsible_agency": "Mosquito, Termite & Rodent Control Board",
    "final_address": "2831 Marais St",
    "address_councildis": "C",
    "status": "Pending",
    "rowid": "1018789",
    "final_x": "3687996.0383",
    "final_y": "536720.956615",
    "longitude": "-90.04737391737255",
    "latitude": "29.969597673472023",
    "geocoded_column": {
      "latitude": "29.969597673472023",
      "longitude": "-90.04737391737255"
    }
  },
  {
    "service_request": "2023-1018788",
    "request_type": "Property Maintenance",
    "request_reason": "Property Maintenance",
    "date_created": "2023-07-19T20:00:39.000",
    "date_modified": "2023-07-19T20:00:39.000",
    "request_status": "Pending",
    "responsible_agency": "Department of Code Enforcement",
    "final_address": "2831 Marais St",
    "address_councildis": "C",
    "status": "Pending",
    "rowid": "1018788",
    "final_x": "3687996.0383",
    "final_y": "536720.956615",
    "longitude": "-90.04737391737255",
    "latitude": "29.969597673472023",
    "geocoded_column": {
      "latitude": "29.969597673472023",
      "longitude": "-90.04737391737255"
    }
  },
  {
    "service_request": "2023-1018787",
    "request_type": "Trash/Recycling",
    "request_reason": "Request a Large Item Pick Up",
    "date_created": "2023-07-19T19:59:18.000",
    "date_modified": "2023-07-19T19:59:18.000",
    "request_status": "Pending",
    "responsible_agency": "Department of Sanitation",
    "final_address": "3309 Chestnut St",
    "address_councildis": "B",
    "status": "Assigned to Contractor",
    "contractor": "Richards Disposal",
    "rowid": "1018787",
    "final_x": "3675001.09422",
    "final_y": "520465.57452",
    "longitude": "-90.08897062464334",
    "latitude": "29.92529536152919",
    "geocoded_column": {
      "latitude": "29.92529536152919",
      "longitude": "-90.08897062464334"
    }
  },
  {
    "service_request": "2023-1018786",
    "request_type": "Roads/Drainage",
    "request_reason": "Catch Basin - Clogged",
    "date_created": "2023-07-19T19:55:59.000",
    "date_modified": "2023-07-19T19:55:59.000",
    "request_status": "Pending",
    "responsible_agency": "Department of Public Works",
    "final_address": "3211 Dauphine St",
    "address_councildis": "C",
    "status": "Pending",
    "rowid": "1018786",
    "final_x": "3689386.37654",
    "final_y": "534719.157574",
    "longitude": "-90.04305431053771",
    "latitude": "29.96405044937224",
    "geocoded_column": {
      "latitude": "29.96405044937224",
      "longitude": "-90.04305431053771"
    }
  },
  {
    "service_request": "2023-1018785",
    "request_type": "Roads/Drainage",
    "request_reason": "Catch Basin - Clogged",
    "date_created": "2023-07-19T19:54:15.000",
    "date_modified": "2023-07-19T19:54:15.000",
    "request_status": "Pending",
    "responsible_agency": "Department of Public Works",
    "final_address": "722 Louisa St",
    "address_councildis": "C",
    "status": "Pending",
    "rowid": "1018785",
    "final_x": "3689190.58281",
    "final_y": "534517.950789",
    "longitude": "-90.04367975914064",
    "latitude": "29.963503261728903",
    "geocoded_column": {
      "latitude": "29.963503261728903",
      "longitude": "-90.04367975914064"
    }
  },
  {
    "service_request": "2023-1018784",
    "request_type": "Roads/Drainage",
    "request_reason": "Catch Basin - Clogged",
    "date_created": "2023-07-19T19:53:46.000",
    "date_modified": "2023-07-19T19:53:46.000",
    "request_status": "Pending",
    "responsible_agency": "Department of Public Works",
    "final_address": "722 Louisa St",
    "address_councildis": "C",
    "status": "Pending",
    "rowid": "1018784",
    "final_x": "3689190.58281",
    "final_y": "534517.950789",
    "longitude": "-90.04367975914064",
    "latitude": "29.963503261728903",
    "geocoded_column": {
      "latitude": "29.963503261728903",
      "longitude": "-90.04367975914064"
    }
  },
  {
    "service_request": "2023-1018783",
    "request_type": "Roads/Drainage",
    "request_reason": "Catch Basin - Clogged",
    "date_created": "2023-07-19T19:52:06.000",
    "date_modified": "2023-07-19T19:52:06.000",
    "request_status": "Pending",
    "responsible_agency": "Department of Public Works",
    "final_address": "1000 BLK Clouet St",
    "address_councildis": "C",
    "status": "Pending",
    "rowid": "1018783",
    "final_x": "3688947.62568",
    "final_y": "535781.783867",
    "longitude": "-90.04440209512187",
    "latitude": "29.966985878136775",
    "geocoded_column": {
      "latitude": "29.966985878136775",
      "longitude": "-90.04440209512187"
    }
  },
  {
    "service_request": "2023-1018782",
    "request_type": "Roads/Drainage",
    "request_reason": "Street Flooding / Drainage",
    "date_created": "2023-07-19T19:49:19.000",
    "date_modified": "2023-07-19T19:49:19.000",
    "request_status": "Pending",
    "responsible_agency": "Department of Public Works",
    "final_address": "1023 Clouet St",
    "address_councildis": "C",
    "status": "Pending",
    "rowid": "1018782",
    "final_x": "3688971.66857",
    "final_y": "535753.253959",
    "longitude": "-90.04432718136394",
    "latitude": "29.966906687195287",
    "geocoded_column": {
      "latitude": "29.966906687195287",
      "longitude": "-90.04432718136394"
    }
  },
  {
    "service_request": "2023-1018781",
    "request_type": "Trash/Recycling",
    "request_reason": "MIssed Recycling Pick-Up",
    "date_created": "2023-07-19T19:33:48.000",
    "date_modified": "2023-07-19T19:33:48.000",
    "request_status": "Pending",
    "responsible_agency": "Department of Sanitation",
    "final_address": "1633 Constantinople St",
    "address_councildis": "B",
    "status": "Assigned to Contractor",
    "contractor": "Richards Disposal",
    "rowid": "1018781",
    "final_x": "3672326.07796",
    "final_y": "521292.084217",
    "longitude": "-90.09738668272621",
    "latitude": "29.927647605718374",
    "geocoded_column": {
      "latitude": "29.927647605718374",
      "longitude": "-90.09738668272621"
    }
  },
  {
    "service_request": "2023-1018780",
    "request_type": "Trash/Recycling",
    "request_reason": "Return Recycling Cart",
    "date_created": "2023-07-19T19:22:06.000",
    "date_modified": "2023-07-19T19:22:06.000",
    "request_status": "Pending",
    "responsible_agency": "Department of Sanitation",
    "final_address": "4214 State Street Dr",
    "address_councildis": "B",
    "status": "Pending",
    "rowid": "1018780",
    "final_x": "3668470.85255",
    "final_y": "531218.164674",
    "longitude": "-90.10922199206792",
    "latitude": "29.955054899473005",
    "geocoded_column": {
      "latitude": "29.955054899473005",
      "longitude": "-90.10922199206792"
    }
  },
  {
    "service_request": "2023-1018779",
    "request_type": "Parks & Parkways",
    "request_reason": "Request Tree Service (Right of Way/Public Property)",
    "date_created": "2023-07-19T19:13:15.000",
    "date_modified": "2023-07-19T19:13:15.000",
    "request_status": "Pending",
    "responsible_agency": "Department of Parks & Parkway",
    "final_address": "7027 Milne Blvd",
    "address_councildis": "A",
    "status": "Pending",
    "rowid": "1018779",
    "final_x": "3667796.18081",
    "final_y": "554321.83676",
    "longitude": "-90.1105738593722",
    "latitude": "30.01860193509419",
    "geocoded_column": {
      "latitude": "30.01860193509419",
      "longitude": "-90.1105738593722"
    }
  },
  {
    "service_request": "2023-1018778",
    "request_type": "Trash/Recycling",
    "request_reason": "Replace Trash Cart",
    "date_created": "2023-07-19T19:11:48.000",
    "date_modified": "2023-07-19T19:11:49.000",
    "request_status": "Pending",
    "responsible_agency": "Department of Sanitation",
    "final_address": "4839 Constance St",
    "address_councildis": "B",
    "status": "Assigned to Contractor",
    "contractor": "Richards Disposal",
    "rowid": "1018778",
    "final_x": "3669330.31207",
    "final_y": "518318.385782",
    "longitude": "-90.10694409317796",
    "latitude": "29.919559390119236",
    "geocoded_column": {
      "latitude": "29.919559390119236",
      "longitude": "-90.10694409317796"
    }
  },
  {
    "service_request": "2023-1018777",
    "request_type": "Abandoned Vehicles",
    "request_reason": "Abandoned/Junk Vehicles",
    "date_created": "2023-07-19T19:04:19.000",
    "date_modified": "2023-07-19T19:04:19.000",
    "request_status": "Pending",
    "responsible_agency": "Department of Public Works",
    "final_address": "4025 Baudin St",
    "address_councildis": "A",
    "status": "Pending",
    "rowid": "1018777",
    "final_x": "3670391.15047",
    "final_y": "536917.054408",
    "longitude": "-90.10296516910648",
    "latitude": "29.970668401595805",
    "geocoded_column": {
      "latitude": "29.970668401595805",
      "longitude": "-90.10296516910648"
    }
  },
  {
    "service_request": "2023-1018776",
    "request_type": "Abandoned Vehicles",
    "request_reason": "Abandoned/Junk Vehicles",
    "date_created": "2023-07-19T19:00:57.000",
    "date_modified": "2023-07-19T19:00:57.000",
    "request_status": "Pending",
    "responsible_agency": "Department of Public Works",
    "final_address": "4025 Baudin St",
    "address_councildis": "A",
    "status": "Pending",
    "rowid": "1018776",
    "final_x": "3670391.15047",
    "final_y": "536917.054408",
    "longitude": "-90.10296516910648",
    "latitude": "29.970668401595805",
    "geocoded_column": {
      "latitude": "29.970668401595805",
      "longitude": "-90.10296516910648"
    }
  },
  {
    "service_request": "2023-1018775",
    "request_type": "Abandoned Vehicles",
    "request_reason": "Abandoned/Junk Vehicles",
    "date_created": "2023-07-19T18:57:58.000",
    "date_modified": "2023-07-19T18:57:58.000",
    "request_status": "Pending",
    "responsible_agency": "Department of Public Works",
    "final_address": "1600 BLK Saint Roch Ave",
    "address_councildis": "D",
    "status": "Pending",
    "rowid": "1018775",
    "final_x": "3686367.13904",
    "final_y": "538451.980298",
    "longitude": "-90.05245700067475",
    "latitude": "29.974407548982914",
    "geocoded_column": {
      "latitude": "29.974407548982914",
      "longitude": "-90.05245700067475"
    }
  },
  {
    "service_request": "2023-1018774",
    "request_type": "Trash/Recycling",
    "request_reason": "Illegal Dumping",
    "date_created": "2023-07-19T18:51:47.000",
    "date_modified": "2023-07-19T18:54:42.000",
    "request_status": "Pending",
    "responsible_agency": "Department of Sanitation",
    "final_address": "6245 Cameron Blvd",
    "address_councildis": "D",
    "status": "Pending",
    "rowid": "1018774",
    "final_x": "3682260.76015",
    "final_y": "556257.181082",
    "longitude": "-90.06480337002706",
    "latitude": "30.023491068423045",
    "geocoded_column": {
      "latitude": "30.023491068423045",
      "longitude": "-90.06480337002706"
    }
  },
  {
    "service_request": "2023-1018773",
    "request_type": "Property Maintenance",
    "request_reason": "Property Maintenance",
    "date_created": "2023-07-19T18:46:47.000",
    "date_modified": "2023-07-19T18:46:47.000",
    "request_status": "Pending",
    "responsible_agency": "Department of Code Enforcement",
    "final_address": "3008 Laurel St",
    "address_councildis": "B",
    "status": "Pending",
    "rowid": "1018773",
    "final_x": "3676718.2507",
    "final_y": "519666.748792",
    "longitude": "-90.08357760238077",
    "latitude": "29.92304746153133",
    "geocoded_column": {
      "latitude": "29.92304746153133",
      "longitude": "-90.08357760238077"
    }
  },
  {
    "service_request": "2023-1018772",
    "request_type": "Abandoned Vehicles",
    "request_reason": "Abandoned/Junk Vehicles",
    "date_created": "2023-07-19T18:35:30.000",
    "date_modified": "2023-07-19T18:35:30.000",
    "request_status": "Pending",
    "responsible_agency": "Department of Public Works",
    "final_address": "1623 St Ann St",
    "address_councildis": "C",
    "status": "Pending",
    "rowid": "1018772",
    "final_x": "3680149.29339",
    "final_y": "534803.43751",
    "longitude": "-90.07222125611771",
    "latitude": "29.964564962100795",
    "geocoded_column": {
      "latitude": "29.964564962100795",
      "longitude": "-90.07222125611771"
    }
  },
  {
    "service_request": "2023-1018771",
    "request_type": "Property Maintenance",
    "request_reason": "Property Maintenance",
    "date_created": "2023-07-19T18:35:19.000",
    "date_modified": "2023-07-19T18:35:19.000",
    "request_status": "Pending",
    "responsible_agency": "Department of Code Enforcement",
    "final_address": "2000 BLK Charbonnet St",
    "address_councildis": "E",
    "status": "Pending",
    "rowid": "1018771",
    "final_x": "3699579.70546",
    "final_y": "537166.990742",
    "longitude": "-90.01077567057968",
    "latitude": "29.970461562584575",
    "geocoded_column": {
      "latitude": "29.970461562584575",
      "longitude": "-90.01077567057968"
    }
  },
  {
    "service_request": "2023-1018770",
    "request_type": "Trash/Recycling",
    "request_reason": "Request a Large Item Pick Up",
    "date_created": "2023-07-19T18:28:19.000",
    "date_modified": "2023-07-19T18:28:19.000",
    "request_status": "Pending",
    "responsible_agency": "Department of Sanitation",
    "final_address": "7440 Alabama St",
    "address_councildis": "D",
    "status": "Assigned to Contractor",
    "contractor": "Waste Pro",
    "rowid": "1018770",
    "final_x": "3695001.17603",
    "final_y": "558056.641883",
    "longitude": "-90.02448154306744",
    "latitude": "30.028044924776378",
    "geocoded_column": {
      "latitude": "30.028044924776378",
      "longitude": "-90.02448154306744"
    }
  },
  {
    "service_request": "2023-1018769",
    "request_type": "Abandoned Vehicles",
    "request_reason": "Abandoned/Junk Vehicles",
    "date_created": "2023-07-19T18:27:03.000",
    "date_modified": "2023-07-19T18:27:03.000",
    "request_status": "Pending",
    "responsible_agency": "Department of Public Works",
    "final_address": "FRENCHMEN ST & ABUNDANCE ST",
    "address_councildis": "D",
    "status": "Pending",
    "rowid": "1018769",
    "final_x": "3683997.8",
    "final_y": "543639.88",
    "longitude": "-90.0597578159157",
    "latitude": "29.988745063285766",
    "geocoded_column": {
      "latitude": "29.988745063285766",
      "longitude": "-90.0597578159157"
    }
  },
  {
    "service_request": "2023-1018768",
    "request_type": "Trash/Recycling",
    "request_reason": "Replace Recycling Cart",
    "date_created": "2023-07-19T18:06:21.000",
    "date_modified": "2023-07-19T18:06:21.000",
    "request_status": "Pending",
    "responsible_agency": "Department of Sanitation",
    "final_address": "2623 Hudson Pl",
    "address_councildis": "C",
    "status": "Pending",
    "rowid": "1018768",
    "final_x": "3703343.58506",
    "final_y": "521326.709625",
    "longitude": "-89.99947133986437",
    "latitude": "29.926786425697088",
    "geocoded_column": {
      "latitude": "29.926786425697088",
      "longitude": "-89.99947133986437"
    }
  },
  {
    "service_request": "2023-1018767",
    "request_type": "Trash/Recycling",
    "request_reason": "Repair Trash Cart",
    "date_created": "2023-07-19T17:59:54.000",
    "date_modified": "2023-07-19T17:59:55.000",
    "request_status": "Pending",
    "responsible_agency": "Department of Sanitation",
    "final_address": "1028 Pacific Ave",
    "address_councildis": "C",
    "status": "Assigned to Contractor",
    "contractor": "Richards Disposal",
    "rowid": "1018767",
    "final_x": "3688457.59695",
    "final_y": "527696.673087",
    "longitude": "-90.04623640727698",
    "latitude": "29.94476976145952",
    "geocoded_column": {
      "latitude": "29.94476976145952",
      "longitude": "-90.04623640727698"
    }
  },
  {
    "service_request": "2023-1018766",
    "request_type": "Property Maintenance",
    "request_reason": "Property Maintenance",
    "date_created": "2023-07-19T17:56:47.000",
    "date_modified": "2023-07-19T17:56:47.000",
    "request_status": "Pending",
    "responsible_agency": "Department of Code Enforcement",
    "final_address": "5804 Elysian Fields Ave",
    "address_councildis": "D",
    "status": "Pending",
    "rowid": "1018766",
    "final_x": "3683390.46306",
    "final_y": "554333.716248",
    "longitude": "-90.06130121831781",
    "latitude": "30.018167809917404",
    "geocoded_column": {
      "latitude": "30.018167809917404",
      "longitude": "-90.06130121831781"
    }
  },
  {
    "service_request": "2023-1018764",
    "request_type": "Parks & Parkways",
    "request_reason": "Request Tree Service (Right of Way/Public Property)",
    "date_created": "2023-07-19T17:51:06.000",
    "date_modified": "2023-07-19T17:51:06.000",
    "request_status": "Pending",
    "responsible_agency": "Department of Parks & Parkway",
    "final_address": "2131 Marengo St",
    "address_councildis": "B",
    "status": "Pending",
    "rowid": "1018764",
    "final_x": "3671805.91463",
    "final_y": "523036.669371",
    "longitude": "-90.09896938955197",
    "latitude": "29.932460071129636",
    "geocoded_column": {
      "latitude": "29.932460071129636",
      "longitude": "-90.09896938955197"
    }
  },
  {
    "service_request": "2023-1018763",
    "request_type": "Trash/Recycling",
    "request_reason": "MIssed Recycling Pick-Up",
    "date_created": "2023-07-19T17:45:23.000",
    "date_modified": "2023-07-19T17:45:24.000",
    "request_status": "Pending",
    "responsible_agency": "Department of Sanitation",
    "final_address": "2030 Third St",
    "address_councildis": "B",
    "status": "Assigned to Contractor",
    "contractor": "Richards Disposal",
    "rowid": "1018763",
    "final_x": "3675479.42536",
    "final_y": "524272.69286",
    "longitude": "-90.08732999831054",
    "latitude": "29.935749408393736",
    "geocoded_column": {
      "latitude": "29.935749408393736",
      "longitude": "-90.08732999831054"
    }
  },
  {
    "service_request": "2023-1018762",
    "request_type": "Parks & Parkways",
    "request_reason": "Request Tree Service (Right of Way/Public Property)",
    "date_created": "2023-07-19T17:36:03.000",
    "date_modified": "2023-07-19T17:36:03.000",
    "request_status": "Pending",
    "responsible_agency": "Department of Parks & Parkway",
    "final_address": "7411 Fieldston Rd",
    "address_councildis": "E",
    "status": "Pending",
    "rowid": "1018762",
    "final_x": "3700778.46429",
    "final_y": "560031.969309",
    "longitude": "-90.00615350072945",
    "latitude": "30.033293592707338",
    "geocoded_column": {
      "latitude": "30.033293592707338",
      "longitude": "-90.00615350072945"
    }
  },
  {
    "service_request": "2023-1018761",
    "request_type": "Trash/Recycling",
    "request_reason": "Request a Large Item Pick Up",
    "date_created": "2023-07-19T17:34:04.000",
    "date_modified": "2023-07-19T17:34:04.000",
    "request_status": "Pending",
    "responsible_agency": "Department of Sanitation",
    "final_address": "3200 Nashville Ave",
    "address_councildis": "A",
    "status": "Assigned to Contractor",
    "contractor": "Richards Disposal",
    "rowid": "1018761",
    "final_x": "3667811.03521",
    "final_y": "527543.226431",
    "longitude": "-90.11142919954386",
    "latitude": "29.94496938197459",
    "geocoded_column": {
      "latitude": "29.94496938197459",
      "longitude": "-90.11142919954386"
    }
  },
  {
    "service_request": "2023-1018760",
    "request_type": "Trash/Recycling",
    "request_reason": "Return Trash Cart",
    "date_created": "2023-07-19T17:31:39.000",
    "date_modified": "2023-07-19T17:31:39.000",
    "request_status": "Pending",
    "responsible_agency": "Department of Sanitation",
    "final_address": "416 Wallace Dr",
    "address_councildis": "D",
    "status": "Assigned to Contractor",
    "contractor": "IV Waste",
    "rowid": "1018760",
    "final_x": "3681652.42562",
    "final_y": "548411.194898",
    "longitude": "-90.06699956682256",
    "latitude": "30.001935954829214",
    "geocoded_column": {
      "latitude": "30.001935954829214",
      "longitude": "-90.06699956682256"
    }
  },
  {
    "service_request": "2023-1018759",
    "request_type": "Traffic Signals/Signs/Striping/Streetlights",
    "request_reason": "Street Light Outage/Malfunction",
    "date_created": "2023-07-19T17:22:45.000",
    "date_modified": "2023-07-19T17:22:46.000",
    "request_status": "Pending",
    "responsible_agency": "Department of Public Works",
    "final_address": "1000 BLK Saint Charles Ave",
    "address_councildis": "B",
    "status": "Assigned to Contractor",
    "contractor": "Legacy Professional Services",
    "rowid": "1018759",
    "final_x": "3679998.04318",
    "final_y": "527038.320055",
    "longitude": "-90.07296861871036",
    "latitude": "29.943218084111038",
    "geocoded_column": {
      "latitude": "29.943218084111038",
      "longitude": "-90.07296861871036"
    }
  },
  {
    "service_request": "2023-1018758",
    "request_type": "Property Maintenance",
    "request_reason": "Property Maintenance",
    "date_created": "2023-07-19T17:22:05.000",
    "date_modified": "2023-07-19T17:22:05.000",
    "request_status": "Pending",
    "responsible_agency": "Department of Code Enforcement",
    "final_address": "418 Wallace Dr",
    "address_councildis": "D",
    "status": "Pending",
    "rowid": "1018758",
    "final_x": "3681623.76098",
    "final_y": "548441.416274",
    "longitude": "-90.06708906645922",
    "latitude": "30.002019923823312",
    "geocoded_column": {
      "latitude": "30.002019923823312",
      "longitude": "-90.06708906645922"
    }
  },
  {
    "service_request": "2023-1018757",
    "request_type": "Trash/Recycling",
    "request_reason": "Request a Large Item Pick Up",
    "date_created": "2023-07-19T17:21:51.000",
    "date_modified": "2023-07-19T17:21:51.000",
    "request_status": "Pending",
    "responsible_agency": "Department of Sanitation",
    "final_address": "1222 Moss St",
    "address_councildis": "A",
    "status": "Assigned to Contractor",
    "contractor": "Richards Disposal",
    "rowid": "1018757",
    "final_x": "3675252.22536",
    "final_y": "539959.449802",
    "longitude": "-90.08750882629359",
    "latitude": "29.97888953163875",
    "geocoded_column": {
      "latitude": "29.97888953163875",
      "longitude": "-90.08750882629359"
    }
  },
  {
    "service_request": "2023-1018756",
    "request_type": "Abandoned Vehicles",
    "request_reason": "Abandoned/Junk Vehicles",
    "date_created": "2023-07-19T17:10:41.000",
    "date_modified": "2023-07-19T17:10:41.000",
    "request_status": "Pending",
    "responsible_agency": "Department of Public Works",
    "final_address": "515 Warrington Dr",
    "address_councildis": "D",
    "status": "Pending",
    "rowid": "1018756",
    "final_x": "3681276.7821",
    "final_y": "548663.409747",
    "longitude": "-90.0681774678627",
    "latitude": "30.00264086509633",
    "geocoded_column": {
      "latitude": "30.00264086509633",
      "longitude": "-90.0681774678627"
    }
  },
  {
    "service_request": "2023-1018754",
    "request_type": "Trash/Recycling",
    "request_reason": "Start Trash Service",
    "date_created": "2023-07-19T17:05:41.000",
    "date_modified": "2023-07-19T17:05:41.000",
    "request_status": "Pending",
    "responsible_agency": "Department of Sanitation",
    "final_address": "2517 Wisteria St",
    "address_councildis": "D",
    "status": "Assigned to Contractor",
    "contractor": "IV Waste",
    "rowid": "1018754",
    "final_x": "3686406.59702",
    "final_y": "548382.400914",
    "longitude": "-90.05198166656719",
    "latitude": "30.00171145591333",
    "geocoded_column": {
      "latitude": "30.00171145591333",
      "longitude": "-90.05198166656719"
    }
  },
  {
    "service_request": "2023-1018753",
    "request_type": "Trash/Recycling",
    "request_reason": "Request a Large Item Pick Up",
    "date_created": "2023-07-19T17:02:26.000",
    "date_modified": "2023-07-19T17:02:27.000",
    "request_status": "Pending",
    "responsible_agency": "Department of Sanitation",
    "final_address": "609 Lesseps St, New Orleans, Louisiana, 70117",
    "address_councildis": "C",
    "status": "Assigned to Contractor",
    "contractor": "IV Waste",
    "rowid": "1018753",
    "final_x": "3692297.00317",
    "final_y": "533308.426116",
    "longitude": "-90.0339133694437",
    "latitude": "29.960080991030235",
    "geocoded_column": {
      "latitude": "29.960080991030235",
      "longitude": "-90.0339133694437"
    }
  },
  {
    "service_request": "2023-1018751",
    "request_type": "Traffic Signals/Signs/Striping/Streetlights",
    "request_reason": "Street Light Outage/Malfunction",
    "date_created": "2023-07-19T16:57:44.000",
    "date_modified": "2023-07-19T16:57:45.000",
    "request_status": "Pending",
    "responsible_agency": "Department of Public Works",
    "final_address": "5661 Bullard Ave",
    "address_councildis": "E",
    "status": "Assigned to Contractor",
    "contractor": "Legacy Professional Services",
    "rowid": "1018751",
    "final_x": "3717217.88274",
    "final_y": "562232.219551",
    "longitude": "-89.95412017240513",
    "latitude": "30.038809587180545",
    "geocoded_column": {
      "latitude": "30.038809587180545",
      "longitude": "-89.95412017240513"
    }
  },
  {
    "service_request": "2023-1018750",
    "request_type": "Trash/Recycling",
    "request_reason": "Request a Large Item Pick Up",
    "date_created": "2023-07-19T16:55:30.000",
    "date_modified": "2023-07-19T16:55:31.000",
    "request_status": "Pending",
    "responsible_agency": "Department of Sanitation",
    "final_address": "4822 Kendall Dr",
    "address_councildis": "D",
    "status": "Assigned to Contractor",
    "contractor": "IV Waste",
    "rowid": "1018750",
    "final_x": "3690304.76476",
    "final_y": "550978.900117",
    "longitude": "-90.03957438074102",
    "latitude": "30.00873043903212",
    "geocoded_column": {
      "latitude": "30.00873043903212",
      "longitude": "-90.03957438074102"
    }
  },
  {
    "service_request": "2023-1018749",
    "request_type": "Trash/Recycling",
    "request_reason": "Missed Trash Pick-Up",
    "date_created": "2023-07-19T16:55:01.000",
    "date_modified": "2023-07-19T16:55:01.000",
    "request_status": "Pending",
    "responsible_agency": "Department of Sanitation",
    "final_address": "1200 BLK Eighth St",
    "address_councildis": "B",
    "status": "Assigned to Contractor",
    "contractor": "Richards Disposal",
    "rowid": "1018749",
    "final_x": "3675809.0637",
    "final_y": "520668.144803",
    "longitude": "-90.0864131586103",
    "latitude": "29.92582821283128",
    "geocoded_column": {
      "latitude": "29.92582821283128",
      "longitude": "-90.0864131586103"
    }
  },
  {
    "service_request": "2023-1018748",
    "request_type": "Trash/Recycling",
    "request_reason": "Replace Trash Cart",
    "date_created": "2023-07-19T16:54:40.000",
    "date_modified": "2023-07-19T16:54:40.000",
    "request_status": "Pending",
    "responsible_agency": "Department of Sanitation",
    "final_address": "609 Lesseps St",
    "address_councildis": "C",
    "status": "Assigned to Contractor",
    "contractor": "IV Waste",
    "rowid": "1018748",
    "final_x": "3692297.00317",
    "final_y": "533308.426116",
    "longitude": "-90.0339133694437",
    "latitude": "29.960080991030235",
    "geocoded_column": {
      "latitude": "29.960080991030235",
      "longitude": "-90.0339133694437"
    }
  },
  {
    "service_request": "2023-1018747",
    "request_type": "Trash/Recycling",
    "request_reason": "Request a Large Item Pick Up",
    "date_created": "2023-07-19T16:54:30.000",
    "date_modified": "2023-07-19T16:54:30.000",
    "request_status": "Pending",
    "responsible_agency": "Department of Sanitation",
    "final_address": "2449 Chelsea Dr",
    "address_councildis": "C",
    "status": "Assigned to Contractor",
    "contractor": "Richards Disposal",
    "rowid": "1018747",
    "final_x": "3704617.40759",
    "final_y": "522323.475962",
    "longitude": "-89.99541351599602",
    "latitude": "29.929486350716928",
    "geocoded_column": {
      "latitude": "29.929486350716928",
      "longitude": "-89.99541351599602"
    }
  },
  {
    "service_request": "2023-1018746",
    "request_type": "Roads/Drainage",
    "request_reason": "Pothole",
    "date_created": "2023-07-19T16:52:13.000",
    "date_modified": "2023-07-19T16:52:13.000",
    "request_status": "Pending",
    "responsible_agency": "Department of Public Works",
    "final_address": "2642 Elysian Fields Ave",
    "address_councildis": "D",
    "status": "Pending",
    "rowid": "1018746",
    "final_x": "3684408.96124",
    "final_y": "542126.538253",
    "longitude": "-90.0585122686791",
    "latitude": "29.984571336816888",
    "geocoded_column": {
      "latitude": "29.984571336816888",
      "longitude": "-90.0585122686791"
    }
  },
  {
    "service_request": "2023-1018745",
    "request_type": "Roads/Drainage",
    "request_reason": "Damaged Sidewalk",
    "date_created": "2023-07-19T16:52:09.000",
    "date_modified": "2023-07-19T16:52:09.000",
    "request_status": "Pending",
    "responsible_agency": "Department of Public Works",
    "final_address": "1024 Port St",
    "address_councildis": "C",
    "status": "Pending",
    "rowid": "1018745",
    "final_x": "3687327.63478",
    "final_y": "536175.455175",
    "longitude": "-90.0495040900594",
    "latitude": "29.968118344308284",
    "geocoded_column": {
      "latitude": "29.968118344308284",
      "longitude": "-90.0495040900594"
    }
  },
  {
    "service_request": "2023-1018744",
    "request_type": "Parks & Parkways",
    "request_reason": "Request Tree Service (Right of Way/Public Property)",
    "date_created": "2023-07-19T16:44:34.000",
    "date_modified": "2023-07-19T16:44:34.000",
    "request_status": "Pending",
    "responsible_agency": "Department of Parks & Parkway",
    "final_address": "3049 Ponce De Leon St",
    "address_councildis": "A",
    "status": "Pending",
    "rowid": "1018744",
    "final_x": "3676757.40776",
    "final_y": "540554.876683",
    "longitude": "-90.08273435919843",
    "latitude": "29.980481665795217",
    "geocoded_column": {
      "latitude": "29.980481665795217",
      "longitude": "-90.08273435919843"
    }
  },
  {
    "service_request": "2023-1018743",
    "request_type": "Trash/Recycling",
    "request_reason": "Missed Trash Pick-Up",
    "date_created": "2023-07-19T16:43:11.000",
    "date_modified": "2023-07-19T16:45:36.000",
    "request_status": "Pending",
    "responsible_agency": "Department of Sanitation",
    "final_address": "11001 Chef Menteur Hwy",
    "address_councildis": "E",
    "status": "Assigned to Contractor",
    "contractor": "Waste Pro",
    "rowid": "1018743",
    "final_x": "3716193.24895",
    "final_y": "556009.300185",
    "longitude": "-89.95759438072872",
    "latitude": "30.021732922624327",
    "geocoded_column": {
      "latitude": "30.021732922624327",
      "longitude": "-89.95759438072872"
    }
  },
  {
    "service_request": "2023-1018742",
    "request_type": "Roads/Drainage",
    "request_reason": "Street Subsidence (Sinking)",
    "date_created": "2023-07-19T16:42:39.000",
    "date_modified": "2023-07-19T16:42:40.000",
    "request_status": "Pending",
    "responsible_agency": "Department of Public Works",
    "final_address": "AIRLINE HWY & PALMETTO ST OVERPASS",
    "address_councildis": "A",
    "status": "Pending",
    "rowid": "1018742",
    "final_x": "3665894.3",
    "final_y": "537161.88",
    "longitude": "-90.1171586125524",
    "latitude": "29.971473593861774",
    "geocoded_column": {
      "latitude": "29.971473593861774",
      "longitude": "-90.1171586125524"
    }
  },
  {
    "service_request": "2023-1018740",
    "request_type": "Roads/Drainage",
    "request_reason": "Pothole",
    "date_created": "2023-07-19T16:36:21.000",
    "date_modified": "2023-07-19T16:36:22.000",
    "request_status": "Pending",
    "responsible_agency": "Department of Public Works",
    "final_address": "ARABELLA ST & PERRIER ST",
    "address_councildis": "A",
    "status": "Pending",
    "rowid": "1018740",
    "final_x": "3666123.1",
    "final_y": "520273.48",
    "longitude": "-90.1170021986557",
    "latitude": "29.925029282666067",
    "geocoded_column": {
      "latitude": "29.925029282666067",
      "longitude": "-90.1170021986557"
    }
  },
  {
    "service_request": "2023-1018739",
    "request_type": "Roads/Drainage",
    "request_reason": "Pothole",
    "date_created": "2023-07-19T16:33:41.000",
    "date_modified": "2023-07-19T16:33:41.000",
    "request_status": "Pending",
    "responsible_agency": "Department of Public Works",
    "final_address": "2428 Behrman Hwy",
    "address_councildis": "C",
    "status": "Pending",
    "rowid": "1018739",
    "final_x": "3692093.54813",
    "final_y": "521449.268025",
    "longitude": "-90.03498016497436",
    "latitude": "29.92747872444902",
    "geocoded_column": {
      "latitude": "29.92747872444902",
      "longitude": "-90.03498016497436"
    }
  },
  {
    "service_request": "2023-1018738",
    "request_type": "Trash/Recycling",
    "request_reason": "Request a Large Item Pick Up",
    "date_created": "2023-07-19T16:32:42.000",
    "date_modified": "2023-07-19T16:32:42.000",
    "request_status": "Pending",
    "responsible_agency": "Department of Sanitation",
    "final_address": "2233 George Nick Connor Dr",
    "address_councildis": "D",
    "status": "Assigned to Contractor",
    "contractor": "IV Waste",
    "rowid": "1018738",
    "final_x": "3681314.2685",
    "final_y": "540340.552395",
    "longitude": "-90.06834931271982",
    "latitude": "29.97975480857669",
    "geocoded_column": {
      "latitude": "29.97975480857669",
      "longitude": "-90.06834931271982"
    }
  },
  {
    "service_request": "2023-1018737",
    "request_type": "Roads/Drainage",
    "request_reason": "Pothole",
    "date_created": "2023-07-19T16:31:13.000",
    "date_modified": "2023-07-19T16:31:14.000",
    "request_status": "Pending",
    "responsible_agency": "Department of Public Works",
    "final_address": "11110 Lake Forest Blvd",
    "address_councildis": "E",
    "status": "Pending",
    "rowid": "1018737",
    "final_x": "3715747.04415",
    "final_y": "560729.799262",
    "longitude": "-89.9588253336553",
    "latitude": "30.03472713407765",
    "geocoded_column": {
      "latitude": "30.03472713407765",
      "longitude": "-89.9588253336553"
    }
  },
  {
    "service_request": "2023-1018736",
    "request_type": "Traffic Signals/Signs/Striping/Streetlights",
    "request_reason": "Street Light Outage/Malfunction",
    "date_created": "2023-07-19T16:31:04.000",
    "date_modified": "2023-07-19T16:31:04.000",
    "request_status": "Pending",
    "responsible_agency": "Department of Public Works",
    "final_address": "826 Solomon Pl",
    "address_councildis": "A",
    "status": "Assigned to Contractor",
    "contractor": "Legacy Professional Services",
    "rowid": "1018736",
    "final_x": "3672550.85633",
    "final_y": "540806.596427",
    "longitude": "-90.09601190173252",
    "latitude": "29.981299378856264",
    "geocoded_column": {
      "latitude": "29.981299378856264",
      "longitude": "-90.09601190173252"
    }
  },
  {
    "service_request": "2023-1018735",
    "request_type": "Trash/Recycling",
    "request_reason": "Replace Recycling Cart",
    "date_created": "2023-07-19T16:30:36.000",
    "date_modified": "2023-07-19T16:30:36.000",
    "request_status": "Pending",
    "responsible_agency": "Department of Sanitation",
    "final_address": "500 S Rendon St",
    "address_councildis": "B",
    "status": "Pending",
    "rowid": "1018735",
    "final_x": "3672623.20814",
    "final_y": "535115.807238",
    "longitude": "-90.09597747793332",
    "latitude": "29.965649487986884",
    "geocoded_column": {
      "latitude": "29.965649487986884",
      "longitude": "-90.09597747793332"
    }
  },
  {
    "service_request": "2023-1018734",
    "request_type": "Trash/Recycling",
    "request_reason": "Replace Trash Cart",
    "date_created": "2023-07-19T16:30:16.000",
    "date_modified": "2023-07-19T16:30:17.000",
    "request_status": "Pending",
    "responsible_agency": "Department of Sanitation",
    "final_address": "500 S Rendon St",
    "address_councildis": "B",
    "status": "Assigned to Contractor",
    "contractor": "Richards Disposal",
    "rowid": "1018734",
    "final_x": "3672623.20814",
    "final_y": "535115.807238",
    "longitude": "-90.09597747793332",
    "latitude": "29.965649487986884",
    "geocoded_column": {
      "latitude": "29.965649487986884",
      "longitude": "-90.09597747793332"
    }
  },
  {
    "service_request": "2023-1018733",
    "request_type": "Trash/Recycling",
    "request_reason": "Missed Trash Pick-Up",
    "date_created": "2023-07-19T16:30:03.000",
    "date_modified": "2023-07-19T16:30:03.000",
    "request_status": "Pending",
    "responsible_agency": "Department of Sanitation",
    "final_address": "3726 Canal St",
    "address_councildis": "A",
    "status": "Assigned to Contractor",
    "contractor": "Richards Disposal",
    "rowid": "1018733",
    "final_x": "3672090.46203",
    "final_y": "537472.5506",
    "longitude": "-90.09757960788525",
    "latitude": "29.97214554706691",
    "geocoded_column": {
      "latitude": "29.97214554706691",
      "longitude": "-90.09757960788525"
    }
  },
  {
    "service_request": "2023-1018731",
    "request_type": "Trash/Recycling",
    "request_reason": "Request a Large Item Pick Up",
    "date_created": "2023-07-19T16:24:56.000",
    "date_modified": "2023-07-19T16:24:56.000",
    "request_status": "Pending",
    "responsible_agency": "Department of Sanitation",
    "final_address": "1445 Philip St",
    "address_councildis": "B",
    "status": "Assigned to Contractor",
    "contractor": "Richards Disposal",
    "rowid": "1018731",
    "final_x": "3677746.97864",
    "final_y": "522973.396347",
    "longitude": "-90.08021615418409",
    "latitude": "29.932108773663956",
    "geocoded_column": {
      "latitude": "29.932108773663956",
      "longitude": "-90.08021615418409"
    }
  },
  {
    "service_request": "2023-1018730",
    "request_type": "Tax and Revenue",
    "request_reason": "Hotel/Motel",
    "date_created": "2023-07-19T16:21:35.000",
    "date_modified": "2023-07-19T16:21:35.000",
    "request_status": "Pending",
    "responsible_agency": "Bureau of Revenue",
    "final_address": "201 N Rampart St",
    "address_councildis": "C",
    "status": "Pending",
    "rowid": "1018730",
    "final_x": "3680252.24763",
    "final_y": "531998.461507",
    "longitude": "-90.0719936419936",
    "latitude": "29.95684911584148",
    "geocoded_column": {
      "latitude": "29.95684911584148",
      "longitude": "-90.0719936419936"
    }
  },
  {
    "service_request": "2023-1018729",
    "request_type": "Trash/Recycling",
    "request_reason": "Request a Large Item Pick Up",
    "date_created": "2023-07-19T16:21:24.000",
    "date_modified": "2023-07-19T16:21:25.000",
    "request_status": "Pending",
    "responsible_agency": "Department of Sanitation",
    "final_address": "4910 Hickerson Dr",
    "address_councildis": "E",
    "status": "Assigned to Contractor",
    "contractor": "Waste Pro",
    "rowid": "1018729",
    "final_x": "3710127.34571",
    "final_y": "556764.48937",
    "longitude": "-89.97673260291324",
    "latitude": "30.024008256020846",
    "geocoded_column": {
      "latitude": "30.024008256020846",
      "longitude": "-89.97673260291324"
    }
  },
  {
    "service_request": "2023-1018727",
    "request_type": "Roads/Drainage",
    "request_reason": "Catch Basin - Clogged",
    "date_created": "2023-07-19T16:20:12.000",
    "date_modified": "2023-07-19T16:20:12.000",
    "request_status": "Pending",
    "responsible_agency": "Department of Public Works",
    "final_address": "1240 Eighth St",
    "address_councildis": "B",
    "status": "Pending",
    "rowid": "1018727",
    "final_x": "3675693.45057",
    "final_y": "520764.085945",
    "longitude": "-90.08677482034872",
    "latitude": "29.9260954788643",
    "geocoded_column": {
      "latitude": "29.9260954788643",
      "longitude": "-90.08677482034872"
    }
  },
  {
    "service_request": "2023-1018726",
    "request_type": "Trash/Recycling",
    "request_reason": "Order Recycling Cart",
    "date_created": "2023-07-19T16:17:43.000",
    "date_modified": "2023-07-19T16:17:43.000",
    "request_status": "Pending",
    "responsible_agency": "Department of Sanitation",
    "final_address": "7810 Brevard Ave",
    "address_councildis": "E",
    "status": "Pending",
    "rowid": "1018726",
    "final_x": "3706044.62084",
    "final_y": "563936.968417",
    "longitude": "-89.98936730248451",
    "latitude": "30.043862031021455",
    "geocoded_column": {
      "latitude": "30.043862031021455",
      "longitude": "-89.98936730248451"
    }
  },
  {
    "service_request": "2023-1018725",
    "request_type": "Trash/Recycling",
    "request_reason": "Order Trash Cart",
    "date_created": "2023-07-19T16:17:15.000",
    "date_modified": "2023-07-19T16:17:15.000",
    "request_status": "Pending",
    "responsible_agency": "Department of Sanitation",
    "final_address": "7810 Brevard Ave",
    "address_councildis": "E",
    "status": "Assigned to Contractor",
    "contractor": "Waste Pro",
    "rowid": "1018725",
    "final_x": "3706044.62084",
    "final_y": "563936.968417",
    "longitude": "-89.98936730248451",
    "latitude": "30.043862031021455",
    "geocoded_column": {
      "latitude": "30.043862031021455",
      "longitude": "-89.98936730248451"
    }
  },
  {
    "service_request": "2023-1018724",
    "request_type": "Trash/Recycling",
    "request_reason": "Request a Large Item Pick Up",
    "date_created": "2023-07-19T16:14:35.000",
    "date_modified": "2023-07-19T16:14:35.000",
    "request_status": "Pending",
    "responsible_agency": "Department of Sanitation",
    "final_address": "2443 Burgundy St",
    "address_councildis": "C",
    "status": "Assigned to Contractor",
    "contractor": "IV Waste",
    "rowid": "1018724",
    "final_x": "3686221.27394",
    "final_y": "535705.927047",
    "longitude": "-90.05301458174932",
    "latitude": "29.966861343443238",
    "geocoded_column": {
      "latitude": "29.966861343443238",
      "longitude": "-90.05301458174932"
    }
  },
  {
    "service_request": "2023-1018723",
    "request_type": "Trash/Recycling",
    "request_reason": "Illegal Dumping",
    "date_created": "2023-07-19T16:13:17.000",
    "date_modified": "2023-07-19T16:13:17.000",
    "request_status": "Pending",
    "responsible_agency": "Department of Sanitation",
    "final_address": "CAFFIN AVE & N ROBERTSON ST",
    "address_councildis": "E",
    "status": "Pending",
    "rowid": "1018723",
    "final_x": "3698397.7",
    "final_y": "535253.58",
    "longitude": "-90.01457810228732",
    "latitude": "29.965237829235235",
    "geocoded_column": {
      "latitude": "29.965237829235235",
      "longitude": "-90.01457810228732"
    }
  },
  {
    "service_request": "2023-1018722",
    "request_type": "Trash/Recycling",
    "request_reason": "Order Trash Cart",
    "date_created": "2023-07-19T16:10:28.000",
    "date_modified": "2023-07-19T16:10:28.000",
    "request_status": "Pending",
    "responsible_agency": "Department of Sanitation",
    "final_address": "7501 Briarheath Dr",
    "address_councildis": "E",
    "status": "Assigned to Contractor",
    "contractor": "Waste Pro",
    "rowid": "1018722",
    "final_x": "3714704.01515",
    "final_y": "567043.713444",
    "longitude": "-89.96188260897243",
    "latitude": "30.052122202118788",
    "geocoded_column": {
      "latitude": "30.052122202118788",
      "longitude": "-89.96188260897243"
    }
  },
  {
    "service_request": "2023-1018721",
    "request_type": "Traffic Signals/Signs/Striping/Streetlights",
    "request_reason": "Street Light Outage/Malfunction",
    "date_created": "2023-07-19T16:09:03.000",
    "date_modified": "2023-07-19T16:09:03.000",
    "request_status": "Pending",
    "responsible_agency": "Department of Public Works",
    "final_address": "GENERAL DE GAULLE DR & MARR AVE",
    "address_councildis": "C",
    "status": "Assigned to Contractor",
    "contractor": "Legacy Professional Services",
    "rowid": "1018721",
    "final_x": "3691648.9",
    "final_y": "522477.98",
    "longitude": "-90.03634704678721",
    "latitude": "29.930321181105256",
    "geocoded_column": {
      "latitude": "29.930321181105256",
      "longitude": "-90.03634704678721"
    }
  },
  {
    "service_request": "2023-1018720",
    "request_type": "Parks & Parkways",
    "request_reason": "Request Tree Service (Right of Way/Public Property)",
    "date_created": "2023-07-19T15:50:56.000",
    "date_modified": "2023-07-19T15:50:56.000",
    "request_status": "Pending",
    "responsible_agency": "Department of Parks & Parkway",
    "final_address": "6010 Pratt Dr",
    "address_councildis": "D",
    "status": "Pending",
    "rowid": "1018720",
    "final_x": "3680104.22415",
    "final_y": "554593.005848",
    "longitude": "-90.07167547473456",
    "latitude": "30.01898066353653",
    "geocoded_column": {
      "latitude": "30.01898066353653",
      "longitude": "-90.07167547473456"
    }
  },
  {
    "service_request": "2023-1018719",
    "request_type": "Roads/Drainage",
    "request_reason": "Damaged Sidewalk",
    "date_created": "2023-07-19T15:50:41.000",
    "date_modified": "2023-07-19T15:50:41.000",
    "request_status": "Pending",
    "responsible_agency": "Department of Public Works",
    "final_address": "613 Dumaine St",
    "address_councildis": "C",
    "status": "Pending",
    "rowid": "1018719",
    "final_x": "3683207.70632",
    "final_y": "532926.743428",
    "longitude": "-90.06262874613483",
    "latitude": "29.95931178665952",
    "geocoded_column": {
      "latitude": "29.95931178665952",
      "longitude": "-90.06262874613483"
    }
  },
  {
    "service_request": "2023-1018717",
    "request_type": "Traffic Signals/Signs/Striping/Streetlights",
    "request_reason": "Traffic Signal Malfunctioning/Damaged",
    "date_created": "2023-07-19T15:33:17.000",
    "date_modified": "2023-07-19T15:33:18.000",
    "request_status": "Pending",
    "responsible_agency": "Department of Public Works",
    "final_address": "GEN DE GAULLE EXIT & MARR AVE",
    "address_councildis": "C",
    "status": "Pending",
    "rowid": "1018717",
    "final_x": "3691647.5",
    "final_y": "522322.38",
    "longitude": "-90.03635702628965",
    "latitude": "29.929893377304946",
    "geocoded_column": {
      "latitude": "29.929893377304946",
      "longitude": "-90.03635702628965"
    }
  },
  {
    "service_request": "2023-1018715",
    "request_type": "Trash/Recycling",
    "request_reason": "Request a Large Item Pick Up",
    "date_created": "2023-07-19T15:31:31.000",
    "date_modified": "2023-07-19T15:31:32.000",
    "request_status": "Pending",
    "responsible_agency": "Department of Sanitation",
    "final_address": "5307 Forest Park Ln",
    "address_councildis": "C",
    "status": "Assigned to Contractor",
    "contractor": "Richards Disposal",
    "rowid": "1018715",
    "final_x": "3704092.83966",
    "final_y": "510418.692527",
    "longitude": "-89.99750759065009",
    "latitude": "29.896769111684232",
    "geocoded_column": {
      "latitude": "29.896769111684232",
      "longitude": "-89.99750759065009"
    }
  },
  {
    "service_request": "2023-1018714",
    "request_type": "Abandoned Vehicles",
    "request_reason": "Abandoned/Junk Vehicles",
    "date_created": "2023-07-19T15:31:15.000",
    "date_modified": "2023-07-19T15:31:15.000",
    "request_status": "Pending",
    "responsible_agency": "Department of Public Works",
    "final_address": "20159 Old Spanish Trl",
    "address_councildis": "E",
    "status": "Pending",
    "rowid": "1018714",
    "final_x": "3759425.108",
    "final_y": "572782.236585",
    "longitude": "-89.8202968909289",
    "latitude": "30.06635292246256",
    "geocoded_column": {
      "latitude": "30.06635292246256",
      "longitude": "-89.8202968909289"
    }
  },
  {
    "service_request": "2023-1018713",
    "request_type": "Parks & Parkways",
    "request_reason": "Request Tree Service (Right of Way/Public Property)",
    "date_created": "2023-07-19T15:28:07.000",
    "date_modified": "2023-07-19T15:28:07.000",
    "request_status": "Pending",
    "responsible_agency": "Department of Parks & Parkway",
    "final_address": "5935 Memphis St",
    "address_councildis": "A",
    "status": "Pending",
    "rowid": "1018713",
    "final_x": "3669237.95527",
    "final_y": "546829.263569",
    "longitude": "-90.10627187965513",
    "latitude": "29.99795760038073",
    "geocoded_column": {
      "latitude": "29.99795760038073",
      "longitude": "-90.10627187965513"
    }
  },
  {
    "service_request": "2023-1018712",
    "request_type": "Roads/Drainage",
    "request_reason": "Street Subsidence (Sinking)",
    "date_created": "2023-07-19T15:26:25.000",
    "date_modified": "2023-07-19T15:26:26.000",
    "request_status": "Pending",
    "responsible_agency": "Department of Public Works",
    "final_address": "3700 S Carrollton Ave",
    "address_councildis": "A",
    "status": "Pending",
    "rowid": "1018712",
    "final_x": "3667976.38733",
    "final_y": "535091.405126",
    "longitude": "-90.1106528293013",
    "latitude": "29.965719548754926",
    "geocoded_column": {
      "latitude": "29.965719548754926",
      "longitude": "-90.1106528293013"
    }
  },
  {
    "service_request": "2023-1018711",
    "request_type": "Trash/Recycling",
    "request_reason": "Return Recycling Cart",
    "date_created": "2023-07-19T15:20:55.000",
    "date_modified": "2023-07-19T15:20:55.000",
    "request_status": "Pending",
    "responsible_agency": "Department of Sanitation",
    "final_address": "336 Audubon Blvd",
    "address_councildis": "A",
    "status": "Pending",
    "rowid": "1018711",
    "final_x": "3667237.95969",
    "final_y": "530219.904961",
    "longitude": "-90.11314858696848",
    "latitude": "29.952346169917096",
    "geocoded_column": {
      "latitude": "29.952346169917096",
      "longitude": "-90.11314858696848"
    }
  },
  {
    "service_request": "2023-1018710",
    "request_type": "Property Maintenance",
    "request_reason": "Property Maintenance",
    "date_created": "2023-07-19T15:20:07.000",
    "date_modified": "2023-07-19T15:20:07.000",
    "request_status": "Pending",
    "responsible_agency": "Department of Code Enforcement",
    "final_address": "3302 Feliciana St",
    "address_councildis": "D",
    "status": "Pending",
    "rowid": "1018710",
    "final_x": "3690885.13801",
    "final_y": "544822.732879",
    "longitude": "-90.0379606739153",
    "latitude": "29.991785195362343",
    "geocoded_column": {
      "latitude": "29.991785195362343",
      "longitude": "-90.0379606739153"
    }
  },
  {
    "service_request": "2023-1018709",
    "request_type": "Abandoned Vehicles",
    "request_reason": "Abandoned/Junk Vehicles",
    "date_created": "2023-07-19T15:19:56.000",
    "date_modified": "2023-07-19T15:19:56.000",
    "request_status": "Pending",
    "responsible_agency": "Department of Public Works",
    "final_address": "1013 N Claiborne Ave",
    "address_councildis": "D",
    "status": "Pending",
    "rowid": "1018709",
    "final_x": "3680438.54709",
    "final_y": "535671.07303",
    "longitude": "-90.07127763619857",
    "latitude": "29.966941906121388",
    "geocoded_column": {
      "latitude": "29.966941906121388",
      "longitude": "-90.07127763619857"
    }
  },
  {
    "service_request": "2023-1018708",
    "request_type": "Roads/Drainage",
    "request_reason": "Pothole",
    "date_created": "2023-07-19T15:19:49.000",
    "date_modified": "2023-07-19T15:19:50.000",
    "request_status": "Pending",
    "responsible_agency": "Department of Public Works",
    "final_address": "1400 S Carrollton Ave",
    "address_councildis": "A",
    "status": "Pending",
    "rowid": "1018708",
    "final_x": "3662471.73075",
    "final_y": "528955.204864",
    "longitude": "-90.12824021986513",
    "latitude": "29.949007349481484",
    "geocoded_column": {
      "latitude": "29.949007349481484",
      "longitude": "-90.12824021986513"
    }
  },
  {
    "service_request": "2023-1018706",
    "request_type": "Roads/Drainage",
    "request_reason": "Ditch Issue",
    "date_created": "2023-07-19T15:18:47.000",
    "date_modified": "2023-07-19T15:18:47.000",
    "request_status": "Pending",
    "responsible_agency": "Department of Public Works",
    "final_address": "6219 Warrington Dr",
    "address_councildis": "D",
    "status": "Pending",
    "rowid": "1018706",
    "final_x": "3680876.59899",
    "final_y": "555808.934297",
    "longitude": "-90.06919265629223",
    "latitude": "30.02230061585752",
    "geocoded_column": {
      "latitude": "30.02230061585752",
      "longitude": "-90.06919265629223"
    }
  },
  {
    "service_request": "2023-1018705",
    "request_type": "Traffic Signals/Signs/Striping/Streetlights",
    "request_reason": "Additional signage",
    "date_created": "2023-07-19T15:11:58.000",
    "date_modified": "2023-07-19T15:11:59.000",
    "request_status": "Pending",
    "responsible_agency": "Department of Public Works",
    "final_address": "5317 Music St",
    "address_councildis": "D",
    "status": "Pending",
    "rowid": "1018705",
    "final_x": "3685606.80418",
    "final_y": "552616.222166",
    "longitude": "-90.05435899845155",
    "latitude": "30.01337749276925",
    "geocoded_column": {
      "latitude": "30.01337749276925",
      "longitude": "-90.05435899845155"
    }
  },
  {
    "service_request": "2023-1018704",
    "request_type": "Trash/Recycling",
    "request_reason": "Missed Trash Pick-Up",
    "date_created": "2023-07-19T15:11:50.000",
    "date_modified": "2023-07-19T15:11:51.000",
    "request_status": "Pending",
    "responsible_agency": "Department of Sanitation",
    "final_address": "7701 Haney Dr",
    "address_councildis": "E",
    "status": "Assigned to Contractor",
    "contractor": "Waste Pro",
    "rowid": "1018704",
    "final_x": "3712498.27787",
    "final_y": "567517.800484",
    "longitude": "-89.96883636620345",
    "latitude": "30.053498154592226",
    "geocoded_column": {
      "latitude": "30.053498154592226",
      "longitude": "-89.96883636620345"
    }
  },
  {
    "service_request": "2023-1018703",
    "request_type": "Traffic Signals/Signs/Striping/Streetlights",
    "request_reason": "Striping/Road Surface Markings",
    "date_created": "2023-07-19T15:11:37.000",
    "date_modified": "2023-07-19T15:11:38.000",
    "request_status": "Pending",
    "responsible_agency": "Department of Public Works",
    "final_address": "DREXEL DR & PALMETTO ST & S CARROLLTON AVE",
    "address_councildis": "B",
    "status": "Pending",
    "rowid": "1018703",
    "final_x": "3668281.8",
    "final_y": "535135.68",
    "longitude": "-90.10968685098715",
    "latitude": "29.96583232544349",
    "geocoded_column": {
      "latitude": "29.96583232544349",
      "longitude": "-90.10968685098715"
    }
  },
  {
    "service_request": "2023-1018702",
    "request_type": "Trash/Recycling",
    "request_reason": "Missed Trash Pick-Up",
    "date_created": "2023-07-19T15:08:33.000",
    "date_modified": "2023-07-19T15:08:33.000",
    "request_status": "Pending",
    "responsible_agency": "Department of Sanitation",
    "final_address": "823 N Robertson St",
    "address_councildis": "C",
    "status": "Assigned to Contractor",
    "contractor": "Richards Disposal",
    "rowid": "1018702",
    "final_x": "3680383.96322",
    "final_y": "534834.452038",
    "longitude": "-90.0714791076365",
    "latitude": "29.964643137615216",
    "geocoded_column": {
      "latitude": "29.964643137615216",
      "longitude": "-90.0714791076365"
    }
  },
  {
    "service_request": "2023-1018701",
    "request_type": "Roads/Drainage",
    "request_reason": "Pothole",
    "date_created": "2023-07-19T15:07:41.000",
    "date_modified": "2023-07-19T15:07:42.000",
    "request_status": "Pending",
    "responsible_agency": "Department of Public Works",
    "final_address": "2823 OReilly St",
    "address_councildis": "D",
    "status": "Pending",
    "rowid": "1018701",
    "final_x": "3679296.35823",
    "final_y": "541911.363724",
    "longitude": "-90.07466819808693",
    "latitude": "29.984135094143497",
    "geocoded_column": {
      "latitude": "29.984135094143497",
      "longitude": "-90.07466819808693"
    }
  },
  {
    "service_request": "2023-1018700",
    "request_type": "Traffic Signals/Signs/Striping/Streetlights",
    "request_reason": "Street Light Outage/Malfunction",
    "date_created": "2023-07-19T15:07:06.000",
    "date_modified": "2023-07-19T15:07:06.000",
    "request_status": "Pending",
    "responsible_agency": "Department of Public Works",
    "final_address": "722 St Mary St",
    "address_councildis": "B",
    "status": "Assigned to Contractor",
    "contractor": "Legacy Professional Services",
    "rowid": "1018700",
    "final_x": "3680563.87835",
    "final_y": "521759.504442",
    "longitude": "-90.07136569194803",
    "latitude": "29.928685962568323",
    "geocoded_column": {
      "latitude": "29.928685962568323",
      "longitude": "-90.07136569194803"
    }
  },
  {
    "service_request": "2023-1018699",
    "request_type": "Abandoned Vehicles",
    "request_reason": "Abandoned/Junk Vehicles",
    "date_created": "2023-07-19T15:02:57.000",
    "date_modified": "2023-07-19T15:02:58.000",
    "request_status": "Pending",
    "responsible_agency": "Department of Public Works",
    "final_address": "2434 Valence St",
    "address_councildis": "B",
    "status": "Pending",
    "rowid": "1018699",
    "final_x": "3669375.44724",
    "final_y": "523867.319292",
    "longitude": "-90.10661410794569",
    "latitude": "29.934815861037908",
    "geocoded_column": {
      "latitude": "29.934815861037908",
      "longitude": "-90.10661410794569"
    }
  },
  {
    "service_request": "2023-1018698",
    "request_type": "Trash/Recycling",
    "request_reason": "Request a Large Item Pick Up",
    "date_created": "2023-07-19T14:59:27.000",
    "date_modified": "2023-07-19T14:59:28.000",
    "request_status": "Pending",
    "responsible_agency": "Department of Sanitation",
    "final_address": "4519 DHemecourt St",
    "address_councildis": "A",
    "status": "Assigned to Contractor",
    "contractor": "Richards Disposal",
    "rowid": "1018698",
    "final_x": "3668419.70343",
    "final_y": "537978.668105",
    "longitude": "-90.10915543636577",
    "latitude": "29.97364554350241",
    "geocoded_column": {
      "latitude": "29.97364554350241",
      "longitude": "-90.10915543636577"
    }
  },
  {
    "service_request": "2023-1018697",
    "request_type": "Trash/Recycling",
    "request_reason": "Order Trash Cart",
    "date_created": "2023-07-19T14:59:17.000",
    "date_modified": "2023-07-19T14:59:18.000",
    "request_status": "Pending",
    "responsible_agency": "Department of Sanitation",
    "final_address": "328 Newton St",
    "address_councildis": "C",
    "status": "Assigned to Contractor",
    "contractor": "Richards Disposal",
    "rowid": "1018697",
    "final_x": "3686445.65462",
    "final_y": "527969.883839",
    "longitude": "-90.0525790581429",
    "latitude": "29.945582986555575",
    "geocoded_column": {
      "latitude": "29.945582986555575",
      "longitude": "-90.0525790581429"
    }
  },
  {
    "service_request": "2023-1018696",
    "request_type": "Trash/Recycling",
    "request_reason": "Replace Trash Cart",
    "date_created": "2023-07-19T14:56:29.000",
    "date_modified": "2023-07-19T14:56:30.000",
    "request_status": "Pending",
    "responsible_agency": "Department of Sanitation",
    "final_address": "750 City Park Ave",
    "address_councildis": "A",
    "status": "Assigned to Contractor",
    "contractor": "Richards Disposal",
    "rowid": "1018696",
    "final_x": "3670852.63835",
    "final_y": "541661.680844",
    "longitude": "-90.10134662491689",
    "latitude": "29.983700883319834",
    "geocoded_column": {
      "latitude": "29.983700883319834",
      "longitude": "-90.10134662491689"
    }
  },
  {
    "service_request": "2023-1018695",
    "request_type": "Roads/Drainage",
    "request_reason": "Catch Basin - Clogged",
    "date_created": "2023-07-19T14:56:04.000",
    "date_modified": "2023-07-19T14:56:05.000",
    "request_status": "Pending",
    "responsible_agency": "Department of Public Works",
    "final_address": "700 BLK Dublin St",
    "address_councildis": "A",
    "status": "Pending",
    "rowid": "1018695",
    "final_x": "3660629.56256",
    "final_y": "527466.945182",
    "longitude": "-90.13410595774081",
    "latitude": "29.944968254227952",
    "geocoded_column": {
      "latitude": "29.944968254227952",
      "longitude": "-90.13410595774081"
    }
  },
  {
    "service_request": "2023-1018694",
    "request_type": "Trash/Recycling",
    "request_reason": "Repair Trash Cart",
    "date_created": "2023-07-19T14:54:40.000",
    "date_modified": "2023-07-19T14:54:40.000",
    "request_status": "Pending",
    "responsible_agency": "Department of Sanitation",
    "final_address": "3540 Rue Colette",
    "address_councildis": "C",
    "status": "Assigned to Contractor",
    "contractor": "Richards Disposal",
    "rowid": "1018694",
    "final_x": "3704590.76273",
    "final_y": "517509.860278",
    "longitude": "-89.99567502301592",
    "latitude": "29.91625143284823",
    "geocoded_column": {
      "latitude": "29.91625143284823",
      "longitude": "-89.99567502301592"
    }
  },
  {
    "service_request": "2023-1018693",
    "request_type": "Trash/Recycling",
    "request_reason": "Repair Trash Cart",
    "date_created": "2023-07-19T14:54:11.000",
    "date_modified": "2023-07-19T14:57:58.000",
    "request_status": "Pending",
    "responsible_agency": "Department of Sanitation",
    "final_address": "5142 Feliciana Dr, New Orleans, Louisiana, 70126",
    "address_councildis": "D",
    "contractor": "IV Waste",
    "rowid": "1018693",
    "final_x": "3689881.28387",
    "final_y": "552416.907414",
    "longitude": "-90.04086104513797",
    "latitude": "30.012697569577796",
    "geocoded_column": {
      "latitude": "30.012697569577796",
      "longitude": "-90.04086104513797"
    }
  },
  {
    "service_request": "2023-1018692",
    "request_type": "Trash/Recycling",
    "request_reason": "Missed Trash Pick-Up",
    "date_created": "2023-07-19T14:52:22.000",
    "date_modified": "2023-07-19T14:52:22.000",
    "request_status": "Pending",
    "responsible_agency": "Department of Sanitation",
    "final_address": "4844 Marque Dr",
    "address_councildis": "E",
    "status": "Assigned to Contractor",
    "contractor": "Waste Pro",
    "rowid": "1018692",
    "final_x": "3709911.49029",
    "final_y": "556512.997914",
    "longitude": "-89.97742406176168",
    "latitude": "30.023323778199483",
    "geocoded_column": {
      "latitude": "30.023323778199483",
      "longitude": "-89.97742406176168"
    }
  },
  {
    "service_request": "2023-1018691",
    "request_type": "Trash/Recycling",
    "request_reason": "Request a Large Item Pick Up",
    "date_created": "2023-07-19T14:52:10.000",
    "date_modified": "2023-07-19T14:52:11.000",
    "request_status": "Pending",
    "responsible_agency": "Department of Sanitation",
    "final_address": "6302 Camp St",
    "address_councildis": "A",
    "status": "Assigned to Contractor",
    "contractor": "Richards Disposal",
    "rowid": "1018691",
    "final_x": "3663505.01114",
    "final_y": "519994.82124",
    "longitude": "-90.1252759699372",
    "latitude": "29.924339216360888",
    "geocoded_column": {
      "latitude": "29.924339216360888",
      "longitude": "-90.1252759699372"
    }
  },
  {
    "service_request": "2023-1018690",
    "request_type": "Roads/Drainage",
    "request_reason": "Ditch Issue",
    "date_created": "2023-07-19T14:52:08.000",
    "date_modified": "2023-07-19T14:52:08.000",
    "request_status": "Pending",
    "responsible_agency": "Department of Public Works",
    "status": "Pending",
    "rowid": "1018690",
    "longitude": "0.0",
    "latitude": "0.0",
    "geocoded_column": {
      "latitude": "0.0",
      "longitude": "0.0"
    }
  },
  {
    "service_request": "2023-1018689",
    "request_type": "Abandoned Vehicles",
    "request_reason": "Abandoned/Junk Vehicles",
    "date_created": "2023-07-19T14:50:12.000",
    "date_modified": "2023-07-19T14:50:12.000",
    "request_status": "Pending",
    "responsible_agency": "Department of Public Works",
    "final_address": "5901 Milne Blvd",
    "address_councildis": "A",
    "status": "Pending",
    "rowid": "1018689",
    "final_x": "3667038.96186",
    "final_y": "546952.023825",
    "longitude": "-90.11321436053092",
    "latitude": "29.99835971606422",
    "geocoded_column": {
      "latitude": "29.99835971606422",
      "longitude": "-90.11321436053092"
    }
  },
  {
    "service_request": "2023-1018688",
    "request_type": "Trash/Recycling",
    "request_reason": "Order Trash Cart",
    "date_created": "2023-07-19T14:45:51.000",
    "date_modified": "2023-07-19T14:45:52.000",
    "request_status": "Pending",
    "responsible_agency": "Department of Sanitation",
    "final_address": "231 S Norman C Francis Prkwy",
    "address_councildis": "B",
    "status": "Assigned to Contractor",
    "contractor": "Richards Disposal",
    "rowid": "1018688",
    "final_x": "3672682.68718",
    "final_y": "536286.761671",
    "longitude": "-90.0957497060389",
    "latitude": "29.968867452601547",
    "geocoded_column": {
      "latitude": "29.968867452601547",
      "longitude": "-90.0957497060389"
    }
  },
  {
    "service_request": "2023-1018687",
    "request_type": "Trash/Recycling",
    "request_reason": "MIssed Recycling Pick-Up",
    "date_created": "2023-07-19T14:41:41.000",
    "date_modified": "2023-07-19T14:41:42.000",
    "request_status": "Pending",
    "responsible_agency": "Department of Sanitation",
    "final_address": "3100 BLK Laurel St",
    "address_councildis": "B",
    "status": "Assigned to Contractor",
    "contractor": "Richards Disposal",
    "rowid": "1018687",
    "final_x": "3676201.84014",
    "final_y": "519386.152288",
    "longitude": "-90.08521736036221",
    "latitude": "29.92229138891816",
    "geocoded_column": {
      "latitude": "29.92229138891816",
      "longitude": "-90.08521736036221"
    }
  },
  {
    "service_request": "2023-1018686",
    "request_type": "Roads/Drainage",
    "request_reason": "Catch Basin - Broken/Damage",
    "date_created": "2023-07-19T14:38:57.000",
    "date_modified": "2023-07-19T14:38:57.000",
    "request_status": "Pending",
    "responsible_agency": "Department of Public Works",
    "final_address": "2110 St Bernard Ave",
    "address_councildis": "D",
    "status": "Pending",
    "rowid": "1018686",
    "final_x": "3681189.1478",
    "final_y": "539584.84321",
    "longitude": "-90.0687708360679",
    "latitude": "29.977680668785847",
    "geocoded_column": {
      "latitude": "29.977680668785847",
      "longitude": "-90.0687708360679"
    }
  },
  {
    "service_request": "2023-1018685",
    "request_type": "Trash/Recycling",
    "request_reason": "Missed Trash Pick-Up",
    "date_created": "2023-07-19T14:37:21.000",
    "date_modified": "2023-07-19T14:37:21.000",
    "request_status": "Pending",
    "responsible_agency": "Department of Sanitation",
    "final_address": "1815 Euterpe St",
    "address_councildis": "B",
    "status": "Assigned to Contractor",
    "contractor": "Richards Disposal",
    "rowid": "1018685",
    "final_x": "3677988.61198",
    "final_y": "525614.676349",
    "longitude": "-90.0793620903647",
    "latitude": "29.93936415697382",
    "geocoded_column": {
      "latitude": "29.93936415697382",
      "longitude": "-90.0793620903647"
    }
  },
  {
    "service_request": "2023-1018684",
    "request_type": "Property Maintenance",
    "request_reason": "Property Maintenance",
    "date_created": "2023-07-19T14:37:10.000",
    "date_modified": "2023-07-19T14:37:10.000",
    "request_status": "Pending",
    "responsible_agency": "Department of Code Enforcement",
    "final_address": "5198 Bayouview Ct",
    "address_councildis": "E",
    "status": "Pending",
    "rowid": "1018684",
    "final_x": "3699292.54602",
    "final_y": "556549.15305",
    "longitude": "-90.01097614210998",
    "latitude": "30.023764426851404",
    "geocoded_column": {
      "latitude": "30.023764426851404",
      "longitude": "-90.01097614210998"
    }
  },
  {
    "service_request": "2023-1018683",
    "request_type": "Traffic Signals/Signs/Striping/Streetlights",
    "request_reason": "Street Light Outage/Malfunction",
    "date_created": "2023-07-19T14:30:39.000",
    "date_modified": "2023-07-19T14:30:39.000",
    "request_status": "Pending",
    "responsible_agency": "Department of Public Works",
    "final_address": " & BALDWIN ST",
    "address_councildis": "D",
    "status": "Assigned to Contractor",
    "contractor": "Legacy Professional Services",
    "rowid": "1018683",
    "final_x": "3687880.8",
    "final_y": "560035.64",
    "longitude": "-90.04691121641319",
    "latitude": "30.03370814054373",
    "geocoded_column": {
      "latitude": "30.03370814054373",
      "longitude": "-90.04691121641319"
    }
  },
  {
    "service_request": "2023-1018682",
    "request_type": "Trash/Recycling",
    "request_reason": "Request a Large Item Pick Up",
    "date_created": "2023-07-19T14:28:14.000",
    "date_modified": "2023-07-19T14:28:15.000",
    "request_status": "Pending",
    "responsible_agency": "Department of Sanitation",
    "final_address": "1834 Constantinople St",
    "address_councildis": "B",
    "status": "Assigned to Contractor",
    "contractor": "Richards Disposal",
    "rowid": "1018682",
    "final_x": "3672171.05025",
    "final_y": "522024.319738",
    "longitude": "-90.09785114561645",
    "latitude": "29.92966561513034",
    "geocoded_column": {
      "latitude": "29.92966561513034",
      "longitude": "-90.09785114561645"
    }
  },
  {
    "service_request": "2023-1018681",
    "request_type": "Trash/Recycling",
    "request_reason": "Repair Trash Cart",
    "date_created": "2023-07-19T14:27:25.000",
    "date_modified": "2023-07-19T14:27:25.000",
    "request_status": "Pending",
    "responsible_agency": "Department of Sanitation",
    "final_address": "3533 Marigny St",
    "address_councildis": "D",
    "status": "Assigned to Contractor",
    "contractor": "IV Waste",
    "rowid": "1018681",
    "final_x": "3684734.02953",
    "final_y": "545847.867088",
    "longitude": "-90.05735463274425",
    "latitude": "29.99479372019946",
    "geocoded_column": {
      "latitude": "29.99479372019946",
      "longitude": "-90.05735463274425"
    }
  },
  {
    "service_request": "2023-1018680",
    "request_type": "Trash/Recycling",
    "request_reason": "Request a Large Item Pick Up",
    "date_created": "2023-07-19T14:23:47.000",
    "date_modified": "2023-07-19T14:23:47.000",
    "request_status": "Pending",
    "responsible_agency": "Department of Sanitation",
    "final_address": "28 St Claude Ct",
    "address_councildis": "E",
    "status": "Assigned to Contractor",
    "contractor": "Waste Pro",
    "rowid": "1018680",
    "final_x": "3697413.61706",
    "final_y": "533566.957445",
    "longitude": "-90.01774692065975",
    "latitude": "29.960631322418738",
    "geocoded_column": {
      "latitude": "29.960631322418738",
      "longitude": "-90.01774692065975"
    }
  },
  {
    "service_request": "2023-1018679",
    "request_type": "Trash/Recycling",
    "request_reason": "Request a Large Item Pick Up",
    "date_created": "2023-07-19T14:22:49.000",
    "date_modified": "2023-07-19T14:22:50.000",
    "request_status": "Pending",
    "responsible_agency": "Department of Sanitation",
    "final_address": "2228 Tricou St",
    "address_councildis": "E",
    "status": "Assigned to Contractor",
    "contractor": "Waste Pro",
    "rowid": "1018679",
    "final_x": "3701787.41732",
    "final_y": "537221.405896",
    "longitude": "-90.00380152094841",
    "latitude": "29.970540933358343",
    "geocoded_column": {
      "latitude": "29.970540933358343",
      "longitude": "-90.00380152094841"
    }
  },
  {
    "service_request": "2023-1018678",
    "request_type": "Trash/Recycling",
    "request_reason": "Replace Trash Cart",
    "date_created": "2023-07-19T14:18:07.000",
    "date_modified": "2023-07-19T14:18:08.000",
    "request_status": "Pending",
    "responsible_agency": "Department of Sanitation",
    "final_address": "3436 S Robertson St",
    "address_councildis": "B",
    "status": "Assigned to Contractor",
    "contractor": "Richards Disposal",
    "rowid": "1018678",
    "final_x": "3672511.41447",
    "final_y": "524633.36198",
    "longitude": "-90.09668778397739",
    "latitude": "29.93682954225174",
    "geocoded_column": {
      "latitude": "29.93682954225174",
      "longitude": "-90.09668778397739"
    }
  },
  {
    "service_request": "2023-1018677",
    "request_type": "Utility Poles",
    "request_reason": "Utility Pole Leaning",
    "date_created": "2023-07-19T14:17:29.000",
    "date_modified": "2023-07-19T14:17:33.000",
    "request_status": "Pending",
    "responsible_agency": "Utility Company Collective",
    "final_address": "623 Seguin St",
    "address_councildis": "C",
    "status": "Pending",
    "rowid": "1018677",
    "final_x": "3686732.52252",
    "final_y": "529473.965249",
    "longitude": "-90.05162020478132",
    "latitude": "29.949709878524978",
    "geocoded_column": {
      "latitude": "29.949709878524978",
      "longitude": "-90.05162020478132"
    }
  },
  {
    "service_request": "2023-1018676",
    "request_type": "Trash/Recycling",
    "request_reason": "Missed Trash Pick-Up",
    "date_created": "2023-07-19T14:16:54.000",
    "date_modified": "2023-07-19T14:16:54.000",
    "request_status": "Pending",
    "responsible_agency": "Department of Sanitation",
    "final_address": "2240 Lakeshore Dr",
    "address_councildis": "D",
    "status": "Assigned to Contractor",
    "contractor": "IV Waste",
    "rowid": "1018676",
    "final_x": "3684002.70639",
    "final_y": "558700.258524",
    "longitude": "-90.0592133504409",
    "latitude": "30.030155485144437",
    "geocoded_column": {
      "latitude": "30.030155485144437",
      "longitude": "-90.0592133504409"
    }
  },
  {
    "service_request": "2023-1018675",
    "request_type": "Trash/Recycling",
    "request_reason": "Return Trash Cart",
    "date_created": "2023-07-19T14:16:31.000",
    "date_modified": "2023-07-19T14:16:32.000",
    "request_status": "Pending",
    "responsible_agency": "Department of Sanitation",
    "final_address": "6000 Winchester Park Dr",
    "address_councildis": "E",
    "status": "Assigned to Contractor",
    "contractor": "Waste Pro",
    "rowid": "1018675",
    "final_x": "3714257.85951",
    "final_y": "563206.978144",
    "longitude": "-89.9634377371933",
    "latitude": "30.04158741393543",
    "geocoded_column": {
      "latitude": "30.04158741393543",
      "longitude": "-89.9634377371933"
    }
  },
  {
    "service_request": "2023-1018674",
    "request_type": "Property Maintenance",
    "request_reason": "Property Maintenance",
    "date_created": "2023-07-19T14:00:51.000",
    "date_modified": "2023-07-19T14:00:52.000",
    "request_status": "Pending",
    "responsible_agency": "Department of Code Enforcement",
    "final_address": "1627 Hollygrove St",
    "address_councildis": "A",
    "status": "Pending",
    "rowid": "1018674",
    "final_x": "3660736.9376",
    "final_y": "531687.051011",
    "longitude": "-90.13362743437528",
    "latitude": "29.956569102841407",
    "geocoded_column": {
      "latitude": "29.956569102841407",
      "longitude": "-90.13362743437528"
    }
  },
  {
    "service_request": "2023-1018673",
    "request_type": "Tax and Revenue",
    "request_reason": "General Tax Question",
    "date_created": "2023-07-19T13:57:47.000",
    "date_modified": "2023-07-19T13:58:43.000",
    "request_status": "Pending",
    "responsible_agency": "Bureau of Revenue",
    "final_address": "New Orleans,LA",
    "rowid": "1018673",
    "longitude": "0.0",
    "latitude": "0.0",
    "geocoded_column": {
      "latitude": "0.0",
      "longitude": "0.0"
    }
  },
  {
    "service_request": "2023-1018672",
    "request_type": "Traffic Signals/Signs/Striping/Streetlights",
    "request_reason": "Street Light Outage/Malfunction",
    "date_created": "2023-07-19T13:51:23.000",
    "date_modified": "2023-07-19T13:51:23.000",
    "request_status": "Pending",
    "responsible_agency": "Department of Public Works",
    "final_address": "4434 Mithra St",
    "address_councildis": "D",
    "status": "Assigned to Contractor",
    "contractor": "Legacy Professional Services",
    "rowid": "1018672",
    "final_x": "3690324.17462",
    "final_y": "553231.174167",
    "longitude": "-90.03943270778552",
    "latitude": "30.014922757888307",
    "geocoded_column": {
      "latitude": "30.014922757888307",
      "longitude": "-90.03943270778552"
    }
  },
  {
    "service_request": "2023-1018671",
    "request_type": "Trash/Recycling",
    "request_reason": "Repair Trash Cart",
    "date_created": "2023-07-19T13:47:50.000",
    "date_modified": "2023-07-19T13:47:50.000",
    "request_status": "Pending",
    "responsible_agency": "Department of Sanitation",
    "final_address": "901 Navarre St",
    "address_councildis": "A",
    "status": "Assigned to Contractor",
    "contractor": "IV Waste",
    "rowid": "1018671",
    "final_x": "3669556.7689",
    "final_y": "543800.72507",
    "longitude": "-90.10536727773662",
    "latitude": "29.989620771418835",
    "geocoded_column": {
      "latitude": "29.989620771418835",
      "longitude": "-90.10536727773662"
    }
  },
  {
    "service_request": "2023-1018670",
    "request_type": "Trash/Recycling",
    "request_reason": "Missed Trash Pick-Up",
    "date_created": "2023-07-19T13:45:24.000",
    "date_modified": "2023-07-19T13:45:25.000",
    "request_status": "Pending",
    "responsible_agency": "Department of Sanitation",
    "final_address": "1718 St Ann St",
    "address_councildis": "D",
    "status": "Assigned to Contractor",
    "contractor": "Richards Disposal",
    "rowid": "1018670",
    "final_x": "3679786.52226",
    "final_y": "535005.453766",
    "longitude": "-90.07335984565474",
    "latitude": "29.965131411327427",
    "geocoded_column": {
      "latitude": "29.965131411327427",
      "longitude": "-90.07335984565474"
    }
  },
  {
    "service_request": "2023-1018669",
    "request_type": "Abandoned Vehicles",
    "request_reason": "Abandoned/Junk Vehicles",
    "date_created": "2023-07-19T13:42:13.000",
    "date_modified": "2023-07-19T13:42:13.000",
    "request_status": "Pending",
    "responsible_agency": "Department of Public Works",
    "final_address": "1516 N Miro St, New Orleans, Louisiana, 70119",
    "address_councildis": "D",
    "status": "Pending",
    "rowid": "1018669",
    "final_x": "3680213.57762",
    "final_y": "538569.738569",
    "longitude": "-90.07188731452872",
    "latitude": "29.974919050507975",
    "geocoded_column": {
      "latitude": "29.974919050507975",
      "longitude": "-90.07188731452872"
    }
  },