[
  {
    "service_request": "2024-1156235",
    "request_type": "Trash/Recycling",
    "request_reason": "Replace Trash Cart",
    "date_created": "2024-12-18T23:45:35.000",
    "date_modified": "2024-12-18T23:45:36.000",
    "request_status": "Pending",
    "responsible_agency": "Department of Sanitation",
    "final_address": "5451 Chartres St",
    "address_councildis": "E",
    "status": "Assigned to Contractor",
    "contractor": "Waste Pro",
    "rowid": "1156235",
    "final_x": "3697055.32503",
    "final_y": "532077.409027",
    "longitude": "-90.01893228619669",
    "latitude": "29.95654689727796",
    "geocoded_column": {
      "latitude": "29.95654689727796",
      "longitude": "-90.01893228619669"
    }
  },
  {
    "service_request": "2024-1156234",
    "request_type": "Abandoned Vehicles",
    "request_reason": "Abandoned/Junk Vehicles",
    "date_created": "2024-12-18T21:58:23.000",
    "date_modified": "2024-12-18T21:58:23.000",
    "request_status": "Pending",
    "responsible_agency": "Department of Public Works",
    "final_address": "533 S Telemachus St",
    "address_councildis": "B",
    "status": "Pending",
    "rowid": "1156234",
    "final_x": "3671145.24782",
    "final_y": "535893.055303",
    "longitude": "-90.10061842439369",
    "latitude": "29.967830461723096",
    "geocoded_column": {
      "latitude": "29.967830461723096",
      "longitude": "-90.10061842439369"
    }
  },
  {
    "service_request": "2024-1156233",
    "request_type": "Abandoned Vehicles",
    "request_reason": "Abandoned/Junk Vehicles",
    "date_created": "2024-12-18T21:44:41.000",
    "date_modified": "2024-12-18T21:44:41.000",
    "request_status": "Pending",
    "responsible_agency": "Department of Public Works",
    "final_address": "720 Brooklyn Ave",
    "address_councildis": "C",
    "status": "Pending",
    "rowid": "1156233",
    "final_x": "3686165.87446",
    "final_y": "528827.156032",
    "longitude": "-90.05343217989588",
    "latitude": "29.94794878971786",
    "geocoded_column": {
      "latitude": "29.94794878971786",
      "longitude": "-90.05343217989588"
    }
  },
  {
    "service_request": "2024-1156232",
    "request_type": "Trash/Recycling",
    "request_reason": "Order Recycling Cart",
    "date_created": "2024-12-18T21:21:28.000",
    "date_modified": "2024-12-18T21:21:28.000",
    "request_status": "Pending",
    "responsible_agency": "Department of Sanitation",
    "final_address": "4231 S Tonti St",
    "address_councildis": "B",
    "status": "Pending",
    "rowid": "1156232",
    "final_x": "3670551.46727",
    "final_y": "528245.249344",
    "longitude": "-90.10275298793471",
    "latitude": "29.94681907642238",
    "geocoded_column": {
      "latitude": "29.94681907642238",
      "longitude": "-90.10275298793471"
    }
  },
  {
    "service_request": "2024-1156231",
    "request_type": "Roads and Streets",
    "request_reason": "Street Subsidence (Sinking)",
    "date_created": "2024-12-18T21:19:34.000",
    "date_modified": "2024-12-18T21:19:34.000",
    "request_status": "Pending",
    "responsible_agency": "Department of Public Works",
    "final_address": "2511 General Taylor St",
    "address_councildis": "B",
    "status": "Pending",
    "rowid": "1156231",
    "final_x": "3671902.00788",
    "final_y": "524317.486204",
    "longitude": "-90.09862246070571",
    "latitude": "29.935979056747314",
    "geocoded_column": {
      "latitude": "29.935979056747314",
      "longitude": "-90.09862246070571"
    }
  },
  {
    "service_request": "2024-1156230",
    "request_type": "Trash/Recycling",
    "request_reason": "Replace Trash Cart",
    "date_created": "2024-12-18T21:07:01.000",
    "date_modified": "2024-12-18T21:07:02.000",
    "request_status": "Pending",
    "responsible_agency": "Department of Sanitation",
    "final_address": "5825 S Robertson St",
    "address_councildis": "A",
    "status": "Assigned to Contractor",
    "contractor": "IV Waste",
    "rowid": "1156230",
    "final_x": "3666780.60321",
    "final_y": "524780.603324",
    "longitude": "-90.11477536170202",
    "latitude": "29.937403231002165",
    "geocoded_column": {
      "latitude": "29.937403231002165",
      "longitude": "-90.11477536170202"
    }
  },
  {
    "service_request": "2024-1156229",
    "request_type": "Property Maintenance",
    "request_reason": "Property Maintenance",
    "date_created": "2024-12-18T20:41:55.000",
    "date_modified": "2024-12-18T20:41:55.000",
    "request_status": "Pending",
    "responsible_agency": "Department of Code Enforcement",
    "final_address": "3020 St Peter St",
    "address_councildis": "A",
    "status": "Pending",
    "rowid": "1156229",
    "final_x": "3675486.1739",
    "final_y": "537698.27572",
    "longitude": "-90.08684761639901",
    "latitude": "29.972665080139937",
    "geocoded_column": {
      "latitude": "29.972665080139937",
      "longitude": "-90.08684761639901"
    }
  },
  {
    "service_request": "2024-1156228",
    "request_type": "Trash/Recycling",
    "request_reason": "Illegal Dumping",
    "date_created": "2024-12-18T20:30:00.000",
    "date_modified": "2024-12-18T20:30:00.000",
    "request_status": "Pending",
    "responsible_agency": "Department of Sanitation",
    "final_address": "1900 BLK Saint Anthony St",
    "address_councildis": "D",
    "status": "Pending",
    "rowid": "1156228",
    "final_x": "3683265.07897",
    "final_y": "539312.972999",
    "longitude": "-90.06222386883591",
    "latitude": "29.976869962167537",
    "geocoded_column": {
      "latitude": "29.976869962167537",
      "longitude": "-90.06222386883591"
    }
  },
  {
    "service_request": "2024-1156227",
    "request_type": "Trash/Recycling",
    "request_reason": "Order Recycling Cart",
    "date_created": "2024-12-18T20:26:10.000",
    "date_modified": "2024-12-18T20:26:10.000",
    "request_status": "Pending",
    "responsible_agency": "Department of Sanitation",
    "final_address": "760 Allen Toussaint Blvd",
    "address_councildis": "A",
    "status": "Pending",
    "rowid": "1156227",
    "final_x": "3669780.90791",
    "final_y": "554539.589592",
    "longitude": "-90.10429544289431",
    "latitude": "30.019142292398843",
    "geocoded_column": {
      "latitude": "30.019142292398843",
      "longitude": "-90.10429544289431"
    }
  },
  {
    "service_request": "2024-1156226",
    "request_type": "Trash/Recycling",
    "request_reason": "Request a Large Item Pick Up",
    "date_created": "2024-12-18T19:40:47.000",
    "date_modified": "2024-12-18T19:40:48.000",
    "request_status": "Pending",
    "responsible_agency": "Department of Sanitation",
    "final_address": "4443 Shalimar Dr",
    "address_councildis": "D",
    "status": "Assigned to Contractor",
    "contractor": "Waste Pro",
    "rowid": "1156226",
    "final_x": "3697390.06883",
    "final_y": "552722.754902",
    "longitude": "-90.01712644160338",
    "latitude": "30.013303512635044",
    "geocoded_column": {
      "latitude": "30.013303512635044",
      "longitude": "-90.01712644160338"
    }
  },
  {
    "service_request": "2024-1156225",
    "request_type": "Trash/Recycling",
    "request_reason": "Replace Trash Cart",
    "date_created": "2024-12-18T19:31:30.000",
    "date_modified": "2024-12-18T19:31:31.000",
    "request_status": "Pending",
    "responsible_agency": "Department of Sanitation",
    "final_address": "5434 Wimbledon Ct",
    "address_councildis": "C",
    "status": "Assigned to Contractor",
    "contractor": "Richards Disposal",
    "rowid": "1156225",
    "final_x": "3704181.06743",
    "final_y": "519235.272247",
    "longitude": "-89.99690465541461",
    "latitude": "29.92100886520297",
    "geocoded_column": {
      "latitude": "29.92100886520297",
      "longitude": "-89.99690465541461"
    }
  },
  {
    "service_request": "2024-1156224",
    "request_type": "Streetlights",
    "request_reason": "Streetlight Outage/Malfunction",
    "date_created": "2024-12-18T19:17:19.000",
    "date_modified": "2024-12-18T19:17:20.000",
    "request_status": "Pending",
    "responsible_agency": "Department of Public Works",
    "final_address": "1614 Farragut St",
    "address_councildis": "C",
    "status": "Pending",
    "contractor": "Legacy Professional Services",
    "rowid": "1156224",
    "final_x": "3692339.47325",
    "final_y": "525277.426749",
    "longitude": "-90.03406681673523",
    "latitude": "29.937997195785368",
    "geocoded_column": {
      "latitude": "29.937997195785368",
      "longitude": "-90.03406681673523"
    }
  },
  {
    "service_request": "2024-1156223",
    "request_type": "Streetlights",
    "request_reason": "Streetlight Outage/Malfunction",
    "date_created": "2024-12-18T19:04:51.000",
    "date_modified": "2024-12-18T19:04:52.000",
    "request_status": "Pending",
    "responsible_agency": "Department of Public Works",
    "final_address": "5928 General Haig St",
    "address_councildis": "A",
    "status": "Pending",
    "contractor": "Legacy Professional Services",
    "rowid": "1156223",
    "final_x": "3670435.13147",
    "final_y": "546685.038481",
    "longitude": "-90.10249490325195",
    "latitude": "29.997525725609407",
    "geocoded_column": {
      "latitude": "29.997525725609407",
      "longitude": "-90.10249490325195"
    }
  },
  {
    "service_request": "2024-1156222",
    "request_type": "Streetlights",
    "request_reason": "Streetlight Outage/Malfunction",
    "date_created": "2024-12-18T19:00:05.000",
    "date_modified": "2024-12-18T19:00:06.000",
    "request_status": "Pending",
    "responsible_agency": "Department of Public Works",
    "final_address": "5900 BLK General Haig St",
    "address_councildis": "A",
    "status": "Pending",
    "contractor": "Legacy Professional Services",
    "rowid": "1156222",
    "final_x": "3670495.93916",
    "final_y": "546760.747145",
    "longitude": "-90.10230024362978",
    "latitude": "29.997732102007163",
    "geocoded_column": {
      "latitude": "29.997732102007163",
      "longitude": "-90.10230024362978"
    }
  },
  {
    "service_request": "2024-1156221",
    "request_type": "Trash/Recycling",
    "request_reason": "Request a Large Item Pick Up",
    "date_created": "2024-12-18T18:57:13.000",
    "date_modified": "2024-12-18T18:57:14.000",
    "request_status": "Pending",
    "responsible_agency": "Department of Sanitation",
    "final_address": "1218 Joliet St",
    "address_councildis": "A",
    "status": "Assigned to Contractor",
    "contractor": "IV Waste",
    "rowid": "1156221",
    "final_x": "3660990.06125",
    "final_y": "529482.758337",
    "longitude": "-90.13290106882825",
    "latitude": "29.95050071723339",
    "geocoded_column": {
      "latitude": "29.95050071723339",
      "longitude": "-90.13290106882825"
    }
  },
  {
    "service_request": "2024-1156220",
    "request_type": "Trash/Recycling",
    "request_reason": "Request a Large Item Pick Up",
    "date_created": "2024-12-18T18:55:54.000",
    "date_modified": "2024-12-18T18:55:55.000",
    "request_status": "Pending",
    "responsible_agency": "Department of Sanitation",
    "final_address": "1220 Joliet St",
    "address_councildis": "A",
    "status": "Assigned to Contractor",
    "contractor": "IV Waste",
    "rowid": "1156220",
    "final_x": "3661002.43578",
    "final_y": "529493.895553",
    "longitude": "-90.13286162784152",
    "latitude": "29.95053098453264",
    "geocoded_column": {
      "latitude": "29.95053098453264",
      "longitude": "-90.13286162784152"
    }
  },
  {
    "service_request": "2024-1156219",
    "request_type": "Streetlights",
    "request_reason": "Streetlight Outage/Malfunction",
    "date_created": "2024-12-18T18:48:49.000",
    "date_modified": "2024-12-18T18:48:50.000",
    "request_status": "Pending",
    "responsible_agency": "Department of Public Works",
    "final_address": "5928 General Haig St",
    "address_councildis": "A",
    "status": "Pending",
    "contractor": "Legacy Professional Services",
    "rowid": "1156219",
    "final_x": "3670435.13147",
    "final_y": "546685.038481",
    "longitude": "-90.10249490325195",
    "latitude": "29.997525725609407",
    "geocoded_column": {
      "latitude": "29.997525725609407",
      "longitude": "-90.10249490325195"
    }
  },
  {
    "service_request": "2024-1156218",
    "request_type": "Streetlights",
    "request_reason": "Streetlight Outage/Malfunction",
    "date_created": "2024-12-18T18:48:24.000",
    "date_modified": "2024-12-18T18:48:25.000",
    "request_status": "Pending",
    "responsible_agency": "Department of Public Works",
    "final_address": "1608 Farragut St",
    "address_councildis": "C",
    "status": "Pending",
    "contractor": "Legacy Professional Services",
    "rowid": "1156218",
    "final_x": "3692360.5407",
    "final_y": "525317.676029",
    "longitude": "-90.03399886432288",
    "latitude": "29.93810721068446",
    "geocoded_column": {
      "latitude": "29.93810721068446",
      "longitude": "-90.03399886432288"
    }
  },
  {
    "service_request": "2024-1156217",
    "request_type": "Streetlights",
    "request_reason": "Streetlight Outage/Malfunction",
    "date_created": "2024-12-18T18:45:10.000",
    "date_modified": "2024-12-18T18:45:11.000",
    "request_status": "Pending",
    "responsible_agency": "Department of Public Works",
    "final_address": "5928 General Haig St",
    "address_councildis": "A",
    "status": "Pending",
    "contractor": "Legacy Professional Services",
    "rowid": "1156217",
    "final_x": "3670435.13147",
    "final_y": "546685.038481",
    "longitude": "-90.10249490325195",
    "latitude": "29.997525725609407",
    "geocoded_column": {
      "latitude": "29.997525725609407",
      "longitude": "-90.10249490325195"
    }
  },
  {
    "service_request": "2024-1156216",
    "request_type": "General Services",
    "request_reason": "General Service Request",
    "date_created": "2024-12-18T18:23:58.000",
    "date_modified": "2024-12-18T18:23:58.000",
    "request_status": "Pending",
    "responsible_agency": "Orleans Parish Communication District",
    "final_address": "2028 Delery St",
    "address_councildis": "E",
    "status": "Pending",
    "rowid": "1156216",
    "final_x": "3701762.16791",
    "final_y": "536353.175879",
    "longitude": "-90.00391307361647",
    "latitude": "29.968154420534795",
    "geocoded_column": {
      "latitude": "29.968154420534795",
      "longitude": "-90.00391307361647"
    }
  },
  {
    "service_request": "2024-1156215",
    "request_type": "Trash/Recycling",
    "request_reason": "Request a Large Item Pick Up",
    "date_created": "2024-12-18T18:19:55.000",
    "date_modified": "2024-12-18T18:19:56.000",
    "request_status": "Pending",
    "responsible_agency": "Department of Sanitation",
    "final_address": "1011 Desire St",
    "address_councildis": "C",
    "status": "Assigned to Contractor",
    "contractor": "IV Waste",
    "rowid": "1156215",
    "final_x": "3690135.81244",
    "final_y": "535380.447494",
    "longitude": "-90.04066410802851",
    "latitude": "29.965845539380272",
    "geocoded_column": {
      "latitude": "29.965845539380272",
      "longitude": "-90.04066410802851"
    }
  },
  {
    "service_request": "2024-1156214",
    "request_type": "Trash/Recycling",
    "request_reason": "Repair Trash Cart",
    "date_created": "2024-12-18T18:19:48.000",
    "date_modified": "2024-12-18T18:19:49.000",
    "request_status": "Pending",
    "responsible_agency": "Department of Sanitation",
    "final_address": "2525 Pressburg St",
    "address_councildis": "D",
    "status": "Assigned to Contractor",
    "contractor": "IV Waste",
    "rowid": "1156214",
    "final_x": "3685938.09468",
    "final_y": "554824.423448",
    "longitude": "-90.05323435527293",
    "latitude": "30.01943906243818",
    "geocoded_column": {
      "latitude": "30.01943906243818",
      "longitude": "-90.05323435527293"
    }
  },
  {
    "service_request": "2024-1156213",
    "request_type": "Trash/Recycling",
    "request_reason": "Request a Large Item Pick Up",
    "date_created": "2024-12-18T18:09:05.000",
    "date_modified": "2024-12-18T18:09:06.000",
    "request_status": "Pending",
    "responsible_agency": "Department of Sanitation",
    "final_address": "10330 Deerfield Dr",
    "address_councildis": "E",
    "status": "Assigned to Contractor",
    "contractor": "Waste Pro",
    "rowid": "1156213",
    "final_x": "3710278.36369",
    "final_y": "563599.577825",
    "longitude": "-89.97599958097344",
    "latitude": "30.042797122163762",
    "geocoded_column": {
      "latitude": "30.042797122163762",
      "longitude": "-89.97599958097344"
    }
  },
  {
    "service_request": "2024-1156212",
    "request_type": "Trash/Recycling",
    "request_reason": "Request a Large Item Pick Up",
    "date_created": "2024-12-18T18:03:05.000",
    "date_modified": "2024-12-18T18:03:06.000",
    "request_status": "Pending",
    "responsible_agency": "Department of Sanitation",
    "final_address": "6700 Coventry St",
    "address_councildis": "E",
    "status": "Assigned to Contractor",
    "contractor": "Waste Pro",
    "rowid": "1156212",
    "final_x": "3697987.38883",
    "final_y": "559369.087965",
    "longitude": "-90.01499763772816",
    "latitude": "30.031559518508384",
    "geocoded_column": {
      "latitude": "30.031559518508384",
      "longitude": "-90.01499763772816"
    }
  },
  {
    "service_request": "2024-1156211",
    "request_type": "Trash/Recycling",
    "request_reason": "Request a Large Item Pick Up",
    "date_created": "2024-12-18T17:59:51.000",
    "date_modified": "2024-12-18T17:59:52.000",
    "request_status": "Pending",
    "responsible_agency": "Department of Sanitation",
    "final_address": "2930 Laurel St",
    "address_councildis": "B",
    "status": "Assigned to Contractor",
    "contractor": "IV Waste",
    "rowid": "1156211",
    "final_x": "3676843.04661",
    "final_y": "519773.046648",
    "longitude": "-90.08318000876423",
    "latitude": "29.92333600300221",
    "geocoded_column": {
      "latitude": "29.92333600300221",
      "longitude": "-90.08318000876423"
    }
  },
  {
    "service_request": "2024-1156210",
    "request_type": "Trash/Recycling",
    "request_reason": "Request a Large Item Pick Up",
    "date_created": "2024-12-18T17:58:27.000",
    "date_modified": "2024-12-18T17:58:28.000",
    "request_status": "Pending",
    "responsible_agency": "Department of Sanitation",
    "final_address": "2711 Bristol Pl",
    "address_councildis": "C",
    "status": "Assigned to Contractor",
    "contractor": "Richards Disposal",
    "rowid": "1156210",
    "final_x": "3702542.6865",
    "final_y": "521049.733049",
    "longitude": "-90.00200970215556",
    "latitude": "29.926050447399188",
    "geocoded_column": {
      "latitude": "29.926050447399188",
      "longitude": "-90.00200970215556"
    }
  },
  {
    "service_request": "2024-1156209",
    "request_type": "Mosquito, Termite & Rodent Control",
    "request_reason": "Non-Rodent Complaint (Mice, Possums, Snakes)",
    "date_created": "2024-12-18T17:56:49.000",
    "date_modified": "2024-12-18T17:56:49.000",
    "request_status": "Pending",
    "responsible_agency": "Mosquito, Termite & Rodent Control Board",
    "final_address": "7719 Michigan St",
    "address_councildis": "E",
    "status": "Pending",
    "rowid": "1156209",
    "final_x": "3711491.10821",
    "final_y": "566999.00106",
    "longitude": "-89.9720392203016",
    "latitude": "30.052104606433563",
    "geocoded_column": {
      "latitude": "30.052104606433563",
      "longitude": "-89.9720392203016"
    }
  },
  {
    "service_request": "2024-1156208",
    "request_type": "Trash/Recycling",
    "request_reason": "Request a Large Item Pick Up",
    "date_created": "2024-12-18T17:52:56.000",
    "date_modified": "2024-12-18T17:52:57.000",
    "request_status": "Pending",
    "responsible_agency": "Department of Sanitation",
    "final_address": "2711 Bristol Pl",
    "address_councildis": "C",
    "status": "Assigned to Contractor",
    "contractor": "Richards Disposal",
    "rowid": "1156208",
    "final_x": "3702542.6865",
    "final_y": "521049.733049",
    "longitude": "-90.00200970215556",
    "latitude": "29.926050447399188",
    "geocoded_column": {
      "latitude": "29.926050447399188",
      "longitude": "-90.00200970215556"
    }
  },
  {
    "service_request": "2024-1156207",
    "request_type": "Trash/Recycling",
    "request_reason": "Missed Trash Pick-Up",
    "date_created": "2024-12-18T17:49:20.000",
    "date_modified": "2024-12-18T17:49:21.000",
    "request_status": "Pending",
    "responsible_agency": "Department of Sanitation",
    "final_address": "3834 S Inwood Ave",
    "address_councildis": "C",
    "status": "Assigned to Contractor",
    "contractor": "Richards Disposal",
    "rowid": "1156207",
    "final_x": "3705105.55089",
    "final_y": "514343.170419",
    "longitude": "-89.99416697661597",
    "latitude": "29.90752758884572",
    "geocoded_column": {
      "latitude": "29.90752758884572",
      "longitude": "-89.99416697661597"
    }
  },
  {
    "service_request": "2024-1156206",
    "request_type": "Abandoned Vehicles",
    "request_reason": "Abandoned/Junk Vehicles",
    "date_created": "2024-12-18T17:43:33.000",
    "date_modified": "2024-12-18T17:43:33.000",
    "request_status": "Pending",
    "responsible_agency": "Department of Public Works",
    "final_address": "1729 Jackson Ave",
    "address_councildis": "B",
    "status": "Pending",
    "rowid": "1156206",
    "final_x": "3677258.38504",
    "final_y": "524237.32582",
    "longitude": "-90.08171501181857",
    "latitude": "29.935598849304476",
    "geocoded_column": {
      "latitude": "29.935598849304476",
      "longitude": "-90.08171501181857"
    }
  },
  {
    "service_request": "2024-1156205",
    "request_type": "Drainage",
    "request_reason": "Drainage Manhole Cover Missing or Damaged",
    "date_created": "2024-12-18T17:29:51.000",
    "date_modified": "2024-12-18T17:29:51.000",
    "request_status": "Pending",
    "responsible_agency": "Department of Public Works",
    "final_address": "6520 Congress Dr",
    "address_councildis": "D",
    "status": "Pending",
    "rowid": "1156205",
    "final_x": "3690557.38883",
    "final_y": "557767.340891",
    "longitude": "-90.03853391240037",
    "latitude": "30.027388277841048",
    "geocoded_column": {
      "latitude": "30.027388277841048",
      "longitude": "-90.03853391240037"
    }
  },
  {
    "service_request": "2024-1156204",
    "request_type": "General Services",
    "request_reason": "General Service Request",
    "date_created": "2024-12-18T17:29:08.000",
    "date_modified": "2024-12-18T17:29:08.000",
    "request_status": "Pending",
    "responsible_agency": "Orleans Parish Communication District",
    "final_address": "6530 Coveview Ct",
    "address_councildis": "E",
    "status": "Pending",
    "rowid": "1156204",
    "final_x": "3698756.29892",
    "final_y": "555639.532633",
    "longitude": "-90.01270369275363",
    "latitude": "30.021280323006916",
    "geocoded_column": {
      "latitude": "30.021280323006916",
      "longitude": "-90.01270369275363"
    }
  },
  {
    "service_request": "2024-1156203",
    "request_type": "Parks & Parkways",
    "request_reason": "Request Tree Service (Right of Way/Public Property)",
    "date_created": "2024-12-18T17:11:14.000",
    "date_modified": "2024-12-18T17:11:14.000",
    "request_status": "Pending",
    "responsible_agency": "Department of Parks & Parkway",
    "final_address": "2167 N Dorgenois St",
    "address_councildis": "D",
    "status": "Pending",
    "rowid": "1156203",
    "final_x": "3684047.43663",
    "final_y": "541447.368332",
    "longitude": "-90.0596780091072",
    "latitude": "29.98271491350613",
    "geocoded_column": {
      "latitude": "29.98271491350613",
      "longitude": "-90.0596780091072"
    }
  },
  {
    "service_request": "2024-1156202",
    "request_type": "Trash/Recycling",
    "request_reason": "Replace Trash Cart",
    "date_created": "2024-12-18T17:01:36.000",
    "date_modified": "2024-12-18T17:01:37.000",
    "request_status": "Pending",
    "responsible_agency": "Department of Sanitation",
    "final_address": "6103 Canal Blvd",
    "address_councildis": "A",
    "status": "Assigned to Contractor",
    "contractor": "IV Waste",
    "rowid": "1156202",
    "final_x": "3668671.64078",
    "final_y": "547992.04469",
    "longitude": "-90.1080215839904",
    "latitude": "30.00117150915999",
    "geocoded_column": {
      "latitude": "30.00117150915999",
      "longitude": "-90.1080215839904"
    }
  },
  {
    "service_request": "2024-1156201",
    "request_type": "Trash/Recycling",
    "request_reason": "Repair Recycling Cart",
    "date_created": "2024-12-18T16:45:49.000",
    "date_modified": "2024-12-18T16:45:49.000",
    "request_status": "Pending",
    "responsible_agency": "Department of Sanitation",
    "final_address": "1130 Cherokee St",
    "address_councildis": "A",
    "status": "Pending",
    "rowid": "1156201",
    "final_x": "3663377.27066",
    "final_y": "526824.963006",
    "longitude": "-90.12545192628433",
    "latitude": "29.94312364950774",
    "geocoded_column": {
      "latitude": "29.94312364950774",
      "longitude": "-90.12545192628433"
    }
  },
  {
    "service_request": "2024-1156200",
    "request_type": "Trash/Recycling",
    "request_reason": "Request a Large Item Pick Up",
    "date_created": "2024-12-18T16:45:25.000",
    "date_modified": "2024-12-18T16:45:26.000",
    "request_status": "Pending",
    "responsible_agency": "Department of Sanitation",
    "final_address": "2617 Erato St",
    "address_councildis": "B",
    "status": "Assigned to Contractor",
    "contractor": "IV Waste",
    "rowid": "1156200",
    "final_x": "3676349.46952",
    "final_y": "528086.589439",
    "longitude": "-90.0844520204185",
    "latitude": "29.946210324704033",
    "geocoded_column": {
      "latitude": "29.946210324704033",
      "longitude": "-90.0844520204185"
    }
  },
  {
    "service_request": "2024-1156199",
    "request_type": "Abandoned Vehicles",
    "request_reason": "Abandoned/Junk Vehicles",
    "date_created": "2024-12-18T16:36:58.000",
    "date_modified": "2024-12-18T16:36:59.000",
    "request_status": "Pending",
    "responsible_agency": "Department of Public Works",
    "final_address": "DREUX AVE & LOUISA DR",
    "address_councildis": "D",
    "status": "Pending",
    "rowid": "1156199",
    "final_x": "3690545.9",
    "final_y": "552957.48",
    "longitude": "-90.03874193415766",
    "latitude": "30.01416331414302",
    "geocoded_column": {
      "latitude": "30.01416331414302",
      "longitude": "-90.03874193415766"
    }
  },
  {
    "service_request": "2024-1156198",
    "request_type": "Trash/Recycling",
    "request_reason": "MIssed Recycling Pick-Up",
    "date_created": "2024-12-18T16:36:15.000",
    "date_modified": "2024-12-18T16:36:16.000",
    "request_status": "Pending",
    "responsible_agency": "Department of Sanitation",
    "final_address": "537 Verret St",
    "address_councildis": "C",
    "status": "Assigned to Contractor",
    "contractor": "Richards Disposal",
    "rowid": "1156198",
    "final_x": "3686983.72239",
    "final_y": "529582.922177",
    "longitude": "-90.05082320331647",
    "latitude": "29.95000174427931",
    "geocoded_column": {
      "latitude": "29.95000174427931",
      "longitude": "-90.05082320331647"
    }
  },
  {
    "service_request": "2024-1156197",
    "request_type": "Trash/Recycling",
    "request_reason": "Request a Large Item Pick Up",
    "date_created": "2024-12-18T16:31:36.000",
    "date_modified": "2024-12-18T16:31:37.000",
    "request_status": "Pending",
    "responsible_agency": "Department of Sanitation",
    "final_address": "110 Country Club Dr",
    "address_councildis": "A",
    "status": "Assigned to Contractor",
    "contractor": "IV Waste",
    "rowid": "1156197",
    "final_x": "3665761.77991",
    "final_y": "544222.39419",
    "longitude": "-90.11734049862147",
    "latitude": "29.99089150028852",
    "geocoded_column": {
      "latitude": "29.99089150028852",
      "longitude": "-90.11734049862147"
    }
  },
  {
    "service_request": "2024-1156196",
    "request_type": "Trash/Recycling",
    "request_reason": "Change Size of Trash Cart",
    "date_created": "2024-12-18T16:29:26.000",
    "date_modified": "2024-12-18T16:29:27.000",
    "request_status": "Pending",
    "responsible_agency": "Department of Sanitation",
    "final_address": "1669 Robert St",
    "address_councildis": "B",
    "status": "Assigned to Contractor",
    "contractor": "IV Waste",
    "rowid": "1156196",
    "final_x": "3668806.76276",
    "final_y": "521537.823865",
    "longitude": "-90.10848805487589",
    "latitude": "29.92842722186314",
    "geocoded_column": {
      "latitude": "29.92842722186314",
      "longitude": "-90.10848805487589"
    }
  },
  {
    "service_request": "2024-1156195",
    "request_type": "Property Maintenance",
    "request_reason": "Property Maintenance",
    "date_created": "2024-12-18T16:29:03.000",
    "date_modified": "2024-12-18T16:29:03.000",
    "request_status": "Pending",
    "responsible_agency": "Department of Code Enforcement",
    "final_address": "4774 Werner Dr",
    "address_councildis": "E",
    "status": "Pending",
    "rowid": "1156195",
    "final_x": "3704703.37866",
    "final_y": "555568.298777",
    "longitude": "-89.99391535015586",
    "latitude": "30.020894649780413",
    "geocoded_column": {
      "latitude": "30.020894649780413",
      "longitude": "-89.99391535015586"
    }
  },
  {
    "service_request": "2024-1156194",
    "request_type": "Property Maintenance",
    "request_reason": "Property Maintenance",
    "date_created": "2024-12-18T16:25:56.000",
    "date_modified": "2024-12-18T16:25:56.000",
    "request_status": "Pending",
    "responsible_agency": "Department of Code Enforcement",
    "final_address": "4774 Werner Dr",
    "address_councildis": "E",
    "status": "Pending",
    "rowid": "1156194",
    "final_x": "3704703.37866",
    "final_y": "555568.298777",
    "longitude": "-89.99391535015586",
    "latitude": "30.020894649780413",
    "geocoded_column": {
      "latitude": "30.020894649780413",
      "longitude": "-89.99391535015586"
    }
  },
  {
    "service_request": "2024-1156193",
    "request_type": "Property Maintenance",
    "request_reason": "Property Maintenance",
    "date_created": "2024-12-18T16:21:43.000",
    "date_modified": "2024-12-18T16:21:43.000",
    "request_status": "Pending",
    "responsible_agency": "Department of Code Enforcement",
    "final_address": "4774 Werner Dr",
    "address_councildis": "E",
    "status": "Pending",
    "rowid": "1156193",
    "final_x": "3704703.37866",
    "final_y": "555568.298777",
    "longitude": "-89.99391535015586",
    "latitude": "30.020894649780413",
    "geocoded_column": {
      "latitude": "30.020894649780413",
      "longitude": "-89.99391535015586"
    }
  },
  {
    "service_request": "2024-1156192",
    "request_type": "Roads and Streets",
    "request_reason": "Street Subsidence (Sinking)",
    "date_created": "2024-12-18T16:17:33.000",
    "date_modified": "2024-12-18T16:17:33.000",
    "request_status": "Pending",
    "responsible_agency": "Department of Public Works",
    "final_address": "S HENNESSEY ST & PALMYRA ST",
    "address_councildis": "A",
    "status": "Pending",
    "rowid": "1156192",
    "final_x": "3669810.5",
    "final_y": "538314.88",
    "longitude": "-90.10475160537544",
    "latitude": "29.974529083062198",
    "geocoded_column": {
      "latitude": "29.974529083062198",
      "longitude": "-90.10475160537544"
    }
  },
  {
    "service_request": "2024-1156191",
    "request_type": "Trash/Recycling",
    "request_reason": "Request a Large Item Pick Up",
    "date_created": "2024-12-18T16:16:13.000",
    "date_modified": "2024-12-18T16:16:14.000",
    "request_status": "Pending",
    "responsible_agency": "Department of Sanitation",
    "final_address": "4534 Constance St",
    "address_councildis": "B",
    "status": "Assigned to Contractor",
    "contractor": "IV Waste",
    "rowid": "1156191",
    "final_x": "3670423.42414",
    "final_y": "518284.321078",
    "longitude": "-90.10349482639383",
    "latitude": "29.919433507736606",
    "geocoded_column": {
      "latitude": "29.919433507736606",
      "longitude": "-90.10349482639383"
    }
  },
  {
    "service_request": "2024-1156190",
    "request_type": "Abandoned Vehicles",
    "request_reason": "Abandoned/Junk Vehicles",
    "date_created": "2024-12-18T16:16:05.000",
    "date_modified": "2024-12-18T16:16:06.000",
    "request_status": "Pending",
    "responsible_agency": "Department of Public Works",
    "final_address": "206 David St",
    "address_councildis": "A",
    "status": "Pending",
    "rowid": "1156190",
    "final_x": "3671236.06439",
    "final_y": "538886.043721",
    "longitude": "-90.100229904424",
    "latitude": "29.97605748439138",
    "geocoded_column": {
      "latitude": "29.97605748439138",
      "longitude": "-90.100229904424"
    }
  },
  {
    "service_request": "2024-1156189",
    "request_type": "Trash/Recycling",
    "request_reason": "Request a Large Item Pick Up",
    "date_created": "2024-12-18T16:14:16.000",
    "date_modified": "2024-12-18T16:14:17.000",
    "request_status": "Pending",
    "responsible_agency": "Department of Sanitation",
    "final_address": "4856 Tchoupitoulas St",
    "address_councildis": "B",
    "status": "Assigned to Contractor",
    "contractor": "IV Waste",
    "rowid": "1156189",
    "final_x": "3669223.33018",
    "final_y": "517212.147509",
    "longitude": "-90.1073191445732",
    "latitude": "29.916520731579396",
    "geocoded_column": {
      "latitude": "29.916520731579396",
      "longitude": "-90.1073191445732"
    }
  },
  {
    "service_request": "2024-1156188",
    "request_type": "Trash/Recycling",
    "request_reason": "Repair Recycling Cart",
    "date_created": "2024-12-18T16:13:24.000",
    "date_modified": "2024-12-18T16:13:24.000",
    "request_status": "Pending",
    "responsible_agency": "Department of Sanitation",
    "final_address": "1015 Clouet St",
    "address_councildis": "C",
    "status": "Pending",
    "rowid": "1156188",
    "final_x": "3688956.35708",
    "final_y": "535690.153799",
    "longitude": "-90.04437777650972",
    "latitude": "29.96673365743345",
    "geocoded_column": {
      "latitude": "29.96673365743345",
      "longitude": "-90.04437777650972"
    }
  },
  {
    "service_request": "2024-1156187",
    "request_type": "Trash/Recycling",
    "request_reason": "Replace Trash Cart",
    "date_created": "2024-12-18T16:13:18.000",
    "date_modified": "2024-12-18T16:13:19.000",
    "request_status": "Pending",
    "responsible_agency": "Department of Sanitation",
    "final_address": "6870 Farwood Rd",
    "address_councildis": "E",
    "status": "Assigned to Contractor",
    "contractor": "Waste Pro",
    "rowid": "1156187",
    "final_x": "3700684.21949",
    "final_y": "557289.131099",
    "longitude": "-90.0065516855711",
    "latitude": "30.025754848125956",
    "geocoded_column": {
      "latitude": "30.025754848125956",
      "longitude": "-90.0065516855711"
    }
  },
  {
    "service_request": "2024-1156186",
    "request_type": "Trash/Recycling",
    "request_reason": "Repair Trash Cart",
    "date_created": "2024-12-18T16:11:24.000",
    "date_modified": "2024-12-18T16:11:25.000",
    "request_status": "Pending",
    "responsible_agency": "Department of Sanitation",
    "final_address": "44 Flamingo St",
    "address_councildis": "D",
    "status": "Assigned to Contractor",
    "contractor": "IV Waste",
    "rowid": "1156186",
    "final_x": "3674626.06376",
    "final_y": "555402.999321",
    "longitude": "-90.08895677386201",
    "latitude": "30.021372570953655",
    "geocoded_column": {
      "latitude": "30.021372570953655",
      "longitude": "-90.08895677386201"
    }
  },
  {
    "service_request": "2024-1156185",
    "request_type": "Trash/Recycling",
    "request_reason": "Request a Large Item Pick Up",
    "date_created": "2024-12-18T16:10:56.000",
    "date_modified": "2024-12-18T16:10:57.000",
    "request_status": "Pending",
    "responsible_agency": "Department of Sanitation",
    "final_address": "2715 Philip St",
    "address_councildis": "B",
    "status": "Assigned to Contractor",
    "contractor": "IV Waste",
    "rowid": "1156185",
    "final_x": "3674921.13576",
    "final_y": "526769.322942",
    "longitude": "-90.08900693575457",
    "latitude": "29.942631004726373",
    "geocoded_column": {
      "latitude": "29.942631004726373",
      "longitude": "-90.08900693575457"
    }
  },
  {
    "service_request": "2024-1156184",
    "request_type": "Trash/Recycling",
    "request_reason": "Request a Large Item Pick Up",
    "date_created": "2024-12-18T16:07:49.000",
    "date_modified": "2024-12-18T16:07:50.000",
    "request_status": "Pending",
    "responsible_agency": "Department of Sanitation",
    "final_address": "728 Delery St",
    "address_councildis": "E",
    "status": "Assigned to Contractor",
    "contractor": "Waste Pro",
    "rowid": "1156184",
    "final_x": "3699906.68458",
    "final_y": "531738.851203",
    "longitude": "-90.00994102956876",
    "latitude": "29.95552573929001",
    "geocoded_column": {
      "latitude": "29.95552573929001",
      "longitude": "-90.00994102956876"
    }
  },
  {
    "service_request": "2024-1156183",
    "request_type": "Trash/Recycling",
    "request_reason": "Request a Large Item Pick Up",
    "date_created": "2024-12-18T16:00:18.000",
    "date_modified": "2024-12-18T16:00:20.000",
    "request_status": "Pending",
    "responsible_agency": "Department of Sanitation",
    "final_address": "3114 St Philip St",
    "address_councildis": "A",
    "status": "Assigned to Contractor",
    "contractor": "IV Waste",
    "rowid": "1156183",
    "final_x": "3675835.65109",
    "final_y": "539016.873802",
    "longitude": "-90.0856985589623",
    "latitude": "29.97628031607462",
    "geocoded_column": {
      "latitude": "29.97628031607462",
      "longitude": "-90.0856985589623"
    }
  },
  {
    "service_request": "2024-1156182",
    "request_type": "Trash/Recycling",
    "request_reason": "Return Trash Cart",
    "date_created": "2024-12-18T16:00:03.000",
    "date_modified": "2024-12-18T16:00:04.000",
    "request_status": "Pending",
    "responsible_agency": "Department of Sanitation",
    "final_address": "2929 Cambronne St",
    "address_councildis": "A",
    "status": "Assigned to Contractor",
    "contractor": "IV Waste",
    "rowid": "1156182",
    "final_x": "3665474.91207",
    "final_y": "533772.949061",
    "longitude": "-90.1185965688917",
    "latitude": "29.962167386190533",
    "geocoded_column": {
      "latitude": "29.962167386190533",
      "longitude": "-90.1185965688917"
    }
  },
  {
    "service_request": "2024-1156181",
    "request_type": "Trash/Recycling",
    "request_reason": "Request a Large Item Pick Up",
    "date_created": "2024-12-18T15:56:45.000",
    "date_modified": "2024-12-18T15:56:47.000",
    "request_status": "Pending",
    "responsible_agency": "Department of Sanitation",
    "final_address": "7640 Morrison Rd",
    "address_councildis": "E",
    "status": "Assigned to Contractor",
    "contractor": "Waste Pro",
    "rowid": "1156181",
    "final_x": "3701631.15946",
    "final_y": "559759.055197",
    "longitude": "-90.00346892404156",
    "latitude": "30.032516000937527",
    "geocoded_column": {
      "latitude": "30.032516000937527",
      "longitude": "-90.00346892404156"
    }
  },
  {
    "service_request": "2024-1156180",
    "request_type": "Trash/Recycling",
    "request_reason": "Request a Large Item Pick Up",
    "date_created": "2024-12-18T15:53:34.000",
    "date_modified": "2024-12-18T15:53:35.000",
    "request_status": "Pending",
    "responsible_agency": "Department of Sanitation",
    "final_address": "5419 Stillwater Dr",
    "address_councildis": "E",
    "status": "Assigned to Contractor",
    "contractor": "Waste Pro",
    "rowid": "1156180",
    "final_x": "3716948.93842",
    "final_y": "560465.314078",
    "longitude": "-89.9550372680151",
    "latitude": "30.033960209037463",
    "geocoded_column": {
      "latitude": "30.033960209037463",
      "longitude": "-89.9550372680151"
    }
  },
  {
    "service_request": "2024-1156179",
    "request_type": "Trash/Recycling",
    "request_reason": "Request a Large Item Pick Up",
    "date_created": "2024-12-18T15:51:11.000",
    "date_modified": "2024-12-18T15:51:12.000",
    "request_status": "Pending",
    "responsible_agency": "Department of Sanitation",
    "final_address": "5325 Prytania St",
    "address_councildis": "B",
    "status": "Assigned to Contractor",
    "contractor": "IV Waste",
    "rowid": "1156179",
    "final_x": "3667485.72813",
    "final_y": "520288.599864",
    "longitude": "-90.11270029939944",
    "latitude": "29.925031014329356",
    "geocoded_column": {
      "latitude": "29.925031014329356",
      "longitude": "-90.11270029939944"
    }
  },
  {
    "service_request": "2024-1156178",
    "request_type": "Abandoned Vehicles",
    "request_reason": "Abandoned/Junk Vehicles",
    "date_created": "2024-12-18T15:47:15.000",
    "date_modified": "2024-12-18T15:47:15.000",
    "request_status": "Pending",
    "responsible_agency": "Department of Public Works",
    "final_address": "1418 St Ferdinand St",
    "address_councildis": "C",
    "status": "Pending",
    "rowid": "1156178",
    "final_x": "3688008.38787",
    "final_y": "537609.5058",
    "longitude": "-90.04730342217044",
    "latitude": "29.972040491153816",
    "geocoded_column": {
      "latitude": "29.972040491153816",
      "longitude": "-90.04730342217044"
    }
  },
  {
    "service_request": "2024-1156177",
    "request_type": "Trash/Recycling",
    "request_reason": "Request a Large Item Pick Up",
    "date_created": "2024-12-18T15:44:13.000",
    "date_modified": "2024-12-18T15:44:14.000",
    "request_status": "Pending",
    "responsible_agency": "Department of Sanitation",
    "final_address": "14544 Duane Rd",
    "address_councildis": "E",
    "status": "Assigned to Contractor",
    "contractor": "Waste Pro",
    "rowid": "1156177",
    "final_x": "3720821.2183",
    "final_y": "573338.248874",
    "longitude": "-89.94230669864447",
    "latitude": "30.069226803721783",
    "geocoded_column": {
      "latitude": "30.069226803721783",
      "longitude": "-89.94230669864447"
    }
  },
  {
    "service_request": "2024-1156176",
    "request_type": "Abandoned Vehicles",
    "request_reason": "Abandoned/Junk Vehicles",
    "date_created": "2024-12-18T15:39:38.000",
    "date_modified": "2024-12-18T15:39:38.000",
    "request_status": "Pending",
    "responsible_agency": "Department of Public Works",
    "final_address": "4000 BLK Vincennes Pl",
    "address_councildis": "B",
    "status": "Pending",
    "rowid": "1156176",
    "final_x": "3668453.81758",
    "final_y": "530164.35875",
    "longitude": "-90.10931132798616",
    "latitude": "29.952157778820375",
    "geocoded_column": {
      "latitude": "29.952157778820375",
      "longitude": "-90.10931132798616"
    }
  },
  {
    "service_request": "2024-1156175",
    "request_type": "Trash/Recycling",
    "request_reason": "Repair Trash Cart",
    "date_created": "2024-12-18T15:36:31.000",
    "date_modified": "2024-12-18T15:36:32.000",
    "request_status": "Pending",
    "responsible_agency": "Department of Sanitation",
    "final_address": "4526 S Liberty St",
    "address_councildis": "B",
    "status": "Assigned to Contractor",
    "contractor": "IV Waste",
    "rowid": "1156175",
    "final_x": "3669982.25671",
    "final_y": "523240.931579",
    "longitude": "-90.1047196173317",
    "latitude": "29.933075619273694",
    "geocoded_column": {
      "latitude": "29.933075619273694",
      "longitude": "-90.1047196173317"
    }
  },
  {
    "service_request": "2024-1156174",
    "request_type": "Trash/Recycling",
    "request_reason": "Repair Recycling Cart",
    "date_created": "2024-12-18T15:36:30.000",
    "date_modified": "2024-12-18T15:36:31.000",
    "request_status": "Pending",
    "responsible_agency": "Department of Sanitation",
    "final_address": "883 Hidalgo St",
    "address_councildis": "A",
    "status": "Pending",
    "rowid": "1156174",
    "final_x": "3669402.88526",
    "final_y": "544101.052174",
    "longitude": "-90.10584319201104",
    "latitude": "29.990451101622863",
    "geocoded_column": {
      "latitude": "29.990451101622863",
      "longitude": "-90.10584319201104"
    }
  },
  {
    "service_request": "2024-1156173",
    "request_type": "Trash/Recycling",
    "request_reason": "Request a Large Item Pick Up",
    "date_created": "2024-12-18T15:35:55.000",
    "date_modified": "2024-12-18T15:35:56.000",
    "request_status": "Pending",
    "responsible_agency": "Department of Sanitation",
    "final_address": "6025 Marigny St",
    "address_councildis": "D",
    "status": "Assigned to Contractor",
    "contractor": "IV Waste",
    "rowid": "1156173",
    "final_x": "3683953.62159",
    "final_y": "555216.807705",
    "longitude": "-90.0594908322575",
    "latitude": "30.020578784853086",
    "geocoded_column": {
      "latitude": "30.020578784853086",
      "longitude": "-90.0594908322575"
    }
  },
  {
    "service_request": "2024-1156172",
    "request_type": "Trash/Recycling",
    "request_reason": "Missed Trash Pick-Up",
    "date_created": "2024-12-18T15:35:41.000",
    "date_modified": "2024-12-18T15:35:42.000",
    "request_status": "Pending",
    "responsible_agency": "Department of Sanitation",
    "final_address": "8502 Hayne Blvd",
    "address_councildis": "E",
    "status": "Assigned to Contractor",
    "contractor": "Waste Pro",
    "rowid": "1156172",
    "final_x": "3703262.60836",
    "final_y": "563464.379168",
    "longitude": "-89.99817701910673",
    "latitude": "30.042652024964585",
    "geocoded_column": {
      "latitude": "30.042652024964585",
      "longitude": "-89.99817701910673"
    }
  },
  {
    "service_request": "2024-1156171",
    "request_type": "Mosquito, Termite & Rodent Control",
    "request_reason": "Non-Rodent Complaint (Mice, Possums, Snakes)",
    "date_created": "2024-12-18T15:34:48.000",
    "date_modified": "2024-12-18T15:34:48.000",
    "request_status": "Pending",
    "responsible_agency": "Mosquito, Termite & Rodent Control Board",
    "final_address": "1901 Mirabeau Ave",
    "address_councildis": "D",
    "status": "Pending",
    "rowid": "1156171",
    "final_x": "3681586.31247",
    "final_y": "550614.518164",
    "longitude": "-90.06713150850423",
    "latitude": "30.00799631137257",
    "geocoded_column": {
      "latitude": "30.00799631137257",
      "longitude": "-90.06713150850423"
    }
  },
  {
    "service_request": "2024-1156170",
    "request_type": "Trash/Recycling",
    "request_reason": "Illegal Dumping",
    "date_created": "2024-12-18T15:32:57.000",
    "date_modified": "2024-12-18T15:32:57.000",
    "request_status": "Pending",
    "responsible_agency": "Department of Sanitation",
    "final_address": "1523 St Ferdinand St",
    "address_councildis": "C",
    "status": "Pending",
    "rowid": "1156170",
    "final_x": "3688205.36527",
    "final_y": "538042.976137",
    "longitude": "-90.04666596486372",
    "latitude": "29.973226301926328",
    "geocoded_column": {
      "latitude": "29.973226301926328",
      "longitude": "-90.04666596486372"
    }
  },
  {
    "service_request": "2024-1156169",
    "request_type": "Drainage",
    "request_reason": "Catch Basin Clogged",
    "date_created": "2024-12-18T15:29:57.000",
    "date_modified": "2024-12-18T15:29:58.000",
    "request_status": "Pending",
    "responsible_agency": "Department of Public Works",
    "final_address": "4806 Virgilian St",
    "address_councildis": "D",
    "status": "Pending",
    "rowid": "1156169",
    "final_x": "3697370.26122",
    "final_y": "554063.422744",
    "longitude": "-90.01714036751348",
    "latitude": "30.016990469369716",
    "geocoded_column": {
      "latitude": "30.016990469369716",
      "longitude": "-90.01714036751348"
    }
  },
  {
    "service_request": "2024-1156168",
    "request_type": "Parks & Parkways",
    "request_reason": "Request Tree Service (Right of Way/Public Property)",
    "date_created": "2024-12-18T15:27:55.000",
    "date_modified": "2024-12-18T15:27:56.000",
    "request_status": "Pending",
    "responsible_agency": "Department of Parks & Parkway",
    "final_address": "4806 Virgilian St",
    "address_councildis": "D",
    "status": "Pending",
    "rowid": "1156168",
    "final_x": "3697370.26122",
    "final_y": "554063.422744",
    "longitude": "-90.01714036751348",
    "latitude": "30.016990469369716",
    "geocoded_column": {
      "latitude": "30.016990469369716",
      "longitude": "-90.01714036751348"
    }
  },
  {
    "service_request": "2024-1156167",
    "request_type": "Tax and Revenue",
    "request_reason": "Sales Tax Question",
    "date_created": "2024-12-18T15:26:33.000",
    "date_modified": "2024-12-18T15:26:34.000",
    "request_status": "Pending",
    "responsible_agency": "Bureau of Revenue",
    "final_address": "8132 Hampson St",
    "address_councildis": "A",
    "status": "Pending",
    "rowid": "1156167",
    "final_x": "3660591.63891",
    "final_y": "527239.374143",
    "longitude": "-90.13423321409884",
    "latitude": "29.944343597531283",
    "geocoded_column": {
      "latitude": "29.944343597531283",
      "longitude": "-90.13423321409884"
    }
  },
  {
    "service_request": "2024-1156166",
    "request_type": "Health Related Request",
    "request_reason": "Homeless Encampment Complaint",
    "date_created": "2024-12-18T15:24:55.000",
    "date_modified": "2024-12-18T15:24:55.000",
    "request_status": "Pending",
    "responsible_agency": "Health Department",
    "final_address": "1008 Carondelet St",
    "address_councildis": "B",
    "status": "Pending",
    "rowid": "1156166",
    "final_x": "3679769.71464",
    "final_y": "527268.721087",
    "longitude": "-90.07368151233776",
    "latitude": "29.94385851399879",
    "geocoded_column": {
      "latitude": "29.94385851399879",
      "longitude": "-90.07368151233776"
    }
  },
  {
    "service_request": "2024-1156165",
    "request_type": "Street and Traffic Signs",
    "request_reason": "Stop Sign Missing or Damaged",
    "date_created": "2024-12-18T15:24:02.000",
    "date_modified": "2024-12-18T15:24:03.000",
    "request_status": "Pending",
    "responsible_agency": "Department of Public Works",
    "final_address": "NAPOLEON AVE & S ROCHEBLAVE ST",
    "address_councildis": "B",
    "status": "Pending",
    "rowid": "1156165",
    "final_x": "3670135.6",
    "final_y": "528481.88",
    "longitude": "-90.10405802109267",
    "latitude": "29.94748200754201",
    "geocoded_column": {
      "latitude": "29.94748200754201",
      "longitude": "-90.10405802109267"
    }
  },
  {
    "service_request": "2024-1156164",
    "request_type": "Trash/Recycling",
    "request_reason": "MIssed Recycling Pick-Up",
    "date_created": "2024-12-18T15:23:10.000",
    "date_modified": "2024-12-18T15:23:11.000",
    "request_status": "Pending",
    "responsible_agency": "Department of Sanitation",
    "final_address": "3038 Boyd St",
    "address_councildis": "C",
    "status": "Assigned to Contractor",
    "contractor": "Richards Disposal",
    "rowid": "1156164",
    "final_x": "3708148.91384",
    "final_y": "519371.062263",
    "longitude": "-89.98437502098359",
    "latitude": "29.921254394346473",
    "geocoded_column": {
      "latitude": "29.921254394346473",
      "longitude": "-89.98437502098359"
    }
  },
  {
    "service_request": "2024-1156163",
    "request_type": "Parks & Parkways",
    "request_reason": "Request Tree Service (Right of Way/Public Property)",
    "date_created": "2024-12-18T15:20:00.000",
    "date_modified": "2024-12-18T15:20:01.000",
    "request_status": "Pending",
    "responsible_agency": "Department of Parks & Parkway",
    "final_address": "1759 Shirley Dr",
    "address_councildis": "C",
    "status": "Pending",
    "rowid": "1156163",
    "final_x": "3692900.03849",
    "final_y": "523474.401723",
    "longitude": "-90.03236170089583",
    "latitude": "29.933022002825616",
    "geocoded_column": {
      "latitude": "29.933022002825616",
      "longitude": "-90.03236170089583"
    }
  },
  {
    "service_request": "2024-1156162",
    "request_type": "Trash/Recycling",
    "request_reason": "Request a Large Item Pick Up",
    "date_created": "2024-12-18T15:17:37.000",
    "date_modified": "2024-12-18T15:17:38.000",
    "request_status": "Pending",
    "responsible_agency": "Department of Sanitation",
    "final_address": "7530 Dominican St",
    "address_councildis": "A",
    "status": "Assigned to Contractor",
    "contractor": "IV Waste",
    "rowid": "1156162",
    "final_x": "3661466.52237",
    "final_y": "524980.684797",
    "longitude": "-90.13154573674579",
    "latitude": "29.93810771505143",
    "geocoded_column": {
      "latitude": "29.93810771505143",
      "longitude": "-90.13154573674579"
    }
  },
  {
    "service_request": "2024-1156161",
    "request_type": "Trash/Recycling",
    "request_reason": "Order Trash Cart",
    "date_created": "2024-12-18T15:15:40.000",
    "date_modified": "2024-12-18T15:15:41.000",
    "request_status": "Pending",
    "responsible_agency": "Department of Sanitation",
    "final_address": "1504 Tennessee St",
    "address_councildis": "E",
    "status": "Assigned to Contractor",
    "contractor": "Waste Pro",
    "rowid": "1156161",
    "final_x": "3696080.11197",
    "final_y": "535906.305991",
    "longitude": "-90.02187329494575",
    "latitude": "29.967105732310575",
    "geocoded_column": {
      "latitude": "29.967105732310575",
      "longitude": "-90.02187329494575"
    }
  },
  {
    "service_request": "2024-1156160",
    "request_type": "Property Maintenance",
    "request_reason": "Property Maintenance",
    "date_created": "2024-12-18T15:15:33.000",
    "date_modified": "2024-12-18T15:15:34.000",
    "request_status": "Pending",
    "responsible_agency": "Department of Code Enforcement",
    "final_address": "1749 Shirley Dr",
    "address_councildis": "C",
    "status": "Pending",
    "rowid": "1156160",
    "final_x": "3692907.51177",
    "final_y": "523589.312507",
    "longitude": "-90.03233398951292",
    "latitude": "29.933337735051133",
    "geocoded_column": {
      "latitude": "29.933337735051133",
      "longitude": "-90.03233398951292"
    }
  },
  {
    "service_request": "2024-1156159",
    "request_type": "Trash/Recycling",
    "request_reason": "Request a Large Item Pick Up",
    "date_created": "2024-12-18T15:14:41.000",
    "date_modified": "2024-12-18T15:14:43.000",
    "request_status": "Pending",
    "responsible_agency": "Department of Sanitation",
    "final_address": "2212 St Maurice Ave",
    "address_councildis": "E",
    "status": "Assigned to Contractor",
    "contractor": "Waste Pro",
    "rowid": "1156159",
    "final_x": "3701388.71857",
    "final_y": "537253.013448",
    "longitude": "-90.00505949204106",
    "latitude": "29.970640556948844",
    "geocoded_column": {
      "latitude": "29.970640556948844",
      "longitude": "-90.00505949204106"
    }
  },
  {
    "service_request": "2024-1156158",
    "request_type": "Trash/Recycling",
    "request_reason": "Repair Recycling Cart",
    "date_created": "2024-12-18T15:06:42.000",
    "date_modified": "2024-12-18T15:06:43.000",
    "request_status": "Pending",
    "responsible_agency": "Department of Sanitation",
    "final_address": "299 Audubon St",
    "address_councildis": "A",
    "status": "Pending",
    "rowid": "1156158",
    "final_x": "3661523.40678",
    "final_y": "521953.576122",
    "longitude": "-90.13146638820079",
    "latitude": "29.929782478280348",
    "geocoded_column": {
      "latitude": "29.929782478280348",
      "longitude": "-90.13146638820079"
    }
  },
  {
    "service_request": "2024-1156157",
    "request_type": "Trash/Recycling",
    "request_reason": "Request a Large Item Pick Up",
    "date_created": "2024-12-18T15:03:47.000",
    "date_modified": "2024-12-18T15:04:08.000",
    "request_status": "Pending",
    "responsible_agency": "Department of Sanitation",
    "final_address": "1034 St Maurice Ave",
    "address_councildis": "E",
    "status": "Assigned to Contractor",
    "contractor": "Waste Pro",
    "rowid": "1156157",
    "final_x": "3699735.86205",
    "final_y": "533027.880132",
    "longitude": "-90.01043342996351",
    "latitude": "29.959075534494847",
    "geocoded_column": {
      "latitude": "29.959075534494847",
      "longitude": "-90.01043342996351"
    }
  },
  {
    "service_request": "2024-1156156",
    "request_type": "Streetlights",
    "request_reason": "Streetlight Outage/Malfunction",
    "date_created": "2024-12-18T14:59:38.000",
    "date_modified": "2024-12-18T14:59:39.000",
    "request_status": "Pending",
    "responsible_agency": "Department of Public Works",
    "final_address": "5659 Tullis Dr",
    "address_councildis": "C",
    "status": "Pending",
    "contractor": "Legacy Professional Services",
    "rowid": "1156156",
    "final_x": "3705028.90961",
    "final_y": "512370.525937",
    "longitude": "-89.99448161009038",
    "latitude": "29.902105951886025",
    "geocoded_column": {
      "latitude": "29.902105951886025",
      "longitude": "-89.99448161009038"
    }
  },
  {
    "service_request": "2024-1156155",
    "request_type": "Trash/Recycling",
    "request_reason": "Request a Large Item Pick Up",
    "date_created": "2024-12-18T14:56:49.000",
    "date_modified": "2024-12-18T14:56:50.000",
    "request_status": "Pending",
    "responsible_agency": "Department of Sanitation",
    "final_address": "3155 Dauphine St",
    "address_councildis": "C",
    "status": "Assigned to Contractor",
    "contractor": "IV Waste",
    "rowid": "1156155",
    "final_x": "3689150.02121",
    "final_y": "534776.49543",
    "longitude": "-90.04379865952242",
    "latitude": "29.964215424539617",
    "geocoded_column": {
      "latitude": "29.964215424539617",
      "longitude": "-90.04379865952242"
    }
  },
  {
    "service_request": "2024-1156154",
    "request_type": "Road Striping",
    "request_reason": "Lane Striping or other Pavement Markings",
    "date_created": "2024-12-18T14:53:06.000",
    "date_modified": "2024-12-18T14:53:07.000",
    "request_status": "Pending",
    "responsible_agency": "Department of Public Works",
    "final_address": "GENERAL DE GAULLE DR & GARDEN OAKS DR & WESTBEND PKWY",
    "address_councildis": "C",
    "status": "Pending",
    "rowid": "1156154",
    "final_x": "3696351.7",
    "final_y": "520532.68",
    "longitude": "-90.02157142374539",
    "latitude": "29.924825063772325",
    "geocoded_column": {
      "latitude": "29.924825063772325",
      "longitude": "-90.02157142374539"
    }
  },
  {
    "service_request": "2024-1156153",
    "request_type": "Trash/Recycling",
    "request_reason": "Request a Large Item Pick Up",
    "date_created": "2024-12-18T14:51:49.000",
    "date_modified": "2024-12-18T14:51:50.000",
    "request_status": "Pending",
    "responsible_agency": "Department of Sanitation",
    "final_address": "5511 Bentley Dr",
    "address_councildis": "E",
    "status": "Assigned to Contractor",
    "contractor": "Waste Pro",
    "rowid": "1156153",
    "final_x": "3704059.96778",
    "final_y": "556459.236954",
    "longitude": "-89.99591546884947",
    "latitude": "30.023365050422747",
    "geocoded_column": {
      "latitude": "30.023365050422747",
      "longitude": "-89.99591546884947"
    }
  },
  {
    "service_request": "2024-1156152",
    "request_type": "Trash/Recycling",
    "request_reason": "MIssed Recycling Pick-Up",
    "date_created": "2024-12-18T14:51:28.000",
    "date_modified": "2024-12-18T14:51:29.000",
    "request_status": "Pending",
    "responsible_agency": "Department of Sanitation",
    "final_address": "5511 Bentley Dr",
    "address_councildis": "E",
    "status": "Assigned to Contractor",
    "contractor": "Waste Pro",
    "rowid": "1156152",
    "final_x": "3704059.96778",
    "final_y": "556459.236954",
    "longitude": "-89.99591546884947",
    "latitude": "30.023365050422747",
    "geocoded_column": {
      "latitude": "30.023365050422747",
      "longitude": "-89.99591546884947"
    }
  },
  {
    "service_request": "2024-1156151",
    "request_type": "Trash/Recycling",
    "request_reason": "Request a Large Item Pick Up",
    "date_created": "2024-12-18T14:49:48.000",
    "date_modified": "2024-12-18T14:49:49.000",
    "request_status": "Pending",
    "responsible_agency": "Department of Sanitation",
    "final_address": "1204 Henry Clay Ave",
    "address_councildis": "A",
    "status": "Assigned to Contractor",
    "contractor": "IV Waste",
    "rowid": "1156151",
    "final_x": "3664258.10964",
    "final_y": "520916.620281",
    "longitude": "-90.12286794854776",
    "latitude": "29.926852020722908",
    "geocoded_column": {
      "latitude": "29.926852020722908",
      "longitude": "-90.12286794854776"
    }
  },
  {
    "service_request": "2024-1156150",
    "request_type": "Trash/Recycling",
    "request_reason": "Request a Large Item Pick Up",
    "date_created": "2024-12-18T14:47:00.000",
    "date_modified": "2024-12-18T14:47:01.000",
    "request_status": "Pending",
    "responsible_agency": "Department of Sanitation",
    "final_address": "2473 Oriole St",
    "address_councildis": "D",
    "status": "Assigned to Contractor",
    "contractor": "IV Waste",
    "rowid": "1156150",
    "final_x": "3685112.85794",
    "final_y": "558331.770908",
    "longitude": "-90.0557182567535",
    "latitude": "30.029108292441492",
    "geocoded_column": {
      "latitude": "30.029108292441492",
      "longitude": "-90.0557182567535"
    }
  },
  {
    "service_request": "2024-1156149",
    "request_type": "Trash/Recycling",
    "request_reason": "Replace Trash Cart",
    "date_created": "2024-12-18T14:40:11.000",
    "date_modified": "2024-12-18T14:40:12.000",
    "request_status": "Pending",
    "responsible_agency": "Department of Sanitation",
    "final_address": "3501 Bennett St",
    "address_councildis": "C",
    "status": "Assigned to Contractor",
    "contractor": "Richards Disposal",
    "rowid": "1156149",
    "final_x": "3710332.91371",
    "final_y": "517809.056694",
    "longitude": "-89.97753950833345",
    "latitude": "29.916888548104208",
    "geocoded_column": {
      "latitude": "29.916888548104208",
      "longitude": "-89.97753950833345"
    }
  },
  {
    "service_request": "2024-1156148",
    "request_type": "Trash/Recycling",
    "request_reason": "Request a Large Item Pick Up",
    "date_created": "2024-12-18T14:39:27.000",
    "date_modified": "2024-12-18T14:39:28.000",
    "request_status": "Pending",
    "responsible_agency": "Department of Sanitation",
    "final_address": "237 22Nd St",
    "address_councildis": "A",
    "status": "Assigned to Contractor",
    "contractor": "IV Waste",
    "rowid": "1156148",
    "final_x": "3665400.99764",
    "final_y": "549360.288467",
    "longitude": "-90.11830803482745",
    "latitude": "30.005029470383942",
    "geocoded_column": {
      "latitude": "30.005029470383942",
      "longitude": "-90.11830803482745"
    }
  },
  {
    "service_request": "2024-1156147",
    "request_type": "Trash/Recycling",
    "request_reason": "Request a Large Item Pick Up",
    "date_created": "2024-12-18T14:34:36.000",
    "date_modified": "2024-12-18T14:34:36.000",
    "request_status": "Pending",
    "responsible_agency": "Department of Sanitation",
    "final_address": "2107 Benton St",
    "address_councildis": "E",
    "status": "Assigned to Contractor",
    "contractor": "Waste Pro",
    "rowid": "1156147",
    "final_x": "3700328.49245",
    "final_y": "537199.141768",
    "longitude": "-90.00840975773544",
    "latitude": "29.970526180680427",
    "geocoded_column": {
      "latitude": "29.970526180680427",
      "longitude": "-90.00840975773544"
    }
  },
  {
    "service_request": "2024-1156146",
    "request_type": "Trash/Recycling",
    "request_reason": "Request a Large Item Pick Up",
    "date_created": "2024-12-18T14:20:15.000",
    "date_modified": "2024-12-18T14:20:16.000",
    "request_status": "Pending",
    "responsible_agency": "Department of Sanitation",
    "final_address": "624 Soraparu St",
    "address_councildis": "B",
    "status": "Assigned to Contractor",
    "contractor": "IV Waste",
    "rowid": "1156146",
    "final_x": "3679214.50402",
    "final_y": "520309.283",
    "longitude": "-90.07567563380692",
    "latitude": "29.924739121815964",
    "geocoded_column": {
      "latitude": "29.924739121815964",
      "longitude": "-90.07567563380692"
    }
  },
  {
    "service_request": "2024-1156145",
    "request_type": "Trash/Recycling",
    "request_reason": "MIssed Recycling Pick-Up",
    "date_created": "2024-12-18T14:13:02.000",
    "date_modified": "2024-12-18T14:13:03.000",
    "request_status": "Pending",
    "responsible_agency": "Department of Sanitation",
    "final_address": "104 Constitution St, New Orleans, Louisiana, 70114",
    "address_councildis": "C",
    "status": "Assigned to Contractor",
    "contractor": "Richards Disposal",
    "rowid": "1156145",
    "final_x": "3693206.05846",
    "final_y": "528247.77728",
    "longitude": "-90.03122437871811",
    "latitude": "29.946137590915686",
    "geocoded_column": {
      "latitude": "29.946137590915686",
      "longitude": "-90.03122437871811"
    }
  },
  {
    "service_request": "2024-1156144",
    "request_type": "Trash/Recycling",
    "request_reason": "Replace Recycling Cart",
    "date_created": "2024-12-18T14:12:53.000",
    "date_modified": "2024-12-18T14:12:54.000",
    "request_status": "Pending",
    "responsible_agency": "Department of Sanitation",
    "final_address": "6809 West End Blvd",
    "address_councildis": "A",
    "status": "Pending",
    "rowid": "1156144",
    "final_x": "3666843.00641",
    "final_y": "552861.375063",
    "longitude": "-90.1136346762575",
    "latitude": "30.014614113344184",
    "geocoded_column": {
      "latitude": "30.014614113344184",
      "longitude": "-90.1136346762575"
    }
  },
  {
    "service_request": "2024-1156143",
    "request_type": "Roads and Streets",
    "request_reason": "Pothole",
    "date_created": "2024-12-18T14:06:17.000",
    "date_modified": "2024-12-18T14:06:18.000",
    "request_status": "Pending",
    "responsible_agency": "Department of Public Works",
    "final_address": "TCHOUPITOULAS ST & VALMONT ST",
    "address_councildis": "B",
    "status": "Pending",
    "rowid": "1156143",
    "final_x": "3667289.1",
    "final_y": "517184.58",
    "longitude": "-90.11342531065105",
    "latitude": "29.91650169434257",
    "geocoded_column": {
      "latitude": "29.91650169434257",
      "longitude": "-90.11342531065105"
    }
  },
  {
    "service_request": "2024-1156142",
    "request_type": "Trash/Recycling",
    "request_reason": "Request a Large Item Pick Up",
    "date_created": "2024-12-18T14:03:46.000",
    "date_modified": "2024-12-18T14:03:47.000",
    "request_status": "Pending",
    "responsible_agency": "Department of Sanitation",
    "final_address": "150 Pinehurst Ct",
    "address_councildis": "E",
    "status": "Assigned to Contractor",
    "contractor": "Waste Pro",
    "rowid": "1156142",
    "final_x": "3720290.09772",
    "final_y": "564448.870753",
    "longitude": "-89.94432632712407",
    "latitude": "30.04480243375786",
    "geocoded_column": {
      "latitude": "30.04480243375786",
      "longitude": "-89.94432632712407"
    }
  },
  {
    "service_request": "2024-1156141",
    "request_type": "Roads and Streets",
    "request_reason": "Pothole",
    "date_created": "2024-12-18T14:03:02.000",
    "date_modified": "2024-12-18T14:03:42.000",
    "case_close_date": "2024-12-18T08:03:42.000",
    "request_status": "Closed",
    "responsible_agency": "Department of Public Works",
    "final_address": "2100 BLK N Derbigny St",
    "address_councildis": "D",
    "status": "Resolved",
    "rowid": "1156141",
    "final_x": "3684598.22394",
    "final_y": "538494.479229",
    "longitude": "-90.05804215325065",
    "latitude": "29.97457865872317",
    "geocoded_column": {
      "latitude": "29.97457865872317",
      "longitude": "-90.05804215325065"
    }
  },
  {
    "service_request": "2024-1156140",
    "request_type": "Trash/Recycling",
    "request_reason": "Repair Trash Cart",
    "date_created": "2024-12-18T14:02:38.000",
    "date_modified": "2024-12-18T14:02:39.000",
    "request_status": "Pending",
    "responsible_agency": "Department of Sanitation",
    "final_address": "416 Ptolemy St",
    "address_councildis": "C",
    "status": "Assigned to Contractor",
    "contractor": "Richards Disposal",
    "rowid": "1156140",
    "final_x": "3686863.38716",
    "final_y": "526079.92435",
    "longitude": "-90.05132690657088",
    "latitude": "29.94037339313308",
    "geocoded_column": {
      "latitude": "29.94037339313308",
      "longitude": "-90.05132690657088"
    }
  },
  {
    "service_request": "2024-1156139",
    "request_type": "Trash/Recycling",
    "request_reason": "Repair Trash Cart",
    "date_created": "2024-12-18T14:01:01.000",
    "date_modified": "2024-12-18T14:03:09.000",
    "request_status": "Pending",
    "responsible_agency": "Department of Sanitation",
    "final_address": "3414 Magnolia St",
    "address_councildis": "B",
    "status": "Assigned to Contractor",
    "contractor": "IV Waste",
    "rowid": "1156139",
    "final_x": "3672510.69972",
    "final_y": "525026.748541",
    "longitude": "-90.09667663673737",
    "latitude": "29.937911248718184",
    "geocoded_column": {
      "latitude": "29.937911248718184",
      "longitude": "-90.09667663673737"
    }
  },
  {
    "service_request": "2024-1156138",
    "request_type": "Trash/Recycling",
    "request_reason": "Order Trash Cart",
    "date_created": "2024-12-18T13:58:17.000",
    "date_modified": "2024-12-18T13:58:18.000",
    "request_status": "Pending",
    "responsible_agency": "Department of Sanitation",
    "final_address": "2018 Spain St",
    "address_councildis": "D",
    "status": "Assigned to Contractor",
    "contractor": "IV Waste",
    "rowid": "1156138",
    "final_x": "3685822.78153",
    "final_y": "539881.946186",
    "longitude": "-90.05412578981078",
    "latitude": "29.97835617405384",
    "geocoded_column": {
      "latitude": "29.97835617405384",
      "longitude": "-90.05412578981078"
    }
  },
  {
    "service_request": "2024-1156137",
    "request_type": "Trash/Recycling",
    "request_reason": "Request a Large Item Pick Up",
    "date_created": "2024-12-18T13:53:12.000",
    "date_modified": "2024-12-18T13:53:13.000",
    "request_status": "Pending",
    "responsible_agency": "Department of Sanitation",
    "final_address": "3018 Danneel St",
    "address_councildis": "B",
    "status": "Assigned to Contractor",
    "contractor": "IV Waste",
    "rowid": "1156137",
    "final_x": "3674315.13646",
    "final_y": "523154.635707",
    "longitude": "-90.09104394984816",
    "latitude": "29.932709876047205",
    "geocoded_column": {
      "latitude": "29.932709876047205",
      "longitude": "-90.09104394984816"
    }
  },
  {
    "service_request": "2024-1156136",
    "request_type": "Trash/Recycling",
    "request_reason": "Request a Large Item Pick Up",
    "date_created": "2024-12-18T13:46:26.000",
    "date_modified": "2024-12-18T13:46:27.000",
    "request_status": "Pending",
    "responsible_agency": "Department of Sanitation",
    "final_address": "6124 Vicksburg St",
    "address_councildis": "A",
    "status": "Assigned to Contractor",
    "contractor": "IV Waste",
    "rowid": "1156136",
    "final_x": "3668873.9817",
    "final_y": "548101.733138",
    "longitude": "-90.10737866225843",
    "latitude": "30.001467163228423",
    "geocoded_column": {
      "latitude": "30.001467163228423",
      "longitude": "-90.10737866225843"
    }
  },
  {
    "service_request": "2024-1156135",
    "request_type": "Trash/Recycling",
    "request_reason": "Illegal Dumping",
    "date_created": "2024-12-18T13:46:12.000",
    "date_modified": "2024-12-18T13:46:12.000",
    "request_status": "Pending",
    "responsible_agency": "Department of Sanitation",
    "final_address": "1118 Poland Ave",
    "address_councildis": "D",
    "status": "Pending",
    "rowid": "1156135",
    "final_x": "3693034.20496",
    "final_y": "535236.379334",
    "longitude": "-90.03151628677902",
    "latitude": "29.965359176378946",
    "geocoded_column": {
      "latitude": "29.965359176378946",
      "longitude": "-90.03151628677902"
    }
  },
  {
    "service_request": "2024-1156134",
    "request_type": "Trash/Recycling",
    "request_reason": "Request a Large Item Pick Up",
    "date_created": "2024-12-18T13:45:03.000",
    "date_modified": "2024-12-18T13:45:04.000",
    "request_status": "Pending",
    "responsible_agency": "Department of Sanitation",
    "final_address": "3024 Louisiana Avenue Prkwy",
    "address_councildis": "B",
    "status": "Assigned to Contractor",
    "contractor": "IV Waste",
    "rowid": "1156134",
    "final_x": "3672046.51227",
    "final_y": "526413.521086",
    "longitude": "-90.098094921046",
    "latitude": "29.941738189084443",
    "geocoded_column": {
      "latitude": "29.941738189084443",
      "longitude": "-90.098094921046"
    }
  },
  {
    "service_request": "2024-1156133",
    "request_type": "Abandoned Vehicles",
    "request_reason": "Abandoned/Junk Vehicles",
    "date_created": "2024-12-18T13:44:56.000",
    "date_modified": "2024-12-18T13:44:56.000",
    "request_status": "Pending",
    "responsible_agency": "Department of Public Works",
    "final_address": "600 BLK N White St",
    "address_councildis": "A",
    "status": "Inspected",
    "rowid": "1156133",
    "final_x": "3676096.12284",
    "final_y": "537057.073639",
    "longitude": "-90.08494334675325",
    "latitude": "29.970883734293196",
    "geocoded_column": {
      "latitude": "29.970883734293196",
      "longitude": "-90.08494334675325"
    }
  },
  {
    "service_request": "2024-1156132",
    "request_type": "Street and Traffic Signs",
    "request_reason": "Street Name Sign Damaged or Missing",
    "date_created": "2024-12-18T13:44:46.000",
    "date_modified": "2024-12-18T13:44:46.000",
    "request_status": "Pending",
    "responsible_agency": "Department of Public Works",
    "final_address": "835 Julia St",
    "address_councildis": "B",
    "status": "Pending",
    "rowid": "1156132",
    "final_x": "3679723.8436",
    "final_y": "528227.776256",
    "longitude": "-90.07379305504593",
    "latitude": "29.946496982187416",
    "geocoded_column": {
      "latitude": "29.946496982187416",
      "longitude": "-90.07379305504593"
    }
  },
  {
    "service_request": "2024-1156131",
    "request_type": "Trash/Recycling",
    "request_reason": "Request a Large Item Pick Up",
    "date_created": "2024-12-18T13:43:01.000",
    "date_modified": "2024-12-18T13:43:02.000",
    "request_status": "Pending",
    "responsible_agency": "Department of Sanitation",
    "final_address": "6124 Vicksburg St",
    "address_councildis": "A",
    "status": "Assigned to Contractor",
    "contractor": "IV Waste",
    "rowid": "1156131",
    "final_x": "3668873.9817",
    "final_y": "548101.733138",
    "longitude": "-90.10737866225843",
    "latitude": "30.001467163228423",
    "geocoded_column": {
      "latitude": "30.001467163228423",
      "longitude": "-90.10737866225843"
    }
  },
  {
    "service_request": "2024-1156130",
    "request_type": "Streetlights",
    "request_reason": "Streetlight Outage/Malfunction",
    "date_created": "2024-12-18T13:42:30.000",
    "date_modified": "2024-12-18T13:42:31.000",
    "request_status": "Pending",
    "responsible_agency": "Department of Public Works",
    "final_address": "835 Julia St",
    "address_councildis": "B",
    "status": "Pending",
    "contractor": "Legacy Professional Services",
    "rowid": "1156130",
    "final_x": "3679723.8436",
    "final_y": "528227.776256",
    "longitude": "-90.07379305504593",
    "latitude": "29.946496982187416",
    "geocoded_column": {
      "latitude": "29.946496982187416",
      "longitude": "-90.07379305504593"
    }
  },
  {
    "service_request": "2024-1156129",
    "request_type": "Trash/Recycling",
    "request_reason": "Replace Recycling Cart",
    "date_created": "2024-12-18T13:41:31.000",
    "date_modified": "2024-12-18T13:41:31.000",
    "request_status": "Pending",
    "responsible_agency": "Department of Sanitation",
    "final_address": "2238 Governor Nicholls St",
    "address_councildis": "D",
    "status": "Pending",
    "rowid": "1156129",
    "final_x": "3679173.58088",
    "final_y": "537274.460744",
    "longitude": "-90.07521680565243",
    "latitude": "29.971388922586307",
    "geocoded_column": {
      "latitude": "29.971388922586307",
      "longitude": "-90.07521680565243"
    }
  },
  {
    "service_request": "2024-1156128",
    "request_type": "Trash/Recycling",
    "request_reason": "Replace Trash Cart",
    "date_created": "2024-12-18T13:34:23.000",
    "date_modified": "2024-12-18T13:34:23.000",
    "request_status": "Pending",
    "responsible_agency": "Department of Sanitation",
    "final_address": "5535 Chamberlain Dr",
    "address_councildis": "D",
    "status": "Assigned to Contractor",
    "contractor": "IV Waste",
    "rowid": "1156128",
    "final_x": "3679520.10709",
    "final_y": "552844.894166",
    "longitude": "-90.07358180518474",
    "latitude": "30.01419166151176",
    "geocoded_column": {
      "latitude": "30.01419166151176",
      "longitude": "-90.07358180518474"
    }
  },
  {
    "service_request": "2024-1156127",
    "request_type": "Trash/Recycling",
    "request_reason": "Order Second Trash Cart",
    "date_created": "2024-12-18T13:33:42.000",
    "date_modified": "2024-12-18T13:33:43.000",
    "request_status": "Pending",
    "responsible_agency": "Department of Sanitation",
    "final_address": "37 Fontainebleau Dr",
    "address_councildis": "A",
    "status": "Assigned to Contractor",
    "contractor": "IV Waste",
    "rowid": "1156127",
    "final_x": "3666151.24161",
    "final_y": "531464.473987",
    "longitude": "-90.11653822508082",
    "latitude": "29.955800104211438",
    "geocoded_column": {
      "latitude": "29.955800104211438",
      "longitude": "-90.11653822508082"
    }
  },
  {
    "service_request": "2024-1156126",
    "request_type": "Roads and Streets",
    "request_reason": "Pothole",
    "date_created": "2024-12-18T13:33:23.000",
    "date_modified": "2024-12-18T13:33:24.000",
    "request_status": "Pending",
    "responsible_agency": "Department of Public Works",
    "final_address": "PIEDMONT DR & MONTPELIER ST",
    "address_councildis": "D",
    "status": "Pending",
    "rowid": "1156126",
    "final_x": "3685646.2",
    "final_y": "546719.98",
    "longitude": "-90.0544424499734",
    "latitude": "29.997163756215432",
    "geocoded_column": {
      "latitude": "29.997163756215432",
      "longitude": "-90.0544424499734"
    }
  },
  {
    "service_request": "2024-1156125",
    "request_type": "Trash/Recycling",
    "request_reason": "Request a Large Item Pick Up",
    "date_created": "2024-12-18T13:32:37.000",
    "date_modified": "2024-12-18T13:32:38.000",
    "request_status": "Pending",
    "responsible_agency": "Department of Sanitation",
    "final_address": "1225 Odeon St",
    "address_councildis": "C",
    "status": "Assigned to Contractor",
    "contractor": "Richards Disposal",
    "rowid": "1156125",
    "final_x": "3695965.32106",
    "final_y": "526785.57747",
    "longitude": "-90.02256529464756",
    "latitude": "29.942030542977303",
    "geocoded_column": {
      "latitude": "29.942030542977303",
      "longitude": "-90.02256529464756"
    }
  },
  {
    "service_request": "2024-1156124",
    "request_type": "Parks & Parkways",
    "request_reason": "Request Tree Service (Right of Way/Public Property)",
    "date_created": "2024-12-18T13:28:56.000",
    "date_modified": "2024-12-18T13:28:57.000",
    "request_status": "Pending",
    "responsible_agency": "Department of Parks & Parkway",
    "final_address": "7531 Sandy Cove Dr",
    "address_councildis": "E",
    "status": "Pending",
    "rowid": "1156124",
    "final_x": "3715974.28978",
    "final_y": "568999.16183",
    "longitude": "-89.95779350306553",
    "latitude": "30.05745701477894",
    "geocoded_column": {
      "latitude": "30.05745701477894",
      "longitude": "-89.95779350306553"
    }
  },
  {
    "service_request": "2024-1156123",
    "request_type": "Trash/Recycling",
    "request_reason": "Illegal Dumping",
    "date_created": "2024-12-18T13:28:37.000",
    "date_modified": "2024-12-18T13:28:37.000",
    "request_status": "Pending",
    "responsible_agency": "Department of Sanitation",
    "final_address": "5701 Wickfield Dr",
    "address_councildis": "D",
    "status": "Pending",
    "rowid": "1156123",
    "final_x": "3681105.80783",
    "final_y": "553694.987223",
    "longitude": "-90.06854214254793",
    "latitude": "30.016481077823563",
    "geocoded_column": {
      "latitude": "30.016481077823563",
      "longitude": "-90.06854214254793"
    }
  },
  {
    "service_request": "2024-1156122",
    "request_type": "Trash/Recycling",
    "request_reason": "Request a Large Item Pick Up",
    "date_created": "2024-12-18T13:26:36.000",
    "date_modified": "2024-12-18T13:26:37.000",
    "request_status": "Pending",
    "responsible_agency": "Department of Sanitation",
    "final_address": "2509 Jasmine St",
    "address_councildis": "D",
    "status": "Assigned to Contractor",
    "contractor": "IV Waste",
    "rowid": "1156122",
    "final_x": "3686347.56175",
    "final_y": "548083.52309",
    "longitude": "-90.05217872150804",
    "latitude": "30.000891465071778",
    "geocoded_column": {
      "latitude": "30.000891465071778",
      "longitude": "-90.05217872150804"
    }
  },
  {
    "service_request": "2024-1156121",
    "request_type": "Street and Traffic Signs",
    "request_reason": "Additional Signage Request",
    "date_created": "2024-12-18T13:22:45.000",
    "date_modified": "2024-12-18T13:22:45.000",
    "request_status": "Pending",
    "responsible_agency": "Department of Public Works",
    "final_address": "1005 Loyola Ave",
    "address_councildis": "B",
    "status": "Pending",
    "rowid": "1156121",
    "final_x": "3678336.68987",
    "final_y": "528052.947647",
    "longitude": "-90.07817883980789",
    "latitude": "29.94605811570174",
    "geocoded_column": {
      "latitude": "29.94605811570174",
      "longitude": "-90.07817883980789"
    }
  },
  {
    "service_request": "2024-1156120",
    "request_type": "Trash/Recycling",
    "request_reason": "Request a Large Item Pick Up",
    "date_created": "2024-12-18T13:19:57.000",
    "date_modified": "2024-12-18T13:19:59.000",
    "request_status": "Pending",
    "responsible_agency": "Department of Sanitation",
    "final_address": "4531 Francisco Verrett Dr",
    "address_councildis": "E",
    "status": "Assigned to Contractor",
    "contractor": "Waste Pro",
    "rowid": "1156120",
    "final_x": "3704413.2186",
    "final_y": "553730.247959",
    "longitude": "-89.99490000325315",
    "latitude": "30.015850039914785",
    "geocoded_column": {
      "latitude": "30.015850039914785",
      "longitude": "-89.99490000325315"
    }
  },
  {
    "service_request": "2024-1156119",
    "request_type": "Trash/Recycling",
    "request_reason": "Replace Trash Cart",
    "date_created": "2024-12-18T13:19:53.000",
    "date_modified": "2024-12-18T13:20:15.000",
    "request_status": "Pending",
    "responsible_agency": "Department of Sanitation",
    "final_address": "3524 Audubon St",
    "address_councildis": "B",
    "contractor": "IV Waste",
    "rowid": "1156119",
    "final_x": "3669059.23764",
    "final_y": "533289.497668",
    "longitude": "-90.1072941036275",
    "latitude": "29.9607330853",
    "geocoded_column": {
      "latitude": "29.9607330853",
      "longitude": "-90.1072941036275"
    }
  },
  {
    "service_request": "2024-1156118",
    "request_type": "Property Maintenance",
    "request_reason": "Property Maintenance",
    "date_created": "2024-12-18T13:15:15.000",
    "date_modified": "2024-12-18T14:55:17.000",
    "case_close_date": "2024-12-18T08:55:17.000",
    "request_status": "Closed",
    "responsible_agency": "Department of Code Enforcement",
    "final_address": "935 N Prieur St",
    "address_councildis": "D",
    "status": "Referred to Code Enforcement",
    "rowid": "1156118",
    "final_x": "3679504.25979",
    "final_y": "536082.252615",
    "longitude": "-90.0742138484199",
    "latitude": "29.968100771493827",
    "geocoded_column": {
      "latitude": "29.968100771493827",
      "longitude": "-90.0742138484199"
    }
  },
  {
    "service_request": "2024-1156117",
    "request_type": "Property Maintenance",
    "request_reason": "Property Maintenance",
    "date_created": "2024-12-18T13:14:49.000",
    "date_modified": "2024-12-18T15:00:20.000",
    "case_close_date": "2024-12-18T09:00:20.000",
    "request_status": "Closed",
    "responsible_agency": "Department of Code Enforcement",
    "final_address": "931 N Prieur St",
    "address_councildis": "D",
    "status": "Referred to Code Enforcement",
    "rowid": "1156117",
    "final_x": "3679484.73519",
    "final_y": "536061.982791",
    "longitude": "-90.07427621123675",
    "latitude": "29.96804562633569",
    "geocoded_column": {
      "latitude": "29.96804562633569",
      "longitude": "-90.07427621123675"
    }
  },
  {
    "service_request": "2024-1156116",
    "request_type": "Trash/Recycling",
    "request_reason": "Repair Trash Cart",
    "date_created": "2024-12-18T13:08:22.000",
    "date_modified": "2024-12-18T13:08:23.000",
    "request_status": "Pending",
    "responsible_agency": "Department of Sanitation",
    "final_address": "1133 Eighth St",
    "address_councildis": "B",
    "status": "Assigned to Contractor",
    "contractor": "IV Waste",
    "rowid": "1156116",
    "final_x": "3675987.31765",
    "final_y": "520462.354808",
    "longitude": "-90.08585753594315",
    "latitude": "29.92525702191563",
    "geocoded_column": {
      "latitude": "29.92525702191563",
      "longitude": "-90.08585753594315"
    }
  },
  {
    "service_request": "2024-1156115",
    "request_type": "Safety & Permits",
    "request_reason": "Construction permit",
    "date_created": "2024-12-18T13:08:21.000",
    "date_modified": "2024-12-18T13:08:22.000",
    "request_status": "Pending",
    "responsible_agency": "Safety and Permits",
    "final_address": "4951 Wright Rd",
    "address_councildis": "E",
    "status": "Pending",
    "rowid": "1156115",
    "final_x": "3716648.67052",
    "final_y": "557951.206363",
    "longitude": "-89.95608163460366",
    "latitude": "30.027057348589246",
    "geocoded_column": {
      "latitude": "30.027057348589246",
      "longitude": "-89.95608163460366"
    }
  },
  {
    "service_request": "2024-1156114",
    "request_type": "Trash/Recycling",
    "request_reason": "Request a Large Item Pick Up",
    "date_created": "2024-12-18T13:06:09.000",
    "date_modified": "2024-12-18T13:06:10.000",
    "request_status": "Pending",
    "responsible_agency": "Department of Sanitation",
    "final_address": "3020 General Taylor St",
    "address_councildis": "B",
    "status": "Assigned to Contractor",
    "contractor": "IV Waste",
    "rowid": "1156114",
    "final_x": "3671362.60699",
    "final_y": "526213.536254",
    "longitude": "-90.10026094966607",
    "latitude": "29.94120855046422",
    "geocoded_column": {
      "latitude": "29.94120855046422",
      "longitude": "-90.10026094966607"
    }
  },
  {
    "service_request": "2024-1156113",
    "request_type": "Trash/Recycling",
    "request_reason": "Request a Large Item Pick Up",
    "date_created": "2024-12-18T13:05:21.000",
    "date_modified": "2024-12-18T13:05:22.000",
    "request_status": "Pending",
    "responsible_agency": "Department of Sanitation",
    "final_address": "2501 Charbonnet St",
    "address_councildis": "E",
    "status": "Assigned to Contractor",
    "contractor": "Waste Pro",
    "rowid": "1156113",
    "final_x": "3700074.012",
    "final_y": "538883.833673",
    "longitude": "-90.00915194594582",
    "latitude": "29.97516656243204",
    "geocoded_column": {
      "latitude": "29.97516656243204",
      "longitude": "-90.00915194594582"
    }
  },
  {
    "service_request": "2024-1156112",
    "request_type": "Roads and Streets",
    "request_reason": "Street Subsidence (Sinking)",
    "date_created": "2024-12-18T13:04:31.000",
    "date_modified": "2024-12-18T13:04:32.000",
    "request_status": "Pending",
    "responsible_agency": "Department of Public Works",
    "final_address": "1926 Beck St",
    "address_councildis": "C",
    "status": "Pending",
    "rowid": "1156112",
    "final_x": "3700249.10276",
    "final_y": "523865.591612",
    "longitude": "-90.00914710670395",
    "latitude": "29.93386616068492",
    "geocoded_column": {
      "latitude": "29.93386616068492",
      "longitude": "-90.00914710670395"
    }
  },
  {
    "service_request": "2024-1156111",
    "request_type": "Street and Traffic Signs",
    "request_reason": "Additional Signage Request",
    "date_created": "2024-12-18T13:01:09.000",
    "date_modified": "2024-12-18T13:01:09.000",
    "request_status": "Pending",
    "responsible_agency": "Department of Public Works",
    "final_address": "935 Calhoun St",
    "address_councildis": "A",
    "status": "Pending",
    "rowid": "1156111",
    "final_x": "3663797.47661",
    "final_y": "520259.153528",
    "longitude": "-90.12434394938836",
    "latitude": "29.925057565607037",
    "geocoded_column": {
      "latitude": "29.925057565607037",
      "longitude": "-90.12434394938836"
    }
  },
  {
    "service_request": "2024-1156110",
    "request_type": "Property Maintenance",
    "request_reason": "Property Maintenance",
    "date_created": "2024-12-18T12:59:36.000",
    "date_modified": "2024-12-18T15:09:21.000",
    "case_close_date": "2024-12-18T09:09:21.000",
    "request_status": "Closed",
    "responsible_agency": "Department of Code Enforcement",
    "final_address": "85 Fontainebleau Dr",
    "address_councildis": "A",
    "status": "Referred to Code Enforcement",
    "rowid": "1156110",
    "final_x": "3666954.32385",
    "final_y": "530824.753218",
    "longitude": "-90.11402385891815",
    "latitude": "29.954017607303598",
    "geocoded_column": {
      "latitude": "29.954017607303598",
      "longitude": "-90.11402385891815"
    }
  },
  {
    "service_request": "2024-1156109",
    "request_type": "Health Related Request",
    "request_reason": "Noise Ordinance Complaint",
    "date_created": "2024-12-18T12:59:31.000",
    "date_modified": "2024-12-18T12:59:31.000",
    "request_status": "Pending",
    "responsible_agency": "Health Department",
    "final_address": "1027 Henriette Delille St, New Orleans, Louisiana, 70116",
    "address_councildis": "C",
    "status": "Pending",
    "rowid": "1156109",
    "final_x": "3681842.77628",
    "final_y": "534694.710278",
    "longitude": "-90.0668771601929",
    "latitude": "29.96421464137617",
    "geocoded_column": {
      "latitude": "29.96421464137617",
      "longitude": "-90.0668771601929"
    }
  },
  {
    "service_request": "2024-1156108",
    "request_type": "Trash/Recycling",
    "request_reason": "Repair Recycling Cart",
    "date_created": "2024-12-18T12:57:15.000",
    "date_modified": "2024-12-18T12:57:16.000",
    "request_status": "Pending",
    "responsible_agency": "Department of Sanitation",
    "final_address": "7934 Sycamore St",
    "address_councildis": "A",
    "status": "Pending",
    "rowid": "1156108",
    "final_x": "3664675.43328",
    "final_y": "530602.277058",
    "longitude": "-90.12122713036493",
    "latitude": "29.953472352990282",
    "geocoded_column": {
      "latitude": "29.953472352990282",
      "longitude": "-90.12122713036493"
    }
  },
  {
    "service_request": "2024-1156107",
    "request_type": "Trash/Recycling",
    "request_reason": "Missed Trash Pick-Up",
    "date_created": "2024-12-18T12:51:52.000",
    "date_modified": "2024-12-18T13:00:15.000",
    "case_close_date": "2024-12-18T07:00:15.000",
    "request_status": "Closed",
    "responsible_agency": "Department of Sanitation",
    "final_address": "851 Polk St",
    "address_councildis": "A",
    "status": "Invalid Request",
    "contractor": "IV Waste",
    "contractor_action": "Invalid",
    "rowid": "1156107",
    "final_x": "3669564.45972",
    "final_y": "547273.720913",
    "longitude": "-90.10522540594182",
    "latitude": "29.999170085927446",
    "geocoded_column": {
      "latitude": "29.999170085927446",
      "longitude": "-90.10522540594182"
    }
  },
  {
    "service_request": "2024-1156106",
    "request_type": "Roads and Streets",
    "request_reason": "Pothole",
    "date_created": "2024-12-18T12:49:24.000",
    "date_modified": "2024-12-18T12:49:52.000",
    "case_close_date": "2024-12-18T06:49:52.000",
    "request_status": "Closed",
    "responsible_agency": "Department of Public Works",
    "final_address": "100 BLK N Rocheblave St",
    "address_councildis": "B",
    "status": "Resolved",
    "rowid": "1156106",
    "final_x": "3676284.63493",
    "final_y": "534698.202701",
    "longitude": "-90.08442919791207",
    "latitude": "29.964391991269945",
    "geocoded_column": {
      "latitude": "29.964391991269945",
      "longitude": "-90.08442919791207"
    }
  },
  {
    "service_request": "2024-1156105",
    "request_type": "Health Related Request",
    "request_reason": "Noise Ordinance Complaint",
    "date_created": "2024-12-18T12:48:51.000",
    "date_modified": "2024-12-18T12:48:51.000",
    "request_status": "Pending",
    "responsible_agency": "Health Department",
    "final_address": "1027 Henriette Delille St",
    "address_councildis": "C",
    "status": "Pending",
    "rowid": "1156105",
    "final_x": "3681842.77628",
    "final_y": "534694.710278",
    "longitude": "-90.0668771601929",
    "latitude": "29.96421464137617",
    "geocoded_column": {
      "latitude": "29.96421464137617",
      "longitude": "-90.0668771601929"
    }
  },
  {
    "service_request": "2024-1156104",
    "request_type": "Streetlights",
    "request_reason": "Streetlight Outage/Malfunction",
    "date_created": "2024-12-18T12:46:52.000",
    "date_modified": "2024-12-18T12:46:53.000",
    "request_status": "Pending",
    "responsible_agency": "Department of Public Works",
    "final_address": "517 Fern St",
    "address_councildis": "A",
    "status": "Pending",
    "contractor": "Legacy Professional Services",
    "rowid": "1156104",
    "final_x": "3661008.42285",
    "final_y": "526121.422334",
    "longitude": "-90.13295427751198",
    "latitude": "29.941257585641747",
    "geocoded_column": {
      "latitude": "29.941257585641747",
      "longitude": "-90.13295427751198"
    }
  },
  {
    "service_request": "2024-1156103",
    "request_type": "Street and Traffic Signs",
    "request_reason": "Stop Sign Missing or Damaged",
    "date_created": "2024-12-18T12:46:04.000",
    "date_modified": "2024-12-18T12:46:04.000",
    "request_status": "Pending",
    "responsible_agency": "Department of Public Works",
    "final_address": "3724 LaSalle St",
    "address_councildis": "B",
    "status": "Pending",
    "rowid": "1156103",
    "final_x": "3672286.87726",
    "final_y": "523871.24998",
    "longitude": "-90.09742261206921",
    "latitude": "29.934740642636466",
    "geocoded_column": {
      "latitude": "29.934740642636466",
      "longitude": "-90.09742261206921"
    }
  },
  {
    "service_request": "2024-1156102",
    "request_type": "Property Maintenance",
    "request_reason": "Property Maintenance",
    "date_created": "2024-12-18T12:45:26.000",
    "date_modified": "2024-12-18T15:15:02.000",
    "case_close_date": "2024-12-18T09:15:02.000",
    "request_status": "Closed",
    "responsible_agency": "Department of Code Enforcement",
    "final_address": "1925 S Dupre St",
    "address_councildis": "B",
    "status": "Referred to Code Enforcement",
    "rowid": "1156102",
    "final_x": "3670228.3954",
    "final_y": "529444.087169",
    "longitude": "-90.1037324279414",
    "latitude": "29.950125024701464",
    "geocoded_column": {
      "latitude": "29.950125024701464",
      "longitude": "-90.1037324279414"
    }
  },
  {
    "service_request": "2024-1156101",
    "request_type": "General Services",
    "request_reason": "General Service Request",
    "date_created": "2024-12-18T12:43:10.000",
    "date_modified": "2024-12-18T12:45:29.000",
    "case_close_date": "2024-12-18T06:45:29.000",
    "request_status": "Closed",
    "responsible_agency": "Orleans Parish Communication District",
    "final_address": "1027 Henriette Delille St",
    "address_councildis": "C",
    "status": "Question Answered.",
    "rowid": "1156101",
    "final_x": "3681842.77628",
    "final_y": "534694.710278",
    "longitude": "-90.0668771601929",
    "latitude": "29.96421464137617",
    "geocoded_column": {
      "latitude": "29.96421464137617",
      "longitude": "-90.0668771601929"
    }
  },
  {
    "service_request": "2024-1156100",
    "request_type": "Trash/Recycling",
    "request_reason": "Request a Large Item Pick Up",
    "date_created": "2024-12-18T12:40:01.000",
    "date_modified": "2024-12-18T12:40:02.000",
    "request_status": "Pending",
    "responsible_agency": "Department of Sanitation",
    "final_address": "4910 Gabriel Dr",
    "address_councildis": "E",
    "status": "Assigned to Contractor",
    "contractor": "Waste Pro",
    "rowid": "1156100",
    "final_x": "3708734.95224",
    "final_y": "556620.578458",
    "longitude": "-89.98113762603252",
    "latitude": "30.023657811437918",
    "geocoded_column": {
      "latitude": "30.023657811437918",
      "longitude": "-89.98113762603252"
    }
  },
  {
    "service_request": "2024-1156099",
    "request_type": "Roads and Streets",
    "request_reason": "Pothole",
    "date_created": "2024-12-18T12:39:52.000",
    "date_modified": "2024-12-18T12:40:47.000",
    "case_close_date": "2024-12-18T06:40:47.000",
    "request_status": "Closed",
    "responsible_agency": "Department of Public Works",
    "final_address": "2400 BLK Marengo St",
    "address_councildis": "B",
    "status": "Resolved",
    "rowid": "1156099",
    "final_x": "3671654.81971",
    "final_y": "523979.01679",
    "longitude": "-90.09941434802677",
    "latitude": "29.93505569704895",
    "geocoded_column": {
      "latitude": "29.93505569704895",
      "longitude": "-90.09941434802677"
    }
  },