[
  {
    "service_request": "2025-1216108",
    "request_type": "Roads and Streets",
    "request_reason": "Road Shoulder Damage",
    "date_created": "2025-08-06T23:02:13.000",
    "date_modified": "2025-08-06T23:02:16.000",
    "request_status": "Pending",
    "responsible_agency": "Department of Public Works",
    "final_address": "2022 Audubon St",
    "address_councildis": "A",
    "status": "Pending",
    "rowid": "1216108",
    "final_x": "3666079.9984",
    "final_y": "528849.910016",
    "longitude": "-90.11685083574885",
    "latitude": "29.94861298354197",
    "geocoded_column": {
      "latitude": "29.94861298354197",
      "longitude": "-90.11685083574885"
    }
  },
  {
    "service_request": "2025-1216106",
    "request_type": "Trash/Recycling",
    "request_reason": "Order Recycling Cart",
    "date_created": "2025-08-06T22:57:34.000",
    "date_modified": "2025-08-06T22:57:40.000",
    "request_status": "Pending",
    "responsible_agency": "Department of Sanitation",
    "final_address": "6072 General Diaz St",
    "address_councildis": "A",
    "status": "Pending",
    "rowid": "1216106",
    "final_x": "3669466.43418",
    "final_y": "547752.853458",
    "longitude": "-90.10551885297072",
    "latitude": "30.000490422690778",
    "geocoded_column": {
      "latitude": "30.000490422690778",
      "longitude": "-90.10551885297072"
    }
  },
  {
    "service_request": "2025-1216107",
    "request_type": "Property Maintenance",
    "request_reason": "Property Maintenance",
    "date_created": "2025-08-06T22:57:34.000",
    "date_modified": "2025-08-06T22:57:36.000",
    "request_status": "Pending",
    "responsible_agency": "Department of Code Enforcement",
    "final_address": "1719 Pauline St",
    "address_councildis": "D",
    "status": "Pending",
    "rowid": "1216107",
    "final_x": "3691857.28732",
    "final_y": "537866.409417",
    "longitude": "-90.03513882353639",
    "latitude": "29.972627544221556",
    "geocoded_column": {
      "latitude": "29.972627544221556",
      "longitude": "-90.03513882353639"
    }
  },
  {
    "service_request": "2025-1216105",
    "request_type": "Trash/Recycling",
    "request_reason": "Order Trash Cart",
    "date_created": "2025-08-06T22:55:40.000",
    "date_modified": "2025-08-06T22:55:42.000",
    "request_status": "Pending",
    "responsible_agency": "Department of Sanitation",
    "final_address": "6072 General Diaz St",
    "address_councildis": "A",
    "status": "Assigned to Contractor",
    "contractor": "IV Waste",
    "rowid": "1216105",
    "final_x": "3669466.43418",
    "final_y": "547752.853458",
    "longitude": "-90.10551885297072",
    "latitude": "30.000490422690778",
    "geocoded_column": {
      "latitude": "30.000490422690778",
      "longitude": "-90.10551885297072"
    }
  },
  {
    "service_request": "2025-1216104",
    "request_type": "General Services",
    "request_reason": "General Service Request",
    "date_created": "2025-08-06T22:17:06.000",
    "date_modified": "2025-08-06T22:17:09.000",
    "request_status": "Pending",
    "responsible_agency": "Orleans Parish Communication District",
    "final_address": "2036 General Pershing St",
    "address_councildis": "B",
    "status": "Pending",
    "rowid": "1216104",
    "final_x": "3671030.81499",
    "final_y": "522622.289978",
    "longitude": "-90.10143038041649",
    "latitude": "29.931343597573683",
    "geocoded_column": {
      "latitude": "29.931343597573683",
      "longitude": "-90.10143038041649"
    }
  },
  {
    "service_request": "2025-1216103",
    "request_type": "Streetlights",
    "request_reason": "Streetlight Outage/Malfunction",
    "date_created": "2025-08-06T22:06:40.000",
    "date_modified": "2025-08-06T22:06:42.000",
    "request_status": "Pending",
    "responsible_agency": "Department of Public Works",
    "final_address": "7000 BLK Fleur-de-lis Dr",
    "address_councildis": "A",
    "status": "Pending",
    "contractor": "Legacy Professional Services",
    "rowid": "1216103",
    "final_x": "3665491.29431",
    "final_y": "554425.564165",
    "longitude": "-90.11785301930765",
    "latitude": "30.018954578017674",
    "geocoded_column": {
      "latitude": "30.018954578017674",
      "longitude": "-90.11785301930765"
    }
  },
  {
    "service_request": "2025-1216102",
    "request_type": "Streetlights",
    "request_reason": "Streetlight Outage/Malfunction",
    "date_created": "2025-08-06T22:05:19.000",
    "date_modified": "2025-08-06T22:05:21.000",
    "request_status": "Pending",
    "responsible_agency": "Department of Public Works",
    "final_address": "7000 BLK Fleur-de-lis Dr",
    "address_councildis": "A",
    "status": "Pending",
    "contractor": "Legacy Professional Services",
    "rowid": "1216102",
    "final_x": "3665491.29431",
    "final_y": "554425.564165",
    "longitude": "-90.11785301930765",
    "latitude": "30.018954578017674",
    "geocoded_column": {
      "latitude": "30.018954578017674",
      "longitude": "-90.11785301930765"
    }
  },
  {
    "service_request": "2025-1216101",
    "request_type": "Trash/Recycling",
    "request_reason": "Missed Trash Pick-Up",
    "date_created": "2025-08-06T21:44:38.000",
    "date_modified": "2025-08-06T21:44:40.000",
    "request_status": "Pending",
    "responsible_agency": "Department of Sanitation",
    "final_address": "3424 Bienville Ave",
    "address_councildis": "B",
    "status": "Assigned to Contractor",
    "contractor": "IV Waste",
    "rowid": "1216101",
    "final_x": "3673406.44763",
    "final_y": "537488.1538",
    "longitude": "-90.09342296536765",
    "latitude": "29.972149360431658",
    "geocoded_column": {
      "latitude": "29.972149360431658",
      "longitude": "-90.09342296536765"
    }
  },
  {
    "service_request": "2025-1216100",
    "request_type": "Streetlights",
    "request_reason": "Streetlight Outage/Malfunction",
    "date_created": "2025-08-06T21:29:23.000",
    "date_modified": "2025-08-06T21:29:25.000",
    "request_status": "Pending",
    "responsible_agency": "Department of Public Works",
    "final_address": "1720 Foucher St",
    "address_councildis": "B",
    "status": "Pending",
    "contractor": "Legacy Professional Services",
    "rowid": "1216100",
    "final_x": "3673264.066",
    "final_y": "521813.14073",
    "longitude": "-90.09440789051921",
    "latitude": "29.92905249012438",
    "geocoded_column": {
      "latitude": "29.92905249012438",
      "longitude": "-90.09440789051921"
    }
  },
  {
    "service_request": "2025-1216099",
    "request_type": "Mosquito, Termite & Rodent Control",
    "request_reason": "Mosquito Complaint",
    "date_created": "2025-08-06T21:20:31.000",
    "date_modified": "2025-08-06T21:20:34.000",
    "request_status": "Pending",
    "responsible_agency": "Mosquito, Termite & Rodent Control Board",
    "final_address": "5900 S Front St",
    "address_councildis": "A",
    "status": "Pending",
    "rowid": "1216099",
    "final_x": "3664719.50714",
    "final_y": "516953.021685",
    "longitude": "-90.12154375493147",
    "latitude": "29.915939953717547",
    "geocoded_column": {
      "latitude": "29.915939953717547",
      "longitude": "-90.12154375493147"
    }
  },
  {
    "service_request": "2025-1216098",
    "request_type": "Property Maintenance",
    "request_reason": "Property Maintenance",
    "date_created": "2025-08-06T21:09:42.000",
    "date_modified": "2025-08-06T21:09:43.000",
    "request_status": "Pending",
    "responsible_agency": "Department of Code Enforcement",
    "final_address": "710 N Carrollton Ave",
    "address_councildis": "A",
    "status": "Pending",
    "rowid": "1216098",
    "final_x": "3672733.29659",
    "final_y": "539957.811658",
    "longitude": "-90.09546463261647",
    "latitude": "29.978960092375473",
    "geocoded_column": {
      "latitude": "29.978960092375473",
      "longitude": "-90.09546463261647"
    }
  },
  {
    "service_request": "2025-1216097",
    "request_type": "Property Maintenance",
    "request_reason": "Property Maintenance",
    "date_created": "2025-08-06T21:07:01.000",
    "date_modified": "2025-08-06T21:07:02.000",
    "request_status": "Pending",
    "responsible_agency": "Department of Code Enforcement",
    "final_address": "2013 Alabo St",
    "address_councildis": "E",
    "status": "Pending",
    "rowid": "1216097",
    "final_x": "3699885.14647",
    "final_y": "537022.768648",
    "longitude": "-90.009816320341",
    "latitude": "29.97005530646294",
    "geocoded_column": {
      "latitude": "29.97005530646294",
      "longitude": "-90.009816320341"
    }
  },
  {
    "service_request": "2025-1216096",
    "request_type": "Abandoned Vehicles",
    "request_reason": "Abandoned/Junk Vehicles",
    "date_created": "2025-08-06T20:42:56.000",
    "date_modified": "2025-08-06T20:42:58.000",
    "request_status": "Pending",
    "responsible_agency": "Department of Public Works",
    "final_address": "0 BLK Acadiana Pl",
    "address_councildis": "E",
    "status": "Pending",
    "rowid": "1216096",
    "final_x": "3725131.4083",
    "final_y": "564393.680055",
    "longitude": "-89.92902788187175",
    "latitude": "30.04448842646984",
    "geocoded_column": {
      "latitude": "30.04448842646984",
      "longitude": "-89.92902788187175"
    }
  },
  {
    "service_request": "2025-1216095",
    "request_type": "Abandoned Vehicles",
    "request_reason": "Abandoned/Junk Vehicles",
    "date_created": "2025-08-06T20:39:19.000",
    "date_modified": "2025-08-06T20:39:21.000",
    "request_status": "Pending",
    "responsible_agency": "Department of Public Works",
    "final_address": "1410 Madrid St",
    "address_councildis": "D",
    "status": "Pending",
    "rowid": "1216095",
    "final_x": "3677578.97538",
    "final_y": "554471.530968",
    "longitude": "-90.07965858014333",
    "latitude": "30.018722863245213",
    "geocoded_column": {
      "latitude": "30.018722863245213",
      "longitude": "-90.07965858014333"
    }
  },
  {
    "service_request": "2025-1216094",
    "request_type": "Street and Traffic Signs",
    "request_reason": "Stop Sign Missing or Damaged",
    "date_created": "2025-08-06T20:28:40.000",
    "date_modified": "2025-08-06T20:28:41.000",
    "request_status": "Pending",
    "responsible_agency": "Department of Public Works",
    "final_address": "760 Magazine St",
    "address_councildis": "B",
    "status": "Pending",
    "rowid": "1216094",
    "final_x": "3681241.20226",
    "final_y": "527910.497663",
    "longitude": "-90.06901327117299",
    "latitude": "29.945578622882707",
    "geocoded_column": {
      "latitude": "29.945578622882707",
      "longitude": "-90.06901327117299"
    }
  },
  {
    "service_request": "2025-1216093",
    "request_type": "Trash/Recycling",
    "request_reason": "Request a Large Item Pick Up",
    "date_created": "2025-08-06T20:23:50.000",
    "date_modified": "2025-08-06T20:23:52.000",
    "request_status": "Pending",
    "responsible_agency": "Department of Sanitation",
    "final_address": "4683 Evangeline Dr",
    "address_councildis": "E",
    "status": "Assigned to Contractor",
    "contractor": "Waste Pro",
    "rowid": "1216093",
    "final_x": "3709208.98021",
    "final_y": "555438.665625",
    "longitude": "-89.97968392645241",
    "latitude": "30.02039262281538",
    "geocoded_column": {
      "latitude": "30.02039262281538",
      "longitude": "-89.97968392645241"
    }
  },
  {
    "service_request": "2025-1216092",
    "request_type": "Healthy Homes",
    "request_reason": "Healthy Homes",
    "date_created": "2025-08-06T19:32:36.000",
    "date_modified": "2025-08-06T19:32:39.000",
    "request_status": "Pending",
    "responsible_agency": "Department of Code Enforcement",
    "final_address": "4300 St Anthony Ave",
    "address_councildis": "D",
    "status": "Pending",
    "rowid": "1216092",
    "final_x": "3682410.59708",
    "final_y": "548389.114898",
    "longitude": "-90.06460519444556",
    "latitude": "30.001852181733472",
    "geocoded_column": {
      "latitude": "30.001852181733472",
      "longitude": "-90.06460519444556"
    }
  },
  {
    "service_request": "2025-1216091",
    "request_type": "Trash/Recycling",
    "request_reason": "Request a Large Item Pick Up",
    "date_created": "2025-08-06T19:20:25.000",
    "date_modified": "2025-08-06T19:20:27.000",
    "request_status": "Pending",
    "responsible_agency": "Department of Sanitation",
    "final_address": "2835 Maurepas St",
    "address_councildis": "A",
    "status": "Assigned to Contractor",
    "contractor": "IV Waste",
    "rowid": "1216091",
    "final_x": "3678114.4381",
    "final_y": "540727.679627",
    "longitude": "-90.07844229422881",
    "latitude": "29.980916019250806",
    "geocoded_column": {
      "latitude": "29.980916019250806",
      "longitude": "-90.07844229422881"
    }
  },
  {
    "service_request": "2025-1216090",
    "request_type": "Parks & Parkways",
    "request_reason": "Request Tree Service (Right of Way/Public Property)",
    "date_created": "2025-08-06T19:16:15.000",
    "date_modified": "2025-08-06T19:16:17.000",
    "request_status": "Pending",
    "responsible_agency": "Department of Parks & Parkway",
    "final_address": "3516 Banks St",
    "address_councildis": "B",
    "status": "Pending",
    "rowid": "1216090",
    "final_x": "3671972.14676",
    "final_y": "536076.683655",
    "longitude": "-90.09800079491744",
    "latitude": "29.96831089130786",
    "geocoded_column": {
      "latitude": "29.96831089130786",
      "longitude": "-90.09800079491744"
    }
  },
  {
    "service_request": "2025-1216089",
    "request_type": "Safety & Permits",
    "request_reason": "Licenses & Permits",
    "date_created": "2025-08-06T19:05:18.000",
    "date_modified": "2025-08-06T19:05:27.000",
    "request_status": "Pending",
    "responsible_agency": "Safety and Permits",
    "final_address": "6186 Bellaire Dr",
    "address_councildis": "A",
    "status": "Pending",
    "rowid": "1216089",
    "final_x": "3664268.93152",
    "final_y": "548865.582163",
    "longitude": "-90.12190100651284",
    "latitude": "30.003702157284927",
    "geocoded_column": {
      "latitude": "30.003702157284927",
      "longitude": "-90.12190100651284"
    }
  },
  {
    "service_request": "2025-1216088",
    "request_type": "Trash/Recycling",
    "request_reason": "Request a Large Item Pick Up",
    "date_created": "2025-08-06T18:57:27.000",
    "date_modified": "2025-08-06T18:57:32.000",
    "request_status": "Pending",
    "responsible_agency": "Department of Sanitation",
    "final_address": "7731 S Coronet Ct",
    "address_councildis": "E",
    "status": "Assigned to Contractor",
    "contractor": "Waste Pro",
    "rowid": "1216088",
    "final_x": "3702644.14026",
    "final_y": "557278.068571",
    "longitude": "-90.00035905331774",
    "latitude": "30.02566188436741",
    "geocoded_column": {
      "latitude": "30.02566188436741",
      "longitude": "-90.00035905331774"
    }
  },
  {
    "service_request": "2025-1216087",
    "request_type": "Trash/Recycling",
    "request_reason": "Order Trash Cart",
    "date_created": "2025-08-06T18:54:21.000",
    "date_modified": "2025-08-06T18:54:23.000",
    "request_status": "Pending",
    "responsible_agency": "Department of Sanitation",
    "final_address": "519 S Telemachus St",
    "address_councildis": "B",
    "status": "Assigned to Contractor",
    "contractor": "IV Waste",
    "rowid": "1216087",
    "final_x": "3671218.4123",
    "final_y": "536023.855367",
    "longitude": "-90.1003829234641",
    "latitude": "29.96818795351794",
    "geocoded_column": {
      "latitude": "29.96818795351794",
      "longitude": "-90.1003829234641"
    }
  },
  {
    "service_request": "2025-1216086",
    "request_type": "Trash/Recycling",
    "request_reason": "Request a Large Item Pick Up",
    "date_created": "2025-08-06T18:52:53.000",
    "date_modified": "2025-08-06T18:52:55.000",
    "request_status": "Pending",
    "responsible_agency": "Department of Sanitation",
    "final_address": "2666 Ramsey Dr",
    "address_councildis": "C",
    "status": "Assigned to Contractor",
    "contractor": "Richards Disposal",
    "rowid": "1216086",
    "final_x": "3703170.13028",
    "final_y": "520983.703801",
    "longitude": "-90.00003148517621",
    "latitude": "29.92584882956618",
    "geocoded_column": {
      "latitude": "29.92584882956618",
      "longitude": "-90.00003148517621"
    }
  },
  {
    "service_request": "2025-1216085",
    "request_type": "Property Maintenance",
    "request_reason": "Property Maintenance",
    "date_created": "2025-08-06T18:48:48.000",
    "date_modified": "2025-08-06T18:48:49.000",
    "request_status": "Pending",
    "responsible_agency": "Department of Code Enforcement",
    "final_address": "4766 Bundy Rd",
    "address_councildis": "E",
    "status": "Pending",
    "rowid": "1216085",
    "final_x": "3709245.04555",
    "final_y": "555995.856985",
    "longitude": "-89.9795491715839",
    "latitude": "30.021923510129138",
    "geocoded_column": {
      "latitude": "30.021923510129138",
      "longitude": "-89.9795491715839"
    }
  },
  {
    "service_request": "2025-1216084",
    "request_type": "Trash/Recycling",
    "request_reason": "Return Trash Cart",
    "date_created": "2025-08-06T18:45:03.000",
    "date_modified": "2025-08-06T18:45:05.000",
    "request_status": "Pending",
    "responsible_agency": "Department of Sanitation",
    "final_address": "830 Desire St",
    "address_councildis": "C",
    "status": "Assigned to Contractor",
    "contractor": "IV Waste",
    "rowid": "1216084",
    "final_x": "3689926.60822",
    "final_y": "534811.692038",
    "longitude": "-90.0413450179329",
    "latitude": "29.964288148746352",
    "geocoded_column": {
      "latitude": "29.964288148746352",
      "longitude": "-90.0413450179329"
    }
  },
  {
    "service_request": "2025-1216083",
    "request_type": "Trash/Recycling",
    "request_reason": "Repair Trash Cart",
    "date_created": "2025-08-06T18:31:47.000",
    "date_modified": "2025-08-06T18:31:56.000",
    "request_status": "Pending",
    "responsible_agency": "Department of Sanitation",
    "final_address": "7017 Derbes St",
    "address_councildis": "A",
    "status": "Assigned to Contractor",
    "contractor": "IV Waste",
    "rowid": "1216083",
    "final_x": "3665946.63188",
    "final_y": "554416.389976",
    "longitude": "-90.11641461453598",
    "latitude": "30.01891606329593",
    "geocoded_column": {
      "latitude": "30.01891606329593",
      "longitude": "-90.11641461453598"
    }
  },
  {
    "service_request": "2025-1216082",
    "request_type": "Property Maintenance",
    "request_reason": "Property Maintenance",
    "date_created": "2025-08-06T18:26:48.000",
    "date_modified": "2025-08-06T18:26:50.000",
    "request_status": "Pending",
    "responsible_agency": "Department of Code Enforcement",
    "final_address": "6317 Douglass St",
    "address_councildis": "E",
    "status": "Pending",
    "rowid": "1216082",
    "final_x": "3699486.97354",
    "final_y": "530961.161666",
    "longitude": "-90.01129465066631",
    "latitude": "29.95340069062248",
    "geocoded_column": {
      "latitude": "29.95340069062248",
      "longitude": "-90.01129465066631"
    }
  },
  {
    "service_request": "2025-1216081",
    "request_type": "Trash/Recycling",
    "request_reason": "Order Recycling Cart",
    "date_created": "2025-08-06T18:24:25.000",
    "date_modified": "2025-08-06T18:24:27.000",
    "request_status": "Pending",
    "responsible_agency": "Department of Sanitation",
    "final_address": "1728 Hendee St",
    "address_councildis": "C",
    "status": "Pending",
    "rowid": "1216081",
    "final_x": "3690673.24502",
    "final_y": "524426.55206",
    "longitude": "-90.03935756027201",
    "latitude": "29.93570942474972",
    "geocoded_column": {
      "latitude": "29.93570942474972",
      "longitude": "-90.03935756027201"
    }
  },
  {
    "service_request": "2025-1216080",
    "request_type": "Trash/Recycling",
    "request_reason": "Missed Trash Pick-Up",
    "date_created": "2025-08-06T17:51:46.000",
    "date_modified": "2025-08-06T17:51:48.000",
    "request_status": "Pending",
    "responsible_agency": "Department of Sanitation",
    "final_address": "6400 BLK Orleans Ave",
    "address_councildis": "A",
    "status": "Assigned to Contractor",
    "contractor": "IV Waste",
    "rowid": "1216080",
    "final_x": "3671167.15697",
    "final_y": "550150.24824",
    "longitude": "-90.10006463358053",
    "latitude": "30.00703220021173",
    "geocoded_column": {
      "latitude": "30.00703220021173",
      "longitude": "-90.10006463358053"
    }
  },
  {
    "service_request": "2025-1216079",
    "request_type": "Trash/Recycling",
    "request_reason": "Replace Trash Cart",
    "date_created": "2025-08-06T17:51:39.000",
    "date_modified": "2025-08-06T17:51:41.000",
    "request_status": "Pending",
    "responsible_agency": "Department of Sanitation",
    "final_address": "3007 Jefferson Ave",
    "address_councildis": "B",
    "status": "Assigned to Contractor",
    "contractor": "IV Waste",
    "rowid": "1216079",
    "final_x": "3668527.99156",
    "final_y": "526417.842366",
    "longitude": "-90.10920350068555",
    "latitude": "29.94185389816711",
    "geocoded_column": {
      "latitude": "29.94185389816711",
      "longitude": "-90.10920350068555"
    }
  },
  {
    "service_request": "2025-1216078",
    "request_type": "Trash/Recycling",
    "request_reason": "Request a Large Item Pick Up",
    "date_created": "2025-08-06T17:45:38.000",
    "date_modified": "2025-08-06T17:45:41.000",
    "request_status": "Pending",
    "responsible_agency": "Department of Sanitation",
    "final_address": "2933 Orleans Ave",
    "address_councildis": "A",
    "status": "Assigned to Contractor",
    "contractor": "IV Waste",
    "rowid": "1216078",
    "final_x": "3675882.80737",
    "final_y": "537761.777672",
    "longitude": "-90.0855927901023",
    "latitude": "29.97282781888548",
    "geocoded_column": {
      "latitude": "29.97282781888548",
      "longitude": "-90.0855927901023"
    }
  },
  {
    "service_request": "2025-1216077",
    "request_type": "Health Related Request",
    "request_reason": "Homeless Encampment Complaint",
    "date_created": "2025-08-06T17:33:15.000",
    "date_modified": "2025-08-06T17:33:16.000",
    "request_status": "Pending",
    "responsible_agency": "Office Of Homeless Services And Strategy",
    "final_address": "2424 Tulane Ave",
    "address_councildis": "B",
    "status": "Pending",
    "rowid": "1216077",
    "final_x": "3675255.82997",
    "final_y": "533201.61498",
    "longitude": "-90.0877294629103",
    "latitude": "29.96030767169834",
    "geocoded_column": {
      "latitude": "29.96030767169834",
      "longitude": "-90.0877294629103"
    }
  },
  {
    "service_request": "2025-1216076",
    "request_type": "General Services",
    "request_reason": "General Service Request",
    "date_created": "2025-08-06T17:15:04.000",
    "date_modified": "2025-08-06T17:15:07.000",
    "request_status": "Pending",
    "responsible_agency": "Orleans Parish Communication District",
    "final_address": "5032 Papania Dr",
    "address_councildis": "E",
    "status": "Pending",
    "rowid": "1216076",
    "final_x": "3715361.51954",
    "final_y": "558293.226076",
    "longitude": "-89.96013591203086",
    "latitude": "30.028040243143813",
    "geocoded_column": {
      "latitude": "30.028040243143813",
      "longitude": "-89.96013591203086"
    }
  },
  {
    "service_request": "2025-1216075",
    "request_type": "Drainage",
    "request_reason": "Catch Basin Not Draining",
    "date_created": "2025-08-06T16:59:22.000",
    "date_modified": "2025-08-06T16:59:24.000",
    "request_status": "Pending",
    "responsible_agency": "Sewerage & Water Board",
    "final_address": "600 BLK Tchoupitoulas St",
    "address_councildis": "B",
    "status": "Pending",
    "rowid": "1216075",
    "final_x": "3681767.07081",
    "final_y": "528443.168951",
    "longitude": "-90.06733435214309",
    "latitude": "29.947027324819903",
    "geocoded_column": {
      "latitude": "29.947027324819903",
      "longitude": "-90.06733435214309"
    }
  },
  {
    "service_request": "2025-1216074",
    "request_type": "Trash/Recycling",
    "request_reason": "Request a Large Item Pick Up",
    "date_created": "2025-08-06T16:52:32.000",
    "date_modified": "2025-08-06T16:52:35.000",
    "request_status": "Pending",
    "responsible_agency": "Department of Sanitation",
    "final_address": "1102 Robert St",
    "address_councildis": "B",
    "status": "Assigned to Contractor",
    "contractor": "IV Waste",
    "rowid": "1216074",
    "final_x": "3668626.42612",
    "final_y": "519378.467511",
    "longitude": "-90.10913016852628",
    "latitude": "29.922494976519797",
    "geocoded_column": {
      "latitude": "29.922494976519797",
      "longitude": "-90.10913016852628"
    }
  },
  {
    "service_request": "2025-1216073",
    "request_type": "Trash/Recycling",
    "request_reason": "Repair Trash Cart",
    "date_created": "2025-08-06T16:52:12.000",
    "date_modified": "2025-08-06T16:52:37.000",
    "request_status": "Pending",
    "responsible_agency": "Department of Sanitation",
    "final_address": "5931 Laurel St",
    "address_councildis": "A",
    "status": "Assigned to Contractor",
    "contractor": "IV Waste",
    "rowid": "1216073",
    "final_x": "3664750.70804",
    "final_y": "518168.722614",
    "longitude": "-90.12140468685216",
    "latitude": "29.91928184529681",
    "geocoded_column": {
      "latitude": "29.91928184529681",
      "longitude": "-90.12140468685216"
    }
  },
  {
    "service_request": "2025-1216072",
    "request_type": "Trash/Recycling",
    "request_reason": "Request a Large Item Pick Up",
    "date_created": "2025-08-06T16:51:50.000",
    "date_modified": "2025-08-06T16:51:52.000",
    "request_status": "Pending",
    "responsible_agency": "Department of Sanitation",
    "final_address": "4618 Galahad Dr",
    "address_councildis": "E",
    "status": "Assigned to Contractor",
    "contractor": "Waste Pro",
    "rowid": "1216072",
    "final_x": "3707229.58046",
    "final_y": "554559.900568",
    "longitude": "-89.98597081985412",
    "latitude": "30.018040507691868",
    "geocoded_column": {
      "latitude": "30.018040507691868",
      "longitude": "-89.98597081985412"
    }
  },
  {
    "service_request": "2025-1216071",
    "request_type": "Trash/Recycling",
    "request_reason": "Missed Trash Pick-Up",
    "date_created": "2025-08-06T16:51:18.000",
    "date_modified": "2025-08-06T16:51:20.000",
    "request_status": "Pending",
    "responsible_agency": "Department of Sanitation",
    "final_address": "5655 Milne St",
    "address_councildis": "A",
    "status": "Assigned to Contractor",
    "contractor": "IV Waste",
    "rowid": "1216071",
    "final_x": "3666885.66356",
    "final_y": "545212.409615",
    "longitude": "-90.11375712193089",
    "latitude": "29.99358086166174",
    "geocoded_column": {
      "latitude": "29.99358086166174",
      "longitude": "-90.11375712193089"
    }
  },
  {
    "service_request": "2025-1216070",
    "request_type": "Roads and Streets",
    "request_reason": "Pothole",
    "date_created": "2025-08-06T16:48:36.000",
    "date_modified": "2025-08-06T16:48:38.000",
    "request_status": "Pending",
    "responsible_agency": "Department of Public Works",
    "final_address": "1521 Forstall St",
    "address_councildis": "E",
    "status": "Pending",
    "rowid": "1216070",
    "final_x": "3696790.81853",
    "final_y": "535820.882567",
    "longitude": "-90.01963198352074",
    "latitude": "29.96684846265562",
    "geocoded_column": {
      "latitude": "29.96684846265562",
      "longitude": "-90.01963198352074"
    }
  },
  {
    "service_request": "2025-1216069",
    "request_type": "Trash/Recycling",
    "request_reason": "Request a Large Item Pick Up",
    "date_created": "2025-08-06T16:42:13.000",
    "date_modified": "2025-08-06T16:42:16.000",
    "request_status": "Pending",
    "responsible_agency": "Department of Sanitation",
    "final_address": "1208 N Gayoso St",
    "address_councildis": "A",
    "status": "Assigned to Contractor",
    "contractor": "IV Waste",
    "rowid": "1216069",
    "final_x": "3676718.47227",
    "final_y": "539378.325834",
    "longitude": "-90.08289788699214",
    "latitude": "29.97724772444608",
    "geocoded_column": {
      "latitude": "29.97724772444608",
      "longitude": "-90.08289788699214"
    }
  },
  {
    "service_request": "2025-1216068",
    "request_type": "Roads and Streets",
    "request_reason": "Street Subsidence (Sinking)",
    "date_created": "2025-08-06T16:40:08.000",
    "date_modified": "2025-08-06T16:40:10.000",
    "request_status": "Pending",
    "responsible_agency": "Sewerage & Water Board",
    "final_address": "726 Louque Pl",
    "address_councildis": "A",
    "status": "Pending",
    "rowid": "1216068",
    "final_x": "3668444.11348",
    "final_y": "543495.275342",
    "longitude": "-90.10889216615112",
    "latitude": "29.98881362905192",
    "geocoded_column": {
      "latitude": "29.98881362905192",
      "longitude": "-90.10889216615112"
    }
  },
  {
    "service_request": "2025-1216067",
    "request_type": "Trash/Recycling",
    "request_reason": "Request a Large Item Pick Up",
    "date_created": "2025-08-06T16:39:00.000",
    "date_modified": "2025-08-06T16:39:01.000",
    "request_status": "Pending",
    "responsible_agency": "Department of Sanitation",
    "final_address": "2505 Laurel St",
    "address_councildis": "B",
    "status": "Assigned to Contractor",
    "contractor": "IV Waste",
    "rowid": "1216067",
    "final_x": "3678145.46331",
    "final_y": "520696.925369",
    "longitude": "-90.0790368456514",
    "latitude": "29.9258372326942",
    "geocoded_column": {
      "latitude": "29.9258372326942",
      "longitude": "-90.0790368456514"
    }
  },
  {
    "service_request": "2025-1216066",
    "request_type": "Streetlights",
    "request_reason": "Streetlight Knocked Down/Leaning",
    "date_created": "2025-08-06T16:38:11.000",
    "date_modified": "2025-08-06T16:38:13.000",
    "request_status": "Pending",
    "responsible_agency": "Department of Public Works",
    "final_address": "125 Camp St",
    "address_councildis": "B",
    "status": "Pending",
    "contractor": "Legacy Professional Services",
    "rowid": "1216066",
    "final_x": "3681326.34076",
    "final_y": "530236.715137",
    "longitude": "-90.068663398331",
    "latitude": "29.951972355081647",
    "geocoded_column": {
      "latitude": "29.951972355081647",
      "longitude": "-90.068663398331"
    }
  },
  {
    "service_request": "2025-1216065",
    "request_type": "Abandoned Vehicles",
    "request_reason": "Abandoned/Junk Vehicles",
    "date_created": "2025-08-06T16:36:45.000",
    "date_modified": "2025-08-06T16:36:47.000",
    "request_status": "Pending",
    "responsible_agency": "Department of Public Works",
    "final_address": "3016 Paris Ave",
    "address_councildis": "D",
    "status": "Pending",
    "rowid": "1216065",
    "final_x": "3679776.93109",
    "final_y": "543430.184078",
    "longitude": "-90.0730975246997",
    "latitude": "29.988296794869314",
    "geocoded_column": {
      "latitude": "29.988296794869314",
      "longitude": "-90.0730975246997"
    }
  },
  {
    "service_request": "2025-1216064",
    "request_type": "Trash/Recycling",
    "request_reason": "Request a Large Item Pick Up",
    "date_created": "2025-08-06T16:35:05.000",
    "date_modified": "2025-08-06T16:35:07.000",
    "request_status": "Pending",
    "responsible_agency": "Department of Sanitation",
    "final_address": "2218 Jackson Ave",
    "address_councildis": "B",
    "status": "Assigned to Contractor",
    "contractor": "IV Waste",
    "rowid": "1216064",
    "final_x": "3675870.61057",
    "final_y": "525898.925245",
    "longitude": "-90.08603913326374",
    "latitude": "29.940209311982017",
    "geocoded_column": {
      "latitude": "29.940209311982017",
      "longitude": "-90.08603913326374"
    }
  },
  {
    "service_request": "2025-1216063",
    "request_type": "Trash/Recycling",
    "request_reason": "Repair Trash Cart",
    "date_created": "2025-08-06T16:33:15.000",
    "date_modified": "2025-08-06T16:33:17.000",
    "request_status": "Pending",
    "responsible_agency": "Department of Sanitation",
    "final_address": "1728 Franklin Ave",
    "address_councildis": "D",
    "status": "Assigned to Contractor",
    "contractor": "IV Waste",
    "rowid": "1216063",
    "final_x": "3687645.50473",
    "final_y": "538973.324554",
    "longitude": "-90.04840116350923",
    "latitude": "29.975801707200027",
    "geocoded_column": {
      "latitude": "29.975801707200027",
      "longitude": "-90.04840116350923"
    }
  },
  {
    "service_request": "2025-1216062",
    "request_type": "Trash/Recycling",
    "request_reason": "Request a Large Item Pick Up",
    "date_created": "2025-08-06T16:32:15.000",
    "date_modified": "2025-08-06T16:32:16.000",
    "request_status": "Pending",
    "responsible_agency": "Department of Sanitation",
    "final_address": "5213 Wentworth Dr",
    "address_councildis": "E",
    "status": "Assigned to Contractor",
    "contractor": "Waste Pro",
    "rowid": "1216062",
    "final_x": "3704656.58442",
    "final_y": "557039.441242",
    "longitude": "-89.9940088723753",
    "latitude": "30.024941226477935",
    "geocoded_column": {
      "latitude": "30.024941226477935",
      "longitude": "-89.9940088723753"
    }
  },
  {
    "service_request": "2025-1216061",
    "request_type": "Trash/Recycling",
    "request_reason": "Replace Trash Cart",
    "date_created": "2025-08-06T16:31:26.000",
    "date_modified": "2025-08-06T16:31:28.000",
    "request_status": "Pending",
    "responsible_agency": "Department of Sanitation",
    "final_address": "5140 Touro St",
    "address_councildis": "D",
    "status": "Assigned to Contractor",
    "contractor": "IV Waste",
    "rowid": "1216061",
    "final_x": "3682916.74671",
    "final_y": "551768.703509",
    "longitude": "-90.06288784025897",
    "latitude": "30.011129411088145",
    "geocoded_column": {
      "latitude": "30.011129411088145",
      "longitude": "-90.06288784025897"
    }
  },
  {
    "service_request": "2025-1216060",
    "request_type": "Abandoned Vehicles",
    "request_reason": "Abandoned/Junk Vehicles",
    "date_created": "2025-08-06T16:28:40.000",
    "date_modified": "2025-08-06T16:28:41.000",
    "request_status": "Pending",
    "responsible_agency": "Department of Public Works",
    "final_address": "901 Race St",
    "address_councildis": "B",
    "status": "Pending",
    "rowid": "1216060",
    "final_x": "3680958.04463",
    "final_y": "523700.050491",
    "longitude": "-90.07005385420247",
    "latitude": "29.93400988197389",
    "geocoded_column": {
      "latitude": "29.93400988197389",
      "longitude": "-90.07005385420247"
    }
  },
  {
    "service_request": "2025-1216059",
    "request_type": "Abandoned Vehicles",
    "request_reason": "Abandoned/Junk Vehicles",
    "date_created": "2025-08-06T16:28:33.000",
    "date_modified": "2025-08-06T16:28:35.000",
    "request_status": "Pending",
    "responsible_agency": "Department of Public Works",
    "final_address": "2238 First St",
    "address_councildis": "B",
    "status": "Pending",
    "rowid": "1216059",
    "final_x": "3675574.69953",
    "final_y": "525226.871997",
    "longitude": "-90.08699645038365",
    "latitude": "29.938370239704017",
    "geocoded_column": {
      "latitude": "29.938370239704017",
      "longitude": "-90.08699645038365"
    }
  },
  {
    "service_request": "2025-1216058",
    "request_type": "Trash/Recycling",
    "request_reason": "Order Trash Cart",
    "date_created": "2025-08-06T16:27:35.000",
    "date_modified": "2025-08-06T16:27:36.000",
    "request_status": "Pending",
    "responsible_agency": "Department of Sanitation",
    "final_address": "2019 N Robertson St",
    "address_councildis": "C",
    "status": "Assigned to Contractor",
    "contractor": "IV Waste",
    "rowid": "1216058",
    "final_x": "3684268.42844",
    "final_y": "537762.336136",
    "longitude": "-90.0591094398546",
    "latitude": "29.972575608944123",
    "geocoded_column": {
      "latitude": "29.972575608944123",
      "longitude": "-90.0591094398546"
    }
  },
  {
    "service_request": "2025-1216057",
    "request_type": "Trash/Recycling",
    "request_reason": "Order Trash Cart",
    "date_created": "2025-08-06T16:26:07.000",
    "date_modified": "2025-08-06T16:26:09.000",
    "request_status": "Pending",
    "responsible_agency": "Department of Sanitation",
    "final_address": "2109 Pauger St",
    "address_councildis": "C",
    "status": "Assigned to Contractor",
    "contractor": "IV Waste",
    "rowid": "1216057",
    "final_x": "3683807.44393",
    "final_y": "537415.45876",
    "longitude": "-90.06057747847623",
    "latitude": "29.97163590433077",
    "geocoded_column": {
      "latitude": "29.97163590433077",
      "longitude": "-90.06057747847623"
    }
  },
  {
    "service_request": "2025-1216056",
    "request_type": "Trash/Recycling",
    "request_reason": "Repair Recycling Cart",
    "date_created": "2025-08-06T16:23:53.000",
    "date_modified": "2025-08-06T16:23:54.000",
    "request_status": "Pending",
    "responsible_agency": "Department of Sanitation",
    "final_address": "1240 Columbus St",
    "address_councildis": "C",
    "status": "Pending",
    "rowid": "1216056",
    "final_x": "3682731.71349",
    "final_y": "536257.397191",
    "longitude": "-90.06401530818162",
    "latitude": "29.968484446706032",
    "geocoded_column": {
      "latitude": "29.968484446706032",
      "longitude": "-90.06401530818162"
    }
  },
  {
    "service_request": "2025-1216055",
    "request_type": "Abandoned Vehicles",
    "request_reason": "Abandoned/Junk Vehicles",
    "date_created": "2025-08-06T16:22:24.000",
    "date_modified": "2025-08-06T16:22:26.000",
    "request_status": "Pending",
    "responsible_agency": "Department of Public Works",
    "final_address": "2124 DAbadie St",
    "address_councildis": "D",
    "status": "Pending",
    "rowid": "1216055",
    "final_x": "3681011.55419",
    "final_y": "539566.018634",
    "longitude": "-90.06933239297534",
    "latitude": "29.977634295710686",
    "geocoded_column": {
      "latitude": "29.977634295710686",
      "longitude": "-90.06933239297534"
    }
  },
  {
    "service_request": "2025-1216054",
    "request_type": "Trash/Recycling",
    "request_reason": "Repair Recycling Cart",
    "date_created": "2025-08-06T16:21:31.000",
    "date_modified": "2025-08-06T16:21:34.000",
    "request_status": "Pending",
    "responsible_agency": "Department of Sanitation",
    "final_address": "212 Abalon Ct",
    "address_councildis": "C",
    "status": "Pending",
    "rowid": "1216054",
    "final_x": "3688980.2559",
    "final_y": "530900.792258",
    "longitude": "-90.04447243033135",
    "latitude": "29.953563836819253",
    "geocoded_column": {
      "latitude": "29.953563836819253",
      "longitude": "-90.04447243033135"
    }
  },
  {
    "service_request": "2025-1216053",
    "request_type": "Trash/Recycling",
    "request_reason": "Illegal Dumping",
    "date_created": "2025-08-06T16:20:17.000",
    "date_modified": "2025-08-06T16:20:20.000",
    "request_status": "Pending",
    "responsible_agency": "Department of Sanitation",
    "final_address": "2137 Soniat St",
    "address_councildis": "B",
    "status": "Pending",
    "rowid": "1216053",
    "final_x": "3668532.95585",
    "final_y": "523522.878139",
    "longitude": "-90.10928546584748",
    "latitude": "29.933893532283022",
    "geocoded_column": {
      "latitude": "29.933893532283022",
      "longitude": "-90.10928546584748"
    }
  },
  {
    "service_request": "2025-1216052",
    "request_type": "Trash/Recycling",
    "request_reason": "Request a Large Item Pick Up",
    "date_created": "2025-08-06T16:19:48.000",
    "date_modified": "2025-08-06T16:19:51.000",
    "request_status": "Pending",
    "responsible_agency": "Department of Sanitation",
    "final_address": "10 Fortress Rd",
    "address_councildis": "D",
    "status": "Assigned to Contractor",
    "contractor": "IV Waste",
    "rowid": "1216052",
    "final_x": "3676558.97902",
    "final_y": "554613.978968",
    "longitude": "-90.08287649402884",
    "latitude": "30.01914518999604",
    "geocoded_column": {
      "latitude": "30.01914518999604",
      "longitude": "-90.08287649402884"
    }
  },
  {
    "service_request": "2025-1216051",
    "request_type": "Trash/Recycling",
    "request_reason": "Order Recycling Cart",
    "date_created": "2025-08-06T16:13:03.000",
    "date_modified": "2025-08-06T16:13:05.000",
    "request_status": "Pending",
    "responsible_agency": "Department of Sanitation",
    "final_address": "6203 S Miro St",
    "address_councildis": "A",
    "status": "Pending",
    "rowid": "1216051",
    "final_x": "3667403.87655",
    "final_y": "528089.710911",
    "longitude": "-90.11269634839101",
    "latitude": "29.946483969770874",
    "geocoded_column": {
      "latitude": "29.946483969770874",
      "longitude": "-90.11269634839101"
    }
  },
  {
    "service_request": "2025-1216050",
    "request_type": "Trash/Recycling",
    "request_reason": "Order Trash Cart",
    "date_created": "2025-08-06T16:12:27.000",
    "date_modified": "2025-08-06T16:12:29.000",
    "request_status": "Pending",
    "responsible_agency": "Department of Sanitation",
    "final_address": "4921 Chrysler St",
    "address_councildis": "E",
    "status": "Assigned to Contractor",
    "contractor": "Waste Pro",
    "rowid": "1216050",
    "final_x": "3715309.52203",
    "final_y": "557581.800731",
    "longitude": "-89.96032715633118",
    "latitude": "30.026085820048692",
    "geocoded_column": {
      "latitude": "30.026085820048692",
      "longitude": "-89.96032715633118"
    }
  },
  {
    "service_request": "2025-1216049",
    "request_type": "Property Maintenance",
    "request_reason": "Property Maintenance",
    "date_created": "2025-08-06T16:10:37.000",
    "date_modified": "2025-08-06T16:10:38.000",
    "request_status": "Pending",
    "responsible_agency": "Department of Code Enforcement",
    "final_address": "1408 Tupelo St",
    "address_councildis": "E",
    "status": "Pending",
    "rowid": "1216049",
    "final_x": "3699864.9217",
    "final_y": "534484.246021",
    "longitude": "-90.00997278094418",
    "latitude": "29.96307592314959",
    "geocoded_column": {
      "latitude": "29.96307592314959",
      "longitude": "-90.00997278094418"
    }
  },
  {
    "service_request": "2025-1216048",
    "request_type": "Trash/Recycling",
    "request_reason": "Request a Large Item Pick Up",
    "date_created": "2025-08-06T16:10:26.000",
    "date_modified": "2025-08-06T16:10:28.000",
    "request_status": "Pending",
    "responsible_agency": "Department of Sanitation",
    "final_address": "318 Calhoun St",
    "address_councildis": "A",
    "status": "Assigned to Contractor",
    "contractor": "IV Waste",
    "rowid": "1216048",
    "final_x": "3662779.06003",
    "final_y": "518252.184438",
    "longitude": "-90.12762544105557",
    "latitude": "29.91956853306251",
    "geocoded_column": {
      "latitude": "29.91956853306251",
      "longitude": "-90.12762544105557"
    }
  },
  {
    "service_request": "2025-1216047",
    "request_type": "Trash/Recycling",
    "request_reason": "Request a Large Item Pick Up",
    "date_created": "2025-08-06T16:08:49.000",
    "date_modified": "2025-08-06T16:08:51.000",
    "request_status": "Pending",
    "responsible_agency": "Department of Sanitation",
    "final_address": "1013 Desire St",
    "address_councildis": "C",
    "status": "Assigned to Contractor",
    "contractor": "IV Waste",
    "rowid": "1216047",
    "final_x": "3690139.9791",
    "final_y": "535395.447494",
    "longitude": "-90.04065041549634",
    "latitude": "29.965886654873714",
    "geocoded_column": {
      "latitude": "29.965886654873714",
      "longitude": "-90.04065041549634"
    }
  },
  {
    "service_request": "2025-1216046",
    "request_type": "Trash/Recycling",
    "request_reason": "Replace Trash Cart",
    "date_created": "2025-08-06T16:06:03.000",
    "date_modified": "2025-08-06T16:06:05.000",
    "request_status": "Pending",
    "responsible_agency": "Department of Sanitation",
    "final_address": "6434 Baccich St",
    "address_councildis": "D",
    "status": "Assigned to Contractor",
    "contractor": "IV Waste",
    "rowid": "1216046",
    "final_x": "3687299.90946",
    "final_y": "557112.962714",
    "longitude": "-90.04885042886153",
    "latitude": "30.025689792405434",
    "geocoded_column": {
      "latitude": "30.025689792405434",
      "longitude": "-90.04885042886153"
    }
  },
  {
    "service_request": "2025-1216045",
    "request_type": "Trash/Recycling",
    "request_reason": "Request a Large Item Pick Up",
    "date_created": "2025-08-06T16:05:15.000",
    "date_modified": "2025-08-06T16:05:17.000",
    "request_status": "Pending",
    "responsible_agency": "Department of Sanitation",
    "final_address": "7826 Sun St",
    "address_councildis": "E",
    "status": "Assigned to Contractor",
    "contractor": "Waste Pro",
    "rowid": "1216045",
    "final_x": "3720384.94169",
    "final_y": "574326.86481",
    "longitude": "-89.94364795353486",
    "latitude": "30.071959634913352",
    "geocoded_column": {
      "latitude": "30.071959634913352",
      "longitude": "-89.94364795353486"
    }
  },
  {
    "service_request": "2025-1216044",
    "request_type": "Trash/Recycling",
    "request_reason": "Order Second Trash Cart",
    "date_created": "2025-08-06T16:02:19.000",
    "date_modified": "2025-08-06T16:02:21.000",
    "request_status": "Pending",
    "responsible_agency": "Department of Sanitation",
    "final_address": "626 S Rocheblave St",
    "address_councildis": "B",
    "status": "Assigned to Contractor",
    "contractor": "IV Waste",
    "rowid": "1216044",
    "final_x": "3674806.75221",
    "final_y": "532691.28602",
    "longitude": "-90.08916505704225",
    "latitude": "29.958917853654857",
    "geocoded_column": {
      "latitude": "29.958917853654857",
      "longitude": "-90.08916505704225"
    }
  },
  {
    "service_request": "2025-1216043",
    "request_type": "Alley Ways",
    "request_reason": "Alley Way Issues",
    "date_created": "2025-08-06T16:00:23.000",
    "date_modified": "2025-08-06T16:00:25.000",
    "request_status": "Pending",
    "responsible_agency": "Department of Public Works",
    "final_address": "363 Walnut St",
    "address_councildis": "A",
    "status": "Pending",
    "rowid": "1216043",
    "final_x": "3662201.18362",
    "final_y": "522421.190842",
    "longitude": "-90.12931124217306",
    "latitude": "29.931048706614767",
    "geocoded_column": {
      "latitude": "29.931048706614767",
      "longitude": "-90.12931124217306"
    }
  },
  {
    "service_request": "2025-1216042",
    "request_type": "Trash/Recycling",
    "request_reason": "Repair Recycling Cart",
    "date_created": "2025-08-06T15:54:15.000",
    "date_modified": "2025-08-06T15:54:17.000",
    "request_status": "Pending",
    "responsible_agency": "Department of Sanitation",
    "final_address": "702 General Taylor St",
    "address_councildis": "B",
    "status": "Pending",
    "rowid": "1216042",
    "final_x": "3673224.48283",
    "final_y": "518307.44863",
    "longitude": "-90.09465248163932",
    "latitude": "29.91941413777375",
    "geocoded_column": {
      "latitude": "29.91941413777375",
      "longitude": "-90.09465248163932"
    }
  },
  {
    "service_request": "2025-1216041",
    "request_type": "Trash/Recycling",
    "request_reason": "Repair Trash Cart",
    "date_created": "2025-08-06T15:52:34.000",
    "date_modified": "2025-08-06T15:52:36.000",
    "request_status": "Pending",
    "responsible_agency": "Department of Sanitation",
    "final_address": "8200 Sycamore St",
    "address_councildis": "A",
    "status": "Assigned to Contractor",
    "contractor": "IV Waste",
    "rowid": "1216041",
    "final_x": "3664000.25005",
    "final_y": "531219.565058",
    "longitude": "-90.12333849959812",
    "latitude": "29.955189316477167",
    "geocoded_column": {
      "latitude": "29.955189316477167",
      "longitude": "-90.12333849959812"
    }
  },
  {
    "service_request": "2025-1216040",
    "request_type": "Roads and Streets",
    "request_reason": "Street Subsidence (Sinking)",
    "date_created": "2025-08-06T15:51:11.000",
    "date_modified": "2025-08-06T15:52:11.000",
    "request_status": "Pending",
    "responsible_agency": "Sewerage & Water Board",
    "final_address": "LOUISIANA AVE & FRERET ST",
    "address_councildis": "B",
    "status": "Pending",
    "rowid": "1216040",
    "final_x": "3672911.0",
    "final_y": "524465.88",
    "longitude": "-90.0954319826462",
    "latitude": "29.936357157163858",
    "geocoded_column": {
      "latitude": "29.936357157163858",
      "longitude": "-90.0954319826462"
    }
  },
  {
    "service_request": "2025-1216039",
    "request_type": "Trash/Recycling",
    "request_reason": "Request a Large Item Pick Up",
    "date_created": "2025-08-06T15:48:22.000",
    "date_modified": "2025-08-06T16:41:36.000",
    "request_status": "Pending",
    "responsible_agency": "Department of Sanitation",
    "final_address": "1608 St Roch Ave",
    "address_councildis": "D",
    "status": "Assigned to Contractor",
    "contractor": "IV Waste",
    "rowid": "1216039",
    "final_x": "3686242.92745",
    "final_y": "538358.440649",
    "longitude": "-90.05285259097836",
    "latitude": "29.974154165029574",
    "geocoded_column": {
      "latitude": "29.974154165029574",
      "longitude": "-90.05285259097836"
    }
  },
  {
    "service_request": "2025-1216038",
    "request_type": "Trash/Recycling",
    "request_reason": "Replace Trash Cart",
    "date_created": "2025-08-06T15:47:48.000",
    "date_modified": "2025-08-06T15:47:50.000",
    "request_status": "Pending",
    "responsible_agency": "Department of Sanitation",
    "final_address": "702 General Taylor St",
    "address_councildis": "B",
    "status": "Assigned to Contractor",
    "contractor": "IV Waste",
    "rowid": "1216038",
    "final_x": "3673224.48283",
    "final_y": "518307.44863",
    "longitude": "-90.09465248163932",
    "latitude": "29.91941413777375",
    "geocoded_column": {
      "latitude": "29.91941413777375",
      "longitude": "-90.09465248163932"
    }
  },
  {
    "service_request": "2025-1216037",
    "request_type": "Roads and Streets",
    "request_reason": "Street Subsidence (Sinking)",
    "date_created": "2025-08-06T15:45:30.000",
    "date_modified": "2025-08-06T15:45:31.000",
    "request_status": "Pending",
    "responsible_agency": "Sewerage & Water Board",
    "final_address": "5900 Perrier St",
    "address_councildis": "A",
    "status": "Pending",
    "rowid": "1216037",
    "final_x": "3665452.63706",
    "final_y": "520367.292856",
    "longitude": "-90.11911550362463",
    "latitude": "29.92530679117454",
    "geocoded_column": {
      "latitude": "29.92530679117454",
      "longitude": "-90.11911550362463"
    }
  },
  {
    "service_request": "2025-1216036",
    "request_type": "Trash/Recycling",
    "request_reason": "Request a Large Item Pick Up",
    "date_created": "2025-08-06T15:45:22.000",
    "date_modified": "2025-08-06T15:45:24.000",
    "request_status": "Pending",
    "responsible_agency": "Department of Sanitation",
    "final_address": "206 S Olympia St",
    "address_councildis": "A",
    "status": "Assigned to Contractor",
    "contractor": "IV Waste",
    "rowid": "1216036",
    "final_x": "3669141.9721",
    "final_y": "539195.424522",
    "longitude": "-90.10683321740045",
    "latitude": "29.97696997657811",
    "geocoded_column": {
      "latitude": "29.97696997657811",
      "longitude": "-90.10683321740045"
    }
  },
  {
    "service_request": "2025-1216035",
    "request_type": "Trash/Recycling",
    "request_reason": "Request a Large Item Pick Up",
    "date_created": "2025-08-06T15:44:15.000",
    "date_modified": "2025-08-06T15:44:17.000",
    "request_status": "Pending",
    "responsible_agency": "Department of Sanitation",
    "final_address": "4424 Baronne St",
    "address_councildis": "B",
    "status": "Assigned to Contractor",
    "contractor": "IV Waste",
    "rowid": "1216035",
    "final_x": "3670505.99099",
    "final_y": "521528.466361",
    "longitude": "-90.10312426215349",
    "latitude": "29.92835143756209",
    "geocoded_column": {
      "latitude": "29.92835143756209",
      "longitude": "-90.10312426215349"
    }
  },
  {
    "service_request": "2025-1216034",
    "request_type": "Trash/Recycling",
    "request_reason": "Request a Large Item Pick Up",
    "date_created": "2025-08-06T15:43:09.000",
    "date_modified": "2025-08-06T15:43:12.000",
    "request_status": "Pending",
    "responsible_agency": "Department of Sanitation",
    "final_address": "832 Flood St",
    "address_councildis": "E",
    "status": "Assigned to Contractor",
    "contractor": "Waste Pro",
    "rowid": "1216034",
    "final_x": "3697417.30429",
    "final_y": "532968.9017",
    "longitude": "-90.01775696009884",
    "latitude": "29.958986764621343",
    "geocoded_column": {
      "latitude": "29.958986764621343",
      "longitude": "-90.01775696009884"
    }
  },
  {
    "service_request": "2025-1216033",
    "request_type": "Street and Traffic Signs",
    "request_reason": "Additional Signage Request",
    "date_created": "2025-08-06T15:40:09.000",
    "date_modified": "2025-08-06T15:40:11.000",
    "request_status": "Pending",
    "responsible_agency": "Department of Public Works",
    "final_address": "3332 LaSalle St",
    "address_councildis": "B",
    "status": "Pending",
    "rowid": "1216033",
    "final_x": "3673161.31483",
    "final_y": "524164.034108",
    "longitude": "-90.09465203016453",
    "latitude": "29.935519740812683",
    "geocoded_column": {
      "latitude": "29.935519740812683",
      "longitude": "-90.09465203016453"
    }
  },
  {
    "service_request": "2025-1216032",
    "request_type": "Trash/Recycling",
    "request_reason": "Request a Large Item Pick Up",
    "date_created": "2025-08-06T15:39:04.000",
    "date_modified": "2025-08-06T15:39:07.000",
    "request_status": "Pending",
    "responsible_agency": "Department of Sanitation",
    "final_address": "7820 Sand St",
    "address_councildis": "E",
    "status": "Assigned to Contractor",
    "contractor": "Waste Pro",
    "rowid": "1216032",
    "final_x": "3720236.98918",
    "final_y": "574119.984938",
    "longitude": "-89.94412360322552",
    "latitude": "30.07139573584904",
    "geocoded_column": {
      "latitude": "30.07139573584904",
      "longitude": "-89.94412360322552"
    }
  },
  {
    "service_request": "2025-1216031",
    "request_type": "Trash/Recycling",
    "request_reason": "Replace Trash Cart",
    "date_created": "2025-08-06T15:33:40.000",
    "date_modified": "2025-08-06T15:33:42.000",
    "request_status": "Pending",
    "responsible_agency": "Department of Sanitation",
    "final_address": "4826 Corinne St",
    "address_councildis": "E",
    "status": "Assigned to Contractor",
    "contractor": "Waste Pro",
    "rowid": "1216031",
    "final_x": "3714924.29682",
    "final_y": "557161.351643",
    "longitude": "-89.96156031132034",
    "latitude": "30.024942438595886",
    "geocoded_column": {
      "latitude": "30.024942438595886",
      "longitude": "-89.96156031132034"
    }
  },
  {
    "service_request": "2025-1216030",
    "request_type": "Trash/Recycling",
    "request_reason": "Request a Large Item Pick Up",
    "date_created": "2025-08-06T15:31:59.000",
    "date_modified": "2025-08-06T15:32:06.000",
    "request_status": "Pending",
    "responsible_agency": "Department of Sanitation",
    "final_address": "6017 Chartres St",
    "address_councildis": "E",
    "status": "Assigned to Contractor",
    "contractor": "Waste Pro",
    "rowid": "1216030",
    "final_x": "3698597.9466",
    "final_y": "531681.635139",
    "longitude": "-90.01407560934719",
    "latitude": "29.955409912387754",
    "geocoded_column": {
      "latitude": "29.955409912387754",
      "longitude": "-90.01407560934719"
    }
  },
  {
    "service_request": "2025-1216029",
    "request_type": "Trash/Recycling",
    "request_reason": "Request a Large Item Pick Up",
    "date_created": "2025-08-06T15:31:11.000",
    "date_modified": "2025-08-06T15:31:15.000",
    "request_status": "Pending",
    "responsible_agency": "Department of Sanitation",
    "final_address": "733 St Joseph St",
    "address_councildis": "B",
    "status": "Assigned to Contractor",
    "contractor": "IV Waste",
    "rowid": "1216029",
    "final_x": "3680018.85359",
    "final_y": "527570.779711",
    "longitude": "-90.07288442247352",
    "latitude": "29.944681541177417",
    "geocoded_column": {
      "latitude": "29.944681541177417",
      "longitude": "-90.07288442247352"
    }
  },
  {
    "service_request": "2025-1216028",
    "request_type": "Property Maintenance",
    "request_reason": "Property Maintenance",
    "date_created": "2025-08-06T15:30:12.000",
    "date_modified": "2025-08-06T15:30:19.000",
    "request_status": "Pending",
    "responsible_agency": "Department of Code Enforcement",
    "final_address": "5634 Franklin Ave",
    "address_councildis": "D",
    "status": "Pending",
    "rowid": "1216028",
    "final_x": "3686438.29314",
    "final_y": "553908.224279",
    "longitude": "-90.0516862793228",
    "latitude": "30.01690447808887",
    "geocoded_column": {
      "latitude": "30.01690447808887",
      "longitude": "-90.0516862793228"
    }
  },
  {
    "service_request": "2025-1216027",
    "request_type": "Drainage",
    "request_reason": "Ditch and Culvert Maintenance",
    "date_created": "2025-08-06T15:29:16.000",
    "date_modified": "2025-08-06T15:29:18.000",
    "request_status": "Pending",
    "responsible_agency": "Department of Public Works",
    "final_address": "5668 General Diaz St",
    "address_councildis": "A",
    "status": "Pending",
    "rowid": "1216027",
    "final_x": "3669106.75802",
    "final_y": "545004.936527",
    "longitude": "-90.10674802226166",
    "latitude": "29.992945192653305",
    "geocoded_column": {
      "latitude": "29.992945192653305",
      "longitude": "-90.10674802226166"
    }
  },
  {
    "service_request": "2025-1216026",
    "request_type": "Parks & Parkways",
    "request_reason": "Request Grass Cutting Service (City Owned Property)",
    "date_created": "2025-08-06T15:21:47.000",
    "date_modified": "2025-08-06T15:21:49.000",
    "request_status": "Pending",
    "responsible_agency": "Department of Parks & Parkway",
    "final_address": "5668 General Diaz St",
    "address_councildis": "A",
    "status": "Pending",
    "rowid": "1216026",
    "final_x": "3669106.75802",
    "final_y": "545004.936527",
    "longitude": "-90.10674802226166",
    "latitude": "29.992945192653305",
    "geocoded_column": {
      "latitude": "29.992945192653305",
      "longitude": "-90.10674802226166"
    }
  },
  {
    "service_request": "2025-1216025",
    "request_type": "Trash/Recycling",
    "request_reason": "Request a Large Item Pick Up",
    "date_created": "2025-08-06T15:20:37.000",
    "date_modified": "2025-08-06T15:20:39.000",
    "request_status": "Pending",
    "responsible_agency": "Department of Sanitation",
    "final_address": "4117 N Rampart St",
    "address_councildis": "C",
    "status": "Assigned to Contractor",
    "contractor": "IV Waste",
    "rowid": "1216025",
    "final_x": "3692161.43056",
    "final_y": "534787.676294",
    "longitude": "-90.03428851986305",
    "latitude": "29.964152637005306",
    "geocoded_column": {
      "latitude": "29.964152637005306",
      "longitude": "-90.03428851986305"
    }
  },
  {
    "service_request": "2025-1216024",
    "request_type": "Trash/Recycling",
    "request_reason": "Order Recycling Cart",
    "date_created": "2025-08-06T15:20:27.000",
    "date_modified": "2025-08-06T15:20:53.000",
    "request_status": "Pending",
    "responsible_agency": "Department of Sanitation",
    "final_address": "11279 Waverly Dr",
    "address_councildis": "E",
    "status": "Pending",
    "rowid": "1216024",
    "final_x": "3717563.24453",
    "final_y": "560375.741982",
    "longitude": "-89.95309941743544",
    "latitude": "30.033693589829525",
    "geocoded_column": {
      "latitude": "30.033693589829525",
      "longitude": "-89.95309941743544"
    }
  },
  {
    "service_request": "2025-1216023",
    "request_type": "Trash/Recycling",
    "request_reason": "Missed Trash Pick-Up",
    "date_created": "2025-08-06T15:18:24.000",
    "date_modified": "2025-08-06T15:18:26.000",
    "request_status": "Pending",
    "responsible_agency": "Department of Sanitation",
    "final_address": "13657 N Cavelier Dr",
    "address_councildis": "E",
    "status": "Assigned to Contractor",
    "contractor": "Waste Pro",
    "rowid": "1216023",
    "final_x": "3723892.86239",
    "final_y": "570081.772455",
    "longitude": "-89.93272245900764",
    "latitude": "30.060169984150658",
    "geocoded_column": {
      "latitude": "30.060169984150658",
      "longitude": "-89.93272245900764"
    }
  },
  {
    "service_request": "2025-1216022",
    "request_type": "Trash/Recycling",
    "request_reason": "Request a Large Item Pick Up",
    "date_created": "2025-08-06T15:17:24.000",
    "date_modified": "2025-08-06T15:17:26.000",
    "request_status": "Pending",
    "responsible_agency": "Department of Sanitation",
    "final_address": "6607 Foch Rd",
    "address_councildis": "D",
    "status": "Assigned to Contractor",
    "contractor": "Waste Pro",
    "rowid": "1216022",
    "final_x": "3696996.74205",
    "final_y": "555574.834201",
    "longitude": "-90.01826572025419",
    "latitude": "30.021158070999803",
    "geocoded_column": {
      "latitude": "30.021158070999803",
      "longitude": "-90.01826572025419"
    }
  },
  {
    "service_request": "2025-1216021",
    "request_type": "Streetlights",
    "request_reason": "Streetlight Outage/Malfunction",
    "date_created": "2025-08-06T15:15:45.000",
    "date_modified": "2025-08-06T15:15:47.000",
    "request_status": "Pending",
    "responsible_agency": "Department of Public Works",
    "final_address": "5668 General Diaz St",
    "address_councildis": "A",
    "status": "Pending",
    "contractor": "Legacy Professional Services",
    "rowid": "1216021",
    "final_x": "3669106.75802",
    "final_y": "545004.936527",
    "longitude": "-90.10674802226166",
    "latitude": "29.992945192653305",
    "geocoded_column": {
      "latitude": "29.992945192653305",
      "longitude": "-90.10674802226166"
    }
  },
  {
    "service_request": "2025-1216020",
    "request_type": "Traffic Signals",
    "request_reason": "Traffic Signal Malfunctioning or Damaged",
    "date_created": "2025-08-06T15:14:37.000",
    "date_modified": "2025-08-06T15:14:39.000",
    "request_status": "Pending",
    "responsible_agency": "Department of Public Works",
    "final_address": "406 N Carrollton Ave",
    "address_councildis": "A",
    "status": "Pending",
    "rowid": "1216020",
    "final_x": "3672104.62446",
    "final_y": "539263.966218",
    "longitude": "-90.09747385984652",
    "latitude": "29.977070913123086",
    "geocoded_column": {
      "latitude": "29.977070913123086",
      "longitude": "-90.09747385984652"
    }
  },
  {
    "service_request": "2025-1216019",
    "request_type": "Abandoned Vehicles",
    "request_reason": "Abandoned/Junk Vehicles",
    "date_created": "2025-08-06T15:14:11.000",
    "date_modified": "2025-08-06T15:14:16.000",
    "request_status": "Pending",
    "responsible_agency": "Department of Public Works",
    "final_address": "2202 Gallier St",
    "address_councildis": "D",
    "status": "Pending",
    "rowid": "1216019",
    "final_x": "3691471.56003",
    "final_y": "539841.339146",
    "longitude": "-90.03628641349067",
    "latitude": "29.978069910010028",
    "geocoded_column": {
      "latitude": "29.978069910010028",
      "longitude": "-90.03628641349067"
    }
  },
  {
    "service_request": "2025-1216018",
    "request_type": "Property Maintenance",
    "request_reason": "Property Maintenance",
    "date_created": "2025-08-06T15:14:05.000",
    "date_modified": "2025-08-06T15:14:07.000",
    "request_status": "Pending",
    "responsible_agency": "Department of Code Enforcement",
    "final_address": "3412 Touro St",
    "address_councildis": "D",
    "status": "Pending",
    "rowid": "1216018",
    "final_x": "3683466.49954",
    "final_y": "545210.460367",
    "longitude": "-90.06138095853912",
    "latitude": "29.993079828749657",
    "geocoded_column": {
      "latitude": "29.993079828749657",
      "longitude": "-90.06138095853912"
    }
  },
  {
    "service_request": "2025-1216017",
    "request_type": "Roads and Streets",
    "request_reason": "Pothole",
    "date_created": "2025-08-06T15:13:58.000",
    "date_modified": "2025-08-06T15:14:00.000",
    "request_status": "Pending",
    "responsible_agency": "Department of Public Works",
    "final_address": "2908 Maurepas St",
    "address_councildis": "A",
    "status": "Pending",
    "rowid": "1216017",
    "final_x": "3677672.19131",
    "final_y": "540674.455883",
    "longitude": "-90.07984094576598",
    "latitude": "29.980782982506426",
    "geocoded_column": {
      "latitude": "29.980782982506426",
      "longitude": "-90.07984094576598"
    }
  },
  {
    "service_request": "2025-1216016",
    "request_type": "Trash/Recycling",
    "request_reason": "Replace Trash Cart",
    "date_created": "2025-08-06T15:09:33.000",
    "date_modified": "2025-08-06T15:09:36.000",
    "request_status": "Pending",
    "responsible_agency": "Department of Sanitation",
    "final_address": "7037 Magazine St",
    "address_councildis": "A",
    "status": "Assigned to Contractor",
    "contractor": "IV Waste",
    "rowid": "1216016",
    "final_x": "3661075.43008",
    "final_y": "521104.801849",
    "longitude": "-90.1329086512856",
    "latitude": "29.927461526825315",
    "geocoded_column": {
      "latitude": "29.927461526825315",
      "longitude": "-90.1329086512856"
    }
  },
  {
    "service_request": "2025-1216015",
    "request_type": "Parks & Parkways",
    "request_reason": "Request Tree Service (Right of Way/Public Property)",
    "date_created": "2025-08-06T15:05:54.000",
    "date_modified": "2025-08-06T15:06:48.000",
    "request_status": "Pending",
    "responsible_agency": "Department of Parks & Parkway",
    "final_address": "TAMARON BLVD & I 10 W SERVICE RD",
    "address_councildis": "E",
    "status": "Pending",
    "rowid": "1216015",
    "final_x": "3719030.17",
    "final_y": "568074.81",
    "longitude": "-89.94816970707713",
    "latitude": "30.054814207896133",
    "geocoded_column": {
      "latitude": "30.054814207896133",
      "longitude": "-89.94816970707713"
    }
  },
  {
    "service_request": "2025-1216014",
    "request_type": "Trash/Recycling",
    "request_reason": "Illegal Dumping",
    "date_created": "2025-08-06T15:05:39.000",
    "date_modified": "2025-08-06T15:05:41.000",
    "request_status": "Pending",
    "responsible_agency": "Department of Sanitation",
    "final_address": "5100 BLK Peoples Ave",
    "address_councildis": "D",
    "status": "Pending",
    "rowid": "1216014",
    "final_x": "3688079.21108",
    "final_y": "552014.436113",
    "longitude": "-90.04656886989618",
    "latitude": "30.011646689763392",
    "geocoded_column": {
      "latitude": "30.011646689763392",
      "longitude": "-90.04656886989618"
    }
  },
  {
    "service_request": "2025-1216013",
    "request_type": "Trash/Recycling",
    "request_reason": "Request a Large Item Pick Up",
    "date_created": "2025-08-06T15:02:35.000",
    "date_modified": "2025-08-06T15:02:37.000",
    "request_status": "Pending",
    "responsible_agency": "Department of Sanitation",
    "final_address": "215 Maumus Ave",
    "address_councildis": "C",
    "status": "Assigned to Contractor",
    "contractor": "Richards Disposal",
    "rowid": "1216013",
    "final_x": "3706511.37156",
    "final_y": "516686.608117",
    "longitude": "-89.98964333943896",
    "latitude": "29.91392598336898",
    "geocoded_column": {
      "latitude": "29.91392598336898",
      "longitude": "-89.98964333943896"
    }
  },
  {
    "service_request": "2025-1216012",
    "request_type": "Utility Poles",
    "request_reason": "Utility Pole Leaning",
    "date_created": "2025-08-06T15:02:07.000",
    "date_modified": "2025-08-06T15:02:16.000",
    "request_status": "Pending",
    "responsible_agency": "Utility Company Collective",
    "final_address": "2025 N Claiborne Ave",
    "address_councildis": "D",
    "status": "Pending",
    "rowid": "1216012",
    "final_x": "3684313.37013",
    "final_y": "538132.737737",
    "longitude": "-90.05895449591031",
    "latitude": "29.973592710056323",
    "geocoded_column": {
      "latitude": "29.973592710056323",
      "longitude": "-90.05895449591031"
    }
  },
  {
    "service_request": "2025-1216011",
    "request_type": "Alley Ways",
    "request_reason": "Alley Way Issues",
    "date_created": "2025-08-06T15:01:23.000",
    "date_modified": "2025-08-06T15:01:25.000",
    "request_status": "Pending",
    "responsible_agency": "Department of Public Works",
    "final_address": "2900 Peoples Ave",
    "address_councildis": "A",
    "status": "Pending",
    "rowid": "1216011",
    "final_x": "3667440.07213",
    "final_y": "545227.659151",
    "longitude": "-90.11200531136583",
    "latitude": "29.993606555726096",
    "geocoded_column": {
      "latitude": "29.993606555726096",
      "longitude": "-90.11200531136583"
    }
  },
  {
    "service_request": "2025-1216010",
    "request_type": "Trash/Recycling",
    "request_reason": "Request a Large Item Pick Up",
    "date_created": "2025-08-06T15:00:07.000",
    "date_modified": "2025-08-06T15:00:09.000",
    "request_status": "Pending",
    "responsible_agency": "Department of Sanitation",
    "final_address": "1105 First St",
    "address_councildis": "B",
    "status": "Assigned to Contractor",
    "contractor": "IV Waste",
    "rowid": "1216010",
    "final_x": "3678053.0763",
    "final_y": "521598.855545",
    "longitude": "-90.07929732435387",
    "latitude": "29.9283200274214",
    "geocoded_column": {
      "latitude": "29.9283200274214",
      "longitude": "-90.07929732435387"
    }
  },
  {
    "service_request": "2025-1216009",
    "request_type": "Streetlights",
    "request_reason": "Streetlight Outage/Malfunction",
    "date_created": "2025-08-06T14:59:35.000",
    "date_modified": "2025-08-06T14:59:37.000",
    "request_status": "Pending",
    "responsible_agency": "Department of Public Works",
    "final_address": "3541 Silver Maple Ct",
    "address_councildis": "C",
    "status": "Pending",
    "contractor": "Legacy Professional Services",
    "rowid": "1216009",
    "final_x": "3703190.08266",
    "final_y": "512438.588849",
    "longitude": "-90.00028231644679",
    "latitude": "29.902352052463144",
    "geocoded_column": {
      "latitude": "29.902352052463144",
      "longitude": "-90.00028231644679"
    }
  },
  {
    "service_request": "2025-1216008",
    "request_type": "Trash/Recycling",
    "request_reason": "Request a Large Item Pick Up",
    "date_created": "2025-08-06T14:53:49.000",
    "date_modified": "2025-08-06T14:53:51.000",
    "request_status": "Pending",
    "responsible_agency": "Department of Sanitation",
    "final_address": "5411 Royal St",
    "address_councildis": "E",
    "status": "Assigned to Contractor",
    "contractor": "Waste Pro",
    "rowid": "1216008",
    "final_x": "3696897.33898",
    "final_y": "532498.415428",
    "longitude": "-90.01941590777422",
    "latitude": "29.957709498503405",
    "geocoded_column": {
      "latitude": "29.957709498503405",
      "longitude": "-90.01941590777422"
    }
  },
  {
    "service_request": "2025-1216007",
    "request_type": "Trash/Recycling",
    "request_reason": "Order Second Trash Cart",
    "date_created": "2025-08-06T14:52:34.000",
    "date_modified": "2025-08-06T14:52:38.000",
    "request_status": "Pending",
    "responsible_agency": "Department of Sanitation",
    "final_address": "623 Nashville Ave",
    "address_councildis": "A",
    "status": "Assigned to Contractor",
    "contractor": "IV Waste",
    "rowid": "1216007",
    "final_x": "3665510.47706",
    "final_y": "518517.216247",
    "longitude": "-90.1189948125964",
    "latitude": "29.920217975761684",
    "geocoded_column": {
      "latitude": "29.920217975761684",
      "longitude": "-90.1189948125964"
    }
  },
  {
    "service_request": "2025-1216006",
    "request_type": "Trash/Recycling",
    "request_reason": "Request a Large Item Pick Up",
    "date_created": "2025-08-06T14:50:29.000",
    "date_modified": "2025-08-06T14:50:31.000",
    "request_status": "Pending",
    "responsible_agency": "Department of Sanitation",
    "final_address": "4803 Lynhuber Dr",
    "address_councildis": "D",
    "status": "Assigned to Contractor",
    "contractor": "Waste Pro",
    "rowid": "1216006",
    "final_x": "3698065.72528",
    "final_y": "554626.51132",
    "longitude": "-90.01492253055115",
    "latitude": "30.018516765671976",
    "geocoded_column": {
      "latitude": "30.018516765671976",
      "longitude": "-90.01492253055115"
    }
  },
  {
    "service_request": "2025-1216005",
    "request_type": "Property Maintenance",
    "request_reason": "Property Maintenance",
    "date_created": "2025-08-06T14:49:54.000",
    "date_modified": "2025-08-06T14:49:55.000",
    "request_status": "Pending",
    "responsible_agency": "Department of Code Enforcement",
    "final_address": "4720 Lynhuber Dr",
    "address_councildis": "D",
    "status": "Pending",
    "rowid": "1216005",
    "final_x": "3697972.60215",
    "final_y": "554214.809432",
    "longitude": "-90.01523172782409",
    "latitude": "30.017387687257095",
    "geocoded_column": {
      "latitude": "30.017387687257095",
      "longitude": "-90.01523172782409"
    }
  },
  {
    "service_request": "2025-1216004",
    "request_type": "Trash/Recycling",
    "request_reason": "Order Second Trash Cart",
    "date_created": "2025-08-06T14:48:35.000",
    "date_modified": "2025-08-06T14:48:36.000",
    "request_status": "Pending",
    "responsible_agency": "Department of Sanitation",
    "final_address": "6204 Vermillion Blvd",
    "address_councildis": "D",
    "status": "Assigned to Contractor",
    "contractor": "IV Waste",
    "rowid": "1216004",
    "final_x": "3682971.40431",
    "final_y": "555775.786841",
    "longitude": "-90.06257475362337",
    "latitude": "30.022145759928886",
    "geocoded_column": {
      "latitude": "30.022145759928886",
      "longitude": "-90.06257475362337"
    }
  },
  {
    "service_request": "2025-1216003",
    "request_type": "Trash/Recycling",
    "request_reason": "Request a Large Item Pick Up",
    "date_created": "2025-08-06T14:46:48.000",
    "date_modified": "2025-08-06T14:46:49.000",
    "request_status": "Pending",
    "responsible_agency": "Department of Sanitation",
    "final_address": "1607 Jourdan Ave",
    "address_councildis": "E",
    "status": "Assigned to Contractor",
    "contractor": "Waste Pro",
    "rowid": "1216003",
    "final_x": "3695641.95491",
    "final_y": "536492.245255",
    "longitude": "-90.02323583458019",
    "latitude": "29.968730638632504",
    "geocoded_column": {
      "latitude": "29.968730638632504",
      "longitude": "-90.02323583458019"
    }
  },
  {
    "service_request": "2025-1216002",
    "request_type": "Trash/Recycling",
    "request_reason": "Request a Large Item Pick Up",
    "date_created": "2025-08-06T14:46:11.000",
    "date_modified": "2025-08-06T14:46:13.000",
    "request_status": "Pending",
    "responsible_agency": "Department of Sanitation",
    "final_address": "4726 Longfellow Dr",
    "address_councildis": "E",
    "status": "Assigned to Contractor",
    "contractor": "Waste Pro",
    "rowid": "1216002",
    "final_x": "3709563.08542",
    "final_y": "555730.877593",
    "longitude": "-89.97855415622827",
    "latitude": "30.021184584549083",
    "geocoded_column": {
      "latitude": "30.021184584549083",
      "longitude": "-89.97855415622827"
    }
  },
  {
    "service_request": "2025-1216001",
    "request_type": "Abandoned Vehicles",
    "request_reason": "Abandoned/Junk Vehicles",
    "date_created": "2025-08-06T14:44:31.000",
    "date_modified": "2025-08-06T14:44:33.000",
    "request_status": "Pending",
    "responsible_agency": "Department of Public Works",
    "final_address": "6821 Fleur-De-Lis Dr",
    "address_councildis": "A",
    "status": "Pending",
    "rowid": "1216001",
    "final_x": "3665562.34029",
    "final_y": "553532.689751",
    "longitude": "-90.11765846915905",
    "latitude": "30.0164974147729",
    "geocoded_column": {
      "latitude": "30.0164974147729",
      "longitude": "-90.11765846915905"
    }
  },
  {
    "service_request": "2025-1216000",
    "request_type": "Trash/Recycling",
    "request_reason": "Missed Trash Pick-Up",
    "date_created": "2025-08-06T14:42:58.000",
    "date_modified": "2025-08-06T15:54:17.000",
    "case_close_date": "2025-08-06T10:54:16.000",
    "request_status": "Closed",
    "responsible_agency": "Department of Sanitation",
    "final_address": "2615 Banks St A",
    "address_councildis": "B",
    "status": "Invalid Request",
    "contractor": "IV Waste",
    "contractor_action": "Invalid",
    "rowid": "1216000",
    "final_x": "3675000.0555",
    "final_y": "533933.390021",
    "longitude": "-90.0885120424763",
    "latitude": "29.962327450016055",
    "geocoded_column": {
      "latitude": "29.962327450016055",
      "longitude": "-90.0885120424763"
    }
  },
  {
    "service_request": "2025-1215999",
    "request_type": "General Services",
    "request_reason": "General Service Request",
    "date_created": "2025-08-06T14:41:01.000",
    "date_modified": "2025-08-06T15:01:40.000",
    "case_close_date": "2025-08-06T10:01:38.000",
    "request_status": "Closed",
    "responsible_agency": "Orleans Parish Communication District",
    "final_address": "4747 Downman Rd",
    "address_councildis": "D",
    "status": "Question Answered.",
    "rowid": "1215999",
    "final_x": "3696015.99146",
    "final_y": "554223.518808",
    "longitude": "-90.0214134866859",
    "latitude": "30.017473377253793",
    "geocoded_column": {
      "latitude": "30.017473377253793",
      "longitude": "-90.0214134866859"
    }
  },
  {
    "service_request": "2025-1215998",
    "request_type": "Mosquito, Termite & Rodent Control",
    "request_reason": "Non-Rodent Complaint (Possums & Snakes)",
    "date_created": "2025-08-06T14:40:30.000",
    "date_modified": "2025-08-06T14:40:32.000",
    "request_status": "Pending",
    "responsible_agency": "Mosquito, Termite & Rodent Control Board",
    "final_address": "2550 Dubreuil St",
    "address_councildis": "E",
    "status": "Pending",
    "rowid": "1215998",
    "final_x": "3702815.91966",
    "final_y": "538147.514633",
    "longitude": "-90.00051939513526",
    "latitude": "29.973054541567034",
    "geocoded_column": {
      "latitude": "29.973054541567034",
      "longitude": "-90.00051939513526"
    }
  },
  {
    "service_request": "2025-1215997",
    "request_type": "Property Maintenance",
    "request_reason": "Property Maintenance",
    "date_created": "2025-08-06T14:38:26.000",
    "date_modified": "2025-08-06T14:38:28.000",
    "request_status": "Pending",
    "responsible_agency": "Department of Code Enforcement",
    "final_address": "2550 Dubreuil St",
    "address_councildis": "E",
    "status": "Pending",
    "rowid": "1215997",
    "final_x": "3702815.91966",
    "final_y": "538147.514633",
    "longitude": "-90.00051939513526",
    "latitude": "29.973054541567034",
    "geocoded_column": {
      "latitude": "29.973054541567034",
      "longitude": "-90.00051939513526"
    }
  },
  {
    "service_request": "2025-1215996",
    "request_type": "Drainage",
    "request_reason": "Catch Basin Frame and Cover Missing or Damaged",
    "date_created": "2025-08-06T14:33:38.000",
    "date_modified": "2025-08-06T14:33:39.000",
    "request_status": "Pending",
    "responsible_agency": "Sewerage & Water Board",
    "final_address": "3518 General Meyer Ave",
    "address_councildis": "C",
    "status": "Pending",
    "rowid": "1215996",
    "final_x": "3697045.8392",
    "final_y": "525907.900285",
    "longitude": "-90.01918566686263",
    "latitude": "29.939583203833813",
    "geocoded_column": {
      "latitude": "29.939583203833813",
      "longitude": "-90.01918566686263"
    }
  },
  {
    "service_request": "2025-1215995",
    "request_type": "Trash/Recycling",
    "request_reason": "Request a Large Item Pick Up",
    "date_created": "2025-08-06T14:33:00.000",
    "date_modified": "2025-08-06T14:33:02.000",
    "request_status": "Pending",
    "responsible_agency": "Department of Sanitation",
    "final_address": "925 Louisa St",
    "address_councildis": "C",
    "status": "Assigned to Contractor",
    "contractor": "IV Waste",
    "rowid": "1215995",
    "final_x": "3689441.88508",
    "final_y": "535263.892742",
    "longitude": "-90.04285964650481",
    "latitude": "29.96554656194871",
    "geocoded_column": {
      "latitude": "29.96554656194871",
      "longitude": "-90.04285964650481"
    }
  },
  {
    "service_request": "2025-1215994",
    "request_type": "Roads and Streets",
    "request_reason": "Sidewalk Damaged or Missing",
    "date_created": "2025-08-06T14:30:15.000",
    "date_modified": "2025-08-06T14:30:17.000",
    "request_status": "Pending",
    "responsible_agency": "Department of Public Works",
    "final_address": "1532 Westbrook Dr",
    "address_councildis": "D",
    "status": "Pending",
    "rowid": "1215994",
    "final_x": "3679089.14831",
    "final_y": "549509.343123",
    "longitude": "-90.07505914631834",
    "latitude": "30.005033114550496",
    "geocoded_column": {
      "latitude": "30.005033114550496",
      "longitude": "-90.07505914631834"
    }
  },
  {
    "service_request": "2025-1215993",
    "request_type": "Trash/Recycling",
    "request_reason": "Request a Large Item Pick Up",
    "date_created": "2025-08-06T14:27:15.000",
    "date_modified": "2025-08-06T14:27:17.000",
    "request_status": "Pending",
    "responsible_agency": "Department of Sanitation",
    "final_address": "1316 Aline St",
    "address_councildis": "B",
    "status": "Assigned to Contractor",
    "contractor": "IV Waste",
    "rowid": "1215993",
    "final_x": "3674080.72328",
    "final_y": "520221.806136",
    "longitude": "-90.09188428698192",
    "latitude": "29.924652527983014",
    "geocoded_column": {
      "latitude": "29.924652527983014",
      "longitude": "-90.09188428698192"
    }
  },
  {
    "service_request": "2025-1215992",
    "request_type": "Abandoned Vehicles",
    "request_reason": "Abandoned/Junk Vehicles",
    "date_created": "2025-08-06T14:27:08.000",
    "date_modified": "2025-08-06T14:27:10.000",
    "request_status": "Pending",
    "responsible_agency": "Department of Public Works",
    "final_address": "4114 DHemecourt St",
    "address_councildis": "A",
    "status": "Pending",
    "rowid": "1215992",
    "final_x": "3669647.51188",
    "final_y": "536917.648904",
    "longitude": "-90.10531365564333",
    "latitude": "29.97069197123198",
    "geocoded_column": {
      "latitude": "29.97069197123198",
      "longitude": "-90.10531365564333"
    }
  },
  {
    "service_request": "2025-1215991",
    "request_type": "Trash/Recycling",
    "request_reason": "Missed Trash Pick-Up",
    "date_created": "2025-08-06T14:22:38.000",
    "date_modified": "2025-08-06T14:22:40.000",
    "request_status": "Pending",
    "responsible_agency": "Department of Sanitation",
    "final_address": "3539 Oliver St",
    "address_councildis": "C",
    "status": "Assigned to Contractor",
    "contractor": "Richards Disposal",
    "rowid": "1215991",
    "final_x": "3714218.19179",
    "final_y": "517655.62239",
    "longitude": "-89.96528186124544",
    "latitude": "29.916339679095497",
    "geocoded_column": {
      "latitude": "29.916339679095497",
      "longitude": "-89.96528186124544"
    }
  },
  {
    "service_request": "2025-1215990",
    "request_type": "Trash/Recycling",
    "request_reason": "Repair Recycling Cart",
    "date_created": "2025-08-06T14:21:12.000",
    "date_modified": "2025-08-06T14:21:14.000",
    "request_status": "Pending",
    "responsible_agency": "Department of Sanitation",
    "final_address": "1330 Eleonore St",
    "address_councildis": "A",
    "status": "Pending",
    "rowid": "1215990",
    "final_x": "3665600.14682",
    "final_y": "520985.288057",
    "longitude": "-90.11862917929152",
    "latitude": "29.927001784297744",
    "geocoded_column": {
      "latitude": "29.927001784297744",
      "longitude": "-90.11862917929152"
    }
  },
  {
    "service_request": "2025-1215989",
    "request_type": "Trash/Recycling",
    "request_reason": "Repair Trash Cart",
    "date_created": "2025-08-06T14:17:02.000",
    "date_modified": "2025-08-06T14:17:04.000",
    "request_status": "Pending",
    "responsible_agency": "Department of Sanitation",
    "final_address": "8422 Belfast St",
    "address_councildis": "A",
    "status": "Assigned to Contractor",
    "contractor": "IV Waste",
    "rowid": "1215989",
    "final_x": "3664633.29421",
    "final_y": "533183.422276",
    "longitude": "-90.12127397647504",
    "latitude": "29.960570886893738",
    "geocoded_column": {
      "latitude": "29.960570886893738",
      "longitude": "-90.12127397647504"
    }
  },
  {
    "service_request": "2025-1215988",
    "request_type": "Streetlights",
    "request_reason": "Streetlight Outage/Malfunction",
    "date_created": "2025-08-06T14:14:39.000",
    "date_modified": "2025-08-06T14:14:41.000",
    "request_status": "Pending",
    "responsible_agency": "Department of Public Works",
    "final_address": "1820 Old St Bernard St",
    "address_councildis": "D",
    "status": "Pending",
    "contractor": "Legacy Professional Services",
    "rowid": "1215988",
    "final_x": "3682440.24802",
    "final_y": "538874.628105",
    "longitude": "-90.06484426953992",
    "latitude": "29.975689799963757",
    "geocoded_column": {
      "latitude": "29.975689799963757",
      "longitude": "-90.06484426953992"
    }
  },
  {
    "service_request": "2025-1215987",
    "request_type": "Street and Traffic Signs",
    "request_reason": "One Way Sign Missing or Damaged",
    "date_created": "2025-08-06T14:12:02.000",
    "date_modified": "2025-08-06T14:12:04.000",
    "request_status": "Pending",
    "responsible_agency": "Department of Public Works",
    "final_address": "BERMUDA ST & VERRET ST & ELIZA ST",
    "address_councildis": "C",
    "status": "Pending",
    "rowid": "1215987",
    "final_x": "3686961.4",
    "final_y": "529891.28",
    "longitude": "-90.05088278826737",
    "latitude": "29.95085030989243",
    "geocoded_column": {
      "latitude": "29.95085030989243",
      "longitude": "-90.05088278826737"
    }
  },
  {
    "service_request": "2025-1215986",
    "request_type": "Roads and Streets",
    "request_reason": "ADA Ramps Damaged or Missing",
    "date_created": "2025-08-06T14:09:11.000",
    "date_modified": "2025-08-06T14:09:12.000",
    "request_status": "Pending",
    "responsible_agency": "Department of Public Works",
    "final_address": "1800 BLK Allen Toussaint Blvd",
    "address_councildis": "D",
    "status": "Pending",
    "rowid": "1215986",
    "final_x": "3680506.94604",
    "final_y": "555484.142428",
    "longitude": "-90.07037198024034",
    "latitude": "30.021418765243606",
    "geocoded_column": {
      "latitude": "30.021418765243606",
      "longitude": "-90.07037198024034"
    }
  },
  {
    "service_request": "2025-1215985",
    "request_type": "Trash/Recycling",
    "request_reason": "Start Trash Service",
    "date_created": "2025-08-06T14:08:12.000",
    "date_modified": "2025-08-06T14:08:14.000",
    "request_status": "Pending",
    "responsible_agency": "Department of Sanitation",
    "final_address": "0 BLK Interstate 10",
    "status": "Assigned to Contractor",
    "rowid": "1215985",
    "final_x": "3749078.15502",
    "final_y": "605653.561774",
    "longitude": "-89.85166076471643",
    "latitude": "30.157105189447982",
    "geocoded_column": {
      "latitude": "30.157105189447982",
      "longitude": "-89.85166076471643"
    }
  },
  {
    "service_request": "2025-1215984",
    "request_type": "Trash/Recycling",
    "request_reason": "Request a Large Item Pick Up",
    "date_created": "2025-08-06T14:06:10.000",
    "date_modified": "2025-08-06T14:06:12.000",
    "request_status": "Pending",
    "responsible_agency": "Department of Sanitation",
    "final_address": "2909 Broadway St",
    "address_councildis": "B",
    "status": "Assigned to Contractor",
    "contractor": "IV Waste",
    "rowid": "1215984",
    "final_x": "3667585.16647",
    "final_y": "531637.183299",
    "longitude": "-90.11200456438573",
    "latitude": "29.956233050617865",
    "geocoded_column": {
      "latitude": "29.956233050617865",
      "longitude": "-90.11200456438573"
    }
  },
  {
    "service_request": "2025-1215983",
    "request_type": "Roads and Streets",
    "request_reason": "Sidewalk Damaged or Missing",
    "date_created": "2025-08-06T14:03:44.000",
    "date_modified": "2025-08-06T14:03:46.000",
    "request_status": "Pending",
    "responsible_agency": "Department of Public Works",
    "final_address": "7230 Cove Dr",
    "address_councildis": "E",
    "status": "Pending",
    "rowid": "1215983",
    "final_x": "3700004.08714",
    "final_y": "559020.610972",
    "longitude": "-90.00863754536789",
    "latitude": "30.030537387819003",
    "geocoded_column": {
      "latitude": "30.030537387819003",
      "longitude": "-90.00863754536789"
    }
  },
  {
    "service_request": "2025-1215982",
    "request_type": "Trash/Recycling",
    "request_reason": "Request a Large Item Pick Up",
    "date_created": "2025-08-06T14:02:30.000",
    "date_modified": "2025-08-06T14:02:33.000",
    "request_status": "Pending",
    "responsible_agency": "Department of Sanitation",
    "final_address": "11021 Dreux Ave",
    "address_councildis": "E",
    "status": "Assigned to Contractor",
    "contractor": "Waste Pro",
    "rowid": "1215982",
    "final_x": "3716074.64063",
    "final_y": "556359.116954",
    "longitude": "-89.95795588000402",
    "latitude": "30.02269869503725",
    "geocoded_column": {
      "latitude": "30.02269869503725",
      "longitude": "-89.95795588000402"
    }
  },
  {
    "service_request": "2025-1215981",
    "request_type": "Trash/Recycling",
    "request_reason": "Request a Large Item Pick Up",
    "date_created": "2025-08-06T13:58:12.000",
    "date_modified": "2025-08-06T13:58:14.000",
    "request_status": "Pending",
    "responsible_agency": "Department of Sanitation",
    "final_address": "7941 Branch Dr",
    "address_councildis": "E",
    "status": "Assigned to Contractor",
    "contractor": "Waste Pro",
    "rowid": "1215981",
    "final_x": "3714031.92613",
    "final_y": "569705.206502",
    "longitude": "-89.96390632142929",
    "latitude": "30.059462317730844",
    "geocoded_column": {
      "latitude": "30.059462317730844",
      "longitude": "-89.96390632142929"
    }
  },
  {
    "service_request": "2025-1215980",
    "request_type": "Street and Traffic Signs",
    "request_reason": "Street Name Sign Damaged or Missing",
    "date_created": "2025-08-06T13:55:16.000",
    "date_modified": "2025-08-06T13:55:17.000",
    "request_status": "Pending",
    "responsible_agency": "Department of Public Works",
    "final_address": "FORSTALL ST & N ROCHEBLAVE ST",
    "address_councildis": "E",
    "status": "Pending",
    "rowid": "1215980",
    "final_x": "3697621.0",
    "final_y": "539067.18",
    "longitude": "-90.01689250472718",
    "latitude": "29.975748417852774",
    "geocoded_column": {
      "latitude": "29.975748417852774",
      "longitude": "-90.01689250472718"
    }
  },
  {
    "service_request": "2025-1215979",
    "request_type": "Roads and Streets",
    "request_reason": "Pothole",
    "date_created": "2025-08-06T13:54:54.000",
    "date_modified": "2025-08-06T13:55:11.000",
    "request_status": "Pending",
    "responsible_agency": "Department of Public Works",
    "final_address": "4847 Kendall Dr",
    "address_councildis": "D",
    "status": "Pending",
    "rowid": "1215979",
    "final_x": "3690420.66147",
    "final_y": "551178.533077",
    "longitude": "-90.03920110331505",
    "latitude": "30.009275757506767",
    "geocoded_column": {
      "latitude": "30.009275757506767",
      "longitude": "-90.03920110331505"
    }
  },
  {
    "service_request": "2025-1215978",
    "request_type": "Roads and Streets",
    "request_reason": "Pothole",
    "date_created": "2025-08-06T13:54:06.000",
    "date_modified": "2025-08-06T13:54:08.000",
    "request_status": "Pending",
    "responsible_agency": "Department of Public Works",
    "final_address": "1441 Forstall St",
    "address_councildis": "E",
    "status": "Pending",
    "rowid": "1215978",
    "final_x": "3696734.79824",
    "final_y": "535617.164934",
    "longitude": "-90.01981626941004",
    "latitude": "29.966290077665665",
    "geocoded_column": {
      "latitude": "29.966290077665665",
      "longitude": "-90.01981626941004"
    }
  },
  {
    "service_request": "2025-1215977",
    "request_type": "General Services",
    "request_reason": "General Service Request",
    "date_created": "2025-08-06T13:53:53.000",
    "date_modified": "2025-08-06T14:07:29.000",
    "case_close_date": "2025-08-06T09:07:29.000",
    "request_status": "Closed",
    "responsible_agency": "Orleans Parish Communication District",
    "final_address": "4540 Duplessis St",
    "address_councildis": "D",
    "status": "Additional information requested from citizen",
    "rowid": "1215977",
    "final_x": "3678120.98421",
    "final_y": "549318.668051",
    "longitude": "-90.07812437798188",
    "latitude": "30.004538023691975",
    "geocoded_column": {
      "latitude": "30.004538023691975",
      "longitude": "-90.07812437798188"
    }
  },
  {
    "service_request": "2025-1215976",
    "request_type": "Trash/Recycling",
    "request_reason": "Return Recycling Cart",
    "date_created": "2025-08-06T13:52:47.000",
    "date_modified": "2025-08-06T13:52:48.000",
    "request_status": "Pending",
    "responsible_agency": "Department of Sanitation",
    "final_address": "616 Verret St",
    "address_councildis": "C",
    "status": "Pending",
    "rowid": "1215976",
    "final_x": "3687094.58786",
    "final_y": "529337.062273",
    "longitude": "-90.05048184137003",
    "latitude": "29.949322301030413",
    "geocoded_column": {
      "latitude": "29.949322301030413",
      "longitude": "-90.05048184137003"
    }
  },
  {
    "service_request": "2025-1215975",
    "request_type": "Parks & Parkways",
    "request_reason": "Request Tree Service (Right of Way/Public Property)",
    "date_created": "2025-08-06T13:51:57.000",
    "date_modified": "2025-08-06T13:51:59.000",
    "request_status": "Pending",
    "responsible_agency": "Department of Parks & Parkway",
    "final_address": "5401 Berkley Dr",
    "address_councildis": "C",
    "status": "Pending",
    "rowid": "1215975",
    "final_x": "3703907.24663",
    "final_y": "518094.586806",
    "longitude": "-89.99781094420956",
    "latitude": "29.917881152515232",
    "geocoded_column": {
      "latitude": "29.917881152515232",
      "longitude": "-89.99781094420956"
    }
  },
  {
    "service_request": "2025-1215974",
    "request_type": "Property Maintenance",
    "request_reason": "Property Maintenance",
    "date_created": "2025-08-06T13:50:11.000",
    "date_modified": "2025-08-06T13:50:13.000",
    "request_status": "Pending",
    "responsible_agency": "Department of Code Enforcement",
    "final_address": "1131 Ninth St",
    "address_councildis": "B",
    "status": "Pending",
    "rowid": "1215974",
    "final_x": "3675745.47016",
    "final_y": "520282.000376",
    "longitude": "-90.08662716707913",
    "latitude": "29.92476834314144",
    "geocoded_column": {
      "latitude": "29.92476834314144",
      "longitude": "-90.08662716707913"
    }
  },
  {
    "service_request": "2025-1215973",
    "request_type": "Parks & Parkways",
    "request_reason": "Request Tree Service (Right of Way/Public Property)",
    "date_created": "2025-08-06T13:48:14.000",
    "date_modified": "2025-08-06T14:10:41.000",
    "request_status": "Pending",
    "responsible_agency": "Department of Parks & Parkway",
    "final_address": "1532 Westbrook Dr",
    "address_councildis": "D",
    "status": "Pending",
    "rowid": "1215973",
    "final_x": "3679089.14831",
    "final_y": "549509.343123",
    "longitude": "-90.07505914631834",
    "latitude": "30.005033114550496",
    "geocoded_column": {
      "latitude": "30.005033114550496",
      "longitude": "-90.07505914631834"
    }
  },
  {
    "service_request": "2025-1215972",
    "request_type": "Healthy Homes",
    "request_reason": "Healthy Homes",
    "date_created": "2025-08-06T13:48:13.000",
    "date_modified": "2025-08-06T13:48:59.000",
    "request_status": "Pending",
    "responsible_agency": "Department of Code Enforcement",
    "final_address": "1937 St Ann St Apt 217",
    "address_councildis": "D",
    "status": "Pending",
    "rowid": "1215972",
    "final_x": "3679208.3101",
    "final_y": "535547.416646",
    "longitude": "-90.0751670150951",
    "latitude": "29.966639094153184",
    "geocoded_column": {
      "latitude": "29.966639094153184",
      "longitude": "-90.0751670150951"
    }
  },
  {
    "service_request": "2025-1215971",
    "request_type": "Trash/Recycling",
    "request_reason": "Repair Recycling Cart",
    "date_created": "2025-08-06T13:47:37.000",
    "date_modified": "2025-08-06T13:47:38.000",
    "request_status": "Pending",
    "responsible_agency": "Department of Sanitation",
    "final_address": "464 Pine St",
    "address_councildis": "A",
    "status": "Pending",
    "rowid": "1215971",
    "final_x": "3662259.04045",
    "final_y": "524263.752636",
    "longitude": "-90.12906746175246",
    "latitude": "29.93611349903106",
    "geocoded_column": {
      "latitude": "29.93611349903106",
      "longitude": "-90.12906746175246"
    }
  },
  {
    "service_request": "2025-1215970",
    "request_type": "Trash/Recycling",
    "request_reason": "Illegal Dumping",
    "date_created": "2025-08-06T13:46:59.000",
    "date_modified": "2025-08-06T13:47:01.000",
    "request_status": "Pending",
    "responsible_agency": "Department of Sanitation",
    "final_address": "0 BLK Interstate 10",
    "status": "Pending",
    "rowid": "1215970",
    "final_x": "3749078.15502",
    "final_y": "605653.561774",
    "longitude": "-89.85166076471643",
    "latitude": "30.157105189447982",
    "geocoded_column": {
      "latitude": "30.157105189447982",
      "longitude": "-89.85166076471643"
    }
  },