[
  {
    "service_request": "2025-1184364",
    "request_type": "Trash/Recycling",
    "request_reason": "Request a Large Item Pick Up",
    "date_created": "2025-04-15T23:34:07.000",
    "date_modified": "2025-04-15T23:34:17.000",
    "request_status": "Pending",
    "responsible_agency": "Department of Sanitation",
    "final_address": "3141 State Street Dr",
    "address_councildis": "A",
    "status": "Assigned to Contractor",
    "contractor": "IV Waste",
    "rowid": "1184364",
    "final_x": "3667542.60212",
    "final_y": "527798.648063",
    "longitude": "-90.11226813424194",
    "latitude": "29.945679577033133",
    "geocoded_column": {
      "latitude": "29.945679577033133",
      "longitude": "-90.11226813424194"
    }
  },
  {
    "service_request": "2025-1184363",
    "request_type": "Streetlights",
    "request_reason": "Streetlight Outage/Malfunction",
    "date_created": "2025-04-15T23:32:34.000",
    "date_modified": "2025-04-15T23:32:36.000",
    "request_status": "Pending",
    "responsible_agency": "Department of Public Works",
    "final_address": "S BROAD ST OVERPASS & I 10 E",
    "address_councildis": "B",
    "status": "Pending",
    "contractor": "Legacy Professional Services",
    "rowid": "1184363",
    "final_x": "3673189.7",
    "final_y": "532221.58",
    "longitude": "-90.09428734858501",
    "latitude": "29.95767449859642",
    "geocoded_column": {
      "latitude": "29.95767449859642",
      "longitude": "-90.09428734858501"
    }
  },
  {
    "service_request": "2025-1184362",
    "request_type": "Health Related Request",
    "request_reason": "Noise Ordinance Complaint",
    "date_created": "2025-04-15T23:15:18.000",
    "date_modified": "2025-04-15T23:15:20.000",
    "request_status": "Pending",
    "responsible_agency": "Health Department",
    "final_address": "1119 N Galvez",
    "address_councildis": "D",
    "status": "Pending",
    "rowid": "1184362",
    "final_x": "3679353.71426",
    "final_y": "537054.64724",
    "longitude": "-90.07465554437381",
    "latitude": "29.97077907131919",
    "geocoded_column": {
      "latitude": "29.97077907131919",
      "longitude": "-90.07465554437381"
    }
  },
  {
    "service_request": "2025-1184361",
    "request_type": "Streetlights",
    "request_reason": "Streetlight Outage/Malfunction",
    "date_created": "2025-04-15T22:31:55.000",
    "date_modified": "2025-04-15T22:31:57.000",
    "request_status": "Pending",
    "responsible_agency": "Department of Public Works",
    "final_address": "5030 Warren Dr",
    "address_councildis": "E",
    "status": "Pending",
    "contractor": "Legacy Professional Services",
    "rowid": "1184361",
    "final_x": "3713250.76875",
    "final_y": "557644.020507",
    "longitude": "-89.96683014478842",
    "latitude": "30.02632456974141",
    "geocoded_column": {
      "latitude": "30.02632456974141",
      "longitude": "-89.96683014478842"
    }
  },
  {
    "service_request": "2025-1184360",
    "request_type": "Streetlights",
    "request_reason": "Streetlight Knocked Down/Leaning",
    "date_created": "2025-04-15T22:23:23.000",
    "date_modified": "2025-04-15T22:23:25.000",
    "request_status": "Pending",
    "responsible_agency": "Department of Public Works",
    "final_address": "5921 N Claiborne Ave",
    "address_councildis": "E",
    "status": "Pending",
    "contractor": "Legacy Professional Services",
    "rowid": "1184360",
    "final_x": "3699666.02397",
    "final_y": "535379.545222",
    "longitude": "-90.010568234228",
    "latitude": "29.9655439901868",
    "geocoded_column": {
      "latitude": "29.9655439901868",
      "longitude": "-90.010568234228"
    }
  },
  {
    "service_request": "2025-1184359",
    "request_type": "Streetlights",
    "request_reason": "Streetlight Knocked Down/Leaning",
    "date_created": "2025-04-15T22:04:39.000",
    "date_modified": "2025-04-15T22:04:40.000",
    "request_status": "Pending",
    "responsible_agency": "Department of Public Works",
    "final_address": "5921 N Claiborne Ave",
    "address_councildis": "E",
    "status": "Pending",
    "contractor": "Legacy Professional Services",
    "rowid": "1184359",
    "final_x": "3699666.02397",
    "final_y": "535379.545222",
    "longitude": "-90.010568234228",
    "latitude": "29.9655439901868",
    "geocoded_column": {
      "latitude": "29.9655439901868",
      "longitude": "-90.010568234228"
    }
  },
  {
    "service_request": "2025-1184358",
    "request_type": "Mosquito, Termite & Rodent Control",
    "request_reason": "Non-Rodent Complaint (Possums & Snakes)",
    "date_created": "2025-04-15T21:30:18.000",
    "date_modified": "2025-04-15T21:30:20.000",
    "request_status": "Pending",
    "responsible_agency": "Mosquito, Termite & Rodent Control Board",
    "final_address": "ORLEANS AVE & IDA ST",
    "address_councildis": "A",
    "status": "Pending",
    "rowid": "1184358",
    "final_x": "3673074.7",
    "final_y": "539921.38",
    "longitude": "-90.0943875922172",
    "latitude": "29.97884977196507",
    "geocoded_column": {
      "latitude": "29.97884977196507",
      "longitude": "-90.0943875922172"
    }
  },
  {
    "service_request": "2025-1184357",
    "request_type": "Streetlights",
    "request_reason": "Streetlight Outage/Malfunction",
    "date_created": "2025-04-15T20:53:50.000",
    "date_modified": "2025-04-15T20:53:52.000",
    "request_status": "Pending",
    "responsible_agency": "Department of Public Works",
    "final_address": "1000 BLK Baronne St",
    "address_councildis": "B",
    "status": "Pending",
    "contractor": "Legacy Professional Services",
    "rowid": "1184357",
    "final_x": "3679291.28508",
    "final_y": "527389.623158",
    "longitude": "-90.07518785308791",
    "latitude": "29.944205407645363",
    "geocoded_column": {
      "latitude": "29.944205407645363",
      "longitude": "-90.07518785308791"
    }
  },
  {
    "service_request": "2025-1184356",
    "request_type": "General Services",
    "request_reason": "General Service Request",
    "date_created": "2025-04-15T20:27:29.000",
    "date_modified": "2025-04-15T20:27:30.000",
    "request_status": "Pending",
    "responsible_agency": "Orleans Parish Communication District",
    "final_address": "1617 Marigny St",
    "address_councildis": "D",
    "status": "Pending",
    "rowid": "1184356",
    "final_x": "3685297.43791",
    "final_y": "538338.806985",
    "longitude": "-90.05583935054742",
    "latitude": "29.974129197949896",
    "geocoded_column": {
      "latitude": "29.974129197949896",
      "longitude": "-90.05583935054742"
    }
  },
  {
    "service_request": "2025-1184355",
    "request_type": "Trash/Recycling",
    "request_reason": "Request a Large Item Pick Up",
    "date_created": "2025-04-15T20:22:55.000",
    "date_modified": "2025-04-15T20:22:56.000",
    "request_status": "Pending",
    "responsible_agency": "Department of Sanitation",
    "final_address": "4013 Lennox Blvd",
    "address_councildis": "C",
    "status": "Assigned to Contractor",
    "contractor": "Richards Disposal",
    "rowid": "1184355",
    "final_x": "3700721.20106",
    "final_y": "515977.5733",
    "longitude": "-90.00794476433357",
    "latitude": "29.912161810227953",
    "geocoded_column": {
      "latitude": "29.912161810227953",
      "longitude": "-90.00794476433357"
    }
  },
  {
    "service_request": "2025-1184354",
    "request_type": "Trash/Recycling",
    "request_reason": "Request a Large Item Pick Up",
    "date_created": "2025-04-15T19:52:58.000",
    "date_modified": "2025-04-15T19:53:00.000",
    "request_status": "Pending",
    "responsible_agency": "Department of Sanitation",
    "final_address": "5413 Burgundy St",
    "address_councildis": "E",
    "status": "Assigned to Contractor",
    "contractor": "Waste Pro",
    "rowid": "1184354",
    "final_x": "3697069.76682",
    "final_y": "533200.837316",
    "longitude": "-90.0188459887216",
    "latitude": "29.95963547257295",
    "geocoded_column": {
      "latitude": "29.95963547257295",
      "longitude": "-90.0188459887216"
    }
  },
  {
    "service_request": "2025-1184353",
    "request_type": "Trash/Recycling",
    "request_reason": "Order Recycling Cart",
    "date_created": "2025-04-15T19:45:37.000",
    "date_modified": "2025-04-15T19:45:39.000",
    "request_status": "Pending",
    "responsible_agency": "Department of Sanitation",
    "final_address": "4700 BLK Pontchartrain Blvd",
    "address_councildis": "A",
    "status": "Pending",
    "rowid": "1184353",
    "final_x": "3667585.42956",
    "final_y": "538481.744018",
    "longitude": "-90.11177332298855",
    "latitude": "29.97505331534786",
    "geocoded_column": {
      "latitude": "29.97505331534786",
      "longitude": "-90.11177332298855"
    }
  },
  {
    "service_request": "2025-1184352",
    "request_type": "Trash/Recycling",
    "request_reason": "Order Trash Cart",
    "date_created": "2025-04-15T19:42:40.000",
    "date_modified": "2025-04-15T19:42:41.000",
    "request_status": "Pending",
    "responsible_agency": "Department of Sanitation",
    "final_address": "4700 BLK Pontchartrain Blvd",
    "address_councildis": "A",
    "status": "Assigned to Contractor",
    "contractor": "IV Waste",
    "rowid": "1184352",
    "final_x": "3667585.42956",
    "final_y": "538481.744018",
    "longitude": "-90.11177332298855",
    "latitude": "29.97505331534786",
    "geocoded_column": {
      "latitude": "29.97505331534786",
      "longitude": "-90.11177332298855"
    }
  },
  {
    "service_request": "2025-1184351",
    "request_type": "Trash/Recycling",
    "request_reason": "Damaged Caused By Contractor",
    "date_created": "2025-04-15T19:40:55.000",
    "date_modified": "2025-04-15T19:40:56.000",
    "request_status": "Pending",
    "responsible_agency": "Department of Sanitation",
    "final_address": "505 S Murat St",
    "address_councildis": "A",
    "status": "Assigned to Contractor",
    "contractor": "IV Waste",
    "rowid": "1184351",
    "final_x": "3668640.56596",
    "final_y": "538101.018249",
    "longitude": "-90.10845377234203",
    "latitude": "29.973975475328388",
    "geocoded_column": {
      "latitude": "29.973975475328388",
      "longitude": "-90.10845377234203"
    }
  },
  {
    "service_request": "2025-1184349",
    "request_type": "Trash/Recycling",
    "request_reason": "Return Recycling Cart",
    "date_created": "2025-04-15T19:07:43.000",
    "date_modified": "2025-04-15T19:07:44.000",
    "request_status": "Pending",
    "responsible_agency": "Department of Sanitation",
    "final_address": "4032 Laurel St",
    "address_councildis": "B",
    "status": "Pending",
    "rowid": "1184349",
    "final_x": "3672328.18811",
    "final_y": "518131.478262",
    "longitude": "-90.09748763136216",
    "latitude": "29.918956886886953",
    "geocoded_column": {
      "latitude": "29.918956886886953",
      "longitude": "-90.09748763136216"
    }
  },
  {
    "service_request": "2025-1184350",
    "request_type": "Trash/Recycling",
    "request_reason": "Return Recycling Cart",
    "date_created": "2025-04-15T19:07:43.000",
    "date_modified": "2025-04-15T19:07:44.000",
    "request_status": "Pending",
    "responsible_agency": "Department of Sanitation",
    "final_address": "4032 Laurel St",
    "address_councildis": "B",
    "status": "Pending",
    "rowid": "1184350",
    "final_x": "3672328.18811",
    "final_y": "518131.478262",
    "longitude": "-90.09748763136216",
    "latitude": "29.918956886886953",
    "geocoded_column": {
      "latitude": "29.918956886886953",
      "longitude": "-90.09748763136216"
    }
  },
  {
    "service_request": "2025-1184348",
    "request_type": "Trash/Recycling",
    "request_reason": "Missed Trash Pick-Up",
    "date_created": "2025-04-15T18:56:46.000",
    "date_modified": "2025-04-15T18:56:51.000",
    "request_status": "Pending",
    "responsible_agency": "Department of Sanitation",
    "final_address": "917 S Carrollton Ave",
    "address_councildis": "A",
    "status": "Assigned to Contractor",
    "contractor": "IV Waste",
    "rowid": "1184348",
    "final_x": "3661480.68326",
    "final_y": "527593.346111",
    "longitude": "-90.13141450825945",
    "latitude": "29.945291295623804",
    "geocoded_column": {
      "latitude": "29.945291295623804",
      "longitude": "-90.13141450825945"
    }
  },
  {
    "service_request": "2025-1184347",
    "request_type": "Trash/Recycling",
    "request_reason": "MIssed Recycling Pick-Up",
    "date_created": "2025-04-15T18:56:06.000",
    "date_modified": "2025-04-15T18:56:08.000",
    "request_status": "Pending",
    "responsible_agency": "Department of Sanitation",
    "final_address": "917 S Carrollton Ave",
    "address_councildis": "A",
    "status": "Assigned to Contractor",
    "contractor": "IV Waste",
    "rowid": "1184347",
    "final_x": "3661480.68326",
    "final_y": "527593.346111",
    "longitude": "-90.13141450825945",
    "latitude": "29.945291295623804",
    "geocoded_column": {
      "latitude": "29.945291295623804",
      "longitude": "-90.13141450825945"
    }
  },
  {
    "service_request": "2025-1184346",
    "request_type": "Property Maintenance",
    "request_reason": "Property Maintenance",
    "date_created": "2025-04-15T18:50:52.000",
    "date_modified": "2025-04-15T18:50:54.000",
    "request_status": "Pending",
    "responsible_agency": "Department of Code Enforcement",
    "final_address": "1467 Senate St",
    "address_councildis": "D",
    "status": "Pending",
    "rowid": "1184346",
    "final_x": "3678664.48622",
    "final_y": "547362.049553",
    "longitude": "-90.07647515255229",
    "latitude": "29.999141636182273",
    "geocoded_column": {
      "latitude": "29.999141636182273",
      "longitude": "-90.07647515255229"
    }
  },
  {
    "service_request": "2025-1184345",
    "request_type": "Trash/Recycling",
    "request_reason": "Order Recycling Cart",
    "date_created": "2025-04-15T18:34:57.000",
    "date_modified": "2025-04-15T18:35:00.000",
    "request_status": "Pending",
    "responsible_agency": "Department of Sanitation",
    "final_address": "1733 Abundance St",
    "address_councildis": "D",
    "status": "Pending",
    "rowid": "1184345",
    "final_x": "3680926.40245",
    "final_y": "543417.379854",
    "longitude": "-90.06946716267693",
    "latitude": "29.988226775807398",
    "geocoded_column": {
      "latitude": "29.988226775807398",
      "longitude": "-90.06946716267693"
    }
  },
  {
    "service_request": "2025-1184344",
    "request_type": "Trash/Recycling",
    "request_reason": "Order Second Trash Cart",
    "date_created": "2025-04-15T18:33:03.000",
    "date_modified": "2025-04-15T18:33:06.000",
    "request_status": "Pending",
    "responsible_agency": "Department of Sanitation",
    "final_address": "1733 Abundance St",
    "address_councildis": "D",
    "status": "Assigned to Contractor",
    "contractor": "IV Waste",
    "rowid": "1184344",
    "final_x": "3680926.40245",
    "final_y": "543417.379854",
    "longitude": "-90.06946716267693",
    "latitude": "29.988226775807398",
    "geocoded_column": {
      "latitude": "29.988226775807398",
      "longitude": "-90.06946716267693"
    }
  },
  {
    "service_request": "2025-1184343",
    "request_type": "Abandoned Vehicles",
    "request_reason": "Abandoned/Junk Vehicles",
    "date_created": "2025-04-15T18:32:08.000",
    "date_modified": "2025-04-15T18:32:10.000",
    "request_status": "Pending",
    "responsible_agency": "Department of Public Works",
    "final_address": "2823 General Ogden St",
    "address_councildis": "A",
    "status": "Pending",
    "rowid": "1184343",
    "final_x": "3663897.13594",
    "final_y": "534652.156998",
    "longitude": "-90.12354965998614",
    "latitude": "29.964630817627857",
    "geocoded_column": {
      "latitude": "29.964630817627857",
      "longitude": "-90.12354965998614"
    }
  },
  {
    "service_request": "2025-1184342",
    "request_type": "Streetlights",
    "request_reason": "Streetlight Outage/Malfunction",
    "date_created": "2025-04-15T18:31:14.000",
    "date_modified": "2025-04-15T18:31:16.000",
    "request_status": "Pending",
    "responsible_agency": "Department of Public Works",
    "final_address": "6959 Canal Blvd",
    "address_councildis": "A",
    "status": "Pending",
    "contractor": "Legacy Professional Services",
    "rowid": "1184342",
    "final_x": "3669231.66388",
    "final_y": "553772.636311",
    "longitude": "-90.1060568251218",
    "latitude": "30.017049630181123",
    "geocoded_column": {
      "latitude": "30.017049630181123",
      "longitude": "-90.1060568251218"
    }
  },
  {
    "service_request": "2025-1184341",
    "request_type": "Trash/Recycling",
    "request_reason": "Repair Recycling Cart",
    "date_created": "2025-04-15T18:28:46.000",
    "date_modified": "2025-04-15T18:28:48.000",
    "request_status": "Pending",
    "responsible_agency": "Department of Sanitation",
    "final_address": "6959 Canal Blvd",
    "address_councildis": "A",
    "status": "Pending",
    "rowid": "1184341",
    "final_x": "3669231.66388",
    "final_y": "553772.636311",
    "longitude": "-90.1060568251218",
    "latitude": "30.017049630181123",
    "geocoded_column": {
      "latitude": "30.017049630181123",
      "longitude": "-90.1060568251218"
    }
  },
  {
    "service_request": "2025-1184340",
    "request_type": "Trash/Recycling",
    "request_reason": "Order Second Trash Cart",
    "date_created": "2025-04-15T18:26:23.000",
    "date_modified": "2025-04-15T18:26:25.000",
    "request_status": "Pending",
    "responsible_agency": "Department of Sanitation",
    "final_address": "6959 Canal Blvd",
    "address_councildis": "A",
    "status": "Assigned to Contractor",
    "contractor": "IV Waste",
    "rowid": "1184340",
    "final_x": "3669231.66388",
    "final_y": "553772.636311",
    "longitude": "-90.1060568251218",
    "latitude": "30.017049630181123",
    "geocoded_column": {
      "latitude": "30.017049630181123",
      "longitude": "-90.1060568251218"
    }
  },
  {
    "service_request": "2025-1184339",
    "request_type": "Roads and Streets",
    "request_reason": "Sidewalk Damaged or Missing",
    "date_created": "2025-04-15T18:24:49.000",
    "date_modified": "2025-04-15T18:24:50.000",
    "request_status": "Pending",
    "responsible_agency": "Department of Public Works",
    "final_address": "6337 Congress Dr",
    "address_councildis": "D",
    "status": "Pending",
    "rowid": "1184339",
    "final_x": "3690626.14992",
    "final_y": "556825.164698",
    "longitude": "-90.03835028093454",
    "latitude": "30.024795510896514",
    "geocoded_column": {
      "latitude": "30.024795510896514",
      "longitude": "-90.03835028093454"
    }
  },
  {
    "service_request": "2025-1184338",
    "request_type": "Trash/Recycling",
    "request_reason": "Order Recycling Cart",
    "date_created": "2025-04-15T18:18:36.000",
    "date_modified": "2025-04-15T18:18:37.000",
    "request_status": "Pending",
    "responsible_agency": "Department of Sanitation",
    "final_address": "2714 Dryades St",
    "address_councildis": "B",
    "status": "Pending",
    "rowid": "1184338",
    "final_x": "3675496.28347",
    "final_y": "523516.312315",
    "longitude": "-90.087302743938",
    "latitude": "29.933669104638085",
    "geocoded_column": {
      "latitude": "29.933669104638085",
      "longitude": "-90.087302743938"
    }
  },
  {
    "service_request": "2025-1184337",
    "request_type": "Abandoned Vehicles",
    "request_reason": "Abandoned/Junk Vehicles",
    "date_created": "2025-04-15T18:04:41.000",
    "date_modified": "2025-04-15T18:04:42.000",
    "request_status": "Pending",
    "responsible_agency": "Department of Public Works",
    "final_address": "7301 West End Blvd A",
    "address_councildis": "D",
    "status": "Pending",
    "rowid": "1184337",
    "final_x": "3667086.86535",
    "final_y": "555596.152153",
    "longitude": "-90.11277215807408",
    "latitude": "30.022126645304215",
    "geocoded_column": {
      "latitude": "30.022126645304215",
      "longitude": "-90.11277215807408"
    }
  },
  {
    "service_request": "2025-1184336",
    "request_type": "Safety & Permits",
    "request_reason": "Zoning Enforcement",
    "date_created": "2025-04-15T17:51:27.000",
    "date_modified": "2025-04-15T17:51:29.000",
    "request_status": "Pending",
    "responsible_agency": "Safety and Permits",
    "final_address": "1605 Nie Prkwy",
    "address_councildis": "C",
    "status": "Pending",
    "rowid": "1184336",
    "final_x": "3701248.53143",
    "final_y": "525129.564093",
    "longitude": "-90.00594575114143",
    "latitude": "29.93730984838662",
    "geocoded_column": {
      "latitude": "29.93730984838662",
      "longitude": "-90.00594575114143"
    }
  },
  {
    "service_request": "2025-1184335",
    "request_type": "Safety & Permits",
    "request_reason": "Construction permit",
    "date_created": "2025-04-15T17:49:41.000",
    "date_modified": "2025-04-15T17:49:43.000",
    "request_status": "Pending",
    "responsible_agency": "Safety and Permits",
    "final_address": "3910 Bienville Ave",
    "address_councildis": "A",
    "status": "Pending",
    "rowid": "1184335",
    "final_x": "3672068.32283",
    "final_y": "538388.010761",
    "longitude": "-90.09761834783289",
    "latitude": "29.97466340933185",
    "geocoded_column": {
      "latitude": "29.97466340933185",
      "longitude": "-90.09761834783289"
    }
  },
  {
    "service_request": "2025-1184334",
    "request_type": "Safety & Permits",
    "request_reason": "Zoning Enforcement",
    "date_created": "2025-04-15T17:49:07.000",
    "date_modified": "2025-04-15T17:49:10.000",
    "request_status": "Pending",
    "responsible_agency": "Safety and Permits",
    "final_address": "1633 Rivertree Ct",
    "address_councildis": "C",
    "status": "Pending",
    "rowid": "1184334",
    "final_x": "3701438.9514",
    "final_y": "524729.020732",
    "longitude": "-90.00535924254439",
    "latitude": "29.936202427129846",
    "geocoded_column": {
      "latitude": "29.936202427129846",
      "longitude": "-90.00535924254439"
    }
  },
  {
    "service_request": "2025-1184333",
    "request_type": "Safety & Permits",
    "request_reason": "Zoning Enforcement",
    "date_created": "2025-04-15T17:43:51.000",
    "date_modified": "2025-04-15T17:43:53.000",
    "request_status": "Pending",
    "responsible_agency": "Safety and Permits",
    "final_address": "4727 Patterson St",
    "address_councildis": "C",
    "status": "Pending",
    "rowid": "1184333",
    "final_x": "3701523.31722",
    "final_y": "524830.398844",
    "longitude": "-90.00508918899084",
    "latitude": "29.936478492771695",
    "geocoded_column": {
      "latitude": "29.936478492771695",
      "longitude": "-90.00508918899084"
    }
  },
  {
    "service_request": "2025-1184332",
    "request_type": "Streetlights",
    "request_reason": "Streetlight Outage/Malfunction",
    "date_created": "2025-04-15T17:29:44.000",
    "date_modified": "2025-04-15T17:29:46.000",
    "request_status": "Pending",
    "responsible_agency": "Department of Public Works",
    "final_address": "1 Allen Toussaint Blvd",
    "address_councildis": "D",
    "status": "Pending",
    "contractor": "Legacy Professional Services",
    "rowid": "1184332",
    "final_x": "3676990.37691",
    "final_y": "555052.272153",
    "longitude": "-90.0814982949586",
    "latitude": "30.020337385797948",
    "geocoded_column": {
      "latitude": "30.020337385797948",
      "longitude": "-90.0814982949586"
    }
  },
  {
    "service_request": "2025-1184331",
    "request_type": "Abandoned Vehicles",
    "request_reason": "Abandoned/Junk Vehicles",
    "date_created": "2025-04-15T17:25:00.000",
    "date_modified": "2025-04-15T17:25:01.000",
    "request_status": "Pending",
    "responsible_agency": "Department of Public Works",
    "final_address": "4319 Baudin St",
    "address_councildis": "A",
    "status": "Pending",
    "rowid": "1184331",
    "final_x": "3669196.84807",
    "final_y": "537808.436808",
    "longitude": "-90.1067067950383",
    "latitude": "29.973154611993422",
    "geocoded_column": {
      "latitude": "29.973154611993422",
      "longitude": "-90.1067067950383"
    }
  },
  {
    "service_request": "2025-1184330",
    "request_type": "Abandoned Vehicles",
    "request_reason": "Abandoned/Junk Vehicles",
    "date_created": "2025-04-15T17:24:12.000",
    "date_modified": "2025-04-15T17:24:14.000",
    "request_status": "Pending",
    "responsible_agency": "Department of Public Works",
    "final_address": "4319 Baudin St",
    "address_councildis": "A",
    "status": "Pending",
    "rowid": "1184330",
    "final_x": "3669196.84807",
    "final_y": "537808.436808",
    "longitude": "-90.1067067950383",
    "latitude": "29.973154611993422",
    "geocoded_column": {
      "latitude": "29.973154611993422",
      "longitude": "-90.1067067950383"
    }
  },
  {
    "service_request": "2025-1184329",
    "request_type": "Abandoned Vehicles",
    "request_reason": "Abandoned/Junk Vehicles",
    "date_created": "2025-04-15T17:23:27.000",
    "date_modified": "2025-04-15T17:23:28.000",
    "request_status": "Pending",
    "responsible_agency": "Department of Public Works",
    "final_address": "4319 Baudin St",
    "address_councildis": "A",
    "status": "Pending",
    "rowid": "1184329",
    "final_x": "3669196.84807",
    "final_y": "537808.436808",
    "longitude": "-90.1067067950383",
    "latitude": "29.973154611993422",
    "geocoded_column": {
      "latitude": "29.973154611993422",
      "longitude": "-90.1067067950383"
    }
  },
  {
    "service_request": "2025-1184328",
    "request_type": "Trash/Recycling",
    "request_reason": "Request a Large Item Pick Up",
    "date_created": "2025-04-15T17:22:02.000",
    "date_modified": "2025-04-15T17:22:05.000",
    "request_status": "Pending",
    "responsible_agency": "Department of Sanitation",
    "final_address": "1 Allen Toussaint Blvd",
    "address_councildis": "D",
    "status": "Assigned to Contractor",
    "contractor": "IV Waste",
    "rowid": "1184328",
    "final_x": "3676990.37691",
    "final_y": "555052.272153",
    "longitude": "-90.0814982949586",
    "latitude": "30.020337385797948",
    "geocoded_column": {
      "latitude": "30.020337385797948",
      "longitude": "-90.0814982949586"
    }
  },
  {
    "service_request": "2025-1184327",
    "request_type": "Street and Traffic Signs",
    "request_reason": "Request for Stop Sign",
    "date_created": "2025-04-15T17:04:23.000",
    "date_modified": "2025-04-15T17:04:25.000",
    "request_status": "Pending",
    "responsible_agency": "Department of Public Works",
    "final_address": "300 Block of Basin St, New Orleans, Louisiana, 70112",
    "status": "Pending",
    "rowid": "1184327",
    "longitude": "0.0",
    "latitude": "0.0",
    "geocoded_column": {
      "latitude": "0.0",
      "longitude": "0.0"
    }
  },
  {
    "service_request": "2025-1184326",
    "request_type": "Trash/Recycling",
    "request_reason": "Request a Large Item Pick Up",
    "date_created": "2025-04-15T17:03:07.000",
    "date_modified": "2025-04-15T17:03:13.000",
    "request_status": "Pending",
    "responsible_agency": "Department of Sanitation",
    "final_address": "6318 Carlson Dr 70122",
    "status": "Assigned to Contractor",
    "rowid": "1184326",
    "longitude": "0.0",
    "latitude": "0.0",
    "geocoded_column": {
      "latitude": "0.0",
      "longitude": "0.0"
    }
  },
  {
    "service_request": "2025-1184325",
    "request_type": "Abandoned Vehicles",
    "request_reason": "Abandoned/Junk Vehicles",
    "date_created": "2025-04-15T17:00:07.000",
    "date_modified": "2025-04-15T17:00:10.000",
    "request_status": "Pending",
    "responsible_agency": "Department of Public Works",
    "final_address": "1800 BLK Laurel St",
    "address_councildis": "B",
    "status": "Pending",
    "rowid": "1184325",
    "final_x": "3680389.77534",
    "final_y": "522387.751928",
    "longitude": "-90.07189346542846",
    "latitude": "29.930418708065815",
    "geocoded_column": {
      "latitude": "29.930418708065815",
      "longitude": "-90.07189346542846"
    }
  },
  {
    "service_request": "2025-1184324",
    "request_type": "Property Maintenance",
    "request_reason": "Property Maintenance",
    "date_created": "2025-04-15T16:59:55.000",
    "date_modified": "2025-04-15T16:59:58.000",
    "request_status": "Pending",
    "responsible_agency": "Department of Code Enforcement",
    "final_address": "PAUGER ST & N MIRO ST",
    "address_councildis": "D",
    "status": "Pending",
    "rowid": "1184324",
    "final_x": "3683547.7",
    "final_y": "540267.78",
    "longitude": "-90.06129778642872",
    "latitude": "29.97948672381614",
    "geocoded_column": {
      "latitude": "29.97948672381614",
      "longitude": "-90.06129778642872"
    }
  },
  {
    "service_request": "2025-1184323",
    "request_type": "Safety & Permits",
    "request_reason": "Zoning Enforcement",
    "date_created": "2025-04-15T16:55:05.000",
    "date_modified": "2025-04-15T16:55:07.000",
    "request_status": "Pending",
    "responsible_agency": "Safety and Permits",
    "final_address": "4515 Patterson St",
    "address_councildis": "C",
    "status": "Pending",
    "rowid": "1184323",
    "final_x": "3700556.39927",
    "final_y": "525565.839613",
    "longitude": "-90.00811491291468",
    "latitude": "29.938531482375186",
    "geocoded_column": {
      "latitude": "29.938531482375186",
      "longitude": "-90.00811491291468"
    }
  },
  {
    "service_request": "2025-1184322",
    "request_type": "Trash/Recycling",
    "request_reason": "Return Trash Cart",
    "date_created": "2025-04-15T16:52:32.000",
    "date_modified": "2025-04-15T16:52:35.000",
    "request_status": "Pending",
    "responsible_agency": "Department of Sanitation",
    "final_address": "124 N Bernadotte St",
    "address_councildis": "A",
    "status": "Assigned to Contractor",
    "contractor": "IV Waste",
    "rowid": "1184322",
    "final_x": "3669035.493",
    "final_y": "540278.703371",
    "longitude": "-90.10713290054521",
    "latitude": "29.97995176092481",
    "geocoded_column": {
      "latitude": "29.97995176092481",
      "longitude": "-90.10713290054521"
    }
  },
  {
    "service_request": "2025-1184321",
    "request_type": "Street and Traffic Signs",
    "request_reason": "Additional Signage Request",
    "date_created": "2025-04-15T16:51:40.000",
    "date_modified": "2025-04-15T16:51:42.000",
    "request_status": "Pending",
    "responsible_agency": "Department of Public Works",
    "final_address": "850 Taft Pl",
    "address_councildis": "A",
    "status": "Pending",
    "rowid": "1184321",
    "final_x": "3673853.56398",
    "final_y": "539764.44161",
    "longitude": "-90.09193301068724",
    "latitude": "29.97839506581151",
    "geocoded_column": {
      "latitude": "29.97839506581151",
      "longitude": "-90.09193301068724"
    }
  },
  {
    "service_request": "2025-1184320",
    "request_type": "Trash/Recycling",
    "request_reason": "Request a Large Item Pick Up",
    "date_created": "2025-04-15T16:51:02.000",
    "date_modified": "2025-04-15T16:51:04.000",
    "request_status": "Pending",
    "responsible_agency": "Department of Sanitation",
    "final_address": "5221 Cannes St",
    "address_councildis": "E",
    "status": "Assigned to Contractor",
    "contractor": "Waste Pro",
    "rowid": "1184320",
    "final_x": "3726759.38329",
    "final_y": "563116.857888",
    "longitude": "-89.92393244849977",
    "latitude": "30.040922735787824",
    "geocoded_column": {
      "latitude": "30.040922735787824",
      "longitude": "-89.92393244849977"
    }
  },
  {
    "service_request": "2025-1184319",
    "request_type": "Streetlights",
    "request_reason": "Streetlight Outage/Malfunction",
    "date_created": "2025-04-15T16:49:19.000",
    "date_modified": "2025-04-15T16:49:20.000",
    "request_status": "Pending",
    "responsible_agency": "Department of Public Works",
    "final_address": "209 Fairfax Pl",
    "address_councildis": "C",
    "status": "Pending",
    "contractor": "Legacy Professional Services",
    "rowid": "1184319",
    "final_x": "3706368.12996",
    "final_y": "517361.187701",
    "longitude": "-89.99007049231997",
    "latitude": "29.91578546203886",
    "geocoded_column": {
      "latitude": "29.91578546203886",
      "longitude": "-89.99007049231997"
    }
  },
  {
    "service_request": "2025-1184318",
    "request_type": "Trash/Recycling",
    "request_reason": "Request a Large Item Pick Up",
    "date_created": "2025-04-15T16:49:00.000",
    "date_modified": "2025-04-15T16:49:03.000",
    "request_status": "Pending",
    "responsible_agency": "Department of Sanitation",
    "final_address": "11130 N Idlewood Ct",
    "address_councildis": "E",
    "status": "Assigned to Contractor",
    "contractor": "Waste Pro",
    "rowid": "1184318",
    "final_x": "3716039.81464",
    "final_y": "560093.223261",
    "longitude": "-89.95792429316029",
    "latitude": "30.032967146083504",
    "geocoded_column": {
      "latitude": "30.032967146083504",
      "longitude": "-89.95792429316029"
    }
  },
  {
    "service_request": "2025-1184317",
    "request_type": "Trash/Recycling",
    "request_reason": "Request a Large Item Pick Up",
    "date_created": "2025-04-15T16:35:19.000",
    "date_modified": "2025-04-15T16:35:21.000",
    "request_status": "Pending",
    "responsible_agency": "Department of Sanitation",
    "final_address": "5946 Laurel St",
    "address_councildis": "A",
    "status": "Assigned to Contractor",
    "contractor": "IV Waste",
    "rowid": "1184317",
    "final_x": "3664600.57082",
    "final_y": "518061.238454",
    "longitude": "-90.12188218321586",
    "latitude": "29.918990662923353",
    "geocoded_column": {
      "latitude": "29.918990662923353",
      "longitude": "-90.12188218321586"
    }
  },
  {
    "service_request": "2025-1184316",
    "request_type": "Trash/Recycling",
    "request_reason": "Request a Large Item Pick Up",
    "date_created": "2025-04-15T16:34:29.000",
    "date_modified": "2025-04-15T16:34:31.000",
    "request_status": "Pending",
    "responsible_agency": "Department of Sanitation",
    "final_address": "5410 Chamberlain Dr",
    "address_councildis": "D",
    "status": "Assigned to Contractor",
    "contractor": "IV Waste",
    "rowid": "1184316",
    "final_x": "3679380.44648",
    "final_y": "552365.53039",
    "longitude": "-90.07403970770059",
    "latitude": "30.01287780534851",
    "geocoded_column": {
      "latitude": "30.01287780534851",
      "longitude": "-90.07403970770059"
    }
  },
  {
    "service_request": "2025-1184315",
    "request_type": "Trash/Recycling",
    "request_reason": "Return Trash Cart",
    "date_created": "2025-04-15T16:33:08.000",
    "date_modified": "2025-04-15T16:33:10.000",
    "request_status": "Pending",
    "responsible_agency": "Department of Sanitation",
    "final_address": "1410 Prytania St",
    "address_councildis": "B",
    "status": "Assigned to Contractor",
    "contractor": "IV Waste",
    "rowid": "1184315",
    "final_x": "3679795.89186",
    "final_y": "525412.587389",
    "longitude": "-90.073663288667",
    "latitude": "29.93875397182861",
    "geocoded_column": {
      "latitude": "29.93875397182861",
      "longitude": "-90.073663288667"
    }
  },
  {
    "service_request": "2025-1184314",
    "request_type": "Trash/Recycling",
    "request_reason": "Repair Trash Cart",
    "date_created": "2025-04-15T16:32:27.000",
    "date_modified": "2025-04-15T16:32:29.000",
    "request_status": "Pending",
    "responsible_agency": "Department of Sanitation",
    "final_address": "819 Verret St",
    "address_councildis": "C",
    "status": "Assigned to Contractor",
    "contractor": "Richards Disposal",
    "rowid": "1184314",
    "final_x": "3687077.07644",
    "final_y": "528546.7776",
    "longitude": "-90.05056506721004",
    "latitude": "29.947149826750845",
    "geocoded_column": {
      "latitude": "29.947149826750845",
      "longitude": "-90.05056506721004"
    }
  },
  {
    "service_request": "2025-1184313",
    "request_type": "Trash/Recycling",
    "request_reason": "Request a Large Item Pick Up",
    "date_created": "2025-04-15T16:31:17.000",
    "date_modified": "2025-04-15T16:32:06.000",
    "request_status": "Pending",
    "responsible_agency": "Department of Sanitation",
    "final_address": "7150 Salem Dr",
    "address_councildis": "E",
    "status": "Assigned to Contractor",
    "contractor": "Waste Pro",
    "rowid": "1184313",
    "final_x": "3706342.37815",
    "final_y": "561334.250526",
    "longitude": "-89.98852280748055",
    "latitude": "30.0366959814863",
    "geocoded_column": {
      "latitude": "30.0366959814863",
      "longitude": "-89.98852280748055"
    }
  },
  {
    "service_request": "2025-1184312",
    "request_type": "Trash/Recycling",
    "request_reason": "Request a Large Item Pick Up",
    "date_created": "2025-04-15T16:26:39.000",
    "date_modified": "2025-04-15T16:26:41.000",
    "request_status": "Pending",
    "responsible_agency": "Department of Sanitation",
    "final_address": "8830 Green St",
    "address_councildis": "A",
    "status": "Assigned to Contractor",
    "contractor": "IV Waste",
    "rowid": "1184312",
    "final_x": "3661145.95661",
    "final_y": "531437.108931",
    "longitude": "-90.13234415106363",
    "latitude": "29.95587006109095",
    "geocoded_column": {
      "latitude": "29.95587006109095",
      "longitude": "-90.13234415106363"
    }
  },
  {
    "service_request": "2025-1184311",
    "request_type": "Trash/Recycling",
    "request_reason": "Order Trash Cart",
    "date_created": "2025-04-15T16:20:48.000",
    "date_modified": "2025-04-15T16:20:51.000",
    "request_status": "Pending",
    "responsible_agency": "Department of Sanitation",
    "final_address": "1701 Mandeville St",
    "address_councildis": "D",
    "status": "Assigned to Contractor",
    "contractor": "IV Waste",
    "rowid": "1184311",
    "final_x": "3685625.50921",
    "final_y": "538608.128649",
    "longitude": "-90.05479373724658",
    "latitude": "29.974859676899317",
    "geocoded_column": {
      "latitude": "29.974859676899317",
      "longitude": "-90.05479373724658"
    }
  },
  {
    "service_request": "2025-1184310",
    "request_type": "Trash/Recycling",
    "request_reason": "Return Trash Cart",
    "date_created": "2025-04-15T16:17:42.000",
    "date_modified": "2025-04-15T16:17:44.000",
    "request_status": "Pending",
    "responsible_agency": "Department of Sanitation",
    "final_address": "2130 Palmer Ave",
    "address_councildis": "A",
    "status": "Assigned to Contractor",
    "contractor": "IV Waste",
    "rowid": "1184310",
    "final_x": "3665966.79015",
    "final_y": "524929.1015",
    "longitude": "-90.11733965938863",
    "latitude": "29.93783532573808",
    "geocoded_column": {
      "latitude": "29.93783532573808",
      "longitude": "-90.11733965938863"
    }
  },
  {
    "service_request": "2025-1184309",
    "request_type": "Trash/Recycling",
    "request_reason": "Request a Large Item Pick Up",
    "date_created": "2025-04-15T16:12:11.000",
    "date_modified": "2025-04-15T16:12:13.000",
    "request_status": "Pending",
    "responsible_agency": "Department of Sanitation",
    "final_address": "5411 Edenboro Rd",
    "address_councildis": "E",
    "status": "Assigned to Contractor",
    "contractor": "Waste Pro",
    "rowid": "1184309",
    "final_x": "3708380.44875",
    "final_y": "557795.508443",
    "longitude": "-89.98221399886887",
    "latitude": "30.02689990750971",
    "geocoded_column": {
      "latitude": "30.02689990750971",
      "longitude": "-89.98221399886887"
    }
  },
  {
    "service_request": "2025-1184308",
    "request_type": "Abandoned Vehicles",
    "request_reason": "Abandoned/Junk Vehicles",
    "date_created": "2025-04-15T16:11:24.000",
    "date_modified": "2025-04-15T16:11:26.000",
    "request_status": "Pending",
    "responsible_agency": "Department of Public Works",
    "final_address": "2827 Soniat St",
    "address_councildis": "B",
    "status": "Pending",
    "rowid": "1184308",
    "final_x": "3668615.63201",
    "final_y": "525876.133757",
    "longitude": "-90.10894507594898",
    "latitude": "29.940361799725117",
    "geocoded_column": {
      "latitude": "29.940361799725117",
      "longitude": "-90.10894507594898"
    }
  },
  {
    "service_request": "2025-1184307",
    "request_type": "Trash/Recycling",
    "request_reason": "Return Trash Cart",
    "date_created": "2025-04-15T16:07:11.000",
    "date_modified": "2025-04-15T16:07:12.000",
    "request_status": "Pending",
    "responsible_agency": "Department of Sanitation",
    "final_address": "2218 Delachaise St",
    "address_councildis": "B",
    "status": "Assigned to Contractor",
    "contractor": "IV Waste",
    "rowid": "1184307",
    "final_x": "3672886.83643",
    "final_y": "523486.012091",
    "longitude": "-90.09554168524927",
    "latitude": "29.933663555944676",
    "geocoded_column": {
      "latitude": "29.933663555944676",
      "longitude": "-90.09554168524927"
    }
  },
  {
    "service_request": "2025-1184306",
    "request_type": "Abandoned Vehicles",
    "request_reason": "Abandoned/Junk Vehicles",
    "date_created": "2025-04-15T16:07:03.000",
    "date_modified": "2025-04-15T16:10:00.000",
    "request_status": "Pending",
    "responsible_agency": "Department of Public Works",
    "final_address": "10200 Almonaster Ave",
    "address_councildis": "E",
    "status": "Inspected",
    "rowid": "1184306",
    "final_x": "3713684.56383",
    "final_y": "551626.395989",
    "longitude": "-89.96568637555853",
    "latitude": "30.00976423388402",
    "geocoded_column": {
      "latitude": "30.00976423388402",
      "longitude": "-89.96568637555853"
    }
  },
  {
    "service_request": "2025-1184305",
    "request_type": "Trash/Recycling",
    "request_reason": "Request a Large Item Pick Up",
    "date_created": "2025-04-15T16:06:18.000",
    "date_modified": "2025-04-15T16:57:40.000",
    "request_status": "Pending",
    "responsible_agency": "Department of Sanitation",
    "final_address": "171 Alix St",
    "address_councildis": "C",
    "status": "Assigned to Contractor",
    "contractor": "Richards Disposal",
    "rowid": "1184305",
    "final_x": "3686112.19894",
    "final_y": "529697.200961",
    "longitude": "-90.0535709732054",
    "latitude": "29.95034276544561",
    "geocoded_column": {
      "latitude": "29.95034276544561",
      "longitude": "-90.0535709732054"
    }
  },
  {
    "service_request": "2025-1184304",
    "request_type": "Traffic Signals",
    "request_reason": "Traffic Signal Malfunctioning or Damaged",
    "date_created": "2025-04-15T16:00:51.000",
    "date_modified": "2025-04-15T16:00:53.000",
    "request_status": "Pending",
    "responsible_agency": "Department of Public Works",
    "final_address": "6245 Waldo Dr",
    "address_councildis": "D",
    "status": "Pending",
    "rowid": "1184304",
    "final_x": "3681113.64136",
    "final_y": "556153.910682",
    "longitude": "-90.06843162784753",
    "latitude": "30.023241981653275",
    "geocoded_column": {
      "latitude": "30.023241981653275",
      "longitude": "-90.06843162784753"
    }
  },
  {
    "service_request": "2025-1184303",
    "request_type": "Trash/Recycling",
    "request_reason": "Return Trash Cart",
    "date_created": "2025-04-15T15:54:45.000",
    "date_modified": "2025-04-15T15:54:47.000",
    "request_status": "Pending",
    "responsible_agency": "Department of Sanitation",
    "final_address": "1621 Short St",
    "address_councildis": "A",
    "status": "Assigned to Contractor",
    "contractor": "IV Waste",
    "rowid": "1184303",
    "final_x": "3663399.10176",
    "final_y": "529219.417344",
    "longitude": "-90.12530329768987",
    "latitude": "29.94970699790668",
    "geocoded_column": {
      "latitude": "29.94970699790668",
      "longitude": "-90.12530329768987"
    }
  },
  {
    "service_request": "2025-1184302",
    "request_type": "Trash/Recycling",
    "request_reason": "Return Recycling Cart",
    "date_created": "2025-04-15T15:53:15.000",
    "date_modified": "2025-04-15T15:53:18.000",
    "request_status": "Pending",
    "responsible_agency": "Department of Sanitation",
    "final_address": "1621 Short St",
    "address_councildis": "A",
    "status": "Pending",
    "rowid": "1184302",
    "final_x": "3663399.10176",
    "final_y": "529219.417344",
    "longitude": "-90.12530329768987",
    "latitude": "29.94970699790668",
    "geocoded_column": {
      "latitude": "29.94970699790668",
      "longitude": "-90.12530329768987"
    }
  },
  {
    "service_request": "2025-1184301",
    "request_type": "Trash/Recycling",
    "request_reason": "Request a Large Item Pick Up",
    "date_created": "2025-04-15T15:52:55.000",
    "date_modified": "2025-04-15T15:52:56.000",
    "request_status": "Pending",
    "responsible_agency": "Department of Sanitation",
    "final_address": "5320 Bundy Rd",
    "address_councildis": "E",
    "status": "Assigned to Contractor",
    "contractor": "Waste Pro",
    "rowid": "1184301",
    "final_x": "3708577.13022",
    "final_y": "557690.348699",
    "longitude": "-89.98159643069414",
    "latitude": "30.026604381113792",
    "geocoded_column": {
      "latitude": "30.026604381113792",
      "longitude": "-89.98159643069414"
    }
  },
  {
    "service_request": "2025-1184300",
    "request_type": "Trash/Recycling",
    "request_reason": "Repair Trash Cart",
    "date_created": "2025-04-15T15:51:43.000",
    "date_modified": "2025-04-15T15:51:45.000",
    "request_status": "Pending",
    "responsible_agency": "Department of Sanitation",
    "final_address": "3609 Lancaster St",
    "address_councildis": "C",
    "status": "Assigned to Contractor",
    "contractor": "Richards Disposal",
    "rowid": "1184300",
    "final_x": "3709785.33445",
    "final_y": "517498.810038",
    "longitude": "-89.9792794533133",
    "latitude": "29.916053282247624",
    "geocoded_column": {
      "latitude": "29.916053282247624",
      "longitude": "-89.9792794533133"
    }
  },
  {
    "service_request": "2025-1184299",
    "request_type": "Trash/Recycling",
    "request_reason": "MIssed Recycling Pick-Up",
    "date_created": "2025-04-15T15:49:10.000",
    "date_modified": "2025-04-15T15:49:12.000",
    "request_status": "Pending",
    "responsible_agency": "Department of Sanitation",
    "final_address": "7500 Farwood Dr",
    "address_councildis": "E",
    "status": "Assigned to Contractor",
    "contractor": "Waste Pro",
    "rowid": "1184299",
    "final_x": "3701847.65137",
    "final_y": "556874.381274",
    "longitude": "-90.002890641224",
    "latitude": "30.024577352957053",
    "geocoded_column": {
      "latitude": "30.024577352957053",
      "longitude": "-90.002890641224"
    }
  },
  {
    "service_request": "2025-1184298",
    "request_type": "Abandoned Vehicles",
    "request_reason": "Abandoned/Junk Vehicles",
    "date_created": "2025-04-15T15:37:00.000",
    "date_modified": "2025-04-15T15:37:01.000",
    "request_status": "Pending",
    "responsible_agency": "Department of Public Works",
    "final_address": "4200 BLK Mendez St",
    "address_councildis": "D",
    "status": "Pending",
    "rowid": "1184298",
    "final_x": "3689559.3049",
    "final_y": "553887.735516",
    "longitude": "-90.04182594101236",
    "latitude": "30.016751784797496",
    "geocoded_column": {
      "latitude": "30.016751784797496",
      "longitude": "-90.04182594101236"
    }
  },
  {
    "service_request": "2025-1184297",
    "request_type": "Trash/Recycling",
    "request_reason": "Order Trash Cart",
    "date_created": "2025-04-15T15:36:07.000",
    "date_modified": "2025-04-15T15:36:10.000",
    "request_status": "Pending",
    "responsible_agency": "Department of Sanitation",
    "final_address": "1839 Touro St",
    "address_councildis": "D",
    "status": "Assigned to Contractor",
    "contractor": "IV Waste",
    "rowid": "1184297",
    "final_x": "3684030.2237",
    "final_y": "539156.346314",
    "longitude": "-90.05981280124965",
    "latitude": "29.976415932442034",
    "geocoded_column": {
      "latitude": "29.976415932442034",
      "longitude": "-90.05981280124965"
    }
  },
  {
    "service_request": "2025-1184296",
    "request_type": "Street and Traffic Signs",
    "request_reason": "Traffic or Parking Sign Damaged or Missing",
    "date_created": "2025-04-15T15:35:45.000",
    "date_modified": "2025-04-15T15:35:47.000",
    "request_status": "Pending",
    "responsible_agency": "Department of Public Works",
    "final_address": "1817 OReilly St",
    "address_councildis": "D",
    "status": "Pending",
    "rowid": "1184296",
    "final_x": "3682427.56079",
    "final_y": "539490.47713",
    "longitude": "-90.06486280748776",
    "latitude": "29.977383556589565",
    "geocoded_column": {
      "latitude": "29.977383556589565",
      "longitude": "-90.06486280748776"
    }
  },
  {
    "service_request": "2025-1184295",
    "request_type": "Trash/Recycling",
    "request_reason": "Illegal Dumping",
    "date_created": "2025-04-15T15:35:17.000",
    "date_modified": "2025-04-15T15:35:19.000",
    "request_status": "Pending",
    "responsible_agency": "Department of Sanitation",
    "final_address": "2416 St Roch Ave",
    "address_councildis": "D",
    "status": "Pending",
    "rowid": "1184295",
    "final_x": "3686026.55734",
    "final_y": "541386.17198",
    "longitude": "-90.05342912565351",
    "latitude": "29.98248600757832",
    "geocoded_column": {
      "latitude": "29.98248600757832",
      "longitude": "-90.05342912565351"
    }
  },
  {
    "service_request": "2025-1184294",
    "request_type": "Trash/Recycling",
    "request_reason": "Order Trash Cart",
    "date_created": "2025-04-15T15:33:42.000",
    "date_modified": "2025-04-15T15:33:49.000",
    "request_status": "Pending",
    "responsible_agency": "Department of Sanitation",
    "final_address": "10132 Lincoln Beach Blvd",
    "address_councildis": "E",
    "status": "Assigned to Contractor",
    "contractor": "Waste Pro",
    "rowid": "1184294",
    "final_x": "3707960.37867",
    "final_y": "565978.790563",
    "longitude": "-89.9832366891367",
    "latitude": "30.04941430103959",
    "geocoded_column": {
      "latitude": "30.04941430103959",
      "longitude": "-89.9832366891367"
    }
  },
  {
    "service_request": "2025-1184293",
    "request_type": "Streetlights",
    "request_reason": "Streetlight Outage/Malfunction",
    "date_created": "2025-04-15T15:32:19.000",
    "date_modified": "2025-04-15T15:33:04.000",
    "request_status": "Pending",
    "responsible_agency": "Department of Public Works",
    "final_address": "2416 St Roch Ave",
    "address_councildis": "D",
    "status": "Pending",
    "contractor": "Legacy Professional Services",
    "rowid": "1184293",
    "final_x": "3686026.55734",
    "final_y": "541386.17198",
    "longitude": "-90.05342912565351",
    "latitude": "29.98248600757832",
    "geocoded_column": {
      "latitude": "29.98248600757832",
      "longitude": "-90.05342912565351"
    }
  },
  {
    "service_request": "2025-1184292",
    "request_type": "Trash/Recycling",
    "request_reason": "Replace Trash Cart",
    "date_created": "2025-04-15T15:27:15.000",
    "date_modified": "2025-04-15T15:27:17.000",
    "request_status": "Pending",
    "responsible_agency": "Department of Sanitation",
    "final_address": "1122 Joliet St",
    "address_councildis": "A",
    "status": "Assigned to Contractor",
    "contractor": "IV Waste",
    "rowid": "1184292",
    "final_x": "3660762.37062",
    "final_y": "529242.997057",
    "longitude": "-90.1336279280939",
    "latitude": "29.949848007533173",
    "geocoded_column": {
      "latitude": "29.949848007533173",
      "longitude": "-90.1336279280939"
    }
  },
  {
    "service_request": "2025-1184291",
    "request_type": "Trash/Recycling",
    "request_reason": "Request a Large Item Pick Up",
    "date_created": "2025-04-15T15:26:51.000",
    "date_modified": "2025-04-15T15:26:52.000",
    "request_status": "Pending",
    "responsible_agency": "Department of Sanitation",
    "final_address": "7310 Farwood Dr",
    "address_councildis": "E",
    "status": "Assigned to Contractor",
    "contractor": "Waste Pro",
    "rowid": "1184291",
    "final_x": "3701365.37873",
    "final_y": "556770.233306",
    "longitude": "-90.00441834562048",
    "latitude": "30.024306374367207",
    "geocoded_column": {
      "latitude": "30.024306374367207",
      "longitude": "-90.00441834562048"
    }
  },
  {
    "service_request": "2025-1184290",
    "request_type": "Abandoned Vehicles",
    "request_reason": "Abandoned/Junk Vehicles",
    "date_created": "2025-04-15T15:25:17.000",
    "date_modified": "2025-04-15T15:26:36.000",
    "request_status": "Pending",
    "responsible_agency": "Department of Public Works",
    "final_address": "1817 Erato St",
    "address_councildis": "B",
    "status": "Pending",
    "rowid": "1184290",
    "final_x": "3678639.5037",
    "final_y": "526645.61011",
    "longitude": "-90.07727146174206",
    "latitude": "29.94217928107349",
    "geocoded_column": {
      "latitude": "29.94217928107349",
      "longitude": "-90.07727146174206"
    }
  },
  {
    "service_request": "2025-1184289",
    "request_type": "Roads and Streets",
    "request_reason": "Pothole",
    "date_created": "2025-04-15T15:20:11.000",
    "date_modified": "2025-04-15T15:20:12.000",
    "request_status": "Pending",
    "responsible_agency": "Department of Public Works",
    "final_address": "1022 Euterpe St",
    "address_councildis": "B",
    "status": "Pending",
    "rowid": "1184289",
    "final_x": "3680456.88277",
    "final_y": "524129.475516",
    "longitude": "-90.07162107396468",
    "latitude": "29.93520584206468",
    "geocoded_column": {
      "latitude": "29.93520584206468",
      "longitude": "-90.07162107396468"
    }
  },
  {
    "service_request": "2025-1184288",
    "request_type": "Traffic Safety",
    "request_reason": "Request for Traffic Calming due to Speeding",
    "date_created": "2025-04-15T15:19:14.000",
    "date_modified": "2025-04-15T15:19:17.000",
    "request_status": "Pending",
    "responsible_agency": "Department of Public Works",
    "final_address": "2714 N Johnson St",
    "address_councildis": "D",
    "status": "Pending",
    "rowid": "1184288",
    "final_x": "3688412.06492",
    "final_y": "539696.93633",
    "longitude": "-90.04595448002428",
    "latitude": "29.977767725358387",
    "geocoded_column": {
      "latitude": "29.977767725358387",
      "longitude": "-90.04595448002428"
    }
  },
  {
    "service_request": "2025-1184287",
    "request_type": "Trash/Recycling",
    "request_reason": "Request a Large Item Pick Up",
    "date_created": "2025-04-15T15:18:03.000",
    "date_modified": "2025-04-15T15:18:51.000",
    "request_status": "Pending",
    "responsible_agency": "Department of Sanitation",
    "final_address": "4421 Annunciation St",
    "address_councildis": "B",
    "status": "Assigned to Contractor",
    "contractor": "IV Waste",
    "rowid": "1184287",
    "final_x": "3670911.35598",
    "final_y": "517763.807734",
    "longitude": "-90.10197232235059",
    "latitude": "29.917987851846906",
    "geocoded_column": {
      "latitude": "29.917987851846906",
      "longitude": "-90.10197232235059"
    }
  },
  {
    "service_request": "2025-1184286",
    "request_type": "Trash/Recycling",
    "request_reason": "Repair Recycling Cart",
    "date_created": "2025-04-15T15:16:32.000",
    "date_modified": "2025-04-15T15:16:34.000",
    "request_status": "Pending",
    "responsible_agency": "Department of Sanitation",
    "final_address": "618 Fern St",
    "address_councildis": "A",
    "status": "Pending",
    "rowid": "1184286",
    "final_x": "3661252.12806",
    "final_y": "526496.547134",
    "longitude": "-90.13217243469491",
    "latitude": "29.94228203748276",
    "geocoded_column": {
      "latitude": "29.94228203748276",
      "longitude": "-90.13217243469491"
    }
  },
  {
    "service_request": "2025-1184285",
    "request_type": "Roads and Streets",
    "request_reason": "Street Subsidence (Sinking)",
    "date_created": "2025-04-15T15:16:01.000",
    "date_modified": "2025-04-15T15:16:03.000",
    "request_status": "Pending",
    "responsible_agency": "Department of Public Works",
    "final_address": "2023 Seventh St",
    "address_councildis": "B",
    "status": "Pending",
    "rowid": "1184285",
    "final_x": "3674372.88475",
    "final_y": "523467.645243",
    "longitude": "-90.09085092802387",
    "latitude": "29.933568828928177",
    "geocoded_column": {
      "latitude": "29.933568828928177",
      "longitude": "-90.09085092802387"
    }
  },
  {
    "service_request": "2025-1184284",
    "request_type": "Trash/Recycling",
    "request_reason": "Request a Large Item Pick Up",
    "date_created": "2025-04-15T15:15:15.000",
    "date_modified": "2025-04-15T15:15:18.000",
    "request_status": "Pending",
    "responsible_agency": "Department of Sanitation",
    "final_address": "4936 Robin Hood Dr",
    "address_councildis": "E",
    "status": "Assigned to Contractor",
    "contractor": "Waste Pro",
    "rowid": "1184284",
    "final_x": "3717324.09682",
    "final_y": "557902.183963",
    "longitude": "-89.9539492417141",
    "latitude": "30.02690021693735",
    "geocoded_column": {
      "latitude": "30.02690021693735",
      "longitude": "-89.9539492417141"
    }
  },
  {
    "service_request": "2025-1184283",
    "request_type": "Abandoned Vehicles",
    "request_reason": "Abandoned/Junk Vehicles",
    "date_created": "2025-04-15T15:11:00.000",
    "date_modified": "2025-04-15T15:11:02.000",
    "request_status": "Pending",
    "responsible_agency": "Department of Public Works",
    "final_address": "12331 Carmel Pl",
    "address_councildis": "E",
    "status": "Pending",
    "rowid": "1184283",
    "final_x": "3715867.09471",
    "final_y": "566640.215459",
    "longitude": "-89.95822181096241",
    "latitude": "30.0509744198138",
    "geocoded_column": {
      "latitude": "30.0509744198138",
      "longitude": "-89.95822181096241"
    }
  },
  {
    "service_request": "2025-1184282",
    "request_type": "Trash/Recycling",
    "request_reason": "Order Trash Cart",
    "date_created": "2025-04-15T15:09:05.000",
    "date_modified": "2025-04-15T15:09:07.000",
    "request_status": "Pending",
    "responsible_agency": "Department of Sanitation",
    "final_address": "2828 Orleans Ave",
    "address_councildis": "A",
    "status": "Assigned to Contractor",
    "contractor": "IV Waste",
    "rowid": "1184282",
    "final_x": "3676105.24437",
    "final_y": "537448.610952",
    "longitude": "-90.08490106741681",
    "latitude": "29.971960055204654",
    "geocoded_column": {
      "latitude": "29.971960055204654",
      "longitude": "-90.08490106741681"
    }
  },
  {
    "service_request": "2025-1184281",
    "request_type": "Trash/Recycling",
    "request_reason": "Repair Trash Cart",
    "date_created": "2025-04-15T15:00:12.000",
    "date_modified": "2025-04-15T15:00:14.000",
    "request_status": "Pending",
    "responsible_agency": "Department of Sanitation",
    "final_address": "3631 Bennett St",
    "address_councildis": "C",
    "status": "Assigned to Contractor",
    "contractor": "Richards Disposal",
    "rowid": "1184281",
    "final_x": "3710254.77041",
    "final_y": "516816.242101",
    "longitude": "-89.97782323039242",
    "latitude": "29.914161196958837",
    "geocoded_column": {
      "latitude": "29.914161196958837",
      "longitude": "-89.97782323039242"
    }
  },
  {
    "service_request": "2025-1184280",
    "request_type": "Trash/Recycling",
    "request_reason": "Order Trash Cart",
    "date_created": "2025-04-15T14:58:08.000",
    "date_modified": "2025-04-15T14:58:09.000",
    "request_status": "Pending",
    "responsible_agency": "Department of Sanitation",
    "final_address": "7163 Boston Dr",
    "address_councildis": "E",
    "status": "Assigned to Contractor",
    "contractor": "Waste Pro",
    "rowid": "1184280",
    "final_x": "3706165.10583",
    "final_y": "561324.764958",
    "longitude": "-89.98908337240205",
    "latitude": "30.036675619443656",
    "geocoded_column": {
      "latitude": "30.036675619443656",
      "longitude": "-89.98908337240205"
    }
  },
  {
    "service_request": "2025-1184279",
    "request_type": "Trash/Recycling",
    "request_reason": "Return Recycling Cart",
    "date_created": "2025-04-15T14:55:59.000",
    "date_modified": "2025-04-15T14:56:00.000",
    "request_status": "Pending",
    "responsible_agency": "Department of Sanitation",
    "final_address": "2255 General Collins Ave",
    "address_councildis": "C",
    "status": "Pending",
    "rowid": "1184279",
    "final_x": "3698388.5962",
    "final_y": "522566.271162",
    "longitude": "-90.01506779994101",
    "latitude": "29.930352466519714",
    "geocoded_column": {
      "latitude": "29.930352466519714",
      "longitude": "-90.01506779994101"
    }
  },
  {
    "service_request": "2025-1184278",
    "request_type": "Property Maintenance",
    "request_reason": "Property Maintenance",
    "date_created": "2025-04-15T14:55:25.000",
    "date_modified": "2025-04-15T14:55:26.000",
    "request_status": "Pending",
    "responsible_agency": "Department of Code Enforcement",
    "final_address": "4423 Camelot Dr",
    "address_councildis": "E",
    "status": "Pending",
    "rowid": "1184278",
    "final_x": "3708617.43032",
    "final_y": "553910.486679",
    "longitude": "-89.98160998775381",
    "latitude": "30.016209926153223",
    "geocoded_column": {
      "latitude": "30.016209926153223",
      "longitude": "-89.98160998775381"
    }
  },
  {
    "service_request": "2025-1184277",
    "request_type": "Property Maintenance",
    "request_reason": "Property Maintenance",
    "date_created": "2025-04-15T14:49:19.000",
    "date_modified": "2025-04-15T14:49:21.000",
    "request_status": "Pending",
    "responsible_agency": "Department of Code Enforcement",
    "final_address": "4409 Mendez St",
    "address_councildis": "D",
    "status": "Pending",
    "rowid": "1184277",
    "final_x": "3690055.29475",
    "final_y": "553882.826391",
    "longitude": "-90.04025900200263",
    "latitude": "30.01672290554812",
    "geocoded_column": {
      "latitude": "30.01672290554812",
      "longitude": "-90.04025900200263"
    }
  },
  {
    "service_request": "2025-1184276",
    "request_type": "Trash/Recycling",
    "request_reason": "Order Trash Cart",
    "date_created": "2025-04-15T14:48:27.000",
    "date_modified": "2025-04-15T14:48:29.000",
    "request_status": "Pending",
    "responsible_agency": "Department of Sanitation",
    "final_address": "2537 Eagle St",
    "address_councildis": "A",
    "status": "Assigned to Contractor",
    "contractor": "IV Waste",
    "rowid": "1184276",
    "final_x": "3663520.16941",
    "final_y": "533718.901829",
    "longitude": "-90.1247711838701",
    "latitude": "29.96207560983044",
    "geocoded_column": {
      "latitude": "29.96207560983044",
      "longitude": "-90.1247711838701"
    }
  },
  {
    "service_request": "2025-1184274",
    "request_type": "Trash/Recycling",
    "request_reason": "Request a Large Item Pick Up",
    "date_created": "2025-04-15T14:47:42.000",
    "date_modified": "2025-04-15T14:47:44.000",
    "request_status": "Pending",
    "responsible_agency": "Department of Sanitation",
    "final_address": "5510 Norgate Dr",
    "address_councildis": "E",
    "status": "Assigned to Contractor",
    "contractor": "Waste Pro",
    "rowid": "1184274",
    "final_x": "3707075.24305",
    "final_y": "557924.446427",
    "longitude": "-89.98633349383792",
    "latitude": "30.02729668968575",
    "geocoded_column": {
      "latitude": "30.02729668968575",
      "longitude": "-89.98633349383792"
    }
  },
  {
    "service_request": "2025-1184275",
    "request_type": "Trash/Recycling",
    "request_reason": "Request a Large Item Pick Up",
    "date_created": "2025-04-15T14:47:42.000",
    "date_modified": "2025-04-15T14:47:44.000",
    "request_status": "Pending",
    "responsible_agency": "Department of Sanitation",
    "final_address": "533 Henry Clay Ave",
    "address_councildis": "A",
    "status": "Assigned to Contractor",
    "contractor": "IV Waste",
    "rowid": "1184275",
    "final_x": "3663551.8832",
    "final_y": "518831.688567",
    "longitude": "-90.12516672360553",
    "latitude": "29.9211396058691",
    "geocoded_column": {
      "latitude": "29.9211396058691",
      "longitude": "-90.12516672360553"
    }
  },
  {
    "service_request": "2025-1184273",
    "request_type": "Trash/Recycling",
    "request_reason": "Order Recycling Cart",
    "date_created": "2025-04-15T14:44:17.000",
    "date_modified": "2025-04-15T14:44:19.000",
    "request_status": "Pending",
    "responsible_agency": "Department of Sanitation",
    "final_address": "2220 Jena St",
    "address_councildis": "B",
    "status": "Pending",
    "rowid": "1184273",
    "final_x": "3670177.8235",
    "final_y": "523134.740347",
    "longitude": "-90.10410582122044",
    "latitude": "29.932777860152438",
    "geocoded_column": {
      "latitude": "29.932777860152438",
      "longitude": "-90.10410582122044"
    }
  },
  {
    "service_request": "2025-1184272",
    "request_type": "Trash/Recycling",
    "request_reason": "Request a Large Item Pick Up",
    "date_created": "2025-04-15T14:44:13.000",
    "date_modified": "2025-04-15T14:44:14.000",
    "request_status": "Pending",
    "responsible_agency": "Department of Sanitation",
    "final_address": "7722 Hickory St",
    "address_councildis": "A",
    "status": "Assigned to Contractor",
    "contractor": "IV Waste",
    "rowid": "1184272",
    "final_x": "3664312.9401",
    "final_y": "529030.12064",
    "longitude": "-90.12242419627772",
    "latitude": "29.949159970110642",
    "geocoded_column": {
      "latitude": "29.949159970110642",
      "longitude": "-90.12242419627772"
    }
  },
  {
    "service_request": "2025-1184271",
    "request_type": "Trash/Recycling",
    "request_reason": "Order Trash Cart",
    "date_created": "2025-04-15T14:43:37.000",
    "date_modified": "2025-04-15T14:43:39.000",
    "request_status": "Pending",
    "responsible_agency": "Department of Sanitation",
    "final_address": "2220 Jena St",
    "address_councildis": "B",
    "status": "Assigned to Contractor",
    "contractor": "IV Waste",
    "rowid": "1184271",
    "final_x": "3670177.8235",
    "final_y": "523134.740347",
    "longitude": "-90.10410582122044",
    "latitude": "29.932777860152438",
    "geocoded_column": {
      "latitude": "29.932777860152438",
      "longitude": "-90.10410582122044"
    }
  },
  {
    "service_request": "2025-1184270",
    "request_type": "Drainage",
    "request_reason": "Catch Basin Clogged",
    "date_created": "2025-04-15T14:40:42.000",
    "date_modified": "2025-04-15T14:40:45.000",
    "request_status": "Pending",
    "responsible_agency": "Sewerage & Water Board ",
    "final_address": "2901 Bienville Ave",
    "address_councildis": "B",
    "status": "Pending",
    "rowid": "1184270",
    "final_x": "3675090.18843",
    "final_y": "536355.072391",
    "longitude": "-90.08814431151693",
    "latitude": "29.96898356599223",
    "geocoded_column": {
      "latitude": "29.96898356599223",
      "longitude": "-90.08814431151693"
    }
  },
  {
    "service_request": "2025-1184269",
    "request_type": "Parks & Parkways",
    "request_reason": "Request Tree Service (Right of Way/Public Property)",
    "date_created": "2025-04-15T14:39:57.000",
    "date_modified": "2025-04-15T14:39:59.000",
    "request_status": "Pending",
    "responsible_agency": "Department of Parks & Parkway",
    "final_address": "2301 Industry St",
    "address_councildis": "D",
    "status": "Pending",
    "rowid": "1184269",
    "final_x": "3685285.39202",
    "final_y": "543056.360141",
    "longitude": "-90.05571126782769",
    "latitude": "29.98710117704876",
    "geocoded_column": {
      "latitude": "29.98710117704876",
      "longitude": "-90.05571126782769"
    }
  },
  {
    "service_request": "2025-1184268",
    "request_type": "Property Maintenance",
    "request_reason": "Property Maintenance",
    "date_created": "2025-04-15T14:39:41.000",
    "date_modified": "2025-04-15T14:39:42.000",
    "request_status": "Pending",
    "responsible_agency": "Department of Code Enforcement",
    "final_address": "2600 Behrman Hwy",
    "address_councildis": "C",
    "status": "Pending",
    "rowid": "1184268",
    "final_x": "3692749.28867",
    "final_y": "520880.119097",
    "longitude": "-90.03293055235815",
    "latitude": "29.92589331033643",
    "geocoded_column": {
      "latitude": "29.92589331033643",
      "longitude": "-90.03293055235815"
    }
  },
  {
    "service_request": "2025-1184267",
    "request_type": "Trash/Recycling",
    "request_reason": "Repair Trash Cart",
    "date_created": "2025-04-15T14:39:32.000",
    "date_modified": "2025-04-15T14:39:34.000",
    "request_status": "Pending",
    "responsible_agency": "Department of Sanitation",
    "final_address": "120 Central Park Pl",
    "address_councildis": "A",
    "status": "Assigned to Contractor",
    "contractor": "IV Waste",
    "rowid": "1184267",
    "final_x": "3670459.43867",
    "final_y": "544127.81595",
    "longitude": "-90.10250489096954",
    "latitude": "29.99049352881974",
    "geocoded_column": {
      "latitude": "29.99049352881974",
      "longitude": "-90.10250489096954"
    }
  },
  {
    "service_request": "2025-1184266",
    "request_type": "Roads and Streets",
    "request_reason": "Pothole",
    "date_created": "2025-04-15T14:37:46.000",
    "date_modified": "2025-04-15T14:37:47.000",
    "request_status": "Pending",
    "responsible_agency": "Department of Public Works",
    "final_address": "1428 Bourbon St",
    "address_councildis": "C",
    "status": "Pending",
    "rowid": "1184266",
    "final_x": "3683896.70805",
    "final_y": "534877.944774",
    "longitude": "-90.06038459758767",
    "latitude": "29.964655892256747",
    "geocoded_column": {
      "latitude": "29.964655892256747",
      "longitude": "-90.06038459758767"
    }
  },
  {
    "service_request": "2025-1184265",
    "request_type": "Property Maintenance",
    "request_reason": "Property Maintenance",
    "date_created": "2025-04-15T14:37:36.000",
    "date_modified": "2025-04-15T14:37:37.000",
    "request_status": "Pending",
    "responsible_agency": "Department of Code Enforcement",
    "final_address": "2524 Behrman Hwy",
    "address_councildis": "C",
    "status": "Pending",
    "rowid": "1184265",
    "final_x": "3692647.85033",
    "final_y": "520938.039161",
    "longitude": "-90.03324868731819",
    "latitude": "29.926055736026708",
    "geocoded_column": {
      "latitude": "29.926055736026708",
      "longitude": "-90.03324868731819"
    }
  },
  {
    "service_request": "2025-1184264",
    "request_type": "Trash/Recycling",
    "request_reason": "Request a Large Item Pick Up",
    "date_created": "2025-04-15T14:37:35.000",
    "date_modified": "2025-04-15T14:37:37.000",
    "request_status": "Pending",
    "responsible_agency": "Department of Sanitation",
    "final_address": "4627 Francis Dr",
    "address_councildis": "D",
    "status": "Assigned to Contractor",
    "contractor": "Waste Pro",
    "rowid": "1184264",
    "final_x": "3698348.41648",
    "final_y": "553716.521559",
    "longitude": "-90.01406243892862",
    "latitude": "30.016005691853675",
    "geocoded_column": {
      "latitude": "30.016005691853675",
      "longitude": "-90.01406243892862"
    }
  },
  {
    "service_request": "2025-1184263",
    "request_type": "Trash/Recycling",
    "request_reason": "Request a Large Item Pick Up",
    "date_created": "2025-04-15T14:36:40.000",
    "date_modified": "2025-04-15T14:37:40.000",
    "request_status": "Pending",
    "responsible_agency": "Department of Sanitation",
    "final_address": "4427 De Montluzin St",
    "address_councildis": "D",
    "status": "Assigned to Contractor",
    "contractor": "IV Waste",
    "rowid": "1184263",
    "final_x": "3687306.30217",
    "final_y": "549094.477779",
    "longitude": "-90.0491142005845",
    "latitude": "30.003641713775156",
    "geocoded_column": {
      "latitude": "30.003641713775156",
      "longitude": "-90.0491142005845"
    }
  },
  {
    "service_request": "2025-1184262",
    "request_type": "Property Maintenance",
    "request_reason": "Property Maintenance",
    "date_created": "2025-04-15T14:35:35.000",
    "date_modified": "2025-04-15T14:35:36.000",
    "request_status": "Pending",
    "responsible_agency": "Department of Code Enforcement",
    "final_address": "2525 Memorial Park Dr",
    "address_councildis": "C",
    "status": "Pending",
    "rowid": "1184262",
    "final_x": "3692766.18371",
    "final_y": "521079.566969",
    "longitude": "-90.03287007438414",
    "latitude": "29.92644119738659",
    "geocoded_column": {
      "latitude": "29.92644119738659",
      "longitude": "-90.03287007438414"
    }
  },
  {
    "service_request": "2025-1184261",
    "request_type": "Abandoned Vehicles",
    "request_reason": "Abandoned/Junk Vehicles",
    "date_created": "2025-04-15T14:35:28.000",
    "date_modified": "2025-04-15T14:35:30.000",
    "request_status": "Pending",
    "responsible_agency": "Department of Public Works",
    "final_address": "BURGUNDY ST & POLAND AVE",
    "address_councildis": "C",
    "status": "Pending",
    "rowid": "1184261",
    "final_x": "3692814.9",
    "final_y": "534216.58",
    "longitude": "-90.03224540650106",
    "latitude": "29.962561936293806",
    "geocoded_column": {
      "latitude": "29.962561936293806",
      "longitude": "-90.03224540650106"
    }
  },
  {
    "service_request": "2025-1184260",
    "request_type": "Trash/Recycling",
    "request_reason": "Request a Large Item Pick Up",
    "date_created": "2025-04-15T14:35:10.000",
    "date_modified": "2025-04-15T14:35:12.000",
    "request_status": "Pending",
    "responsible_agency": "Department of Sanitation",
    "final_address": "4626 Francis Dr",
    "address_councildis": "D",
    "status": "Assigned to Contractor",
    "contractor": "Waste Pro",
    "rowid": "1184260",
    "final_x": "3698255.71063",
    "final_y": "553732.780439",
    "longitude": "-90.01435475516297",
    "latitude": "30.016053332188385",
    "geocoded_column": {
      "latitude": "30.016053332188385",
      "longitude": "-90.01435475516297"
    }
  },
  {
    "service_request": "2025-1184259",
    "request_type": "Trash/Recycling",
    "request_reason": "Return Trash Cart",
    "date_created": "2025-04-15T14:34:54.000",
    "date_modified": "2025-04-15T14:34:56.000",
    "request_status": "Pending",
    "responsible_agency": "Department of Sanitation",
    "final_address": "1016 Amelia St",
    "address_councildis": "B",
    "status": "Assigned to Contractor",
    "contractor": "IV Waste",
    "rowid": "1184259",
    "final_x": "3673672.57294",
    "final_y": "518898.491831",
    "longitude": "-90.09321789222086",
    "latitude": "29.92102599074262",
    "geocoded_column": {
      "latitude": "29.92102599074262",
      "longitude": "-90.09321789222086"
    }
  },
  {
    "service_request": "2025-1184258",
    "request_type": "Trash/Recycling",
    "request_reason": "Order Recycling Cart",
    "date_created": "2025-04-15T14:34:08.000",
    "date_modified": "2025-04-15T14:34:10.000",
    "request_status": "Pending",
    "responsible_agency": "Department of Sanitation",
    "final_address": "1016 Amelia St",
    "address_councildis": "B",
    "status": "Pending",
    "rowid": "1184258",
    "final_x": "3673672.57294",
    "final_y": "518898.491831",
    "longitude": "-90.09321789222086",
    "latitude": "29.92102599074262",
    "geocoded_column": {
      "latitude": "29.92102599074262",
      "longitude": "-90.09321789222086"
    }
  },
  {
    "service_request": "2025-1184257",
    "request_type": "Property Maintenance",
    "request_reason": "Property Maintenance",
    "date_created": "2025-04-15T14:33:35.000",
    "date_modified": "2025-04-15T14:33:37.000",
    "request_status": "Pending",
    "responsible_agency": "Department of Code Enforcement",
    "final_address": "2535 Memorial Park Dr",
    "address_councildis": "C",
    "status": "Pending",
    "rowid": "1184257",
    "final_x": "3692796.73923",
    "final_y": "521052.483641",
    "longitude": "-90.03277458992366",
    "latitude": "29.92636577379837",
    "geocoded_column": {
      "latitude": "29.92636577379837",
      "longitude": "-90.03277458992366"
    }
  },
  {
    "service_request": "2025-1184256",
    "request_type": "Trash/Recycling",
    "request_reason": "Order Trash Cart",
    "date_created": "2025-04-15T14:30:42.000",
    "date_modified": "2025-04-15T14:30:43.000",
    "request_status": "Pending",
    "responsible_agency": "Department of Sanitation",
    "final_address": "7252 Yorktown Dr",
    "address_councildis": "E",
    "status": "Assigned to Contractor",
    "contractor": "Waste Pro",
    "rowid": "1184256",
    "final_x": "3705686.38199",
    "final_y": "561434.711006",
    "longitude": "-89.99059215644802",
    "latitude": "30.036993361441407",
    "geocoded_column": {
      "latitude": "30.036993361441407",
      "longitude": "-89.99059215644802"
    }
  },
  {
    "service_request": "2025-1184255",
    "request_type": "Trash/Recycling",
    "request_reason": "Request a Large Item Pick Up",
    "date_created": "2025-04-15T14:30:04.000",
    "date_modified": "2025-04-15T14:30:05.000",
    "request_status": "Pending",
    "responsible_agency": "Department of Sanitation",
    "final_address": "11413 Campbell Ln",
    "address_councildis": "E",
    "status": "Assigned to Contractor",
    "contractor": "Waste Pro",
    "rowid": "1184255",
    "final_x": "3717945.89017",
    "final_y": "561396.461726",
    "longitude": "-89.9518513384824",
    "latitude": "30.036487477477632",
    "geocoded_column": {
      "latitude": "30.036487477477632",
      "longitude": "-89.9518513384824"
    }
  },
  {
    "service_request": "2025-1184254",
    "request_type": "Safety & Permits",
    "request_reason": "Zoning Enforcement",
    "date_created": "2025-04-15T14:28:57.000",
    "date_modified": "2025-04-15T14:28:59.000",
    "request_status": "Pending",
    "responsible_agency": "Safety and Permits",
    "final_address": "1940 Iberville St",
    "address_councildis": "B",
    "status": "Pending",
    "rowid": "1184254",
    "final_x": "3677800.7981",
    "final_y": "533736.181957",
    "longitude": "-90.07967451018962",
    "latitude": "29.96170123404388",
    "geocoded_column": {
      "latitude": "29.96170123404388",
      "longitude": "-90.07967451018962"
    }
  },
  {
    "service_request": "2025-1184253",
    "request_type": "Trash/Recycling",
    "request_reason": "Order Trash Cart",
    "date_created": "2025-04-15T14:27:50.000",
    "date_modified": "2025-04-15T14:27:52.000",
    "request_status": "Pending",
    "responsible_agency": "Department of Sanitation",
    "final_address": "121 S Solomon St",
    "address_councildis": "A",
    "status": "Assigned to Contractor",
    "contractor": "IV Waste",
    "rowid": "1184253",
    "final_x": "3670393.59687",
    "final_y": "538549.268233",
    "longitude": "-90.10290209030298",
    "latitude": "29.975156367791033",
    "geocoded_column": {
      "latitude": "29.975156367791033",
      "longitude": "-90.10290209030298"
    }
  },
  {
    "service_request": "2025-1184252",
    "request_type": "Property Maintenance",
    "request_reason": "Property Maintenance",
    "date_created": "2025-04-15T14:25:40.000",
    "date_modified": "2025-04-15T14:25:42.000",
    "request_status": "Pending",
    "responsible_agency": "Department of Code Enforcement",
    "final_address": "1707 Lesseps St",
    "address_councildis": "D",
    "status": "Pending",
    "rowid": "1184252",
    "final_x": "3693316.85225",
    "final_y": "537387.506696",
    "longitude": "-90.0305464680009",
    "latitude": "29.97126518212824",
    "geocoded_column": {
      "latitude": "29.97126518212824",
      "longitude": "-90.0305464680009"
    }
  },
  {
    "service_request": "2025-1184251",
    "request_type": "Trash/Recycling",
    "request_reason": "Request a Large Item Pick Up",
    "date_created": "2025-04-15T14:24:50.000",
    "date_modified": "2025-04-15T14:24:51.000",
    "request_status": "Pending",
    "responsible_agency": "Department of Sanitation",
    "final_address": "5115 Arts St",
    "address_councildis": "D",
    "status": "Assigned to Contractor",
    "contractor": "IV Waste",
    "rowid": "1184251",
    "final_x": "3685915.2751",
    "final_y": "551668.569813",
    "longitude": "-90.05341783925712",
    "latitude": "30.010762324541968",
    "geocoded_column": {
      "latitude": "30.010762324541968",
      "longitude": "-90.05341783925712"
    }
  },
  {
    "service_request": "2025-1184250",
    "request_type": "Abandoned Vehicles",
    "request_reason": "Abandoned/Junk Vehicles",
    "date_created": "2025-04-15T14:24:46.000",
    "date_modified": "2025-04-15T14:24:48.000",
    "request_status": "Pending",
    "responsible_agency": "Department of Public Works",
    "final_address": "325 S Gayoso St",
    "address_councildis": "B",
    "status": "Pending",
    "rowid": "1184250",
    "final_x": "3673649.14113",
    "final_y": "535102.389446",
    "longitude": "-90.09273807470336",
    "latitude": "29.96558209098173",
    "geocoded_column": {
      "latitude": "29.96558209098173",
      "longitude": "-90.09273807470336"
    }
  },
  {
    "service_request": "2025-1184249",
    "request_type": "Trash/Recycling",
    "request_reason": "Order Recycling Cart",
    "date_created": "2025-04-15T14:20:37.000",
    "date_modified": "2025-04-15T14:20:39.000",
    "request_status": "Pending",
    "responsible_agency": "Department of Sanitation",
    "final_address": "3152 Burgundy St",
    "address_councildis": "C",
    "status": "Pending",
    "rowid": "1184249",
    "final_x": "3689210.26102",
    "final_y": "535081.362438",
    "longitude": "-90.04359759140428",
    "latitude": "29.965051838127536",
    "geocoded_column": {
      "latitude": "29.965051838127536",
      "longitude": "-90.04359759140428"
    }
  },
  {
    "service_request": "2025-1184248",
    "request_type": "Trash/Recycling",
    "request_reason": "Return Trash Cart",
    "date_created": "2025-04-15T14:20:18.000",
    "date_modified": "2025-04-15T14:20:20.000",
    "request_status": "Pending",
    "responsible_agency": "Department of Sanitation",
    "final_address": "1926 Foucher St",
    "address_councildis": "B",
    "status": "Assigned to Contractor",
    "contractor": "IV Waste",
    "rowid": "1184248",
    "final_x": "3673024.7083",
    "final_y": "522516.695866",
    "longitude": "-90.09513949717329",
    "latitude": "29.930994153850232",
    "geocoded_column": {
      "latitude": "29.930994153850232",
      "longitude": "-90.09513949717329"
    }
  },
  {
    "service_request": "2025-1184247",
    "request_type": "Trash/Recycling",
    "request_reason": "Order Recycling Cart",
    "date_created": "2025-04-15T14:19:07.000",
    "date_modified": "2025-04-15T14:19:10.000",
    "request_status": "Pending",
    "responsible_agency": "Department of Sanitation",
    "final_address": "3150 Burgundy St",
    "address_councildis": "C",
    "status": "Pending",
    "rowid": "1184247",
    "final_x": "3689193.24713",
    "final_y": "535084.83463",
    "longitude": "-90.04365119670827",
    "latitude": "29.965061912004813",
    "geocoded_column": {
      "latitude": "29.965061912004813",
      "longitude": "-90.04365119670827"
    }
  },
  {
    "service_request": "2025-1184246",
    "request_type": "Trash/Recycling",
    "request_reason": "Request a Large Item Pick Up",
    "date_created": "2025-04-15T14:17:37.000",
    "date_modified": "2025-04-15T14:17:40.000",
    "request_status": "Pending",
    "responsible_agency": "Department of Sanitation",
    "final_address": "3713 St Claude Ave",
    "address_councildis": "C",
    "status": "Assigned to Contractor",
    "contractor": "IV Waste",
    "rowid": "1184246",
    "final_x": "3691106.16982",
    "final_y": "535589.452038",
    "longitude": "-90.03759229849675",
    "latitude": "29.96639009229955",
    "geocoded_column": {
      "latitude": "29.96639009229955",
      "longitude": "-90.03759229849675"
    }
  },
  {
    "service_request": "2025-1184245",
    "request_type": "Trash/Recycling",
    "request_reason": "Request a Large Item Pick Up",
    "date_created": "2025-04-15T14:17:31.000",
    "date_modified": "2025-04-15T14:17:33.000",
    "request_status": "Pending",
    "responsible_agency": "Department of Sanitation",
    "final_address": "5670 Hawthorne Pl",
    "address_councildis": "A",
    "status": "Assigned to Contractor",
    "contractor": "IV Waste",
    "rowid": "1184245",
    "final_x": "3667787.83885",
    "final_y": "545203.258383",
    "longitude": "-90.11090758832879",
    "latitude": "29.993529265063408",
    "geocoded_column": {
      "latitude": "29.993529265063408",
      "longitude": "-90.11090758832879"
    }
  },
  {
    "service_request": "2025-1184244",
    "request_type": "Trash/Recycling",
    "request_reason": "Request a Large Item Pick Up",
    "date_created": "2025-04-15T14:16:49.000",
    "date_modified": "2025-04-15T14:16:51.000",
    "request_status": "Pending",
    "responsible_agency": "Department of Sanitation",
    "final_address": "5310 Venus St",
    "address_councildis": "D",
    "status": "Assigned to Contractor",
    "contractor": "IV Waste",
    "rowid": "1184244",
    "final_x": "3686333.4022",
    "final_y": "552269.49071",
    "longitude": "-90.05207558659006",
    "latitude": "30.012401788213705",
    "geocoded_column": {
      "latitude": "30.012401788213705",
      "longitude": "-90.05207558659006"
    }
  },
  {
    "service_request": "2025-1184243",
    "request_type": "Trash/Recycling",
    "request_reason": "Repair Trash Cart",
    "date_created": "2025-04-15T14:15:21.000",
    "date_modified": "2025-04-15T14:15:23.000",
    "request_status": "Pending",
    "responsible_agency": "Department of Sanitation",
    "final_address": "1712 Soniat St",
    "address_councildis": "B",
    "status": "Assigned to Contractor",
    "contractor": "IV Waste",
    "rowid": "1184243",
    "final_x": "3668390.54657",
    "final_y": "521928.420538",
    "longitude": "-90.10978879710751",
    "latitude": "29.929513465466307",
    "geocoded_column": {
      "latitude": "29.929513465466307",
      "longitude": "-90.10978879710751"
    }
  },
  {
    "service_request": "2025-1184242",
    "request_type": "Trash/Recycling",
    "request_reason": "Illegal Dumping",
    "date_created": "2025-04-15T14:15:03.000",
    "date_modified": "2025-04-15T14:15:05.000",
    "request_status": "Pending",
    "responsible_agency": "Department of Sanitation",
    "final_address": "3154 N Tonti St",
    "address_councildis": "D",
    "status": "Pending",
    "rowid": "1184242",
    "final_x": "3690538.876",
    "final_y": "540385.514059",
    "longitude": "-90.03921273881753",
    "latitude": "29.979595194147286",
    "geocoded_column": {
      "latitude": "29.979595194147286",
      "longitude": "-90.03921273881753"
    }
  },
  {
    "service_request": "2025-1184241",
    "request_type": "Roads and Streets",
    "request_reason": "Sidewalk Damaged or Missing",
    "date_created": "2025-04-15T14:14:04.000",
    "date_modified": "2025-04-15T14:14:06.000",
    "request_status": "Pending",
    "responsible_agency": "Department of Public Works",
    "final_address": "1431 Constance St",
    "address_councildis": "B",
    "status": "Pending",
    "rowid": "1184241",
    "final_x": "3680635.16514",
    "final_y": "524194.270716",
    "longitude": "-90.07105598366722",
    "latitude": "29.935378608323525",
    "geocoded_column": {
      "latitude": "29.935378608323525",
      "longitude": "-90.07105598366722"
    }
  },
  {
    "service_request": "2025-1184240",
    "request_type": "Abandoned Vehicles",
    "request_reason": "Abandoned/Junk Vehicles",
    "date_created": "2025-04-15T14:13:17.000",
    "date_modified": "2025-04-15T14:15:47.000",
    "request_status": "Pending",
    "responsible_agency": "Department of Public Works",
    "final_address": "2013 L. B. Landry Ave",
    "address_councildis": "C",
    "status": "Inspected",
    "rowid": "1184240",
    "final_x": "3689888.9503",
    "final_y": "523281.544123",
    "longitude": "-90.04187432343188",
    "latitude": "29.9325853703495",
    "geocoded_column": {
      "latitude": "29.9325853703495",
      "longitude": "-90.04187432343188"
    }
  },
  {
    "service_request": "2025-1184239",
    "request_type": "Trash/Recycling",
    "request_reason": "Repair Trash Cart",
    "date_created": "2025-04-15T14:13:03.000",
    "date_modified": "2025-04-15T14:13:05.000",
    "request_status": "Pending",
    "responsible_agency": "Department of Sanitation",
    "final_address": "1619 Dublin St",
    "address_councildis": "A",
    "status": "Assigned to Contractor",
    "contractor": "IV Waste",
    "rowid": "1184239",
    "final_x": "3662800.84301",
    "final_y": "529752.768833",
    "longitude": "-90.12717455613272",
    "latitude": "29.951190872221936",
    "geocoded_column": {
      "latitude": "29.951190872221936",
      "longitude": "-90.12717455613272"
    }
  },
  {
    "service_request": "2025-1184238",
    "request_type": "Trash/Recycling",
    "request_reason": "Request a Large Item Pick Up",
    "date_created": "2025-04-15T14:11:56.000",
    "date_modified": "2025-04-15T14:37:22.000",
    "request_status": "Pending",
    "responsible_agency": "Department of Sanitation",
    "final_address": "626 Webster St A",
    "address_councildis": "A",
    "status": "Assigned to Contractor",
    "contractor": "IV Waste",
    "rowid": "1184238",
    "final_x": "3663922.47047",
    "final_y": "518999.355447",
    "longitude": "-90.12399135405819",
    "latitude": "29.921589888027412",
    "geocoded_column": {
      "latitude": "29.921589888027412",
      "longitude": "-90.12399135405819"
    }
  },
  {
    "service_request": "2025-1184237",
    "request_type": "Roads and Streets",
    "request_reason": "Debris in Driving Lanes",
    "date_created": "2025-04-15T14:11:12.000",
    "date_modified": "2025-04-15T14:11:13.000",
    "request_status": "Pending",
    "responsible_agency": "Department of Public Works",
    "final_address": "1350 Bourbon St Unit 15",
    "address_councildis": "C",
    "status": "Pending",
    "rowid": "1184237",
    "final_x": "3683717.54095",
    "final_y": "534459.427397",
    "longitude": "-90.06096506981949",
    "latitude": "29.963510585312864",
    "geocoded_column": {
      "latitude": "29.963510585312864",
      "longitude": "-90.06096506981949"
    }
  },
  {
    "service_request": "2025-1184236",
    "request_type": "Safety & Permits",
    "request_reason": "Zoning Enforcement",
    "date_created": "2025-04-15T14:06:46.000",
    "date_modified": "2025-04-15T14:06:47.000",
    "request_status": "Pending",
    "responsible_agency": "Safety and Permits",
    "final_address": "3724 General Meyer Ave",
    "address_councildis": "C",
    "status": "Pending",
    "rowid": "1184236",
    "final_x": "3697687.48663",
    "final_y": "525482.695357",
    "longitude": "-90.017175329586",
    "latitude": "29.93839378743014",
    "geocoded_column": {
      "latitude": "29.93839378743014",
      "longitude": "-90.017175329586"
    }
  },
  {
    "service_request": "2025-1184235",
    "request_type": "Trash/Recycling",
    "request_reason": "Request a Large Item Pick Up",
    "date_created": "2025-04-15T14:06:31.000",
    "date_modified": "2025-04-15T14:08:58.000",
    "request_status": "Pending",
    "responsible_agency": "Department of Sanitation",
    "final_address": "10131 Brookfield Dr",
    "address_councildis": "E",
    "status": "Pending",
    "rowid": "1184235",
    "final_x": "3710024.50206",
    "final_y": "562913.559072",
    "longitude": "-89.97682754564906",
    "latitude": "30.040919111209387",
    "geocoded_column": {
      "latitude": "30.040919111209387",
      "longitude": "-89.97682754564906"
    }
  },
  {
    "service_request": "2025-1184234",
    "request_type": "Trash/Recycling",
    "request_reason": "Request a Large Item Pick Up",
    "date_created": "2025-04-15T14:06:27.000",
    "date_modified": "2025-04-15T14:06:29.000",
    "request_status": "Pending",
    "responsible_agency": "Department of Sanitation",
    "final_address": "2811 Sabine St",
    "address_councildis": "C",
    "status": "Assigned to Contractor",
    "contractor": "Richards Disposal",
    "rowid": "1184234",
    "final_x": "3692831.77296",
    "final_y": "519767.64204",
    "longitude": "-90.03271003631336",
    "latitude": "29.922831799281248",
    "geocoded_column": {
      "latitude": "29.922831799281248",
      "longitude": "-90.03271003631336"
    }
  },
  {
    "service_request": "2025-1184233",
    "request_type": "Trash/Recycling",
    "request_reason": "Order Trash Cart",
    "date_created": "2025-04-15T14:06:17.000",
    "date_modified": "2025-04-15T14:06:19.000",
    "request_status": "Pending",
    "responsible_agency": "Department of Sanitation",
    "final_address": "121 N Miro St",
    "address_councildis": "B",
    "status": "Assigned to Contractor",
    "contractor": "IV Waste",
    "rowid": "1184233",
    "final_x": "3676816.33537",
    "final_y": "534306.892997",
    "longitude": "-90.08276361519641",
    "latitude": "29.963300076335376",
    "geocoded_column": {
      "latitude": "29.963300076335376",
      "longitude": "-90.08276361519641"
    }
  },
  {
    "service_request": "2025-1184232",
    "request_type": "Trash/Recycling",
    "request_reason": "Request a Large Item Pick Up",
    "date_created": "2025-04-15T14:05:05.000",
    "date_modified": "2025-04-15T14:05:07.000",
    "request_status": "Pending",
    "responsible_agency": "Department of Sanitation",
    "final_address": "808 Washington Ave",
    "address_councildis": "B",
    "status": "Assigned to Contractor",
    "contractor": "IV Waste",
    "rowid": "1184232",
    "final_x": "3677561.1149",
    "final_y": "519936.376504",
    "longitude": "-90.08090770171505",
    "latitude": "29.923763545648217",
    "geocoded_column": {
      "latitude": "29.923763545648217",
      "longitude": "-90.08090770171505"
    }
  },
  {
    "service_request": "2025-1184231",
    "request_type": "Abandoned Vehicles",
    "request_reason": "Abandoned/Junk Vehicles",
    "date_created": "2025-04-15T14:04:22.000",
    "date_modified": "2025-04-15T14:04:23.000",
    "request_status": "Pending",
    "responsible_agency": "Department of Public Works",
    "final_address": "2016 N Rampart St",
    "address_councildis": "C",
    "status": "Pending",
    "rowid": "1184231",
    "final_x": "3684419.66197",
    "final_y": "535845.748551",
    "longitude": "-90.05869915065418",
    "latitude": "29.967301033255584",
    "geocoded_column": {
      "latitude": "29.967301033255584",
      "longitude": "-90.05869915065418"
    }
  },
  {
    "service_request": "2025-1184230",
    "request_type": "Trash/Recycling",
    "request_reason": "Missed Trash Pick-Up",
    "date_created": "2025-04-15T14:04:20.000",
    "date_modified": "2025-04-15T14:52:45.000",
    "case_close_date": "2025-04-15T09:52:44.000",
    "request_status": "Closed",
    "responsible_agency": "Department of Sanitation",
    "final_address": "8700 Scottsdale Dr",
    "address_councildis": "E",
    "status": "Invalid Request",
    "contractor": "Waste Pro",
    "contractor_action": "Invalid",
    "rowid": "1184230",
    "final_x": "3704868.3827",
    "final_y": "561704.081695",
    "longitude": "-89.99316723761072",
    "latitude": "30.037760356361723",
    "geocoded_column": {
      "latitude": "30.037760356361723",
      "longitude": "-89.99316723761072"
    }
  },
  {
    "service_request": "2025-1184229",
    "request_type": "Abandoned Vehicles",
    "request_reason": "Abandoned/Junk Vehicles",
    "date_created": "2025-04-15T14:03:00.000",
    "date_modified": "2025-04-15T14:03:02.000",
    "request_status": "Pending",
    "responsible_agency": "Department of Public Works",
    "final_address": "2016 N Rampart St",
    "address_councildis": "C",
    "status": "Pending",
    "rowid": "1184229",
    "final_x": "3684419.66197",
    "final_y": "535845.748551",
    "longitude": "-90.05869915065418",
    "latitude": "29.967301033255584",
    "geocoded_column": {
      "latitude": "29.967301033255584",
      "longitude": "-90.05869915065418"
    }
  },
  {
    "service_request": "2025-1184228",
    "request_type": "Abandoned Vehicles",
    "request_reason": "Abandoned/Junk Vehicles",
    "date_created": "2025-04-15T14:01:18.000",
    "date_modified": "2025-04-15T14:01:20.000",
    "request_status": "Pending",
    "responsible_agency": "Department of Public Works",
    "final_address": "2016 N Rampart St",
    "address_councildis": "C",
    "status": "Pending",
    "rowid": "1184228",
    "final_x": "3684419.66197",
    "final_y": "535845.748551",
    "longitude": "-90.05869915065418",
    "latitude": "29.967301033255584",
    "geocoded_column": {
      "latitude": "29.967301033255584",
      "longitude": "-90.05869915065418"
    }
  },
  {
    "service_request": "2025-1184227",
    "request_type": "Trash/Recycling",
    "request_reason": "Return Recycling Cart",
    "date_created": "2025-04-15T14:00:59.000",
    "date_modified": "2025-04-15T14:01:00.000",
    "request_status": "Pending",
    "responsible_agency": "Department of Sanitation",
    "final_address": "5620 Vicksburg St",
    "address_councildis": "A",
    "status": "Pending",
    "rowid": "1184227",
    "final_x": "3668722.47361",
    "final_y": "544563.669775",
    "longitude": "-90.10797681953342",
    "latitude": "29.99174316602784",
    "geocoded_column": {
      "latitude": "29.99174316602784",
      "longitude": "-90.10797681953342"
    }
  },
  {
    "service_request": "2025-1184226",
    "request_type": "Roads and Streets",
    "request_reason": "Pothole",
    "date_created": "2025-04-15T14:00:39.000",
    "date_modified": "2025-04-15T14:00:40.000",
    "request_status": "Pending",
    "responsible_agency": "Department of Public Works",
    "final_address": "817 Clayton Ave",
    "address_councildis": "A",
    "status": "Pending",
    "rowid": "1184226",
    "final_x": "3668501.81626",
    "final_y": "542346.325517",
    "longitude": "-90.10874868600995",
    "latitude": "29.98565271319145",
    "geocoded_column": {
      "latitude": "29.98565271319145",
      "longitude": "-90.10874868600995"
    }
  },
  {
    "service_request": "2025-1184225",
    "request_type": "Property Maintenance",
    "request_reason": "Property Maintenance",
    "date_created": "2025-04-15T13:57:36.000",
    "date_modified": "2025-04-15T13:57:38.000",
    "request_status": "Pending",
    "responsible_agency": "Department of Code Enforcement",
    "final_address": "AVENUE F & JACKSON BARRACKS",
    "address_councildis": "E",
    "status": "Pending",
    "rowid": "1184225",
    "final_x": "3701481.6",
    "final_y": "533977.78",
    "longitude": "-90.00488608298039",
    "latitude": "29.961631884337066",
    "geocoded_column": {
      "latitude": "29.961631884337066",
      "longitude": "-90.00488608298039"
    }
  },