[
  {
    "service_request": "2022-923845",
    "request_type": "Traffic Signals/Signs/Striping/Streetlights",
    "request_reason": "Street Light Outage/Malfunction",
    "date_created": "2022-09-27T01:14:45.000",
    "date_modified": "2022-09-27T01:14:46.000",
    "request_status": "Pending",
    "responsible_agency": "Department of Public Works",
    "final_address": "336 33Rd St",
    "address_councildis": "A",
    "status": "Pending",
    "contractor": "Legacy Professional Services",
    "rowid": "923845",
    "final_x": "3665055.71783",
    "final_y": "550933.034197",
    "longitude": "-90.11934620876613",
    "latitude": "30.009364038829556",
    "geocoded_column": {
      "latitude": "30.009364038829556",
      "longitude": "-90.11934620876613"
    }
  },
  {
    "service_request": "2022-923844",
    "request_type": "Traffic Signals/Signs/Striping/Streetlights",
    "request_reason": "Street Light Outage/Malfunction",
    "date_created": "2022-09-26T23:50:11.000",
    "date_modified": "2022-09-26T23:50:11.000",
    "request_status": "Pending",
    "responsible_agency": "Department of Public Works",
    "final_address": "4121 Vendome Pl",
    "address_councildis": "B",
    "status": "Pending",
    "contractor": "Legacy Professional Services",
    "rowid": "923844",
    "final_x": "3668934.22151",
    "final_y": "530528.000642",
    "longitude": "-90.1077821505662",
    "latitude": "29.953143555332627",
    "geocoded_column": {
      "latitude": "29.953143555332627",
      "longitude": "-90.1077821505662"
    }
  },
  {
    "service_request": "2022-923843",
    "request_type": "Traffic Signals/Signs/Striping/Streetlights",
    "request_reason": "Street Light Outage/Malfunction",
    "date_created": "2022-09-26T22:40:57.000",
    "date_modified": "2022-09-26T22:40:58.000",
    "request_status": "Pending",
    "responsible_agency": "Department of Public Works",
    "final_address": "2719 Eagle St",
    "address_councildis": "A",
    "status": "Pending",
    "contractor": "Legacy Professional Services",
    "rowid": "923843",
    "final_x": "3663906.07335",
    "final_y": "534132.162565",
    "longitude": "-90.12353877376006",
    "latitude": "29.96320074399675",
    "geocoded_column": {
      "latitude": "29.96320074399675",
      "longitude": "-90.12353877376006"
    }
  },
  {
    "service_request": "2022-923842",
    "request_type": "Traffic Signals/Signs/Striping/Streetlights",
    "request_reason": "Street Light Outage/Malfunction",
    "date_created": "2022-09-26T22:40:28.000",
    "date_modified": "2022-09-26T22:40:28.000",
    "request_status": "Pending",
    "responsible_agency": "Department of Public Works",
    "final_address": "2719 Eagle St",
    "address_councildis": "A",
    "status": "Pending",
    "contractor": "Legacy Professional Services",
    "rowid": "923842",
    "final_x": "3663906.07335",
    "final_y": "534132.162565",
    "longitude": "-90.12353877376006",
    "latitude": "29.96320074399675",
    "geocoded_column": {
      "latitude": "29.96320074399675",
      "longitude": "-90.12353877376006"
    }
  },
  {
    "service_request": "2022-923841",
    "request_type": "Trash/Recycling",
    "request_reason": "MIssed Recycling Pick-Up",
    "date_created": "2022-09-26T22:22:51.000",
    "date_modified": "2022-09-26T22:22:51.000",
    "request_status": "Pending",
    "responsible_agency": "Department of Sanitation",
    "final_address": "2053 Easter Ln",
    "address_councildis": "C",
    "status": "Assigned to Contractor",
    "contractor": "Richards Disposal",
    "rowid": "923841",
    "final_x": "3699444.50576",
    "final_y": "523783.587067",
    "longitude": "-90.0116901538607",
    "latitude": "29.933666219259134",
    "geocoded_column": {
      "latitude": "29.933666219259134",
      "longitude": "-90.0116901538607"
    }
  },
  {
    "service_request": "2022-923840",
    "request_type": "Abandoned Vehicles",
    "request_reason": "Abandoned/Junk Vehicles",
    "date_created": "2022-09-26T22:04:21.000",
    "date_modified": "2022-09-26T22:04:21.000",
    "request_status": "Pending",
    "responsible_agency": "Department of Public Works",
    "final_address": "8642 Bill St",
    "address_councildis": "E",
    "status": "Pending",
    "rowid": "923840",
    "final_x": "3703983.4081",
    "final_y": "563265.884832",
    "longitude": "-89.9959063432982",
    "latitude": "30.042083130441437",
    "geocoded_column": {
      "latitude": "30.042083130441437",
      "longitude": "-89.9959063432982"
    }
  },
  {
    "service_request": "2022-923839",
    "request_type": "Abandoned Vehicles",
    "request_reason": "Abandoned/Junk Vehicles",
    "date_created": "2022-09-26T22:01:23.000",
    "date_modified": "2022-09-26T22:01:23.000",
    "request_status": "Pending",
    "responsible_agency": "Department of Public Works",
    "final_address": "8642 Bill St",
    "address_councildis": "E",
    "status": "Pending",
    "rowid": "923839",
    "final_x": "3703983.4081",
    "final_y": "563265.884832",
    "longitude": "-89.9959063432982",
    "latitude": "30.042083130441437",
    "geocoded_column": {
      "latitude": "30.042083130441437",
      "longitude": "-89.9959063432982"
    }
  },
  {
    "service_request": "2022-923838",
    "request_type": "Property Maintenance",
    "request_reason": "Property Maintenance",
    "date_created": "2022-09-26T21:59:52.000",
    "date_modified": "2022-09-26T22:03:28.000",
    "request_status": "Pending",
    "responsible_agency": "Department of Code Enforcement",
    "final_address": "3314 Newton St",
    "address_councildis": "C",
    "status": "Pending",
    "rowid": "923838",
    "final_x": "3696570.85008",
    "final_y": "527814.603007",
    "longitude": "-90.0206163002754",
    "latitude": "29.944840945327947",
    "geocoded_column": {
      "latitude": "29.944840945327947",
      "longitude": "-90.0206163002754"
    }
  },
  {
    "service_request": "2022-923837",
    "request_type": "Abandoned Vehicles",
    "request_reason": "Abandoned/Junk Vehicles",
    "date_created": "2022-09-26T21:56:11.000",
    "date_modified": "2022-09-26T21:56:11.000",
    "request_status": "Pending",
    "responsible_agency": "Department of Public Works",
    "final_address": "8630 Bill St",
    "address_councildis": "E",
    "status": "Pending",
    "rowid": "923837",
    "final_x": "3703908.51722",
    "final_y": "563227.383648",
    "longitude": "-89.99614444523837",
    "latitude": "30.041979670687933",
    "geocoded_column": {
      "latitude": "30.041979670687933",
      "longitude": "-89.99614444523837"
    }
  },
  {
    "service_request": "2022-923836",
    "request_type": "Abandoned Vehicles",
    "request_reason": "Abandoned/Junk Vehicles",
    "date_created": "2022-09-26T21:50:49.000",
    "date_modified": "2022-09-26T21:50:49.000",
    "request_status": "Pending",
    "responsible_agency": "Department of Public Works",
    "final_address": "8600 Bill St",
    "address_councildis": "E",
    "status": "Pending",
    "rowid": "923836",
    "final_x": "3703752.76196",
    "final_y": "563147.187104",
    "longitude": "-89.99663964373622",
    "latitude": "30.04176415876771",
    "geocoded_column": {
      "latitude": "30.04176415876771",
      "longitude": "-89.99663964373622"
    }
  },
  {
    "service_request": "2022-923835",
    "request_type": "Abandoned Vehicles",
    "request_reason": "Abandoned/Junk Vehicles",
    "date_created": "2022-09-26T21:47:10.000",
    "date_modified": "2022-09-26T21:47:10.000",
    "request_status": "Pending",
    "responsible_agency": "Department of Public Works",
    "final_address": "8550 Bill St",
    "address_councildis": "E",
    "status": "Pending",
    "rowid": "923835",
    "final_x": "3703698.53124",
    "final_y": "563120.231776",
    "longitude": "-89.99681202531902",
    "latitude": "30.0416917816402",
    "geocoded_column": {
      "latitude": "30.0416917816402",
      "longitude": "-89.99681202531902"
    }
  },
  {
    "service_request": "2022-923834",
    "request_type": "Abandoned Vehicles",
    "request_reason": "Abandoned/Junk Vehicles",
    "date_created": "2022-09-26T21:41:46.000",
    "date_modified": "2022-09-26T21:41:46.000",
    "request_status": "Pending",
    "responsible_agency": "Department of Public Works",
    "final_address": "8521 Bill St",
    "address_councildis": "E",
    "status": "Pending",
    "rowid": "923834",
    "final_x": "3703545.06449",
    "final_y": "563160.99952",
    "longitude": "-89.99729553101513",
    "latitude": "30.041808797937026",
    "geocoded_column": {
      "latitude": "30.041808797937026",
      "longitude": "-89.99729553101513"
    }
  },
  {
    "service_request": "2022-923833",
    "request_type": "Abandoned Vehicles",
    "request_reason": "Abandoned/Junk Vehicles",
    "date_created": "2022-09-26T21:33:54.000",
    "date_modified": "2022-09-26T21:33:54.000",
    "request_status": "Pending",
    "responsible_agency": "Department of Public Works",
    "final_address": "7919 Means Ave",
    "address_councildis": "E",
    "status": "Pending",
    "rowid": "923833",
    "final_x": "3707621.78769",
    "final_y": "565639.86813",
    "longitude": "-89.98431944650785",
    "latitude": "30.048493365502853",
    "geocoded_column": {
      "latitude": "30.048493365502853",
      "longitude": "-89.98431944650785"
    }
  },
  {
    "service_request": "2022-923832",
    "request_type": "Trash/Recycling",
    "request_reason": "Request a Large Item Pick Up",
    "date_created": "2022-09-26T20:12:44.000",
    "date_modified": "2022-09-26T20:12:44.000",
    "request_status": "Pending",
    "responsible_agency": "Department of Sanitation",
    "final_address": "4221 Palmyra St",
    "address_councildis": "A",
    "status": "Assigned to Contractor",
    "contractor": "Richards Disposal",
    "rowid": "923832",
    "final_x": "3669984.269",
    "final_y": "538232.965129",
    "longitude": "-90.10420557438091",
    "latitude": "29.974298720549502",
    "geocoded_column": {
      "latitude": "29.974298720549502",
      "longitude": "-90.10420557438091"
    }
  },
  {
    "service_request": "2022-923831",
    "request_type": "Trash/Recycling",
    "request_reason": "Missed Trash Pick-Up",
    "date_created": "2022-09-26T19:59:40.000",
    "date_modified": "2022-09-26T20:00:00.000",
    "request_status": "Pending",
    "responsible_agency": "Department of Sanitation",
    "final_address": "1239 N Johnson St",
    "address_councildis": "D",
    "status": "Assigned to Contractor",
    "contractor": "Richards Disposal",
    "rowid": "923831",
    "final_x": "3679913.42984",
    "final_y": "537205.315016",
    "longitude": "-90.0728826595838",
    "latitude": "29.971176438212357",
    "geocoded_column": {
      "latitude": "29.971176438212357",
      "longitude": "-90.0728826595838"
    }
  },
  {
    "service_request": "2022-923830",
    "request_type": "Property Maintenance",
    "request_reason": "Property Maintenance",
    "date_created": "2022-09-26T19:33:59.000",
    "date_modified": "2022-09-26T19:33:59.000",
    "request_status": "Pending",
    "responsible_agency": "Department of Code Enforcement",
    "final_address": "4525 Annunciation St",
    "address_councildis": "B",
    "status": "Pending",
    "rowid": "923830",
    "final_x": "3670546.82971",
    "final_y": "517722.376118",
    "longitude": "-90.10312433963529",
    "latitude": "29.91788469437043",
    "geocoded_column": {
      "latitude": "29.91788469437043",
      "longitude": "-90.10312433963529"
    }
  },
  {
    "service_request": "2022-923829",
    "request_type": "Trash/Recycling",
    "request_reason": "Request a Large Item Pick Up",
    "date_created": "2022-09-26T19:19:28.000",
    "date_modified": "2022-09-26T19:19:29.000",
    "request_status": "Pending",
    "responsible_agency": "Department of Sanitation",
    "final_address": "30 Thrasher St",
    "address_councildis": "D",
    "status": "Assigned to Contractor",
    "contractor": "Metro Disposal",
    "rowid": "923829",
    "final_x": "3672291.07175",
    "final_y": "556368.655578",
    "longitude": "-90.09630178304178",
    "latitude": "30.024097297149435",
    "geocoded_column": {
      "latitude": "30.024097297149435",
      "longitude": "-90.09630178304178"
    }
  },
  {
    "service_request": "2022-923828",
    "request_type": "Trash/Recycling",
    "request_reason": "Missed Trash Pick-Up",
    "date_created": "2022-09-26T18:59:06.000",
    "date_modified": "2022-09-26T18:59:07.000",
    "request_status": "Pending",
    "responsible_agency": "Department of Sanitation",
    "final_address": "2227 Royal St",
    "address_councildis": "C",
    "status": "Assigned to Contractor",
    "contractor": "Metro Disposal",
    "rowid": "923828",
    "final_x": "3685391.7837",
    "final_y": "534924.807622",
    "longitude": "-90.05566161243566",
    "latitude": "29.964738994440992",
    "geocoded_column": {
      "latitude": "29.964738994440992",
      "longitude": "-90.05566161243566"
    }
  },
  {
    "service_request": "2022-923827",
    "request_type": "Trash/Recycling",
    "request_reason": "Replace Trash Cart",
    "date_created": "2022-09-26T18:57:28.000",
    "date_modified": "2022-09-26T18:57:28.000",
    "request_status": "Pending",
    "responsible_agency": "Department of Sanitation",
    "final_address": "4200 S Derbigny St",
    "address_councildis": "B",
    "status": "Assigned to Contractor",
    "contractor": "Richards Disposal",
    "rowid": "923827",
    "final_x": "3671017.79342",
    "final_y": "526280.562046",
    "longitude": "-90.10134731834214",
    "latitude": "29.941403048135324",
    "geocoded_column": {
      "latitude": "29.941403048135324",
      "longitude": "-90.10134731834214"
    }
  },
  {
    "service_request": "2022-923826",
    "request_type": "Trash/Recycling",
    "request_reason": "MIssed Recycling Pick-Up",
    "date_created": "2022-09-26T18:43:22.000",
    "date_modified": "2022-09-26T18:43:22.000",
    "request_status": "Pending",
    "responsible_agency": "Department of Sanitation",
    "final_address": "8414 Apricot St",
    "address_councildis": "A",
    "status": "Assigned to Contractor",
    "contractor": "Richards Disposal",
    "rowid": "923826",
    "final_x": "3664903.18708",
    "final_y": "533415.834436",
    "longitude": "-90.1204139362508",
    "latitude": "29.961202091423253",
    "geocoded_column": {
      "latitude": "29.961202091423253",
      "longitude": "-90.1204139362508"
    }
  },
  {
    "service_request": "2022-923825",
    "request_type": "Trash/Recycling",
    "request_reason": "Missed Trash Pick-Up",
    "date_created": "2022-09-26T18:41:14.000",
    "date_modified": "2022-09-26T18:41:15.000",
    "request_status": "Pending",
    "responsible_agency": "Department of Sanitation",
    "final_address": "228 S Scott St",
    "address_councildis": "A",
    "status": "Assigned to Contractor",
    "contractor": "Richards Disposal",
    "rowid": "923825",
    "final_x": "3671403.54267",
    "final_y": "537257.894728",
    "longitude": "-90.09975631715963",
    "latitude": "29.971575667962984",
    "geocoded_column": {
      "latitude": "29.971575667962984",
      "longitude": "-90.09975631715963"
    }
  },
  {
    "service_request": "2022-923824",
    "request_type": "Trash/Recycling",
    "request_reason": "Replace Trash Cart",
    "date_created": "2022-09-26T18:32:07.000",
    "date_modified": "2022-09-26T18:32:07.000",
    "request_status": "Pending",
    "responsible_agency": "Department of Sanitation",
    "final_address": "1200 N Derbigny St",
    "address_councildis": "D",
    "status": "Assigned to Contractor",
    "contractor": "Richards Disposal",
    "rowid": "923824",
    "final_x": "3680631.01365",
    "final_y": "536295.941895",
    "longitude": "-90.07064808101914",
    "latitude": "29.968654250760657",
    "geocoded_column": {
      "latitude": "29.968654250760657",
      "longitude": "-90.07064808101914"
    }
  },
  {
    "service_request": "2022-923823",
    "request_type": "Trash/Recycling",
    "request_reason": "Repair Trash Cart",
    "date_created": "2022-09-26T18:30:03.000",
    "date_modified": "2022-09-26T18:30:04.000",
    "request_status": "Pending",
    "responsible_agency": "Department of Sanitation",
    "final_address": "9235 Olive St",
    "address_councildis": "A",
    "status": "Assigned to Contractor",
    "contractor": "Richards Disposal",
    "rowid": "923823",
    "final_x": "3664209.91296",
    "final_y": "536996.97108",
    "longitude": "-90.12248367921805",
    "latitude": "29.971069199260093",
    "geocoded_column": {
      "latitude": "29.971069199260093",
      "longitude": "-90.12248367921805"
    }
  },
  {
    "service_request": "2022-923822",
    "request_type": "Trash/Recycling",
    "request_reason": "Order Trash Cart",
    "date_created": "2022-09-26T18:25:08.000",
    "date_modified": "2022-09-26T18:25:09.000",
    "request_status": "Pending",
    "responsible_agency": "Department of Sanitation",
    "final_address": "2541 St Peter St",
    "address_councildis": "D",
    "status": "Assigned to Contractor",
    "contractor": "Richards Disposal",
    "rowid": "923822",
    "final_x": "3677215.54638",
    "final_y": "536489.044359",
    "longitude": "-90.08142766268782",
    "latitude": "29.969288265028716",
    "geocoded_column": {
      "latitude": "29.969288265028716",
      "longitude": "-90.08142766268782"
    }
  },
  {
    "service_request": "2022-923821",
    "request_type": "Trash/Recycling",
    "request_reason": "Request a Large Item Pick Up",
    "date_created": "2022-09-26T18:24:08.000",
    "date_modified": "2022-09-26T18:24:08.000",
    "request_status": "Pending",
    "responsible_agency": "Department of Sanitation",
    "final_address": "2541 St Peter St",
    "address_councildis": "D",
    "status": "Assigned to Contractor",
    "contractor": "Richards Disposal",
    "rowid": "923821",
    "final_x": "3677215.54638",
    "final_y": "536489.044359",
    "longitude": "-90.08142766268782",
    "latitude": "29.969288265028716",
    "geocoded_column": {
      "latitude": "29.969288265028716",
      "longitude": "-90.08142766268782"
    }
  },
  {
    "service_request": "2022-923820",
    "request_type": "Trash/Recycling",
    "request_reason": "Missed Trash Pick-Up",
    "date_created": "2022-09-26T18:23:05.000",
    "date_modified": "2022-09-26T18:23:06.000",
    "request_status": "Pending",
    "responsible_agency": "Department of Sanitation",
    "final_address": "2541 St Peter St",
    "address_councildis": "D",
    "status": "Assigned to Contractor",
    "contractor": "Richards Disposal",
    "rowid": "923820",
    "final_x": "3677215.54638",
    "final_y": "536489.044359",
    "longitude": "-90.08142766268782",
    "latitude": "29.969288265028716",
    "geocoded_column": {
      "latitude": "29.969288265028716",
      "longitude": "-90.08142766268782"
    }
  },
  {
    "service_request": "2022-923819",
    "request_type": "Trash/Recycling",
    "request_reason": "Request a Large Item Pick Up",
    "date_created": "2022-09-26T18:15:22.000",
    "date_modified": "2022-09-26T18:15:23.000",
    "request_status": "Pending",
    "responsible_agency": "Department of Sanitation",
    "final_address": "2818 St Andrew St",
    "address_councildis": "B",
    "status": "Assigned to Contractor",
    "contractor": "Richards Disposal",
    "rowid": "923819",
    "final_x": "3675326.47374",
    "final_y": "527479.144767",
    "longitude": "-90.08770282539254",
    "latitude": "29.944570671253903",
    "geocoded_column": {
      "latitude": "29.944570671253903",
      "longitude": "-90.08770282539254"
    }
  },
  {
    "service_request": "2022-923818",
    "request_type": "Trash/Recycling",
    "request_reason": "Repair Trash Cart",
    "date_created": "2022-09-26T18:13:13.000",
    "date_modified": "2022-09-26T18:14:35.000",
    "request_status": "Pending",
    "responsible_agency": "Department of Sanitation",
    "final_address": "3123 Rabbits St",
    "address_councildis": "D",
    "status": "Assigned to Contractor",
    "contractor": "Metro Disposal",
    "rowid": "923818",
    "final_x": "3688390.0463",
    "final_y": "544550.789199",
    "longitude": "-90.04585177088299",
    "latitude": "29.99111477127163",
    "geocoded_column": {
      "latitude": "29.99111477127163",
      "longitude": "-90.04585177088299"
    }
  },
  {
    "service_request": "2022-923817",
    "request_type": "Health Related Questions",
    "request_reason": "Noise Ordinance Complaint",
    "date_created": "2022-09-26T18:07:49.000",
    "date_modified": "2022-09-26T18:07:49.000",
    "request_status": "Pending",
    "responsible_agency": "Health Department",
    "final_address": "818 Moss St",
    "address_councildis": "A",
    "status": "Pending",
    "rowid": "923817",
    "final_x": "3674653.47483",
    "final_y": "539195.949194",
    "longitude": "-90.08942608884169",
    "latitude": "29.976808052790876",
    "geocoded_column": {
      "latitude": "29.976808052790876",
      "longitude": "-90.08942608884169"
    }
  },
  {
    "service_request": "2022-923816",
    "request_type": "Trash/Recycling",
    "request_reason": "Repair Trash Cart",
    "date_created": "2022-09-26T17:56:47.000",
    "date_modified": "2022-09-26T17:56:48.000",
    "request_status": "Pending",
    "responsible_agency": "Department of Sanitation",
    "final_address": "216 S Dupre St",
    "address_councildis": "B",
    "status": "Assigned to Contractor",
    "contractor": "Richards Disposal",
    "rowid": "923816",
    "final_x": "3674303.70017",
    "final_y": "535159.959494",
    "longitude": "-90.0906690293288",
    "latitude": "29.965720886475896",
    "geocoded_column": {
      "latitude": "29.965720886475896",
      "longitude": "-90.0906690293288"
    }
  },
  {
    "service_request": "2022-923815",
    "request_type": "Roads/Drainage",
    "request_reason": "Pothole",
    "date_created": "2022-09-26T17:52:00.000",
    "date_modified": "2022-09-26T17:52:00.000",
    "request_status": "Pending",
    "responsible_agency": "Department of Public Works",
    "final_address": "424 Loyola Ave",
    "address_councildis": "B",
    "status": "Pending",
    "rowid": "923815",
    "final_x": "3679192.22018",
    "final_y": "530013.670145",
    "longitude": "-90.07540967636464",
    "latitude": "29.951423650360137",
    "geocoded_column": {
      "latitude": "29.951423650360137",
      "longitude": "-90.07540967636464"
    }
  },
  {
    "service_request": "2022-923814",
    "request_type": "Property Maintenance",
    "request_reason": "Property Maintenance",
    "date_created": "2022-09-26T17:51:27.000",
    "date_modified": "2022-09-26T17:51:27.000",
    "request_status": "Pending",
    "responsible_agency": "Department of Code Enforcement",
    "final_address": "1110 Kabel Dr",
    "address_councildis": "C",
    "status": "Pending",
    "rowid": "923814",
    "final_x": "3700871.61085",
    "final_y": "523480.715323",
    "longitude": "-90.0071959516777",
    "latitude": "29.93278808884642",
    "geocoded_column": {
      "latitude": "29.93278808884642",
      "longitude": "-90.0071959516777"
    }
  },
  {
    "service_request": "2022-923813",
    "request_type": "Trash/Recycling",
    "request_reason": "Illegal Dumping",
    "date_created": "2022-09-26T17:46:03.000",
    "date_modified": "2022-09-26T17:46:03.000",
    "request_status": "Pending",
    "responsible_agency": "Department of Sanitation",
    "final_address": "7700 BLK Curran Rd",
    "address_councildis": "E",
    "status": "Pending",
    "rowid": "923813",
    "final_x": "3701336.19867",
    "final_y": "561239.156181",
    "longitude": "-90.00434676882887",
    "latitude": "30.036595112356743",
    "geocoded_column": {
      "latitude": "30.036595112356743",
      "longitude": "-90.00434676882887"
    }
  },
  {
    "service_request": "2022-923812",
    "request_type": "Roads/Drainage",
    "request_reason": "Pothole",
    "date_created": "2022-09-26T17:44:26.000",
    "date_modified": "2022-09-26T17:44:26.000",
    "request_status": "Pending",
    "responsible_agency": "Department of Public Works",
    "final_address": "741 Navarre St",
    "address_councildis": "A",
    "status": "Pending",
    "rowid": "923812",
    "final_x": "3668643.71726",
    "final_y": "543876.248974",
    "longitude": "-90.10824881076562",
    "latitude": "29.98985530986403",
    "geocoded_column": {
      "latitude": "29.98985530986403",
      "longitude": "-90.10824881076562"
    }
  },
  {
    "service_request": "2022-923811",
    "request_type": "Trash/Recycling",
    "request_reason": "Missed Trash Pick-Up",
    "date_created": "2022-09-26T17:43:29.000",
    "date_modified": "2022-09-26T17:43:30.000",
    "request_status": "Pending",
    "responsible_agency": "Department of Sanitation",
    "final_address": "2676 Wisteria St",
    "address_councildis": "D",
    "status": "Assigned to Contractor",
    "contractor": "Metro Disposal",
    "rowid": "923811",
    "final_x": "3687621.90108",
    "final_y": "548347.23829",
    "longitude": "-90.04814365178576",
    "latitude": "30.00157734700328",
    "geocoded_column": {
      "latitude": "30.00157734700328",
      "longitude": "-90.04814365178576"
    }
  },
  {
    "service_request": "2022-923809",
    "request_type": "Trash/Recycling",
    "request_reason": "Start Trash Service",
    "date_created": "2022-09-26T17:35:32.000",
    "date_modified": "2022-09-26T17:35:33.000",
    "request_status": "Pending",
    "responsible_agency": "Department of Sanitation",
    "final_address": "1623 Piety St",
    "address_councildis": "D",
    "status": "Assigned to Contractor",
    "contractor": "Metro Disposal",
    "rowid": "923809",
    "final_x": "3690401.1455",
    "final_y": "537895.329161",
    "longitude": "-90.03973653760335",
    "latitude": "29.972752345469978",
    "geocoded_column": {
      "latitude": "29.972752345469978",
      "longitude": "-90.03973653760335"
    }
  },
  {
    "service_request": "2022-923808",
    "request_type": "Trash/Recycling",
    "request_reason": "Order Trash Cart",
    "date_created": "2022-09-26T17:35:16.000",
    "date_modified": "2022-09-26T17:35:17.000",
    "request_status": "Pending",
    "responsible_agency": "Department of Sanitation",
    "final_address": "1623 Piety St",
    "address_councildis": "D",
    "status": "Assigned to Contractor",
    "contractor": "Metro Disposal",
    "rowid": "923808",
    "final_x": "3690401.1455",
    "final_y": "537895.329161",
    "longitude": "-90.03973653760335",
    "latitude": "29.972752345469978",
    "geocoded_column": {
      "latitude": "29.972752345469978",
      "longitude": "-90.03973653760335"
    }
  },
  {
    "service_request": "2022-923806",
    "request_type": "Property Maintenance",
    "request_reason": "Property Maintenance",
    "date_created": "2022-09-26T17:16:52.000",
    "date_modified": "2022-09-26T17:16:52.000",
    "request_status": "Pending",
    "responsible_agency": "Department of Code Enforcement",
    "final_address": "1321 S Derbigny St",
    "address_councildis": "B",
    "status": "Pending",
    "rowid": "923806",
    "final_x": "3674934.65691",
    "final_y": "528705.32672",
    "longitude": "-90.08889786261544",
    "latitude": "29.94795397293434",
    "geocoded_column": {
      "latitude": "29.94795397293434",
      "longitude": "-90.08889786261544"
    }
  },
  {
    "service_request": "2022-923805",
    "request_type": "Trash/Recycling",
    "request_reason": "Illegal Dumping",
    "date_created": "2022-09-26T17:14:49.000",
    "date_modified": "2022-09-26T17:14:49.000",
    "request_status": "Pending",
    "responsible_agency": "Department of Sanitation",
    "final_address": "3416 First St",
    "address_councildis": "B",
    "status": "Pending",
    "rowid": "923805",
    "final_x": "3673325.97985",
    "final_y": "528637.708736",
    "longitude": "-90.09397941982209",
    "latitude": "29.94781598707492",
    "geocoded_column": {
      "latitude": "29.94781598707492",
      "longitude": "-90.09397941982209"
    }
  },
  {
    "service_request": "2022-923804",
    "request_type": "Traffic Signals/Signs/Striping/Streetlights",
    "request_reason": "Traffic Signal Malfunctioning/Damaged",
    "date_created": "2022-09-26T17:14:46.000",
    "date_modified": "2022-09-26T17:14:47.000",
    "request_status": "Pending",
    "responsible_agency": "Department of Public Works",
    "final_address": "GENERAL DE GAULLE DR & WOODLAND DR",
    "address_councildis": "C",
    "status": "Pending",
    "rowid": "923804",
    "final_x": "3705348.1",
    "final_y": "514982.18",
    "longitude": "-89.99337788359405",
    "latitude": "29.909276849557717",
    "geocoded_column": {
      "latitude": "29.909276849557717",
      "longitude": "-89.99337788359405"
    }
  },
  {
    "service_request": "2022-923803",
    "request_type": "Property Maintenance",
    "request_reason": "Property Maintenance",
    "date_created": "2022-09-26T17:10:13.000",
    "date_modified": "2022-09-26T17:10:13.000",
    "request_status": "Pending",
    "responsible_agency": "Department of Code Enforcement",
    "final_address": "1319 S Derbigny St",
    "address_councildis": "B",
    "status": "Pending",
    "rowid": "923803",
    "final_x": "3674940.39592",
    "final_y": "528709.48352",
    "longitude": "-90.08887959969233",
    "latitude": "29.94796523137609",
    "geocoded_column": {
      "latitude": "29.94796523137609",
      "longitude": "-90.08887959969233"
    }
  },
  {
    "service_request": "2022-923802",
    "request_type": "Trash/Recycling",
    "request_reason": "Missed Trash Pick-Up",
    "date_created": "2022-09-26T17:05:52.000",
    "date_modified": "2022-09-26T17:05:53.000",
    "request_status": "Pending",
    "responsible_agency": "Department of Sanitation",
    "final_address": "2676 Wisteria St",
    "address_councildis": "D",
    "status": "Assigned to Contractor",
    "contractor": "Metro Disposal",
    "rowid": "923802",
    "final_x": "3687621.90108",
    "final_y": "548347.23829",
    "longitude": "-90.04814365178576",
    "latitude": "30.00157734700328",
    "geocoded_column": {
      "latitude": "30.00157734700328",
      "longitude": "-90.04814365178576"
    }
  },
  {
    "service_request": "2022-923801",
    "request_type": "Trash/Recycling",
    "request_reason": "MIssed Recycling Pick-Up",
    "date_created": "2022-09-26T16:59:56.000",
    "date_modified": "2022-09-26T16:59:56.000",
    "request_status": "Pending",
    "responsible_agency": "Department of Sanitation",
    "final_address": "1723 Nie Prkwy",
    "address_councildis": "C",
    "status": "Assigned to Contractor",
    "contractor": "Richards Disposal",
    "rowid": "923801",
    "final_x": "3701147.1201",
    "final_y": "524454.590076",
    "longitude": "-90.00629059023235",
    "latitude": "29.935457135121954",
    "geocoded_column": {
      "latitude": "29.935457135121954",
      "longitude": "-90.00629059023235"
    }
  },
  {
    "service_request": "2022-923800",
    "request_type": "Trash/Recycling",
    "request_reason": "Illegal Dumping",
    "date_created": "2022-09-26T16:59:03.000",
    "date_modified": "2022-09-26T17:00:04.000",
    "request_status": "Pending",
    "responsible_agency": "Department of Code Enforcement",
    "final_address": "2129 Toledano St",
    "address_councildis": "B",
    "status": "Pending",
    "rowid": "923800",
    "final_x": "3673796.70273",
    "final_y": "523594.748475",
    "longitude": "-90.09266556199856",
    "latitude": "29.933935488337923",
    "geocoded_column": {
      "latitude": "29.933935488337923",
      "longitude": "-90.09266556199856"
    }
  },
  {
    "service_request": "2022-923798",
    "request_type": "Trash/Recycling",
    "request_reason": "Return Trash Cart",
    "date_created": "2022-09-26T16:58:19.000",
    "date_modified": "2022-09-26T16:58:20.000",
    "request_status": "Pending",
    "responsible_agency": "Department of Sanitation",
    "final_address": "2129 Toledano St",
    "address_councildis": "B",
    "status": "Assigned to Contractor",
    "contractor": "Richards Disposal",
    "rowid": "923798",
    "final_x": "3673796.70273",
    "final_y": "523594.748475",
    "longitude": "-90.09266556199856",
    "latitude": "29.933935488337923",
    "geocoded_column": {
      "latitude": "29.933935488337923",
      "longitude": "-90.09266556199856"
    }
  },
  {
    "service_request": "2022-923797",
    "request_type": "Trash/Recycling",
    "request_reason": "MIssed Recycling Pick-Up",
    "date_created": "2022-09-26T16:56:53.000",
    "date_modified": "2022-09-26T16:56:53.000",
    "request_status": "Pending",
    "responsible_agency": "Department of Sanitation",
    "final_address": "2424 Chelsea Dr",
    "address_councildis": "C",
    "status": "Assigned to Contractor",
    "contractor": "Richards Disposal",
    "rowid": "923797",
    "final_x": "3704812.57412",
    "final_y": "522445.613626",
    "longitude": "-89.99479291180056",
    "latitude": "29.92981591915055",
    "geocoded_column": {
      "latitude": "29.92981591915055",
      "longitude": "-89.99479291180056"
    }
  },
  {
    "service_request": "2022-923796",
    "request_type": "Property Maintenance",
    "request_reason": "Property Maintenance",
    "date_created": "2022-09-26T16:56:09.000",
    "date_modified": "2022-09-26T16:56:09.000",
    "request_status": "Pending",
    "responsible_agency": "Department of Code Enforcement",
    "final_address": "6110 Lafaye St",
    "address_councildis": "D",
    "status": "Pending",
    "rowid": "923796",
    "final_x": "3687040.72073",
    "final_y": "555730.210329",
    "longitude": "-90.0497183742899",
    "latitude": "30.021895724083542",
    "geocoded_column": {
      "latitude": "30.021895724083542",
      "longitude": "-90.0497183742899"
    }
  },
  {
    "service_request": "2022-923795",
    "request_type": "Mosquito, Termite & Rodent Control",
    "request_reason": "Non-Rodent Complaint (Mice, Possums, Snakes)",
    "date_created": "2022-09-26T16:55:08.000",
    "date_modified": "2022-09-26T16:55:09.000",
    "request_status": "Pending",
    "responsible_agency": "Mosquito, Termite & Rodent Control Board",
    "final_address": "2226 Monticello St",
    "address_councildis": "E",
    "status": "Pending",
    "rowid": "923795",
    "final_x": "3700622.94954",
    "final_y": "537679.93684",
    "longitude": "-90.00746226471689",
    "latitude": "29.971838828046785",
    "geocoded_column": {
      "latitude": "29.971838828046785",
      "longitude": "-90.00746226471689"
    }
  },
  {
    "service_request": "2022-923794",
    "request_type": "Traffic Signals/Signs/Striping/Streetlights",
    "request_reason": "Street Light Outage/Malfunction",
    "date_created": "2022-09-26T16:55:00.000",
    "date_modified": "2022-09-26T16:55:01.000",
    "request_status": "Pending",
    "responsible_agency": "Department of Public Works",
    "final_address": "1567 Maura Pl",
    "address_councildis": "C",
    "status": "Pending",
    "contractor": "Legacy Professional Services",
    "rowid": "923794",
    "final_x": "3699194.83517",
    "final_y": "525179.729725",
    "longitude": "-90.01242753696253",
    "latitude": "29.93751304349365",
    "geocoded_column": {
      "latitude": "29.93751304349365",
      "longitude": "-90.01242753696253"
    }
  },
  {
    "service_request": "2022-923793",
    "request_type": "Traffic Signals/Signs/Striping/Streetlights",
    "request_reason": "Street Light Outage/Malfunction",
    "date_created": "2022-09-26T16:53:49.000",
    "date_modified": "2022-09-26T16:53:50.000",
    "request_status": "Pending",
    "responsible_agency": "Department of Public Works",
    "final_address": "1567 Maura Pl",
    "address_councildis": "C",
    "status": "Pending",
    "contractor": "Legacy Professional Services",
    "rowid": "923793",
    "final_x": "3699194.83517",
    "final_y": "525179.729725",
    "longitude": "-90.01242753696253",
    "latitude": "29.93751304349365",
    "geocoded_column": {
      "latitude": "29.93751304349365",
      "longitude": "-90.01242753696253"
    }
  },
  {
    "service_request": "2022-923792",
    "request_type": "Trash/Recycling",
    "request_reason": "Missed Trash Pick-Up",
    "date_created": "2022-09-26T16:51:29.000",
    "date_modified": "2022-09-26T16:51:29.000",
    "request_status": "Pending",
    "responsible_agency": "Department of Sanitation",
    "final_address": "221 S Genois St",
    "address_councildis": "B",
    "status": "Assigned to Contractor",
    "contractor": "Richards Disposal",
    "rowid": "923792",
    "final_x": "3672170.85627",
    "final_y": "536748.918728",
    "longitude": "-90.09735036031731",
    "latitude": "29.970153419346236",
    "geocoded_column": {
      "latitude": "29.970153419346236",
      "longitude": "-90.09735036031731"
    }
  },
  {
    "service_request": "2022-923791",
    "request_type": "Property Maintenance",
    "request_reason": "Property Maintenance",
    "date_created": "2022-09-26T16:46:22.000",
    "date_modified": "2022-09-26T16:46:22.000",
    "request_status": "Pending",
    "responsible_agency": "Department of Code Enforcement",
    "final_address": "2200 Monticello St",
    "address_councildis": "E",
    "status": "Pending",
    "rowid": "923791",
    "final_x": "3700541.97757",
    "final_y": "537493.617416",
    "longitude": "-90.00772479263561",
    "latitude": "29.971329093027084",
    "geocoded_column": {
      "latitude": "29.971329093027084",
      "longitude": "-90.00772479263561"
    }
  },
  {
    "service_request": "2022-923790",
    "request_type": "Property Maintenance",
    "request_reason": "Property Maintenance",
    "date_created": "2022-09-26T16:45:32.000",
    "date_modified": "2022-09-26T16:45:32.000",
    "request_status": "Pending",
    "responsible_agency": "Department of Code Enforcement",
    "final_address": "2204 Monticello St",
    "address_councildis": "E",
    "status": "Pending",
    "rowid": "923790",
    "final_x": "3700550.58705",
    "final_y": "537522.476104",
    "longitude": "-90.00769654845931",
    "latitude": "29.971408170110404",
    "geocoded_column": {
      "latitude": "29.971408170110404",
      "longitude": "-90.00769654845931"
    }
  },
  {
    "service_request": "2022-923789",
    "request_type": "Property Maintenance",
    "request_reason": "Property Maintenance",
    "date_created": "2022-09-26T16:44:51.000",
    "date_modified": "2022-09-26T16:44:51.000",
    "request_status": "Pending",
    "responsible_agency": "Department of Code Enforcement",
    "final_address": "2212 Monticello St",
    "address_councildis": "E",
    "status": "Pending",
    "rowid": "923789",
    "final_x": "3700562.55965",
    "final_y": "537551.44628",
    "longitude": "-90.0076576790113",
    "latitude": "29.971487446751354",
    "geocoded_column": {
      "latitude": "29.971487446751354",
      "longitude": "-90.0076576790113"
    }
  },
  {
    "service_request": "2022-923788",
    "request_type": "Property Maintenance",
    "request_reason": "Property Maintenance",
    "date_created": "2022-09-26T16:44:20.000",
    "date_modified": "2022-09-26T16:44:20.000",
    "request_status": "Pending",
    "responsible_agency": "Department of Code Enforcement",
    "final_address": "2208 Monticello St",
    "address_councildis": "E",
    "status": "Pending",
    "rowid": "923788",
    "final_x": "3700573.88714",
    "final_y": "537580.358216",
    "longitude": "-90.0076208489692",
    "latitude": "29.97156658376383",
    "geocoded_column": {
      "latitude": "29.97156658376383",
      "longitude": "-90.0076208489692"
    }
  },
  {
    "service_request": "2022-923787",
    "request_type": "Trash/Recycling",
    "request_reason": "Missed Trash Pick-Up",
    "date_created": "2022-09-26T16:44:02.000",
    "date_modified": "2022-09-26T16:44:03.000",
    "request_status": "Pending",
    "responsible_agency": "Department of Sanitation",
    "final_address": "418 S Scott St",
    "address_councildis": "B",
    "status": "Assigned to Contractor",
    "contractor": "Richards Disposal",
    "rowid": "923787",
    "final_x": "3670952.65121",
    "final_y": "536682.005383",
    "longitude": "-90.1011998601443",
    "latitude": "29.970005505535237",
    "geocoded_column": {
      "latitude": "29.970005505535237",
      "longitude": "-90.1011998601443"
    }
  },
  {
    "service_request": "2022-923786",
    "request_type": "Trash/Recycling",
    "request_reason": "MIssed Recycling Pick-Up",
    "date_created": "2022-09-26T16:42:41.000",
    "date_modified": "2022-09-26T16:42:42.000",
    "request_status": "Pending",
    "responsible_agency": "Department of Sanitation",
    "final_address": "2137 Jackson Ave",
    "address_councildis": "B",
    "status": "Assigned to Contractor",
    "contractor": "Richards Disposal",
    "rowid": "923786",
    "final_x": "3676081.96597",
    "final_y": "525817.240317",
    "longitude": "-90.08537465936054",
    "latitude": "29.939978377456967",
    "geocoded_column": {
      "latitude": "29.939978377456967",
      "longitude": "-90.08537465936054"
    }
  },
  {
    "service_request": "2022-923785",
    "request_type": "Property Maintenance",
    "request_reason": "Property Maintenance",
    "date_created": "2022-09-26T16:40:17.000",
    "date_modified": "2022-09-26T16:40:17.000",
    "request_status": "Pending",
    "responsible_agency": "Department of Code Enforcement",
    "final_address": "2226 Monticello St",
    "address_councildis": "E",
    "status": "Pending",
    "rowid": "923785",
    "final_x": "3700622.94954",
    "final_y": "537679.93684",
    "longitude": "-90.00746226471689",
    "latitude": "29.971838828046785",
    "geocoded_column": {
      "latitude": "29.971838828046785",
      "longitude": "-90.00746226471689"
    }
  },
  {
    "service_request": "2022-923784",
    "request_type": "Traffic Signals/Signs/Striping/Streetlights",
    "request_reason": "Street Light Outage/Malfunction",
    "date_created": "2022-09-26T16:37:32.000",
    "date_modified": "2022-09-26T16:37:32.000",
    "request_status": "Pending",
    "responsible_agency": "Department of Public Works",
    "final_address": "2416 Broadway St",
    "address_councildis": "A",
    "status": "Pending",
    "contractor": "Legacy Professional Services",
    "rowid": "923784",
    "final_x": "3666634.66746",
    "final_y": "530275.214657",
    "longitude": "-90.11505165675878",
    "latitude": "29.952515904601903",
    "geocoded_column": {
      "latitude": "29.952515904601903",
      "longitude": "-90.11505165675878"
    }
  },
  {
    "service_request": "2022-923783",
    "request_type": "Property Maintenance",
    "request_reason": "Property Maintenance",
    "date_created": "2022-09-26T16:37:31.000",
    "date_modified": "2022-09-26T16:37:31.000",
    "request_status": "Pending",
    "responsible_agency": "Department of Code Enforcement",
    "final_address": "2218 Monticello St",
    "address_councildis": "E",
    "status": "Pending",
    "rowid": "923783",
    "final_x": "3700590.71249",
    "final_y": "537621.733576",
    "longitude": "-90.00756620049175",
    "latitude": "29.971679815763846",
    "geocoded_column": {
      "latitude": "29.971679815763846",
      "longitude": "-90.00756620049175"
    }
  },
  {
    "service_request": "2022-923782",
    "request_type": "Trash/Recycling",
    "request_reason": "Missed Trash Pick-Up",
    "date_created": "2022-09-26T16:35:24.000",
    "date_modified": "2022-09-26T16:35:25.000",
    "request_status": "Pending",
    "responsible_agency": "Department of Sanitation",
    "final_address": "2416 Broadway St",
    "address_councildis": "A",
    "status": "Assigned to Contractor",
    "contractor": "Richards Disposal",
    "rowid": "923782",
    "final_x": "3666634.66746",
    "final_y": "530275.214657",
    "longitude": "-90.11505165675878",
    "latitude": "29.952515904601903",
    "geocoded_column": {
      "latitude": "29.952515904601903",
      "longitude": "-90.11505165675878"
    }
  },
  {
    "service_request": "2022-923780",
    "request_type": "Abandoned Vehicles",
    "request_reason": "Abandoned/Junk Vehicles",
    "date_created": "2022-09-26T16:30:22.000",
    "date_modified": "2022-09-26T16:31:36.000",
    "request_status": "Pending",
    "responsible_agency": "Department of Public Works",
    "final_address": "2700 BLK Clover St",
    "address_councildis": "D",
    "status": "Pending",
    "rowid": "923780",
    "final_x": "3688177.61016",
    "final_y": "546726.257385",
    "longitude": "-90.04644562862457",
    "latitude": "29.997103086879267",
    "geocoded_column": {
      "latitude": "29.997103086879267",
      "longitude": "-90.04644562862457"
    }
  },
  {
    "service_request": "2022-923779",
    "request_type": "Property Maintenance",
    "request_reason": "Property Maintenance",
    "date_created": "2022-09-26T16:29:24.000",
    "date_modified": "2022-09-26T16:29:24.000",
    "request_status": "Pending",
    "responsible_agency": "Department of Code Enforcement",
    "final_address": "2765 Acacia St",
    "address_councildis": "D",
    "status": "Pending",
    "rowid": "923779",
    "final_x": "3688353.53955",
    "final_y": "546534.647633",
    "longitude": "-90.04589667765197",
    "latitude": "29.996570795246967",
    "geocoded_column": {
      "latitude": "29.996570795246967",
      "longitude": "-90.04589667765197"
    }
  },
  {
    "service_request": "2022-923778",
    "request_type": "Trash/Recycling",
    "request_reason": "Order Recycling Cart",
    "date_created": "2022-09-26T16:29:16.000",
    "date_modified": "2022-09-26T16:29:17.000",
    "request_status": "Pending",
    "responsible_agency": "Department of Sanitation",
    "final_address": "7310 Zimple St",
    "address_councildis": "A",
    "status": "Pending",
    "rowid": "923778",
    "final_x": "3663619.11072",
    "final_y": "526387.838334",
    "longitude": "-90.12470293100033",
    "latitude": "29.941914684270483",
    "geocoded_column": {
      "latitude": "29.941914684270483",
      "longitude": "-90.12470293100033"
    }
  },
  {
    "service_request": "2022-923777",
    "request_type": "Property Maintenance",
    "request_reason": "Property Maintenance",
    "date_created": "2022-09-26T16:27:09.000",
    "date_modified": "2022-09-26T16:27:10.000",
    "request_status": "Pending",
    "responsible_agency": "Department of Code Enforcement",
    "final_address": "14771 Beekman Rd",
    "address_councildis": "E",
    "status": "Pending",
    "rowid": "923777",
    "final_x": "3721141.66463",
    "final_y": "574070.990186",
    "longitude": "-89.94126556240016",
    "latitude": "30.07123083176266",
    "geocoded_column": {
      "latitude": "30.07123083176266",
      "longitude": "-89.94126556240016"
    }
  },
  {
    "service_request": "2022-923776",
    "request_type": "Property Maintenance",
    "request_reason": "Property Maintenance",
    "date_created": "2022-09-26T16:24:02.000",
    "date_modified": "2022-09-26T16:24:03.000",
    "request_status": "Pending",
    "responsible_agency": "Department of Code Enforcement",
    "final_address": "215 N Tonti St",
    "address_councildis": "B",
    "status": "Pending",
    "rowid": "923776",
    "final_x": "3676697.55323",
    "final_y": "534807.376966",
    "longitude": "-90.08312147170945",
    "latitude": "29.96467980199145",
    "geocoded_column": {
      "latitude": "29.96467980199145",
      "longitude": "-90.08312147170945"
    }
  },
  {
    "service_request": "2022-923775",
    "request_type": "Trash/Recycling",
    "request_reason": "Request a Large Item Pick Up",
    "date_created": "2022-09-26T16:21:39.000",
    "date_modified": "2022-09-26T16:21:39.000",
    "request_status": "Pending",
    "responsible_agency": "Department of Sanitation",
    "final_address": "7923 Hampson St, New Orleans, Louisiana, 70118",
    "address_councildis": "A",
    "status": "Assigned to Contractor",
    "contractor": "Richards Disposal",
    "rowid": "923775",
    "final_x": "3661253.54458",
    "final_y": "526736.87635",
    "longitude": "-90.13216000824997",
    "latitude": "29.942942825642923",
    "geocoded_column": {
      "latitude": "29.942942825642923",
      "longitude": "-90.13216000824997"
    }
  },
  {
    "service_request": "2022-923774",
    "request_type": "Trash/Recycling",
    "request_reason": "Order Recycling Cart",
    "date_created": "2022-09-26T16:18:26.000",
    "date_modified": "2022-09-26T16:18:26.000",
    "request_status": "Pending",
    "responsible_agency": "Department of Sanitation",
    "final_address": "3310 Desaix Blvd",
    "address_councildis": "A",
    "status": "Pending",
    "rowid": "923774",
    "final_x": "3677473.98376",
    "final_y": "543494.953038",
    "longitude": "-90.08036956071709",
    "latitude": "29.98854433077897",
    "geocoded_column": {
      "latitude": "29.98854433077897",
      "longitude": "-90.08036956071709"
    }
  },
  {
    "service_request": "2022-923773",
    "request_type": "Trash/Recycling",
    "request_reason": "MIssed Recycling Pick-Up",
    "date_created": "2022-09-26T16:17:54.000",
    "date_modified": "2022-09-26T16:17:55.000",
    "request_status": "Pending",
    "responsible_agency": "Department of Sanitation",
    "final_address": "1501 Robert C. Blakes, Sr. Dr",
    "address_councildis": "B",
    "status": "Assigned to Contractor",
    "contractor": "Richards Disposal",
    "rowid": "923773",
    "final_x": "3678754.09442",
    "final_y": "525763.446525",
    "longitude": "-90.07694021276419",
    "latitude": "29.939750169034177",
    "geocoded_column": {
      "latitude": "29.939750169034177",
      "longitude": "-90.07694021276419"
    }
  },
  {
    "service_request": "2022-923772",
    "request_type": "Roads/Drainage",
    "request_reason": "Pothole",
    "date_created": "2022-09-26T16:16:33.000",
    "date_modified": "2022-09-26T16:19:16.000",
    "request_status": "Pending",
    "responsible_agency": "Department of Public Works",
    "final_address": "BULLARD AVE & CURRAN BLVD",
    "address_councildis": "E",
    "status": "Pending",
    "rowid": "923772",
    "final_x": "3712916.1",
    "final_y": "567734.88",
    "longitude": "-89.9675075729549",
    "latitude": "30.05408134723991",
    "geocoded_column": {
      "latitude": "30.05408134723991",
      "longitude": "-89.9675075729549"
    }
  },
  {
    "service_request": "2022-923771",
    "request_type": "Trash/Recycling",
    "request_reason": "MIssed Recycling Pick-Up",
    "date_created": "2022-09-26T16:16:30.000",
    "date_modified": "2022-09-26T16:16:31.000",
    "request_status": "Pending",
    "responsible_agency": "Department of Sanitation",
    "final_address": "2931 Bacchus Dr",
    "address_councildis": "C",
    "status": "Assigned to Contractor",
    "contractor": "Richards Disposal",
    "rowid": "923771",
    "final_x": "3710161.84862",
    "final_y": "518643.020343",
    "longitude": "-89.97804832129685",
    "latitude": "29.919187220615434",
    "geocoded_column": {
      "latitude": "29.919187220615434",
      "longitude": "-89.97804832129685"
    }
  },
  {
    "service_request": "2022-923770",
    "request_type": "Property Maintenance",
    "request_reason": "Property Maintenance",
    "date_created": "2022-09-26T16:13:49.000",
    "date_modified": "2022-09-26T16:13:49.000",
    "request_status": "Pending",
    "responsible_agency": "Department of Code Enforcement",
    "final_address": "2216 Benton St",
    "address_councildis": "E",
    "status": "Pending",
    "rowid": "923770",
    "final_x": "3700427.88855",
    "final_y": "537669.926536",
    "longitude": "-90.00807865954653",
    "latitude": "29.971817508079123",
    "geocoded_column": {
      "latitude": "29.971817508079123",
      "longitude": "-90.00807865954653"
    }
  },
  {
    "service_request": "2022-923769",
    "request_type": "Abandoned Vehicles",
    "request_reason": "Abandoned/Junk Vehicles",
    "date_created": "2022-09-26T16:12:41.000",
    "date_modified": "2022-09-26T16:15:03.000",
    "request_status": "Pending",
    "responsible_agency": "Department of Public Works",
    "final_address": "215 N Tonti St",
    "address_councildis": "B",
    "status": "Pending",
    "rowid": "923769",
    "final_x": "3676697.55323",
    "final_y": "534807.376966",
    "longitude": "-90.08312147170945",
    "latitude": "29.96467980199145",
    "geocoded_column": {
      "latitude": "29.96467980199145",
      "longitude": "-90.08312147170945"
    }
  },
  {
    "service_request": "2022-923768",
    "request_type": "Trash/Recycling",
    "request_reason": "Illegal Dumping",
    "date_created": "2022-09-26T16:10:49.000",
    "date_modified": "2022-09-26T16:10:50.000",
    "request_status": "Pending",
    "responsible_agency": "Department of Sanitation",
    "final_address": "2338 Bienville Ave",
    "address_councildis": "B",
    "status": "Pending",
    "rowid": "923768",
    "final_x": "3676872.50081",
    "final_y": "534841.236358",
    "longitude": "-90.0825678318491",
    "latitude": "29.96476765405294",
    "geocoded_column": {
      "latitude": "29.96476765405294",
      "longitude": "-90.0825678318491"
    }
  },
  {
    "service_request": "2022-923767",
    "request_type": "Trash/Recycling",
    "request_reason": "Replace Trash Cart",
    "date_created": "2022-09-26T16:08:48.000",
    "date_modified": "2022-09-26T16:08:48.000",
    "request_status": "Pending",
    "responsible_agency": "Department of Sanitation",
    "final_address": "418 Wallace Dr",
    "address_councildis": "D",
    "status": "Assigned to Contractor",
    "contractor": "Metro Disposal",
    "rowid": "923767",
    "final_x": "3681623.76098",
    "final_y": "548441.416274",
    "longitude": "-90.06708906645922",
    "latitude": "30.002019923823312",
    "geocoded_column": {
      "latitude": "30.002019923823312",
      "longitude": "-90.06708906645922"
    }
  },
  {
    "service_request": "2022-923766",
    "request_type": "Traffic Signals/Signs/Striping/Streetlights",
    "request_reason": "Street Light Outage/Malfunction",
    "date_created": "2022-09-26T16:04:41.000",
    "date_modified": "2022-09-26T16:04:42.000",
    "request_status": "Pending",
    "responsible_agency": "Department of Public Works",
    "final_address": "8812 Gervais St",
    "address_councildis": "E",
    "status": "Pending",
    "contractor": "Legacy Professional Services",
    "rowid": "923766",
    "final_x": "3704640.65828",
    "final_y": "563046.686304",
    "longitude": "-89.99383729646004",
    "latitude": "30.041459311214584",
    "geocoded_column": {
      "latitude": "30.041459311214584",
      "longitude": "-89.99383729646004"
    }
  },
  {
    "service_request": "2022-923765",
    "request_type": "Trash/Recycling",
    "request_reason": "Missed Trash Pick-Up",
    "date_created": "2022-09-26T16:03:03.000",
    "date_modified": "2022-09-26T16:03:03.000",
    "request_status": "Pending",
    "responsible_agency": "Department of Sanitation",
    "final_address": "4202 State Street Dr",
    "address_councildis": "B",
    "status": "Assigned to Contractor",
    "contractor": "Richards Disposal",
    "rowid": "923765",
    "final_x": "3668448.64756",
    "final_y": "531141.238978",
    "longitude": "-90.10929470214377",
    "latitude": "29.95484403130171",
    "geocoded_column": {
      "latitude": "29.95484403130171",
      "longitude": "-90.10929470214377"
    }
  },
  {
    "service_request": "2022-923764",
    "request_type": "Trash/Recycling",
    "request_reason": "Replace Trash Cart",
    "date_created": "2022-09-26T16:02:59.000",
    "date_modified": "2022-09-26T16:03:00.000",
    "request_status": "Pending",
    "responsible_agency": "Department of Sanitation",
    "final_address": "3345 St Philip St",
    "address_councildis": "A",
    "status": "Assigned to Contractor",
    "contractor": "Richards Disposal",
    "rowid": "923764",
    "final_x": "3675103.38977",
    "final_y": "539664.949642",
    "longitude": "-90.08798901543601",
    "latitude": "29.978084205881284",
    "geocoded_column": {
      "latitude": "29.978084205881284",
      "longitude": "-90.08798901543601"
    }
  },
  {
    "service_request": "2022-923763",
    "request_type": "Trash/Recycling",
    "request_reason": "Missed Trash Pick-Up",
    "date_created": "2022-09-26T16:02:56.000",
    "date_modified": "2022-09-26T16:02:56.000",
    "request_status": "Pending",
    "responsible_agency": "Department of Sanitation",
    "final_address": "4202 State Street Dr",
    "address_councildis": "B",
    "status": "Assigned to Contractor",
    "contractor": "Richards Disposal",
    "rowid": "923763",
    "final_x": "3668448.64756",
    "final_y": "531141.238978",
    "longitude": "-90.10929470214377",
    "latitude": "29.95484403130171",
    "geocoded_column": {
      "latitude": "29.95484403130171",
      "longitude": "-90.10929470214377"
    }
  },
  {
    "service_request": "2022-923762",
    "request_type": "Trash/Recycling",
    "request_reason": "Request a Large Item Pick Up",
    "date_created": "2022-09-26T15:59:03.000",
    "date_modified": "2022-09-26T15:59:03.000",
    "request_status": "Pending",
    "responsible_agency": "Department of Sanitation",
    "final_address": "5525 Wickfield Dr",
    "address_councildis": "D",
    "status": "Assigned to Contractor",
    "contractor": "Metro Disposal",
    "rowid": "923762",
    "final_x": "3681157.84821",
    "final_y": "553533.398359",
    "longitude": "-90.06838335361276",
    "latitude": "30.01603518763719",
    "geocoded_column": {
      "latitude": "30.01603518763719",
      "longitude": "-90.06838335361276"
    }
  },
  {
    "service_request": "2022-923761",
    "request_type": "Trash/Recycling",
    "request_reason": "Replace Recycling Cart",
    "date_created": "2022-09-26T15:55:42.000",
    "date_modified": "2022-09-26T15:55:43.000",
    "request_status": "Pending",
    "responsible_agency": "Department of Sanitation",
    "final_address": "1343 Mandeville St",
    "address_councildis": "C",
    "status": "Pending",
    "rowid": "923761",
    "final_x": "3685724.65615",
    "final_y": "537445.552008",
    "longitude": "-90.05452158476533",
    "latitude": "29.971659955257234",
    "geocoded_column": {
      "latitude": "29.971659955257234",
      "longitude": "-90.05452158476533"
    }
  },
  {
    "service_request": "2022-923760",
    "request_type": "Trash/Recycling",
    "request_reason": "Request a Large Item Pick Up",
    "date_created": "2022-09-26T15:47:04.000",
    "date_modified": "2022-09-26T15:47:05.000",
    "request_status": "Pending",
    "responsible_agency": "Department of Sanitation",
    "final_address": "5530 Camp St",
    "address_councildis": "A",
    "status": "Assigned to Contractor",
    "contractor": "Richards Disposal",
    "rowid": "923760",
    "final_x": "3666263.29223",
    "final_y": "519197.419255",
    "longitude": "-90.11659572497574",
    "latitude": "29.922066361602717",
    "geocoded_column": {
      "latitude": "29.922066361602717",
      "longitude": "-90.11659572497574"
    }
  },
  {
    "service_request": "2022-923759",
    "request_type": "Trash/Recycling",
    "request_reason": "Request a Large Item Pick Up",
    "date_created": "2022-09-26T15:45:33.000",
    "date_modified": "2022-09-26T15:45:33.000",
    "request_status": "Pending",
    "responsible_agency": "Department of Sanitation",
    "final_address": "921 N Galvez St",
    "address_councildis": "D",
    "status": "Assigned to Contractor",
    "contractor": "Richards Disposal",
    "rowid": "923759",
    "final_x": "3678824.52366",
    "final_y": "536463.660103",
    "longitude": "-90.07634726837881",
    "latitude": "29.96917003232504",
    "geocoded_column": {
      "latitude": "29.96917003232504",
      "longitude": "-90.07634726837881"
    }
  },
  {
    "service_request": "2022-923758",
    "request_type": "Traffic Signals/Signs/Striping/Streetlights",
    "request_reason": "Street Light Outage/Malfunction",
    "date_created": "2022-09-26T15:42:59.000",
    "date_modified": "2022-09-26T15:42:59.000",
    "request_status": "Pending",
    "responsible_agency": "Department of Public Works",
    "final_address": "4738 Arts St",
    "address_councildis": "D",
    "status": "Pending",
    "contractor": "Legacy Professional Services",
    "rowid": "923758",
    "final_x": "3685839.5535",
    "final_y": "550517.607956",
    "longitude": "-90.05369768215456",
    "latitude": "30.007599924465293",
    "geocoded_column": {
      "latitude": "30.007599924465293",
      "longitude": "-90.05369768215456"
    }
  },
  {
    "service_request": "2022-923757",
    "request_type": "Traffic Signals/Signs/Striping/Streetlights",
    "request_reason": "Street Light Outage/Malfunction",
    "date_created": "2022-09-26T15:42:21.000",
    "date_modified": "2022-09-26T15:42:22.000",
    "request_status": "Pending",
    "responsible_agency": "Department of Public Works",
    "final_address": "1330 Sere St",
    "address_councildis": "D",
    "status": "Pending",
    "contractor": "Legacy Professional Services",
    "rowid": "923757",
    "final_x": "3677637.91554",
    "final_y": "545290.886543",
    "longitude": "-90.07978969142098",
    "latitude": "29.993477589358232",
    "geocoded_column": {
      "latitude": "29.993477589358232",
      "longitude": "-90.07978969142098"
    }
  },
  {
    "service_request": "2022-923756",
    "request_type": "Trash/Recycling",
    "request_reason": "Replace Trash Cart",
    "date_created": "2022-09-26T15:39:27.000",
    "date_modified": "2022-09-26T15:39:28.000",
    "request_status": "Pending",
    "responsible_agency": "Department of Sanitation",
    "final_address": "1707 Napoleon Ave",
    "address_councildis": "B",
    "status": "Assigned to Contractor",
    "contractor": "Richards Disposal",
    "rowid": "923756",
    "final_x": "3670901.30254",
    "final_y": "521324.203833",
    "longitude": "-90.10188327684534",
    "latitude": "29.927778104953635",
    "geocoded_column": {
      "latitude": "29.927778104953635",
      "longitude": "-90.10188327684534"
    }
  },
  {
    "service_request": "2022-923755",
    "request_type": "Trash/Recycling",
    "request_reason": "Replace Trash Cart",
    "date_created": "2022-09-26T15:39:10.000",
    "date_modified": "2022-09-26T15:39:11.000",
    "request_status": "Pending",
    "responsible_agency": "Department of Sanitation",
    "final_address": "1705 Napoleon Ave",
    "address_councildis": "B",
    "status": "Assigned to Contractor",
    "contractor": "Richards Disposal",
    "rowid": "923755",
    "final_x": "3670906.13332",
    "final_y": "521303.914617",
    "longitude": "-90.10186871552304",
    "latitude": "29.92772217334688",
    "geocoded_column": {
      "latitude": "29.92772217334688",
      "longitude": "-90.10186871552304"
    }
  },
  {
    "service_request": "2022-923754",
    "request_type": "Trash/Recycling",
    "request_reason": "Replace Trash Cart",
    "date_created": "2022-09-26T15:38:53.000",
    "date_modified": "2022-09-26T15:38:54.000",
    "request_status": "Pending",
    "responsible_agency": "Department of Sanitation",
    "final_address": "2414 Monroe St",
    "address_councildis": "A",
    "status": "Assigned to Contractor",
    "contractor": "Richards Disposal",
    "rowid": "923754",
    "final_x": "3663387.31245",
    "final_y": "533158.011012",
    "longitude": "-90.125209402809",
    "latitude": "29.960537195637603",
    "geocoded_column": {
      "latitude": "29.960537195637603",
      "longitude": "-90.125209402809"
    }
  },
  {
    "service_request": "2022-923753",
    "request_type": "Trash/Recycling",
    "request_reason": "Replace Trash Cart",
    "date_created": "2022-09-26T15:37:41.000",
    "date_modified": "2022-09-26T15:37:42.000",
    "request_status": "Pending",
    "responsible_agency": "Department of Sanitation",
    "final_address": "1863 General Collins Ave",
    "address_councildis": "C",
    "status": "Assigned to Contractor",
    "contractor": "Richards Disposal",
    "rowid": "923753",
    "final_x": "3698446.75184",
    "final_y": "523800.603899",
    "longitude": "-90.0148393755135",
    "latitude": "29.93374461610435",
    "geocoded_column": {
      "latitude": "29.93374461610435",
      "longitude": "-90.0148393755135"
    }
  },
  {
    "service_request": "2022-923752",
    "request_type": "Trash/Recycling",
    "request_reason": "MIssed Recycling Pick-Up",
    "date_created": "2022-09-26T15:34:41.000",
    "date_modified": "2022-09-26T15:34:42.000",
    "request_status": "Pending",
    "responsible_agency": "Department of Sanitation",
    "final_address": "1501 General Taylor St",
    "address_councildis": "B",
    "status": "Assigned to Contractor",
    "contractor": "Richards Disposal",
    "rowid": "923752",
    "final_x": "3672757.23963",
    "final_y": "520814.498105",
    "longitude": "-90.09604188611411",
    "latitude": "29.926321602463354",
    "geocoded_column": {
      "latitude": "29.926321602463354",
      "longitude": "-90.09604188611411"
    }
  },
  {
    "service_request": "2022-923751",
    "request_type": "Trash/Recycling",
    "request_reason": "Request a Large Item Pick Up",
    "date_created": "2022-09-26T15:33:24.000",
    "date_modified": "2022-09-26T15:33:25.000",
    "request_status": "Pending",
    "responsible_agency": "Department of Sanitation",
    "final_address": "11230 Lake Forest Blvd",
    "address_councildis": "E",
    "status": "Assigned to Contractor",
    "contractor": "Metro Disposal",
    "rowid": "923751",
    "final_x": "3716133.68543",
    "final_y": "561500.474783",
    "longitude": "-89.95757426272733",
    "latitude": "30.03683342288048",
    "geocoded_column": {
      "latitude": "30.03683342288048",
      "longitude": "-89.95757426272733"
    }
  },
  {
    "service_request": "2022-923750",
    "request_type": "Traffic Signals/Signs/Striping/Streetlights",
    "request_reason": "Street Light Outage/Malfunction",
    "date_created": "2022-09-26T15:33:17.000",
    "date_modified": "2022-09-26T15:33:18.000",
    "request_status": "Pending",
    "responsible_agency": "Department of Public Works",
    "final_address": "1725 Palmer Ave",
    "address_councildis": "A",
    "status": "Pending",
    "contractor": "Legacy Professional Services",
    "rowid": "923750",
    "final_x": "3665584.78272",
    "final_y": "523462.456763",
    "longitude": "-90.11859478014367",
    "latitude": "29.933813661596705",
    "geocoded_column": {
      "latitude": "29.933813661596705",
      "longitude": "-90.11859478014367"
    }
  },
  {
    "service_request": "2022-923749",
    "request_type": "Trash/Recycling",
    "request_reason": "Missed Trash Pick-Up",
    "date_created": "2022-09-26T15:32:36.000",
    "date_modified": "2022-09-26T15:32:37.000",
    "request_status": "Pending",
    "responsible_agency": "Department of Sanitation",
    "final_address": "4834 Toulon St",
    "address_councildis": "E",
    "status": "Assigned to Contractor",
    "contractor": "Metro Disposal",
    "rowid": "923749",
    "final_x": "3723716.34943",
    "final_y": "560325.385309",
    "longitude": "-89.93365711211023",
    "latitude": "30.033349898233997",
    "geocoded_column": {
      "latitude": "30.033349898233997",
      "longitude": "-89.93365711211023"
    }
  },
  {
    "service_request": "2022-923748",
    "request_type": "Abandoned Vehicles",
    "request_reason": "Abandoned/Junk Vehicles",
    "date_created": "2022-09-26T15:32:16.000",
    "date_modified": "2022-09-26T15:39:59.000",
    "request_status": "Pending",
    "responsible_agency": "Department of Public Works",
    "final_address": "New Orleans,LA",
    "address_councildis": "E",
    "rowid": "923748",
    "final_x": "3708844.2",
    "final_y": "566623.68",
    "longitude": "-89.98041923087547",
    "latitude": "30.051158823876495",
    "geocoded_column": {
      "latitude": "30.051158823876495",
      "longitude": "-89.98041923087547"
    }
  },
  {
    "service_request": "2022-923747",
    "request_type": "Parks & Parkways",
    "request_reason": "Request Tree Service (Right of Way/Public Property)",
    "date_created": "2022-09-26T15:30:04.000",
    "date_modified": "2022-09-26T15:30:05.000",
    "case_close_date": "2022-09-19T19:00:00.000",
    "request_status": "Pending",
    "responsible_agency": "Department of Parks & Parkway",
    "final_address": "5432 General Diaz St",
    "address_councildis": "A",
    "status": "Pending",
    "rowid": "923747",
    "final_x": "3668976.69601",
    "final_y": "543128.801485",
    "longitude": "-90.10722228224365",
    "latitude": "29.987790291740698",
    "geocoded_column": {
      "latitude": "29.987790291740698",
      "longitude": "-90.10722228224365"
    }
  },
  {
    "service_request": "2022-923746",
    "request_type": "Trash/Recycling",
    "request_reason": "Request a Large Item Pick Up",
    "date_created": "2022-09-26T15:27:29.000",
    "date_modified": "2022-09-26T15:27:30.000",
    "request_status": "Pending",
    "responsible_agency": "Department of Sanitation",
    "final_address": "3215 Cherry St",
    "address_councildis": "A",
    "status": "Assigned to Contractor",
    "contractor": "Richards Disposal",
    "rowid": "923746",
    "final_x": "3663758.11635",
    "final_y": "536570.515207",
    "longitude": "-90.12392473466345",
    "latitude": "29.9699097064629",
    "geocoded_column": {
      "latitude": "29.9699097064629",
      "longitude": "-90.12392473466345"
    }
  },
  {
    "service_request": "2022-923745",
    "request_type": "Trash/Recycling",
    "request_reason": "Request a Large Item Pick Up",
    "date_created": "2022-09-26T15:22:05.000",
    "date_modified": "2022-09-26T15:22:06.000",
    "request_status": "Pending",
    "responsible_agency": "Department of Sanitation",
    "final_address": "2111 Columbus St, New Orleans, Louisiana, 70119",
    "address_councildis": "D",
    "status": "Assigned to Contractor",
    "contractor": "Metro Disposal",
    "rowid": "923745",
    "final_x": "3680304.49691",
    "final_y": "538402.543241",
    "longitude": "-90.07160598286141",
    "latitude": "29.974456568631886",
    "geocoded_column": {
      "latitude": "29.974456568631886",
      "longitude": "-90.07160598286141"
    }
  },
  {
    "service_request": "2022-923744",
    "request_type": "Roads/Drainage",
    "request_reason": "Street Subsidence (Sinking)",
    "date_created": "2022-09-26T15:21:41.000",
    "date_modified": "2022-09-26T15:21:41.000",
    "request_status": "Pending",
    "responsible_agency": "Department of Public Works",
    "final_address": "6881 Glengary Rd",
    "address_councildis": "E",
    "status": "Pending",
    "rowid": "923744",
    "final_x": "3701666.51741",
    "final_y": "557713.798875",
    "longitude": "-90.00343220449025",
    "latitude": "30.026891209505592",
    "geocoded_column": {
      "latitude": "30.026891209505592",
      "longitude": "-90.00343220449025"
    }
  },
  {
    "service_request": "2022-923743",
    "request_type": "Trash/Recycling",
    "request_reason": "MIssed Recycling Pick-Up",
    "date_created": "2022-09-26T15:20:13.000",
    "date_modified": "2022-09-26T15:20:14.000",
    "request_status": "Pending",
    "responsible_agency": "Department of Sanitation",
    "final_address": "3631 Bennett St",
    "address_councildis": "C",
    "status": "Assigned to Contractor",
    "contractor": "Richards Disposal",
    "rowid": "923743",
    "final_x": "3710254.77041",
    "final_y": "516816.242101",
    "longitude": "-89.97782323039242",
    "latitude": "29.914161196958837",
    "geocoded_column": {
      "latitude": "29.914161196958837",
      "longitude": "-89.97782323039242"
    }
  },
  {
    "service_request": "2022-923742",
    "request_type": "Trash/Recycling",
    "request_reason": "Missed Trash Pick-Up",
    "date_created": "2022-09-26T15:19:33.000",
    "date_modified": "2022-09-26T15:19:34.000",
    "request_status": "Pending",
    "responsible_agency": "Department of Sanitation",
    "final_address": "400 BLK S Rendon St",
    "address_councildis": "B",
    "status": "Assigned to Contractor",
    "contractor": "Richards Disposal",
    "rowid": "923742",
    "final_x": "3672726.28279",
    "final_y": "535320.104344",
    "longitude": "-90.09564500277904",
    "latitude": "29.96620817544633",
    "geocoded_column": {
      "latitude": "29.96620817544633",
      "longitude": "-90.09564500277904"
    }
  },
  {
    "service_request": "2022-923740",
    "request_type": "Traffic Signals/Signs/Striping/Streetlights",
    "request_reason": "Street Light Outage/Malfunction",
    "date_created": "2022-09-26T15:12:57.000",
    "date_modified": "2022-09-26T15:12:58.000",
    "request_status": "Pending",
    "responsible_agency": "Department of Public Works",
    "final_address": "14516 Hayne Blvd",
    "address_councildis": "E",
    "status": "Pending",
    "contractor": "Legacy Professional Services",
    "rowid": "923740",
    "final_x": "3719036.81362",
    "final_y": "574378.299691",
    "longitude": "-89.9479078102225",
    "latitude": "30.0721459467403",
    "geocoded_column": {
      "latitude": "30.0721459467403",
      "longitude": "-89.9479078102225"
    }
  },
  {
    "service_request": "2022-923739",
    "request_type": "Property Maintenance",
    "request_reason": "Property Maintenance",
    "date_created": "2022-09-26T15:11:32.000",
    "date_modified": "2022-09-26T15:11:32.000",
    "request_status": "Pending",
    "responsible_agency": "Department of Code Enforcement",
    "final_address": "5300 Lafaye St",
    "address_councildis": "D",
    "status": "Pending",
    "rowid": "923739",
    "final_x": "3687298.49212",
    "final_y": "552631.520278",
    "longitude": "-90.04901362854952",
    "latitude": "30.013367528628134",
    "geocoded_column": {
      "latitude": "30.013367528628134",
      "longitude": "-90.04901362854952"
    }
  },
  {
    "service_request": "2022-923738",
    "request_type": "Trash/Recycling",
    "request_reason": "Replace Trash Cart",
    "date_created": "2022-09-26T15:01:54.000",
    "date_modified": "2022-09-26T15:01:55.000",
    "request_status": "Pending",
    "responsible_agency": "Department of Sanitation",
    "final_address": "4150 DHemecourt St",
    "address_councildis": "A",
    "status": "Assigned to Contractor",
    "contractor": "Richards Disposal",
    "rowid": "923738",
    "final_x": "3669421.08078",
    "final_y": "537071.752328",
    "longitude": "-90.10602354169667",
    "latitude": "29.971122374677055",
    "geocoded_column": {
      "latitude": "29.971122374677055",
      "longitude": "-90.10602354169667"
    }
  },
  {
    "service_request": "2022-923737",
    "request_type": "Trash/Recycling",
    "request_reason": "Replace Recycling Cart",
    "date_created": "2022-09-26T15:00:24.000",
    "date_modified": "2022-09-26T15:00:24.000",
    "request_status": "Pending",
    "responsible_agency": "Department of Sanitation",
    "final_address": "5830 Albany Ct",
    "address_councildis": "C",
    "status": "Pending",
    "rowid": "923737",
    "final_x": "3705122.6227",
    "final_y": "521232.371257",
    "longitude": "-89.99385892191522",
    "latitude": "29.926469963694384",
    "geocoded_column": {
      "latitude": "29.926469963694384",
      "longitude": "-89.99385892191522"
    }
  },
  {
    "service_request": "2022-923736",
    "request_type": "Trash/Recycling",
    "request_reason": "Request a Large Item Pick Up",
    "date_created": "2022-09-26T14:57:58.000",
    "date_modified": "2022-09-26T14:57:59.000",
    "request_status": "Pending",
    "responsible_agency": "Department of Sanitation",
    "final_address": "4516 Camp St",
    "address_councildis": "B",
    "status": "Assigned to Contractor",
    "contractor": "Richards Disposal",
    "rowid": "923736",
    "final_x": "3670465.45819",
    "final_y": "519053.669623",
    "longitude": "-90.10333607751119",
    "latitude": "29.921547731692833",
    "geocoded_column": {
      "latitude": "29.921547731692833",
      "longitude": "-90.10333607751119"
    }
  },
  {
    "service_request": "2022-923735",
    "request_type": "Abandoned Vehicles",
    "request_reason": "Abandoned/Junk Vehicles",
    "date_created": "2022-09-26T14:57:42.000",
    "date_modified": "2022-09-26T14:57:42.000",
    "request_status": "Pending",
    "responsible_agency": "Department of Public Works",
    "final_address": "6043 Chatham Dr",
    "address_councildis": "D",
    "status": "Pending",
    "rowid": "923735",
    "final_x": "3679660.01327",
    "final_y": "554797.135576",
    "longitude": "-90.07307193156855",
    "latitude": "30.01955538731744",
    "geocoded_column": {
      "latitude": "30.01955538731744",
      "longitude": "-90.07307193156855"
    }
  },
  {
    "service_request": "2022-923734",
    "request_type": "Trash/Recycling",
    "request_reason": "Repair Recycling Cart",
    "date_created": "2022-09-26T14:56:03.000",
    "date_modified": "2022-09-26T14:56:04.000",
    "case_close_date": "2022-07-27T19:00:00.000",
    "request_status": "Pending",
    "responsible_agency": "Department of Sanitation",
    "final_address": "5830 Albany Ct",
    "address_councildis": "C",
    "status": "Pending",
    "rowid": "923734",
    "final_x": "3705122.6227",
    "final_y": "521232.371257",
    "longitude": "-89.99385892191522",
    "latitude": "29.926469963694384",
    "geocoded_column": {
      "latitude": "29.926469963694384",
      "longitude": "-89.99385892191522"
    }
  },
  {
    "service_request": "2022-923733",
    "request_type": "Traffic Signals/Signs/Striping/Streetlights",
    "request_reason": "Street Light Outage/Malfunction",
    "date_created": "2022-09-26T14:53:41.000",
    "date_modified": "2022-09-26T14:53:42.000",
    "request_status": "Pending",
    "responsible_agency": "Department of Public Works",
    "final_address": "9860 Morrison Rd",
    "address_councildis": "E",
    "status": "Pending",
    "contractor": "Legacy Professional Services",
    "rowid": "923733",
    "final_x": "3708083.11588",
    "final_y": "563025.532064",
    "longitude": "-89.9829587699631",
    "latitude": "30.041290044336336",
    "geocoded_column": {
      "latitude": "30.041290044336336",
      "longitude": "-89.9829587699631"
    }
  },
  {
    "service_request": "2022-923732",
    "request_type": "Abandoned Vehicles",
    "request_reason": "Abandoned/Junk Vehicles",
    "date_created": "2022-09-26T14:52:15.000",
    "date_modified": "2022-09-26T14:52:15.000",
    "request_status": "Pending",
    "responsible_agency": "Department of Public Works",
    "final_address": "5617 Arts St",
    "address_councildis": "D",
    "status": "Pending",
    "rowid": "923732",
    "final_x": "3685861.23234",
    "final_y": "553721.155607",
    "longitude": "-90.05351614945394",
    "latitude": "30.016407843073594",
    "geocoded_column": {
      "latitude": "30.016407843073594",
      "longitude": "-90.05351614945394"
    }
  },
  {
    "service_request": "2022-923731",
    "request_type": "Abandoned Vehicles",
    "request_reason": "Abandoned/Junk Vehicles",
    "date_created": "2022-09-26T14:51:23.000",
    "date_modified": "2022-09-26T14:51:24.000",
    "request_status": "Pending",
    "responsible_agency": "Department of Public Works",
    "final_address": "500 S Genois St",
    "address_councildis": "B",
    "status": "Pending",
    "rowid": "923731",
    "final_x": "3671636.78337",
    "final_y": "535864.863367",
    "longitude": "-90.09906709575938",
    "latitude": "29.967738393938763",
    "geocoded_column": {
      "latitude": "29.967738393938763",
      "longitude": "-90.09906709575938"
    }
  },
  {
    "service_request": "2022-923730",
    "request_type": "Trash/Recycling",
    "request_reason": "Request a Large Item Pick Up",
    "date_created": "2022-09-26T14:43:10.000",
    "date_modified": "2022-09-26T14:43:11.000",
    "request_status": "Pending",
    "responsible_agency": "Department of Sanitation",
    "final_address": "1410 Eighth St",
    "address_councildis": "B",
    "status": "Assigned to Contractor",
    "contractor": "Richards Disposal",
    "rowid": "923730",
    "final_x": "3675448.38209",
    "final_y": "521126.241657",
    "longitude": "-90.08753600183209",
    "latitude": "29.92709861859927",
    "geocoded_column": {
      "latitude": "29.92709861859927",
      "longitude": "-90.08753600183209"
    }
  },
  {
    "service_request": "2022-923729",
    "request_type": "Trash/Recycling",
    "request_reason": "MIssed Recycling Pick-Up",
    "date_created": "2022-09-26T14:42:04.000",
    "date_modified": "2022-09-26T14:42:05.000",
    "request_status": "Pending",
    "responsible_agency": "Department of Sanitation",
    "final_address": "4613 Erickson Ave",
    "address_councildis": "C",
    "status": "Assigned to Contractor",
    "contractor": "Richards Disposal",
    "rowid": "923729",
    "final_x": "3701958.55383",
    "final_y": "519430.691383",
    "longitude": "-90.00391292226163",
    "latitude": "29.92161729002681",
    "geocoded_column": {
      "latitude": "29.92161729002681",
      "longitude": "-90.00391292226163"
    }
  },
  {
    "service_request": "2022-923728",
    "request_type": "Traffic Signals/Signs/Striping/Streetlights",
    "request_reason": "Street Light Outage/Malfunction",
    "date_created": "2022-09-26T14:40:59.000",
    "date_modified": "2022-09-26T14:40:59.000",
    "request_status": "Pending",
    "responsible_agency": "Department of Public Works",
    "final_address": "3423 Vespasian St",
    "address_councildis": "C",
    "status": "Pending",
    "contractor": "Legacy Professional Services",
    "rowid": "923728",
    "final_x": "3695782.85994",
    "final_y": "522581.719802",
    "longitude": "-90.02329310456771",
    "latitude": "29.930477118578178",
    "geocoded_column": {
      "latitude": "29.930477118578178",
      "longitude": "-90.02329310456771"
    }
  },
  {
    "service_request": "2022-923727",
    "request_type": "Traffic Signals/Signs/Striping/Streetlights",
    "request_reason": "Street Light Outage/Malfunction",
    "date_created": "2022-09-26T14:39:39.000",
    "date_modified": "2022-09-26T14:39:39.000",
    "request_status": "Pending",
    "responsible_agency": "Department of Public Works",
    "final_address": "3600 BLK Frenchmen St",
    "address_councildis": "D",
    "status": "Pending",
    "contractor": "Legacy Professional Services",
    "rowid": "923727",
    "final_x": "3683804.42501",
    "final_y": "546030.754839",
    "longitude": "-90.06028472273498",
    "latitude": "29.995325027388855",
    "geocoded_column": {
      "latitude": "29.995325027388855",
      "longitude": "-90.06028472273498"
    }
  },
  {
    "service_request": "2022-923726",
    "request_type": "Trash/Recycling",
    "request_reason": "Missed Trash Pick-Up",
    "date_created": "2022-09-26T14:33:05.000",
    "date_modified": "2022-09-26T14:33:05.000",
    "request_status": "Pending",
    "responsible_agency": "Department of Sanitation",
    "final_address": "3038 St Roch Ave",
    "address_councildis": "D",
    "status": "Assigned to Contractor",
    "contractor": "Metro Disposal",
    "rowid": "923726",
    "final_x": "3685785.54895",
    "final_y": "544091.549646",
    "longitude": "-90.05409495063861",
    "latitude": "29.989932236165092",
    "geocoded_column": {
      "latitude": "29.989932236165092",
      "longitude": "-90.05409495063861"
    }
  },
  {
    "service_request": "2022-923725",
    "request_type": "Trash/Recycling",
    "request_reason": "Replace Trash Cart",
    "date_created": "2022-09-26T14:31:47.000",
    "date_modified": "2022-09-26T14:31:48.000",
    "request_status": "Pending",
    "responsible_agency": "Department of Sanitation",
    "final_address": "512 Robert St",
    "address_councildis": "B",
    "status": "Assigned to Contractor",
    "contractor": "Richards Disposal",
    "rowid": "923725",
    "final_x": "3668568.80225",
    "final_y": "517336.893941",
    "longitude": "-90.10938090185252",
    "latitude": "29.916882985536414",
    "geocoded_column": {
      "latitude": "29.916882985536414",
      "longitude": "-90.10938090185252"
    }
  },
  {
    "service_request": "2022-923724",
    "request_type": "Traffic Signals/Signs/Striping/Streetlights",
    "request_reason": "Street Light Outage/Malfunction",
    "date_created": "2022-09-26T14:30:50.000",
    "date_modified": "2022-09-26T14:30:51.000",
    "request_status": "Pending",
    "responsible_agency": "Department of Public Works",
    "final_address": "1708 Industry St",
    "address_councildis": "D",
    "status": "Pending",
    "contractor": "Legacy Professional Services",
    "rowid": "923724",
    "final_x": "3680791.52552",
    "final_y": "542607.203533",
    "longitude": "-90.06992141162475",
    "latitude": "29.986003165276255",
    "geocoded_column": {
      "latitude": "29.986003165276255",
      "longitude": "-90.06992141162475"
    }
  },
  {
    "service_request": "2022-923723",
    "request_type": "Trash/Recycling",
    "request_reason": "MIssed Recycling Pick-Up",
    "date_created": "2022-09-26T14:29:31.000",
    "date_modified": "2022-09-26T14:29:32.000",
    "request_status": "Pending",
    "responsible_agency": "Department of Sanitation",
    "final_address": "301 Berkley Dr",
    "address_councildis": "C",
    "status": "Assigned to Contractor",
    "contractor": "Richards Disposal",
    "rowid": "923723",
    "final_x": "3707031.2188",
    "final_y": "518029.19935",
    "longitude": "-89.98795279084345",
    "latitude": "29.91760087155059",
    "geocoded_column": {
      "latitude": "29.91760087155059",
      "longitude": "-89.98795279084345"
    }
  },
  {
    "service_request": "2022-923722",
    "request_type": "Property Maintenance",
    "request_reason": "Property Maintenance",
    "date_created": "2022-09-26T14:25:55.000",
    "date_modified": "2022-09-26T14:25:55.000",
    "request_status": "Pending",
    "responsible_agency": "Department of Code Enforcement",
    "final_address": "2659 Filmore Ave, New Orleans, Louisiana, 70122",
    "address_councildis": "D",
    "status": "Pending",
    "rowid": "923722",
    "final_x": "3687190.83458",
    "final_y": "552612.955734",
    "longitude": "-90.04935442596502",
    "latitude": "30.01331980045676",
    "geocoded_column": {
      "latitude": "30.01331980045676",
      "longitude": "-90.04935442596502"
    }
  },
  {
    "service_request": "2022-923721",
    "request_type": "Property Maintenance",
    "request_reason": "Property Maintenance",
    "date_created": "2022-09-26T14:25:01.000",
    "date_modified": "2022-09-26T15:11:14.000",
    "request_status": "Pending",
    "responsible_agency": "Department of Code Enforcement",
    "final_address": "Filmore Ave & Lafaye St, New Orleans, Louisiana, 70122",
    "address_councildis": "D",
    "rowid": "923721",
    "final_x": "3687190.83458",
    "final_y": "552612.955734",
    "longitude": "-90.04935442596502",
    "latitude": "30.01331980045676",
    "geocoded_column": {
      "latitude": "30.01331980045676",
      "longitude": "-90.04935442596502"
    }
  },
  {
    "service_request": "2022-923720",
    "request_type": "Trash/Recycling",
    "request_reason": "Repair Recycling Cart",
    "date_created": "2022-09-26T14:23:38.000",
    "date_modified": "2022-09-26T14:23:39.000",
    "request_status": "Pending",
    "responsible_agency": "Department of Sanitation",
    "final_address": "3248 Constance St",
    "address_councildis": "B",
    "status": "Pending",
    "contractor": "Richards Disposal",
    "rowid": "923720",
    "final_x": "3675596.49083",
    "final_y": "519439.706295",
    "longitude": "-90.08712636323988",
    "latitude": "29.922456762174193",
    "geocoded_column": {
      "latitude": "29.922456762174193",
      "longitude": "-90.08712636323988"
    }
  },
  {
    "service_request": "2022-923718",
    "request_type": "Trash/Recycling",
    "request_reason": "Repair Trash Cart",
    "date_created": "2022-09-26T14:23:09.000",
    "date_modified": "2022-09-26T14:23:10.000",
    "request_status": "Pending",
    "responsible_agency": "Department of Sanitation",
    "final_address": "4105 Monroe St",
    "address_councildis": "A",
    "status": "Assigned to Contractor",
    "contractor": "Richards Disposal",
    "rowid": "923718",
    "final_x": "3667399.43821",
    "final_y": "537423.878856",
    "longitude": "-90.11239633369308",
    "latitude": "29.97214999084416",
    "geocoded_column": {
      "latitude": "29.97214999084416",
      "longitude": "-90.11239633369308"
    }
  },
  {
    "service_request": "2022-923717",
    "request_type": "Trash/Recycling",
    "request_reason": "Request a Large Item Pick Up",
    "date_created": "2022-09-26T14:22:05.000",
    "date_modified": "2022-09-26T14:22:06.000",
    "request_status": "Pending",
    "responsible_agency": "Department of Sanitation",
    "final_address": "2939 Pine St",
    "address_councildis": "B",
    "status": "Assigned to Contractor",
    "contractor": "Richards Disposal",
    "rowid": "923717",
    "final_x": "3667507.30465",
    "final_y": "531998.730179",
    "longitude": "-90.11223826041265",
    "latitude": "29.957229467687732",
    "geocoded_column": {
      "latitude": "29.957229467687732",
      "longitude": "-90.11223826041265"
    }
  },
  {
    "service_request": "2022-923716",
    "request_type": "Trash/Recycling",
    "request_reason": "Replace Trash Cart",
    "date_created": "2022-09-26T14:21:47.000",
    "date_modified": "2022-09-26T14:21:48.000",
    "request_status": "Pending",
    "responsible_agency": "Department of Sanitation",
    "final_address": "4439 Arthur Dr",
    "address_councildis": "E",
    "status": "Assigned to Contractor",
    "contractor": "Metro Disposal",
    "rowid": "923716",
    "final_x": "3707926.5299",
    "final_y": "553858.306263",
    "longitude": "-89.98379485264344",
    "latitude": "30.016088842686745",
    "geocoded_column": {
      "latitude": "30.016088842686745",
      "longitude": "-89.98379485264344"
    }
  },
  {
    "service_request": "2022-923715",
    "request_type": "Trash/Recycling",
    "request_reason": "MIssed Recycling Pick-Up",
    "date_created": "2022-09-26T14:21:00.000",
    "date_modified": "2022-09-26T14:21:00.000",
    "request_status": "Pending",
    "responsible_agency": "Department of Sanitation",
    "final_address": "954 Felicity St",
    "address_councildis": "B",
    "status": "Assigned to Contractor",
    "contractor": "Richards Disposal",
    "rowid": "923715",
    "final_x": "3680186.53947",
    "final_y": "522794.030715",
    "longitude": "-90.07252093721202",
    "latitude": "29.931541991666755",
    "geocoded_column": {
      "latitude": "29.931541991666755",
      "longitude": "-90.07252093721202"
    }
  },
  {
    "service_request": "2022-923714",
    "request_type": "Trash/Recycling",
    "request_reason": "Illegal Dumping",
    "date_created": "2022-09-26T14:20:51.000",
    "date_modified": "2022-09-26T14:20:51.000",
    "request_status": "Pending",
    "responsible_agency": "Department of Sanitation",
    "final_address": "I 10 W EXIT & I 10 E ONRAMP & I 10 E EXIT",
    "address_councildis": "E",
    "status": "Pending",
    "rowid": "923714",
    "final_x": "3722135.9",
    "final_y": "569007.88",
    "longitude": "-89.93831738947053",
    "latitude": "30.057276163581275",
    "geocoded_column": {
      "latitude": "30.057276163581275",
      "longitude": "-89.93831738947053"
    }
  },
  {
    "service_request": "2022-923713",
    "request_type": "Trash/Recycling",
    "request_reason": "Repair Trash Cart",
    "date_created": "2022-09-26T14:16:46.000",
    "date_modified": "2022-09-26T14:16:46.000",
    "request_status": "Pending",
    "responsible_agency": "Department of Sanitation",
    "final_address": "330 S Telemachus St",
    "address_councildis": "B",
    "status": "Assigned to Contractor",
    "contractor": "Richards Disposal",
    "rowid": "923713",
    "final_x": "3671720.36705",
    "final_y": "536532.103623",
    "longitude": "-90.09878043258328",
    "latitude": "29.969570604484147",
    "geocoded_column": {
      "latitude": "29.969570604484147",
      "longitude": "-90.09878043258328"
    }
  },
  {
    "service_request": "2022-923712",
    "request_type": "Trash/Recycling",
    "request_reason": "Request a Large Item Pick Up",
    "date_created": "2022-09-26T14:14:15.000",
    "date_modified": "2022-09-26T14:14:16.000",
    "request_status": "Pending",
    "responsible_agency": "Department of Sanitation",
    "final_address": "5717 Rosemary Pl",
    "address_councildis": "A",
    "status": "Assigned to Contractor",
    "contractor": "Metro Disposal",
    "rowid": "923712",
    "final_x": "3667350.36193",
    "final_y": "545728.098256",
    "longitude": "-90.11227184721808",
    "latitude": "29.994985220560345",
    "geocoded_column": {
      "latitude": "29.994985220560345",
      "longitude": "-90.11227184721808"
    }
  },
  {
    "service_request": "2022-923711",
    "request_type": "Property Maintenance",
    "request_reason": "Property Maintenance",
    "date_created": "2022-09-26T13:58:58.000",
    "date_modified": "2022-09-26T13:58:59.000",
    "request_status": "Pending",
    "responsible_agency": "Department of Code Enforcement",
    "final_address": "1220 Spain St",
    "address_councildis": "C",
    "status": "Pending",
    "rowid": "923711",
    "final_x": "3686015.90178",
    "final_y": "536895.681736",
    "longitude": "-90.0536211834792",
    "latitude": "29.970139063054074",
    "geocoded_column": {
      "latitude": "29.970139063054074",
      "longitude": "-90.0536211834792"
    }
  },
  {
    "service_request": "2022-923710",
    "request_type": "Trash/Recycling",
    "request_reason": "Request a Large Item Pick Up",
    "date_created": "2022-09-26T13:50:34.000",
    "date_modified": "2022-09-26T13:50:35.000",
    "request_status": "Pending",
    "responsible_agency": "Department of Sanitation",
    "final_address": "6745 Catina St",
    "address_councildis": "A",
    "status": "Assigned to Contractor",
    "contractor": "Metro Disposal",
    "rowid": "923710",
    "final_x": "3667125.46074",
    "final_y": "552602.995478",
    "longitude": "-90.11275095135304",
    "latitude": "30.01389539011774",
    "geocoded_column": {
      "latitude": "30.01389539011774",
      "longitude": "-90.11275095135304"
    }
  },
  {
    "service_request": "2022-923709",
    "request_type": "Abandoned Vehicles",
    "request_reason": "Abandoned/Junk Vehicles",
    "date_created": "2022-09-26T13:49:56.000",
    "date_modified": "2022-09-26T13:49:56.000",
    "request_status": "Pending",
    "responsible_agency": "Department of Public Works",
    "final_address": "1700 BLK Kerlerec St",
    "address_councildis": "D",
    "status": "Pending",
    "rowid": "923709",
    "final_x": "3681071.96131",
    "final_y": "537223.351522",
    "longitude": "-90.06922323314355",
    "latitude": "29.97119093959957",
    "geocoded_column": {
      "latitude": "29.97119093959957",
      "longitude": "-90.06922323314355"
    }
  },
  {
    "service_request": "2022-923708",
    "request_type": "Trash/Recycling",
    "request_reason": "Request a Large Item Pick Up",
    "date_created": "2022-09-26T13:49:46.000",
    "date_modified": "2022-09-26T13:49:47.000",
    "request_status": "Pending",
    "responsible_agency": "Department of Sanitation",
    "final_address": "6919 Louis Xiv St",
    "address_councildis": "A",
    "status": "Assigned to Contractor",
    "contractor": "Metro Disposal",
    "rowid": "923708",
    "final_x": "3668739.33959",
    "final_y": "553513.626839",
    "longitude": "-90.10762112636773",
    "latitude": "30.016351935776555",
    "geocoded_column": {
      "latitude": "30.016351935776555",
      "longitude": "-90.10762112636773"
    }
  },
  {
    "service_request": "2022-923707",
    "request_type": "Abandoned Vehicles",
    "request_reason": "Abandoned/Junk Vehicles",
    "date_created": "2022-09-26T13:47:42.000",
    "date_modified": "2022-09-26T13:50:02.000",
    "request_status": "Pending",
    "responsible_agency": "Department of Public Works",
    "final_address": "PAUGER ST & N PRIEUR ST",
    "address_councildis": "D",
    "status": "Pending",
    "rowid": "923707",
    "final_x": "3683635.0",
    "final_y": "539164.18",
    "longitude": "-90.06106076065049",
    "latitude": "29.976449544638854",
    "geocoded_column": {
      "latitude": "29.976449544638854",
      "longitude": "-90.06106076065049"
    }
  },
  {
    "service_request": "2022-923706",
    "request_type": "Trash/Recycling",
    "request_reason": "Start Trash Service",
    "date_created": "2022-09-26T13:45:02.000",
    "date_modified": "2022-09-26T13:45:02.000",
    "request_status": "Pending",
    "responsible_agency": "Department of Sanitation",
    "final_address": "2036 Independence St",
    "address_councildis": "D",
    "status": "Assigned to Contractor",
    "contractor": "Metro Disposal",
    "rowid": "923706",
    "final_x": "3691833.83369",
    "final_y": "539221.679754",
    "longitude": "-90.0351644021383",
    "latitude": "29.97635478677313",
    "geocoded_column": {
      "latitude": "29.97635478677313",
      "longitude": "-90.0351644021383"
    }
  },
  {
    "service_request": "2022-923704",
    "request_type": "Trash/Recycling",
    "request_reason": "Replace Trash Cart",
    "date_created": "2022-09-26T13:44:50.000",
    "date_modified": "2022-09-26T13:44:50.000",
    "request_status": "Pending",
    "responsible_agency": "Department of Sanitation",
    "final_address": "4919 Laine Ave",
    "address_councildis": "E",
    "status": "Assigned to Contractor",
    "contractor": "Metro Disposal",
    "rowid": "923704",
    "final_x": "3705760.74481",
    "final_y": "556302.527514",
    "longitude": "-89.99054722001532",
    "latitude": "30.02287946671912",
    "geocoded_column": {
      "latitude": "30.02287946671912",
      "longitude": "-89.99054722001532"
    }
  },
  {
    "service_request": "2022-923705",
    "request_type": "Trash/Recycling",
    "request_reason": "Order Recycling Cart",
    "date_created": "2022-09-26T13:44:50.000",
    "date_modified": "2022-09-26T13:44:51.000",
    "request_status": "Pending",
    "responsible_agency": "Department of Sanitation",
    "final_address": "2036 Independence St",
    "address_councildis": "D",
    "status": "Pending",
    "rowid": "923705",
    "final_x": "3691833.83369",
    "final_y": "539221.679754",
    "longitude": "-90.0351644021383",
    "latitude": "29.97635478677313",
    "geocoded_column": {
      "latitude": "29.97635478677313",
      "longitude": "-90.0351644021383"
    }
  },
  {
    "service_request": "2022-923703",
    "request_type": "Trash/Recycling",
    "request_reason": "Request a Large Item Pick Up",
    "date_created": "2022-09-26T13:44:31.000",
    "date_modified": "2022-09-26T13:44:34.000",
    "request_status": "Pending",
    "responsible_agency": "Department of Sanitation",
    "final_address": "1018 Peniston St",
    "address_councildis": "B",
    "status": "Assigned to Contractor",
    "contractor": "Richards Disposal",
    "rowid": "923703",
    "final_x": "3673216.04251",
    "final_y": "519570.528824",
    "longitude": "-90.09463602349146",
    "latitude": "29.922887455560122",
    "geocoded_column": {
      "latitude": "29.922887455560122",
      "longitude": "-90.09463602349146"
    }
  },