[
  {
    "service_request": "2025-1215730",
    "request_type": "Parks & Parkways",
    "request_reason": "Request Grass Cutting Service (City Owned Property)",
    "date_created": "2025-08-05T22:45:51.000",
    "date_modified": "2025-08-05T22:45:54.000",
    "request_status": "Pending",
    "responsible_agency": "Department of Parks & Parkway",
    "final_address": "CAMPUS BLVD & EMMETT W BASHFUL BLVD",
    "address_councildis": "D",
    "status": "Pending",
    "rowid": "1215730",
    "final_x": "3688523.5",
    "final_y": "556094.88",
    "longitude": "-90.04502023200162",
    "latitude": "30.022852673230524",
    "geocoded_column": {
      "latitude": "30.022852673230524",
      "longitude": "-90.04502023200162"
    }
  },
  {
    "service_request": "2025-1215729",
    "request_type": "Trash/Recycling",
    "request_reason": "Request a Large Item Pick Up",
    "date_created": "2025-08-05T22:22:33.000",
    "date_modified": "2025-08-05T22:22:36.000",
    "request_status": "Pending",
    "responsible_agency": "Department of Sanitation",
    "final_address": "2623 Peniston St",
    "address_councildis": "B",
    "status": "Assigned to Contractor",
    "contractor": "IV Waste",
    "rowid": "1215729",
    "final_x": "3672035.00743",
    "final_y": "524777.664188",
    "longitude": "-90.09818691700394",
    "latitude": "29.937240455668423",
    "geocoded_column": {
      "latitude": "29.937240455668423",
      "longitude": "-90.09818691700394"
    }
  },
  {
    "service_request": "2025-1215728",
    "request_type": "Abandoned Vehicles",
    "request_reason": "Abandoned/Junk Vehicles",
    "date_created": "2025-08-05T21:37:07.000",
    "date_modified": "2025-08-05T21:37:09.000",
    "request_status": "Pending",
    "responsible_agency": "Department of Public Works",
    "final_address": "446 Crystal St",
    "address_councildis": "D",
    "status": "Pending",
    "rowid": "1215728",
    "final_x": "3668146.12513",
    "final_y": "556144.14569",
    "longitude": "-90.1094066561213",
    "latitude": "30.023602364892938",
    "geocoded_column": {
      "latitude": "30.023602364892938",
      "longitude": "-90.1094066561213"
    }
  },
  {
    "service_request": "2025-1215727",
    "request_type": "Healthy Homes",
    "request_reason": "Healthy Homes",
    "date_created": "2025-08-05T21:35:39.000",
    "date_modified": "2025-08-05T21:35:41.000",
    "request_status": "Pending",
    "responsible_agency": "Department of Code Enforcement",
    "final_address": "4749 Music St",
    "address_councildis": "D",
    "status": "Pending",
    "rowid": "1215727",
    "final_x": "3685667.14108",
    "final_y": "550591.477588",
    "longitude": "-90.05423977665846",
    "latitude": "30.007808332232447",
    "geocoded_column": {
      "latitude": "30.007808332232447",
      "longitude": "-90.05423977665846"
    }
  },
  {
    "service_request": "2025-1215726",
    "request_type": "Trash/Recycling",
    "request_reason": "Replace Trash Cart",
    "date_created": "2025-08-05T21:22:03.000",
    "date_modified": "2025-08-05T21:22:05.000",
    "request_status": "Pending",
    "responsible_agency": "Department of Sanitation",
    "final_address": "521 S Cortez St",
    "address_councildis": "B",
    "status": "Assigned to Contractor",
    "contractor": "IV Waste",
    "rowid": "1215726",
    "final_x": "3670959.60295",
    "final_y": "536200.309639",
    "longitude": "-90.10119426396797",
    "latitude": "29.968680798428245",
    "geocoded_column": {
      "latitude": "29.968680798428245",
      "longitude": "-90.10119426396797"
    }
  },
  {
    "service_request": "2025-1215725",
    "request_type": "Trash/Recycling",
    "request_reason": "Request a Large Item Pick Up",
    "date_created": "2025-08-05T21:07:51.000",
    "date_modified": "2025-08-05T21:07:53.000",
    "request_status": "Pending",
    "responsible_agency": "Department of Sanitation",
    "final_address": "5234 Tchoupitoulas St",
    "address_councildis": "B",
    "status": "Assigned to Contractor",
    "contractor": "IV Waste",
    "rowid": "1215725",
    "final_x": "3667714.60941",
    "final_y": "517144.373813",
    "longitude": "-90.11208357794501",
    "latitude": "29.91637867662274",
    "geocoded_column": {
      "latitude": "29.91637867662274",
      "longitude": "-90.11208357794501"
    }
  },
  {
    "service_request": "2025-1215724",
    "request_type": "Trash/Recycling",
    "request_reason": "Repair Trash Cart",
    "date_created": "2025-08-05T20:54:13.000",
    "date_modified": "2025-08-05T20:54:15.000",
    "request_status": "Pending",
    "responsible_agency": "Department of Sanitation",
    "final_address": "6027 Milne Blvd",
    "address_councildis": "A",
    "status": "Assigned to Contractor",
    "contractor": "IV Waste",
    "rowid": "1215724",
    "final_x": "3667099.15802",
    "final_y": "547619.890834",
    "longitude": "-90.11300173087068",
    "latitude": "30.000194357426544",
    "geocoded_column": {
      "latitude": "30.000194357426544",
      "longitude": "-90.11300173087068"
    }
  },
  {
    "service_request": "2025-1215723",
    "request_type": "Streetlights",
    "request_reason": "Streetlight Outage/Malfunction",
    "date_created": "2025-08-05T20:47:50.000",
    "date_modified": "2025-08-05T20:47:52.000",
    "request_status": "Pending",
    "responsible_agency": "Department of Public Works",
    "final_address": "1472 Aviators St",
    "address_councildis": "D",
    "status": "Pending",
    "contractor": "Legacy Professional Services",
    "rowid": "1215723",
    "final_x": "3678124.84699",
    "final_y": "554828.327",
    "longitude": "-90.07792146933996",
    "latitude": "30.0196874897156",
    "geocoded_column": {
      "latitude": "30.0196874897156",
      "longitude": "-90.07792146933996"
    }
  },
  {
    "service_request": "2025-1215722",
    "request_type": "Streetlights",
    "request_reason": "Streetlight Outage/Malfunction",
    "date_created": "2025-08-05T20:45:45.000",
    "date_modified": "2025-08-05T20:45:46.000",
    "request_status": "Pending",
    "responsible_agency": "Department of Public Works",
    "final_address": "1472 Aviators St",
    "address_councildis": "D",
    "status": "Pending",
    "contractor": "Legacy Professional Services",
    "rowid": "1215722",
    "final_x": "3678124.84699",
    "final_y": "554828.327",
    "longitude": "-90.07792146933996",
    "latitude": "30.0196874897156",
    "geocoded_column": {
      "latitude": "30.0196874897156",
      "longitude": "-90.07792146933996"
    }
  },
  {
    "service_request": "2025-1215721",
    "request_type": "Trash/Recycling",
    "request_reason": "Repair Recycling Cart",
    "date_created": "2025-08-05T20:42:41.000",
    "date_modified": "2025-08-05T20:42:43.000",
    "request_status": "Pending",
    "responsible_agency": "Department of Sanitation",
    "final_address": "1472 Aviators St",
    "address_councildis": "D",
    "status": "Pending",
    "rowid": "1215721",
    "final_x": "3678124.84699",
    "final_y": "554828.327",
    "longitude": "-90.07792146933996",
    "latitude": "30.0196874897156",
    "geocoded_column": {
      "latitude": "30.0196874897156",
      "longitude": "-90.07792146933996"
    }
  },
  {
    "service_request": "2025-1215720",
    "request_type": "Trash/Recycling",
    "request_reason": "Request a Large Item Pick Up",
    "date_created": "2025-08-05T20:41:57.000",
    "date_modified": "2025-08-05T20:41:59.000",
    "request_status": "Pending",
    "responsible_agency": "Department of Sanitation",
    "final_address": "6070 Wright Rd",
    "address_councildis": "E",
    "status": "Assigned to Contractor",
    "contractor": "Waste Pro",
    "rowid": "1215720",
    "final_x": "3712874.50597",
    "final_y": "562930.13072",
    "longitude": "-89.96782002134972",
    "latitude": "30.040871596930888",
    "geocoded_column": {
      "latitude": "30.040871596930888",
      "longitude": "-89.96782002134972"
    }
  },
  {
    "service_request": "2025-1215719",
    "request_type": "Trash/Recycling",
    "request_reason": "Request a Large Item Pick Up",
    "date_created": "2025-08-05T20:31:14.000",
    "date_modified": "2025-08-05T20:31:16.000",
    "request_status": "Pending",
    "responsible_agency": "Department of Sanitation",
    "final_address": "1219 Governor Nicholls St",
    "address_councildis": "C",
    "status": "Assigned to Contractor",
    "contractor": "IV Waste",
    "rowid": "1215719",
    "final_x": "3682073.33436",
    "final_y": "535226.579142",
    "longitude": "-90.06613050290339",
    "latitude": "29.965670089303497",
    "geocoded_column": {
      "latitude": "29.965670089303497",
      "longitude": "-90.06613050290339"
    }
  },
  {
    "service_request": "2025-1215718",
    "request_type": "Drainage",
    "request_reason": "Catch Basin Not Draining",
    "date_created": "2025-08-05T20:19:11.000",
    "date_modified": "2025-08-05T20:19:13.000",
    "request_status": "Pending",
    "responsible_agency": "Sewerage & Water Board",
    "final_address": "3100 BLK Saint Philip St",
    "address_councildis": "A",
    "status": "Pending",
    "rowid": "1215718",
    "final_x": "3675812.83206",
    "final_y": "539078.94722",
    "longitude": "-90.08576849381738",
    "latitude": "29.97645167987778",
    "geocoded_column": {
      "latitude": "29.97645167987778",
      "longitude": "-90.08576849381738"
    }
  },
  {
    "service_request": "2025-1215717",
    "request_type": "Trash/Recycling",
    "request_reason": "Request a Large Item Pick Up",
    "date_created": "2025-08-05T19:52:17.000",
    "date_modified": "2025-08-05T19:52:19.000",
    "request_status": "Pending",
    "responsible_agency": "Department of Sanitation",
    "final_address": "1817 Short St",
    "address_councildis": "A",
    "status": "Assigned to Contractor",
    "contractor": "IV Waste",
    "rowid": "1215717",
    "final_x": "3663843.43117",
    "final_y": "529707.157505",
    "longitude": "-90.12388408528567",
    "latitude": "29.951035237797623",
    "geocoded_column": {
      "latitude": "29.951035237797623",
      "longitude": "-90.12388408528567"
    }
  },
  {
    "service_request": "2025-1215716",
    "request_type": "Property Maintenance",
    "request_reason": "Property Maintenance",
    "date_created": "2025-08-05T19:47:31.000",
    "date_modified": "2025-08-05T19:47:33.000",
    "request_status": "Pending",
    "responsible_agency": "Department of Code Enforcement",
    "final_address": "13801 Horizon Dr",
    "address_councildis": "E",
    "status": "Pending",
    "rowid": "1215716",
    "final_x": "3725381.55526",
    "final_y": "570284.520551",
    "longitude": "-89.92800897687103",
    "latitude": "30.060677337250592",
    "geocoded_column": {
      "latitude": "30.060677337250592",
      "longitude": "-89.92800897687103"
    }
  },
  {
    "service_request": "2025-1215715",
    "request_type": "Property Maintenance",
    "request_reason": "Property Maintenance",
    "date_created": "2025-08-05T19:33:01.000",
    "date_modified": "2025-08-05T19:33:03.000",
    "request_status": "Pending",
    "responsible_agency": "Department of Code Enforcement",
    "final_address": "613 Wagner St",
    "address_councildis": "C",
    "status": "Pending",
    "rowid": "1215715",
    "final_x": "3690509.68604",
    "final_y": "529231.409601",
    "longitude": "-90.03970266169588",
    "latitude": "29.948926218741576",
    "geocoded_column": {
      "latitude": "29.948926218741576",
      "longitude": "-90.03970266169588"
    }
  },
  {
    "service_request": "2025-1215714",
    "request_type": "Property Maintenance",
    "request_reason": "Property Maintenance",
    "date_created": "2025-08-05T19:30:43.000",
    "date_modified": "2025-08-05T19:30:46.000",
    "request_status": "Pending",
    "responsible_agency": "Department of Code Enforcement",
    "final_address": "13801 Horizon Dr",
    "address_councildis": "E",
    "status": "Pending",
    "rowid": "1215714",
    "final_x": "3725381.55526",
    "final_y": "570284.520551",
    "longitude": "-89.92800897687103",
    "latitude": "30.060677337250592",
    "geocoded_column": {
      "latitude": "30.060677337250592",
      "longitude": "-89.92800897687103"
    }
  },
  {
    "service_request": "2025-1215713",
    "request_type": "Drainage",
    "request_reason": "Drainage Manhole Cover Missing or Damaged",
    "date_created": "2025-08-05T19:30:12.000",
    "date_modified": "2025-08-05T19:30:14.000",
    "request_status": "Pending",
    "responsible_agency": "Sewerage & Water Board",
    "final_address": "2127 Robert St",
    "address_councildis": "B",
    "status": "Pending",
    "rowid": "1215713",
    "final_x": "3668847.43124",
    "final_y": "523416.263419",
    "longitude": "-90.10829627605551",
    "latitude": "29.93359113499303",
    "geocoded_column": {
      "latitude": "29.93359113499303",
      "longitude": "-90.10829627605551"
    }
  },
  {
    "service_request": "2025-1215712",
    "request_type": "Property Maintenance",
    "request_reason": "Property Maintenance",
    "date_created": "2025-08-05T19:25:14.000",
    "date_modified": "2025-08-05T19:25:16.000",
    "request_status": "Pending",
    "responsible_agency": "Department of Code Enforcement",
    "final_address": "13801 Horizon Dr",
    "address_councildis": "E",
    "status": "Pending",
    "rowid": "1215712",
    "final_x": "3725381.55526",
    "final_y": "570284.520551",
    "longitude": "-89.92800897687103",
    "latitude": "30.060677337250592",
    "geocoded_column": {
      "latitude": "30.060677337250592",
      "longitude": "-89.92800897687103"
    }
  },
  {
    "service_request": "2025-1215711",
    "request_type": "Trash/Recycling",
    "request_reason": "Return Trash Cart",
    "date_created": "2025-08-05T19:22:33.000",
    "date_modified": "2025-08-05T19:22:36.000",
    "request_status": "Pending",
    "responsible_agency": "Department of Sanitation",
    "final_address": "2127 Robert St",
    "address_councildis": "B",
    "status": "Assigned to Contractor",
    "contractor": "IV Waste",
    "rowid": "1215711",
    "final_x": "3668847.43124",
    "final_y": "523416.263419",
    "longitude": "-90.10829627605551",
    "latitude": "29.93359113499303",
    "geocoded_column": {
      "latitude": "29.93359113499303",
      "longitude": "-90.10829627605551"
    }
  },
  {
    "service_request": "2025-1215710",
    "request_type": "Parks & Parkways",
    "request_reason": "Request Tree Service (Right of Way/Public Property)",
    "date_created": "2025-08-05T19:21:15.000",
    "date_modified": "2025-08-05T19:21:17.000",
    "request_status": "Pending",
    "responsible_agency": "Department of Parks & Parkway",
    "final_address": "7711 Benjamin St",
    "address_councildis": "A",
    "status": "Pending",
    "rowid": "1215710",
    "final_x": "3660882.03162",
    "final_y": "525141.579325",
    "longitude": "-90.13338571708049",
    "latitude": "29.93856696755448",
    "geocoded_column": {
      "latitude": "29.93856696755448",
      "longitude": "-90.13338571708049"
    }
  },
  {
    "service_request": "2025-1215709",
    "request_type": "Parks & Parkways",
    "request_reason": "Request Tree Service (Right of Way/Public Property)",
    "date_created": "2025-08-05T19:12:12.000",
    "date_modified": "2025-08-05T19:12:14.000",
    "request_status": "Pending",
    "responsible_agency": "Department of Parks & Parkway",
    "final_address": "7711 Benjamin St",
    "address_councildis": "A",
    "status": "Pending",
    "rowid": "1215709",
    "final_x": "3660882.03162",
    "final_y": "525141.579325",
    "longitude": "-90.13338571708049",
    "latitude": "29.93856696755448",
    "geocoded_column": {
      "latitude": "29.93856696755448",
      "longitude": "-90.13338571708049"
    }
  },
  {
    "service_request": "2025-1215708",
    "request_type": "Abandoned Vehicles",
    "request_reason": "Abandoned/Junk Vehicles",
    "date_created": "2025-08-05T19:11:24.000",
    "date_modified": "2025-08-05T19:11:26.000",
    "request_status": "Pending",
    "responsible_agency": "Department of Public Works",
    "final_address": "4710 Nottingham Dr",
    "address_councildis": "E",
    "status": "Pending",
    "rowid": "1215708",
    "final_x": "3716328.20517",
    "final_y": "556802.052826",
    "longitude": "-89.95713787506214",
    "latitude": "30.023908221469654",
    "geocoded_column": {
      "latitude": "30.023908221469654",
      "longitude": "-89.95713787506214"
    }
  },
  {
    "service_request": "2025-1215707",
    "request_type": "Property Maintenance",
    "request_reason": "Property Maintenance",
    "date_created": "2025-08-05T19:02:21.000",
    "date_modified": "2025-08-05T19:02:23.000",
    "request_status": "Pending",
    "responsible_agency": "Department of Code Enforcement",
    "final_address": "4800 Raymond Joseph Dr",
    "address_councildis": "E",
    "status": "Pending",
    "rowid": "1215707",
    "final_x": "3703617.16906",
    "final_y": "555514.866841",
    "longitude": "-89.99734940039193",
    "latitude": "30.020782600196448",
    "geocoded_column": {
      "latitude": "30.020782600196448",
      "longitude": "-89.99734940039193"
    }
  },
  {
    "service_request": "2025-1215706",
    "request_type": "Abandoned Vehicles",
    "request_reason": "Abandoned/Junk Vehicles",
    "date_created": "2025-08-05T18:51:50.000",
    "date_modified": "2025-08-05T18:51:52.000",
    "request_status": "Pending",
    "responsible_agency": "Department of Public Works",
    "final_address": "2408 St Anthony St",
    "address_councildis": "D",
    "status": "Pending",
    "rowid": "1215706",
    "final_x": "3683089.06076",
    "final_y": "541059.13038",
    "longitude": "-90.06271863484635",
    "latitude": "29.981676652055278",
    "geocoded_column": {
      "latitude": "29.981676652055278",
      "longitude": "-90.06271863484635"
    }
  },
  {
    "service_request": "2025-1215705",
    "request_type": "Trash/Recycling",
    "request_reason": "Request a Large Item Pick Up",
    "date_created": "2025-08-05T18:49:51.000",
    "date_modified": "2025-08-05T18:49:53.000",
    "request_status": "Pending",
    "responsible_agency": "Department of Sanitation",
    "final_address": "4614 Tulip St",
    "address_councildis": "E",
    "status": "Assigned to Contractor",
    "contractor": "Waste Pro",
    "rowid": "1215705",
    "final_x": "3702079.47095",
    "final_y": "553561.229271",
    "longitude": "-90.00227974823311",
    "latitude": "30.015460051573626",
    "geocoded_column": {
      "latitude": "30.015460051573626",
      "longitude": "-90.00227974823311"
    }
  },
  {
    "service_request": "2025-1215704",
    "request_type": "Abandoned Vehicles",
    "request_reason": "Abandoned/Junk Vehicles",
    "date_created": "2025-08-05T18:41:32.000",
    "date_modified": "2025-08-05T18:41:33.000",
    "request_status": "Pending",
    "responsible_agency": "Department of Public Works",
    "final_address": "6116 Memphis St",
    "address_councildis": "A",
    "status": "Pending",
    "rowid": "1215704",
    "final_x": "3669169.06887",
    "final_y": "548027.54037",
    "longitude": "-90.10644896060661",
    "latitude": "30.00125447443248",
    "geocoded_column": {
      "latitude": "30.00125447443248",
      "longitude": "-90.10644896060661"
    }
  },
  {
    "service_request": "2025-1215703",
    "request_type": "Trash/Recycling",
    "request_reason": "Request a Large Item Pick Up",
    "date_created": "2025-08-05T18:37:05.000",
    "date_modified": "2025-08-05T18:37:07.000",
    "request_status": "Pending",
    "responsible_agency": "Department of Sanitation",
    "final_address": "420 Delery St",
    "address_councildis": "E",
    "status": "Assigned to Contractor",
    "contractor": "Waste Pro",
    "rowid": "1215703",
    "final_x": "3699517.16925",
    "final_y": "530761.234626",
    "longitude": "-90.01120659014201",
    "latitude": "29.952850003967722",
    "geocoded_column": {
      "latitude": "29.952850003967722",
      "longitude": "-90.01120659014201"
    }
  },
  {
    "service_request": "2025-1215702",
    "request_type": "Streetlights",
    "request_reason": "Streetlight Outage/Malfunction",
    "date_created": "2025-08-05T18:18:52.000",
    "date_modified": "2025-08-05T18:18:54.000",
    "request_status": "Pending",
    "responsible_agency": "Department of Public Works",
    "final_address": "4012 Vendome Pl",
    "address_councildis": "B",
    "status": "Pending",
    "contractor": "Legacy Professional Services",
    "rowid": "1215702",
    "final_x": "3668626.63022",
    "final_y": "529951.891265",
    "longitude": "-90.10877283406187",
    "latitude": "29.951568485613283",
    "geocoded_column": {
      "latitude": "29.951568485613283",
      "longitude": "-90.10877283406187"
    }
  },
  {
    "service_request": "2025-1215701",
    "request_type": "Trash/Recycling",
    "request_reason": "Replace Trash Cart",
    "date_created": "2025-08-05T18:17:22.000",
    "date_modified": "2025-08-05T18:17:24.000",
    "request_status": "Pending",
    "responsible_agency": "Department of Sanitation",
    "final_address": "1527 Dumaine St",
    "address_councildis": "C",
    "status": "Assigned to Contractor",
    "contractor": "IV Waste",
    "rowid": "1215701",
    "final_x": "3680590.88731",
    "final_y": "534934.586438",
    "longitude": "-90.07082217210232",
    "latitude": "29.964912205578845",
    "geocoded_column": {
      "latitude": "29.964912205578845",
      "longitude": "-90.07082217210232"
    }
  },
  {
    "service_request": "2025-1215700",
    "request_type": "Abandoned Vehicles",
    "request_reason": "Abandoned/Junk Vehicles",
    "date_created": "2025-08-05T18:10:48.000",
    "date_modified": "2025-08-05T18:10:49.000",
    "request_status": "Pending",
    "responsible_agency": "Department of Public Works",
    "final_address": "4643 Camelot Dr",
    "address_councildis": "E",
    "status": "Pending",
    "rowid": "1215700",
    "final_x": "3708487.16689",
    "final_y": "555046.535129",
    "longitude": "-89.98197922749928",
    "latitude": "30.01933784334017",
    "geocoded_column": {
      "latitude": "30.01933784334017",
      "longitude": "-89.98197922749928"
    }
  },
  {
    "service_request": "2025-1215699",
    "request_type": "Property Maintenance",
    "request_reason": "Property Maintenance",
    "date_created": "2025-08-05T18:02:45.000",
    "date_modified": "2025-08-05T18:02:47.000",
    "request_status": "Pending",
    "responsible_agency": "Department of Code Enforcement",
    "final_address": "2114 Decatur St",
    "address_councildis": "C",
    "status": "Pending",
    "rowid": "1215699",
    "final_x": "3684932.02453",
    "final_y": "534043.060485",
    "longitude": "-90.05714451082923",
    "latitude": "29.96232858234323",
    "geocoded_column": {
      "latitude": "29.96232858234323",
      "longitude": "-90.05714451082923"
    }
  },
  {
    "service_request": "2025-1215698",
    "request_type": "Trash/Recycling",
    "request_reason": "Request a Large Item Pick Up",
    "date_created": "2025-08-05T18:02:26.000",
    "date_modified": "2025-08-05T18:02:34.000",
    "request_status": "Pending",
    "responsible_agency": "Department of Sanitation",
    "final_address": "4209 Burgundy St",
    "address_councildis": "C",
    "status": "Assigned to Contractor",
    "contractor": "IV Waste",
    "rowid": "1215698",
    "final_x": "3692307.98089",
    "final_y": "534430.274693",
    "longitude": "-90.03383852831237",
    "latitude": "29.963165338970835",
    "geocoded_column": {
      "latitude": "29.963165338970835",
      "longitude": "-90.03383852831237"
    }
  },
  {
    "service_request": "2025-1215697",
    "request_type": "Abandoned Vehicles",
    "request_reason": "Abandoned/Junk Vehicles",
    "date_created": "2025-08-05T18:02:06.000",
    "date_modified": "2025-08-05T18:02:08.000",
    "request_status": "Pending",
    "responsible_agency": "Department of Public Works",
    "final_address": "4611 Gawain Dr",
    "address_councildis": "E",
    "status": "Pending",
    "rowid": "1215697",
    "final_x": "3707140.9852",
    "final_y": "554490.805016",
    "longitude": "-89.98625331133881",
    "latitude": "30.017853385828722",
    "geocoded_column": {
      "latitude": "30.017853385828722",
      "longitude": "-89.98625331133881"
    }
  },
  {
    "service_request": "2025-1215696",
    "request_type": "Street and Traffic Signs",
    "request_reason": "New Disabled Parking Sign Request ",
    "date_created": "2025-08-05T17:49:51.000",
    "date_modified": "2025-08-05T17:49:53.000",
    "request_status": "Pending",
    "responsible_agency": "Department of Public Works",
    "final_address": "524 S Scott St",
    "address_councildis": "B",
    "status": "Pending",
    "rowid": "1215696",
    "final_x": "3670704.83918",
    "final_y": "536354.468295",
    "longitude": "-90.1019935928703",
    "latitude": "29.969112213298295",
    "geocoded_column": {
      "latitude": "29.969112213298295",
      "longitude": "-90.1019935928703"
    }
  },
  {
    "service_request": "2025-1215695",
    "request_type": "Trash/Recycling",
    "request_reason": "Request a Large Item Pick Up",
    "date_created": "2025-08-05T17:42:30.000",
    "date_modified": "2025-08-05T17:42:32.000",
    "request_status": "Pending",
    "responsible_agency": "Department of Sanitation",
    "final_address": "3152 Burgundy St",
    "address_councildis": "C",
    "status": "Assigned to Contractor",
    "contractor": "IV Waste",
    "rowid": "1215695",
    "final_x": "3689210.26102",
    "final_y": "535081.362438",
    "longitude": "-90.04359759140428",
    "latitude": "29.965051838127536",
    "geocoded_column": {
      "latitude": "29.965051838127536",
      "longitude": "-90.04359759140428"
    }
  },
  {
    "service_request": "2025-1215694",
    "request_type": "Trash/Recycling",
    "request_reason": "Damaged Caused By Contractor",
    "date_created": "2025-08-05T17:40:39.000",
    "date_modified": "2025-08-05T17:40:41.000",
    "request_status": "Pending",
    "responsible_agency": "Department of Sanitation",
    "final_address": "8947 Jeannette St A",
    "address_councildis": "A",
    "status": "Assigned to Contractor",
    "contractor": "IV Waste",
    "rowid": "1215694",
    "final_x": "3660325.25165",
    "final_y": "531349.436418",
    "longitude": "-90.13493856133996",
    "latitude": "29.955652617166855",
    "geocoded_column": {
      "latitude": "29.955652617166855",
      "longitude": "-90.13493856133996"
    }
  },
  {
    "service_request": "2025-1215693",
    "request_type": "Trash/Recycling",
    "request_reason": "Replace Trash Cart",
    "date_created": "2025-08-05T17:40:01.000",
    "date_modified": "2025-08-05T17:40:04.000",
    "request_status": "Pending",
    "responsible_agency": "Department of Sanitation",
    "final_address": "3320 Nashville Ave",
    "address_councildis": "A",
    "status": "Assigned to Contractor",
    "contractor": "IV Waste",
    "rowid": "1215693",
    "final_x": "3667943.22119",
    "final_y": "528027.657087",
    "longitude": "-90.11099553035372",
    "latitude": "29.946297532611254",
    "geocoded_column": {
      "latitude": "29.946297532611254",
      "longitude": "-90.11099553035372"
    }
  },
  {
    "service_request": "2025-1215692",
    "request_type": "Property Maintenance",
    "request_reason": "Property Maintenance",
    "date_created": "2025-08-05T17:28:16.000",
    "date_modified": "2025-08-05T17:28:18.000",
    "request_status": "Pending",
    "responsible_agency": "Department of Code Enforcement",
    "final_address": "2038 Deslonde St",
    "address_councildis": "E",
    "status": "Pending",
    "rowid": "1215692",
    "final_x": "3696383.96509",
    "final_y": "538116.461065",
    "longitude": "-90.0208337812164",
    "latitude": "29.97317330267079",
    "geocoded_column": {
      "latitude": "29.97317330267079",
      "longitude": "-90.0208337812164"
    }
  },
  {
    "service_request": "2025-1215691",
    "request_type": "Parks & Parkways",
    "request_reason": "Request Grass Cutting Service (City Owned Property)",
    "date_created": "2025-08-05T17:19:22.000",
    "date_modified": "2025-08-05T17:19:25.000",
    "request_status": "Pending",
    "responsible_agency": "Department of Parks & Parkway",
    "final_address": "3924 Mithra St",
    "address_councildis": "D",
    "status": "Pending",
    "rowid": "1215691",
    "final_x": "3688586.02191",
    "final_y": "552899.673815",
    "longitude": "-90.04493619951923",
    "latitude": "30.014065108207465",
    "geocoded_column": {
      "latitude": "30.014065108207465",
      "longitude": "-90.04493619951923"
    }
  },
  {
    "service_request": "2025-1215690",
    "request_type": "Health Related Request",
    "request_reason": "Noise Ordinance Complaint",
    "date_created": "2025-08-05T17:15:50.000",
    "date_modified": "2025-08-05T17:15:52.000",
    "request_status": "Pending",
    "responsible_agency": "Health Department",
    "final_address": "5345 Baccich St",
    "address_councildis": "D",
    "status": "Pending",
    "rowid": "1215690",
    "final_x": "3687737.78761",
    "final_y": "552679.790294",
    "longitude": "-90.04762397909339",
    "latitude": "30.01348670726616",
    "geocoded_column": {
      "latitude": "30.01348670726616",
      "longitude": "-90.04762397909339"
    }
  },
  {
    "service_request": "2025-1215689",
    "request_type": "Trash/Recycling",
    "request_reason": "Request a Large Item Pick Up",
    "date_created": "2025-08-05T16:59:53.000",
    "date_modified": "2025-08-05T17:00:01.000",
    "request_status": "Pending",
    "responsible_agency": "Department of Sanitation",
    "final_address": "5801 Albany Ct",
    "address_councildis": "C",
    "status": "Assigned to Contractor",
    "contractor": "Richards Disposal",
    "rowid": "1215689",
    "final_x": "3704890.4291",
    "final_y": "521281.753593",
    "longitude": "-89.99459006533559",
    "latitude": "29.926613209332647",
    "geocoded_column": {
      "latitude": "29.926613209332647",
      "longitude": "-89.99459006533559"
    }
  },
  {
    "service_request": "2025-1215688",
    "request_type": "Safety & Permits",
    "request_reason": "Zoning Enforcement",
    "date_created": "2025-08-05T16:51:16.000",
    "date_modified": "2025-08-05T16:51:18.000",
    "request_status": "Pending",
    "responsible_agency": "Safety and Permits",
    "final_address": "6125 Pines Blvd",
    "address_councildis": "D",
    "status": "Pending",
    "rowid": "1215688",
    "final_x": "3696572.62506",
    "final_y": "556310.77513",
    "longitude": "-90.01957914226281",
    "latitude": "30.02319500647701",
    "geocoded_column": {
      "latitude": "30.02319500647701",
      "longitude": "-90.01957914226281"
    }
  },
  {
    "service_request": "2025-1215686",
    "request_type": "Trash/Recycling",
    "request_reason": "Request a Large Item Pick Up",
    "date_created": "2025-08-05T16:44:07.000",
    "date_modified": "2025-08-05T16:44:09.000",
    "request_status": "Pending",
    "responsible_agency": "Department of Sanitation",
    "final_address": "7721 Henley St",
    "address_councildis": "E",
    "status": "Assigned to Contractor",
    "contractor": "Waste Pro",
    "rowid": "1215686",
    "final_x": "3696815.76227",
    "final_y": "559611.581789",
    "longitude": "-90.01869122249302",
    "latitude": "30.032263296443084",
    "geocoded_column": {
      "latitude": "30.032263296443084",
      "longitude": "-90.01869122249302"
    }
  },
  {
    "service_request": "2025-1215685",
    "request_type": "Street and Traffic Signs",
    "request_reason": "Disabled Parking Sign Missing or Damaged",
    "date_created": "2025-08-05T16:38:06.000",
    "date_modified": "2025-08-05T16:40:42.000",
    "request_status": "Pending",
    "responsible_agency": "Department of Public Works",
    "final_address": "4522 Prytania St",
    "address_councildis": "B",
    "status": "Pending",
    "rowid": "1215685",
    "final_x": "3670315.88417",
    "final_y": "520186.9838",
    "longitude": "-90.10376983132169",
    "latitude": "29.924668399433834",
    "geocoded_column": {
      "latitude": "29.924668399433834",
      "longitude": "-90.10376983132169"
    }
  },
  {
    "service_request": "2025-1215684",
    "request_type": "Trash/Recycling",
    "request_reason": "Request a Large Item Pick Up",
    "date_created": "2025-08-05T16:30:49.000",
    "date_modified": "2025-08-05T16:30:50.000",
    "request_status": "Pending",
    "responsible_agency": "Department of Sanitation",
    "final_address": "2257 N Villere St",
    "address_councildis": "C",
    "status": "Assigned to Contractor",
    "contractor": "IV Waste",
    "rowid": "1215684",
    "final_x": "3685501.75113",
    "final_y": "537495.652296",
    "longitude": "-90.05522378633628",
    "latitude": "29.971804552076332",
    "geocoded_column": {
      "latitude": "29.971804552076332",
      "longitude": "-90.05522378633628"
    }
  },
  {
    "service_request": "2025-1215683",
    "request_type": "Roads and Streets",
    "request_reason": "Pothole",
    "date_created": "2025-08-05T16:29:49.000",
    "date_modified": "2025-08-05T16:29:51.000",
    "request_status": "Pending",
    "responsible_agency": "Department of Public Works",
    "final_address": "4400 BLK Dreux Ave",
    "address_councildis": "D",
    "status": "Pending",
    "rowid": "1215683",
    "final_x": "3690113.36022",
    "final_y": "552841.168383",
    "longitude": "-90.04011268537782",
    "latitude": "30.013856930399236",
    "geocoded_column": {
      "latitude": "30.013856930399236",
      "longitude": "-90.04011268537782"
    }
  },
  {
    "service_request": "2025-1215682",
    "request_type": "Streetlights",
    "request_reason": "Streetlight Outage/Malfunction",
    "date_created": "2025-08-05T16:28:45.000",
    "date_modified": "2025-08-05T16:28:47.000",
    "request_status": "Pending",
    "responsible_agency": "Department of Public Works",
    "final_address": "2435 Jasmine St",
    "address_councildis": "D",
    "status": "Pending",
    "contractor": "Legacy Professional Services",
    "rowid": "1215682",
    "final_x": "3685861.61794",
    "final_y": "548025.835346",
    "longitude": "-90.05371588743294",
    "latitude": "30.000747775275425",
    "geocoded_column": {
      "latitude": "30.000747775275425",
      "longitude": "-90.05371588743294"
    }
  },
  {
    "service_request": "2025-1215681",
    "request_type": "Trash/Recycling",
    "request_reason": "Replace Trash Cart",
    "date_created": "2025-08-05T16:23:41.000",
    "date_modified": "2025-08-05T16:23:43.000",
    "request_status": "Pending",
    "responsible_agency": "Department of Sanitation",
    "final_address": "4511 Murano Rd",
    "address_councildis": "E",
    "status": "Assigned to Contractor",
    "contractor": "Waste Pro",
    "rowid": "1215681",
    "final_x": "3761424.09731",
    "final_y": "573703.568298",
    "longitude": "-89.8139393375242",
    "latitude": "30.068813430575137",
    "geocoded_column": {
      "latitude": "30.068813430575137",
      "longitude": "-89.8139393375242"
    }
  },
  {
    "service_request": "2025-1215680",
    "request_type": "Trash/Recycling",
    "request_reason": "Request a Large Item Pick Up",
    "date_created": "2025-08-05T16:19:56.000",
    "date_modified": "2025-08-05T16:19:58.000",
    "request_status": "Pending",
    "responsible_agency": "Department of Sanitation",
    "final_address": "3426 S Robertson St",
    "address_councildis": "B",
    "status": "Assigned to Contractor",
    "contractor": "IV Waste",
    "rowid": "1215680",
    "final_x": "3672559.96187",
    "final_y": "524658.68262",
    "longitude": "-90.09653365428959",
    "latitude": "29.936897725019822",
    "geocoded_column": {
      "latitude": "29.936897725019822",
      "longitude": "-90.09653365428959"
    }
  },
  {
    "service_request": "2025-1215679",
    "request_type": "Streetlights",
    "request_reason": "Streetlight Outage/Malfunction",
    "date_created": "2025-08-05T16:14:52.000",
    "date_modified": "2025-08-05T16:14:56.000",
    "request_status": "Pending",
    "responsible_agency": "Department of Public Works",
    "final_address": "7452 Briarheath Dr",
    "address_councildis": "E",
    "status": "Pending",
    "contractor": "Legacy Professional Services",
    "rowid": "1215679",
    "final_x": "3714443.71327",
    "final_y": "566969.584676",
    "longitude": "-89.9627081386262",
    "latitude": "30.051926942263798",
    "geocoded_column": {
      "latitude": "30.051926942263798",
      "longitude": "-89.9627081386262"
    }
  },
  {
    "service_request": "2025-1215678",
    "request_type": "Streetlights",
    "request_reason": "Streetlight Outage/Malfunction",
    "date_created": "2025-08-05T16:14:15.000",
    "date_modified": "2025-08-05T16:14:18.000",
    "request_status": "Pending",
    "responsible_agency": "Department of Public Works",
    "final_address": "721 Lang St",
    "address_councildis": "C",
    "status": "Pending",
    "contractor": "Legacy Professional Services",
    "rowid": "1215678",
    "final_x": "3701974.19274",
    "final_y": "519819.0974",
    "longitude": "-90.00384933210111",
    "latitude": "29.922684773911786",
    "geocoded_column": {
      "latitude": "29.922684773911786",
      "longitude": "-90.00384933210111"
    }
  },
  {
    "service_request": "2025-1215677",
    "request_type": "Trash/Recycling",
    "request_reason": "Order Trash Cart",
    "date_created": "2025-08-05T16:08:10.000",
    "date_modified": "2025-08-05T16:08:12.000",
    "request_status": "Pending",
    "responsible_agency": "Department of Sanitation",
    "final_address": "10241 Deer Park Blvd",
    "address_councildis": "E",
    "status": "Assigned to Contractor",
    "contractor": "Waste Pro",
    "rowid": "1215677",
    "final_x": "3712401.59934",
    "final_y": "560891.587678",
    "longitude": "-89.96939124063088",
    "latitude": "30.035281907524798",
    "geocoded_column": {
      "latitude": "30.035281907524798",
      "longitude": "-89.96939124063088"
    }
  },
  {
    "service_request": "2025-1215676",
    "request_type": "Trash/Recycling",
    "request_reason": "Order Second Trash Cart",
    "date_created": "2025-08-05T16:07:39.000",
    "date_modified": "2025-08-05T16:07:41.000",
    "request_status": "Pending",
    "responsible_agency": "Department of Sanitation",
    "final_address": "4643 Camelot Dr",
    "address_councildis": "E",
    "status": "Assigned to Contractor",
    "contractor": "Waste Pro",
    "rowid": "1215676",
    "final_x": "3708487.16689",
    "final_y": "555046.535129",
    "longitude": "-89.98197922749928",
    "latitude": "30.01933784334017",
    "geocoded_column": {
      "latitude": "30.01933784334017",
      "longitude": "-89.98197922749928"
    }
  },
  {
    "service_request": "2025-1215675",
    "request_type": "Trash/Recycling",
    "request_reason": "Order Trash Cart",
    "date_created": "2025-08-05T16:04:24.000",
    "date_modified": "2025-08-05T16:04:27.000",
    "request_status": "Pending",
    "responsible_agency": "Department of Sanitation",
    "final_address": "813 Lesseps St",
    "address_councildis": "C",
    "status": "Assigned to Contractor",
    "contractor": "IV Waste",
    "rowid": "1215675",
    "final_x": "3692472.49942",
    "final_y": "534047.825605",
    "longitude": "-90.03333270237044",
    "latitude": "29.962108606939303",
    "geocoded_column": {
      "latitude": "29.962108606939303",
      "longitude": "-90.03333270237044"
    }
  },
  {
    "service_request": "2025-1215674",
    "request_type": "Trash/Recycling",
    "request_reason": "Replace Trash Cart",
    "date_created": "2025-08-05T16:03:40.000",
    "date_modified": "2025-08-05T16:03:42.000",
    "request_status": "Pending",
    "responsible_agency": "Department of Sanitation",
    "final_address": "4611 S Prieur St",
    "address_councildis": "B",
    "status": "Assigned to Contractor",
    "contractor": "IV Waste",
    "rowid": "1215674",
    "final_x": "3669397.46657",
    "final_y": "526854.476606",
    "longitude": "-90.10644361835065",
    "latitude": "29.94302893095376",
    "geocoded_column": {
      "latitude": "29.94302893095376",
      "longitude": "-90.10644361835065"
    }
  },
  {
    "service_request": "2025-1215673",
    "request_type": "Trash/Recycling",
    "request_reason": "Request a Large Item Pick Up",
    "date_created": "2025-08-05T15:59:54.000",
    "date_modified": "2025-08-05T15:59:57.000",
    "request_status": "Pending",
    "responsible_agency": "Department of Sanitation",
    "final_address": "2520 General Pershing St",
    "address_councildis": "B",
    "status": "Assigned to Contractor",
    "contractor": "IV Waste",
    "rowid": "1215673",
    "final_x": "3670863.06849",
    "final_y": "524252.990268",
    "longitude": "-90.10190461216385",
    "latitude": "29.935832455959247",
    "geocoded_column": {
      "latitude": "29.935832455959247",
      "longitude": "-90.10190461216385"
    }
  },
  {
    "service_request": "2025-1215672",
    "request_type": "Streetlights",
    "request_reason": "Streetlight Outage/Malfunction",
    "date_created": "2025-08-05T15:58:32.000",
    "date_modified": "2025-08-05T16:10:18.000",
    "request_status": "Pending",
    "responsible_agency": "Department of Public Works",
    "final_address": "3120 Eagle St",
    "address_councildis": "A",
    "status": "Pending",
    "contractor": "Legacy Professional Services",
    "rowid": "1215672",
    "final_x": "3664829.64308",
    "final_y": "535253.036742",
    "longitude": "-90.12058477269925",
    "latitude": "29.966255934441936",
    "geocoded_column": {
      "latitude": "29.966255934441936",
      "longitude": "-90.12058477269925"
    }
  },
  {
    "service_request": "2025-1215671",
    "request_type": "Abandoned Vehicles",
    "request_reason": "Abandoned/Junk Vehicles",
    "date_created": "2025-08-05T15:57:14.000",
    "date_modified": "2025-08-05T15:57:16.000",
    "request_status": "Pending",
    "responsible_agency": "Department of Public Works",
    "final_address": "216 Liberty Terrace Dr",
    "address_councildis": "D",
    "status": "Pending",
    "rowid": "1215671",
    "final_x": "3689608.25743",
    "final_y": "545655.862032",
    "longitude": "-90.04196439766066",
    "latitude": "29.994115629571095",
    "geocoded_column": {
      "latitude": "29.994115629571095",
      "longitude": "-90.04196439766066"
    }
  },
  {
    "service_request": "2025-1215670",
    "request_type": "Trash/Recycling",
    "request_reason": "Request a Large Item Pick Up",
    "date_created": "2025-08-05T15:56:54.000",
    "date_modified": "2025-08-05T15:56:56.000",
    "request_status": "Pending",
    "responsible_agency": "Department of Sanitation",
    "final_address": "1235 St Thomas St",
    "address_councildis": "B",
    "status": "Assigned to Contractor",
    "contractor": "IV Waste",
    "rowid": "1215670",
    "final_x": "3681578.05039",
    "final_y": "525175.852541",
    "longitude": "-90.06804507482333",
    "latitude": "29.938049037913856",
    "geocoded_column": {
      "latitude": "29.938049037913856",
      "longitude": "-90.06804507482333"
    }
  },
  {
    "service_request": "2025-1215669",
    "request_type": "Trash/Recycling",
    "request_reason": "Request a Large Item Pick Up",
    "date_created": "2025-08-05T15:55:51.000",
    "date_modified": "2025-08-05T15:56:02.000",
    "request_status": "Pending",
    "responsible_agency": "Department of Sanitation",
    "final_address": "2318 New York St",
    "address_councildis": "D",
    "status": "Assigned to Contractor",
    "contractor": "IV Waste",
    "rowid": "1215669",
    "final_x": "3684333.00137",
    "final_y": "556564.223578",
    "longitude": "-90.05824473106813",
    "latitude": "30.024272078985206",
    "geocoded_column": {
      "latitude": "30.024272078985206",
      "longitude": "-90.05824473106813"
    }
  },
  {
    "service_request": "2025-1215668",
    "request_type": "Trash/Recycling",
    "request_reason": "Order Second Trash Cart",
    "date_created": "2025-08-05T15:53:11.000",
    "date_modified": "2025-08-05T15:53:13.000",
    "request_status": "Pending",
    "responsible_agency": "Department of Sanitation",
    "final_address": "7430 Camberley Dr",
    "address_councildis": "E",
    "status": "Assigned to Contractor",
    "contractor": "Waste Pro",
    "rowid": "1215668",
    "final_x": "3712692.96523",
    "final_y": "565553.582626",
    "longitude": "-89.96829497604182",
    "latitude": "30.04809097801865",
    "geocoded_column": {
      "latitude": "30.04809097801865",
      "longitude": "-89.96829497604182"
    }
  },
  {
    "service_request": "2025-1215667",
    "request_type": "Trash/Recycling",
    "request_reason": "Repair Recycling Cart",
    "date_created": "2025-08-05T15:52:57.000",
    "date_modified": "2025-08-05T15:52:59.000",
    "request_status": "Pending",
    "responsible_agency": "Department of Sanitation",
    "final_address": "1542 De Battista Pl",
    "address_councildis": "C",
    "status": "Pending",
    "rowid": "1215667",
    "final_x": "3699816.81764",
    "final_y": "525465.287677",
    "longitude": "-90.01045349853717",
    "latitude": "29.938278498402248",
    "geocoded_column": {
      "latitude": "29.938278498402248",
      "longitude": "-90.01045349853717"
    }
  },
  {
    "service_request": "2025-1215666",
    "request_type": "Trash/Recycling",
    "request_reason": "Request a Large Item Pick Up",
    "date_created": "2025-08-05T15:49:52.000",
    "date_modified": "2025-08-05T15:49:54.000",
    "request_status": "Pending",
    "responsible_agency": "Department of Sanitation",
    "final_address": "7820 Haney Dr",
    "address_councildis": "E",
    "status": "Assigned to Contractor",
    "contractor": "Waste Pro",
    "rowid": "1215666",
    "final_x": "3712194.20466",
    "final_y": "567820.897316",
    "longitude": "-89.96978605345586",
    "latitude": "30.054341500130956",
    "geocoded_column": {
      "latitude": "30.054341500130956",
      "longitude": "-89.96978605345586"
    }
  },
  {
    "service_request": "2025-1215665",
    "request_type": "Streetlights",
    "request_reason": "Streetlight Outage/Malfunction",
    "date_created": "2025-08-05T15:45:39.000",
    "date_modified": "2025-08-05T15:45:56.000",
    "request_status": "Pending",
    "responsible_agency": "Department of Public Works",
    "final_address": "1607 Soniat St",
    "address_councildis": "B",
    "status": "Pending",
    "contractor": "Legacy Professional Services",
    "rowid": "1215665",
    "final_x": "3668484.53569",
    "final_y": "521124.460601",
    "longitude": "-90.10951919625269",
    "latitude": "29.927300071551226",
    "geocoded_column": {
      "latitude": "29.927300071551226",
      "longitude": "-90.10951919625269"
    }
  },
  {
    "service_request": "2025-1215664",
    "request_type": "Trash/Recycling",
    "request_reason": "Request a Large Item Pick Up",
    "date_created": "2025-08-05T15:45:28.000",
    "date_modified": "2025-08-05T15:45:30.000",
    "request_status": "Pending",
    "responsible_agency": "Department of Sanitation",
    "final_address": "2634 Myrtle St",
    "address_councildis": "D",
    "status": "Assigned to Contractor",
    "contractor": "IV Waste",
    "rowid": "1215664",
    "final_x": "3687479.14396",
    "final_y": "546043.739216",
    "longitude": "-90.04867622015563",
    "latitude": "29.995247958828195",
    "geocoded_column": {
      "latitude": "29.995247958828195",
      "longitude": "-90.04867622015563"
    }
  },
  {
    "service_request": "2025-1215663",
    "request_type": "Roads and Streets",
    "request_reason": "Abandoned Service Cut",
    "date_created": "2025-08-05T15:45:15.000",
    "date_modified": "2025-08-05T15:45:17.000",
    "request_status": "Pending",
    "responsible_agency": "Department of Public Works",
    "final_address": "2013 Dumaine St",
    "address_councildis": "D",
    "status": "Pending",
    "rowid": "1215663",
    "final_x": "3679275.46517",
    "final_y": "535941.554887",
    "longitude": "-90.0749412704264",
    "latitude": "29.967720811895013",
    "geocoded_column": {
      "latitude": "29.967720811895013",
      "longitude": "-90.0749412704264"
    }
  },
  {
    "service_request": "2025-1215662",
    "request_type": "Property Maintenance",
    "request_reason": "Property Maintenance",
    "date_created": "2025-08-05T15:44:08.000",
    "date_modified": "2025-08-05T15:44:09.000",
    "request_status": "Pending",
    "responsible_agency": "Department of Code Enforcement",
    "final_address": "2013 Dumaine St",
    "address_councildis": "D",
    "status": "Pending",
    "rowid": "1215662",
    "final_x": "3679275.46517",
    "final_y": "535941.554887",
    "longitude": "-90.0749412704264",
    "latitude": "29.967720811895013",
    "geocoded_column": {
      "latitude": "29.967720811895013",
      "longitude": "-90.0749412704264"
    }
  },
  {
    "service_request": "2025-1215661",
    "request_type": "Trash/Recycling",
    "request_reason": "Request a Large Item Pick Up",
    "date_created": "2025-08-05T15:43:58.000",
    "date_modified": "2025-08-05T15:44:00.000",
    "request_status": "Pending",
    "responsible_agency": "Department of Sanitation",
    "final_address": "4737 W Adams Ct",
    "address_councildis": "E",
    "status": "Assigned to Contractor",
    "contractor": "Waste Pro",
    "rowid": "1215661",
    "final_x": "3718604.84108",
    "final_y": "557039.775066",
    "longitude": "-89.94993516844005",
    "latitude": "30.024486482516625",
    "geocoded_column": {
      "latitude": "30.024486482516625",
      "longitude": "-89.94993516844005"
    }
  },
  {
    "service_request": "2025-1215660",
    "request_type": "Safety & Permits",
    "request_reason": "Licenses & Permits",
    "date_created": "2025-08-05T15:41:59.000",
    "date_modified": "2025-08-05T15:42:00.000",
    "request_status": "Pending",
    "responsible_agency": "Safety and Permits",
    "final_address": "2013 Dumaine St",
    "address_councildis": "D",
    "status": "Pending",
    "rowid": "1215660",
    "final_x": "3679275.46517",
    "final_y": "535941.554887",
    "longitude": "-90.0749412704264",
    "latitude": "29.967720811895013",
    "geocoded_column": {
      "latitude": "29.967720811895013",
      "longitude": "-90.0749412704264"
    }
  },
  {
    "service_request": "2025-1215659",
    "request_type": "Trash/Recycling",
    "request_reason": "Request a Large Item Pick Up",
    "date_created": "2025-08-05T15:41:56.000",
    "date_modified": "2025-08-05T15:41:58.000",
    "request_status": "Pending",
    "responsible_agency": "Department of Sanitation",
    "final_address": "1631 Fern St",
    "address_councildis": "A",
    "status": "Assigned to Contractor",
    "contractor": "IV Waste",
    "rowid": "1215659",
    "final_x": "3663676.67047",
    "final_y": "529042.593088",
    "longitude": "-90.12443277287583",
    "latitude": "29.94921273880267",
    "geocoded_column": {
      "latitude": "29.94921273880267",
      "longitude": "-90.12443277287583"
    }
  },
  {
    "service_request": "2025-1215658",
    "request_type": "Abandoned Vehicles",
    "request_reason": "Abandoned/Junk Vehicles",
    "date_created": "2025-08-05T15:41:43.000",
    "date_modified": "2025-08-05T15:41:44.000",
    "request_status": "Pending",
    "responsible_agency": "Department of Public Works",
    "final_address": "6981 Pinebrook Dr",
    "address_councildis": "E",
    "status": "Pending",
    "rowid": "1215658",
    "final_x": "3719912.07558",
    "final_y": "569478.275046",
    "longitude": "-89.94532849325108",
    "latitude": "30.058643809870674",
    "geocoded_column": {
      "latitude": "30.058643809870674",
      "longitude": "-89.94532849325108"
    }
  },
  {
    "service_request": "2025-1215657",
    "request_type": "Abandoned Vehicles",
    "request_reason": "Abandoned/Junk Vehicles",
    "date_created": "2025-08-05T15:41:15.000",
    "date_modified": "2025-08-05T15:43:17.000",
    "request_status": "Pending",
    "responsible_agency": "Department of Public Works",
    "final_address": "4300 BLK Prytania St",
    "address_councildis": "B",
    "status": "Pending",
    "rowid": "1215657",
    "final_x": "3671121.38147",
    "final_y": "520343.850504",
    "longitude": "-90.10122181561997",
    "latitude": "29.92507594133064",
    "geocoded_column": {
      "latitude": "29.92507594133064",
      "longitude": "-90.10122181561997"
    }
  },
  {
    "service_request": "2025-1215656",
    "request_type": "Trash/Recycling",
    "request_reason": "Repair Trash Cart",
    "date_created": "2025-08-05T15:33:48.000",
    "date_modified": "2025-08-05T15:33:50.000",
    "request_status": "Pending",
    "responsible_agency": "Department of Sanitation",
    "final_address": "6072 Kuebel Dr",
    "address_councildis": "E",
    "status": "Assigned to Contractor",
    "contractor": "Waste Pro",
    "rowid": "1215656",
    "final_x": "3695381.5048",
    "final_y": "559792.791261",
    "longitude": "-90.0232170076621",
    "latitude": "30.032806721517012",
    "geocoded_column": {
      "latitude": "30.032806721517012",
      "longitude": "-90.0232170076621"
    }
  },
  {
    "service_request": "2025-1215655",
    "request_type": "Streetlights",
    "request_reason": "New Streetlight Request",
    "date_created": "2025-08-05T15:33:33.000",
    "date_modified": "2025-08-05T15:33:34.000",
    "request_status": "Pending",
    "responsible_agency": "Department of Public Works",
    "final_address": "1400 BLK N Robertson St",
    "address_councildis": "C",
    "status": "Pending",
    "contractor": "Legacy Professional Services",
    "rowid": "1215655",
    "final_x": "3681920.22831",
    "final_y": "536798.699156",
    "longitude": "-90.06655911881892",
    "latitude": "29.969997533073336",
    "geocoded_column": {
      "latitude": "29.969997533073336",
      "longitude": "-90.06655911881892"
    }
  },
  {
    "service_request": "2025-1215654",
    "request_type": "Trash/Recycling",
    "request_reason": "Request a Large Item Pick Up",
    "date_created": "2025-08-05T15:30:06.000",
    "date_modified": "2025-08-05T15:30:09.000",
    "request_status": "Pending",
    "responsible_agency": "Department of Sanitation",
    "final_address": "2029 St Roch Ave",
    "address_councildis": "D",
    "status": "Assigned to Contractor",
    "contractor": "IV Waste",
    "rowid": "1215654",
    "final_x": "3686277.78095",
    "final_y": "540004.894283",
    "longitude": "-90.05268439940224",
    "latitude": "29.97868026310555",
    "geocoded_column": {
      "latitude": "29.97868026310555",
      "longitude": "-90.05268439940224"
    }
  },
  {
    "service_request": "2025-1215653",
    "request_type": "Trash/Recycling",
    "request_reason": "Illegal Dumping",
    "date_created": "2025-08-05T15:25:20.000",
    "date_modified": "2025-08-05T15:25:22.000",
    "request_status": "Pending",
    "responsible_agency": "Department of Sanitation",
    "final_address": "3125 Hollygrove St",
    "address_councildis": "A",
    "status": "Pending",
    "rowid": "1215653",
    "final_x": "3664428.09818",
    "final_y": "535695.528455",
    "longitude": "-90.12183807468982",
    "latitude": "29.967484320581864",
    "geocoded_column": {
      "latitude": "29.967484320581864",
      "longitude": "-90.12183807468982"
    }
  },
  {
    "service_request": "2025-1215652",
    "request_type": "Trash/Recycling",
    "request_reason": "Repair Recycling Cart",
    "date_created": "2025-08-05T15:22:27.000",
    "date_modified": "2025-08-05T15:22:29.000",
    "request_status": "Pending",
    "responsible_agency": "Department of Sanitation",
    "final_address": "6012 Music St",
    "address_councildis": "D",
    "status": "Pending",
    "rowid": "1215652",
    "final_x": "3685293.41961",
    "final_y": "555268.468377",
    "longitude": "-90.05525565887376",
    "latitude": "30.02067980968064",
    "geocoded_column": {
      "latitude": "30.02067980968064",
      "longitude": "-90.05525565887376"
    }
  },
  {
    "service_request": "2025-1215651",
    "request_type": "Trash/Recycling",
    "request_reason": "Request a Large Item Pick Up",
    "date_created": "2025-08-05T15:22:25.000",
    "date_modified": "2025-08-05T15:22:27.000",
    "request_status": "Pending",
    "responsible_agency": "Department of Sanitation",
    "final_address": "1939 Valence St",
    "address_councildis": "B",
    "status": "Assigned to Contractor",
    "contractor": "IV Waste",
    "rowid": "1215651",
    "final_x": "3669650.36999",
    "final_y": "522139.316794",
    "longitude": "-90.10580462024689",
    "latitude": "29.93005631242006",
    "geocoded_column": {
      "latitude": "29.93005631242006",
      "longitude": "-90.10580462024689"
    }
  },
  {
    "service_request": "2025-1215650",
    "request_type": "Trash/Recycling",
    "request_reason": "Request a Large Item Pick Up",
    "date_created": "2025-08-05T15:21:46.000",
    "date_modified": "2025-08-05T15:21:48.000",
    "request_status": "Pending",
    "responsible_agency": "Department of Sanitation",
    "final_address": "5252 Annunciation St",
    "address_councildis": "B",
    "status": "Assigned to Contractor",
    "contractor": "IV Waste",
    "rowid": "1215650",
    "final_x": "3667535.18861",
    "final_y": "517534.757814",
    "longitude": "-90.11263677711774",
    "latitude": "29.91745736721848",
    "geocoded_column": {
      "latitude": "29.91745736721848",
      "longitude": "-90.11263677711774"
    }
  },
  {
    "service_request": "2025-1215649",
    "request_type": "Trash/Recycling",
    "request_reason": "Request a Large Item Pick Up",
    "date_created": "2025-08-05T15:20:22.000",
    "date_modified": "2025-08-05T15:20:35.000",
    "request_status": "Pending",
    "responsible_agency": "Department of Sanitation",
    "final_address": "127 N Genois St",
    "address_councildis": "B",
    "status": "Assigned to Contractor",
    "contractor": "IV Waste",
    "rowid": "1215649",
    "final_x": "3672761.33518",
    "final_y": "537464.769608",
    "longitude": "-90.0954611399439",
    "latitude": "29.97210424069763",
    "geocoded_column": {
      "latitude": "29.97210424069763",
      "longitude": "-90.0954611399439"
    }
  },
  {
    "service_request": "2025-1215648",
    "request_type": "Trash/Recycling",
    "request_reason": "Illegal Dumping",
    "date_created": "2025-08-05T15:18:49.000",
    "date_modified": "2025-08-05T15:18:51.000",
    "request_status": "Pending",
    "responsible_agency": "Department of Sanitation",
    "final_address": "2341 S Roman St",
    "address_councildis": "B",
    "status": "Pending",
    "rowid": "1215648",
    "final_x": "3673841.6194",
    "final_y": "528066.888447",
    "longitude": "-90.09237085772297",
    "latitude": "29.946231073815397",
    "geocoded_column": {
      "latitude": "29.946231073815397",
      "longitude": "-90.09237085772297"
    }
  },
  {
    "service_request": "2025-1215647",
    "request_type": "Drainage",
    "request_reason": "Catch Basin Not Draining",
    "date_created": "2025-08-05T15:15:06.000",
    "date_modified": "2025-08-05T15:15:07.000",
    "request_status": "Pending",
    "responsible_agency": "Sewerage & Water Board",
    "final_address": "1121 Carondelet St",
    "address_councildis": "B",
    "status": "Pending",
    "rowid": "1215647",
    "final_x": "3679276.56303",
    "final_y": "526730.092798",
    "longitude": "-90.07525719764539",
    "latitude": "29.942392362999723",
    "geocoded_column": {
      "latitude": "29.942392362999723",
      "longitude": "-90.07525719764539"
    }
  },
  {
    "service_request": "2025-1215646",
    "request_type": "Trash/Recycling",
    "request_reason": "Replace Trash Cart",
    "date_created": "2025-08-05T15:15:04.000",
    "date_modified": "2025-08-05T15:15:06.000",
    "request_status": "Pending",
    "responsible_agency": "Department of Sanitation",
    "final_address": "629 Louisa St",
    "address_councildis": "C",
    "status": "Assigned to Contractor",
    "contractor": "IV Waste",
    "rowid": "1215646",
    "final_x": "3689188.34742",
    "final_y": "534233.377733",
    "longitude": "-90.0436969324975",
    "latitude": "29.96272085418437",
    "geocoded_column": {
      "latitude": "29.96272085418437",
      "longitude": "-90.0436969324975"
    }
  },
  {
    "service_request": "2025-1215645",
    "request_type": "Drainage",
    "request_reason": "Catch Basin Not Draining",
    "date_created": "2025-08-05T15:14:01.000",
    "date_modified": "2025-08-05T15:14:03.000",
    "request_status": "Pending",
    "responsible_agency": "Sewerage & Water Board",
    "final_address": "1123 St Mary St",
    "address_councildis": "B",
    "status": "Pending",
    "rowid": "1215645",
    "final_x": "3679646.81282",
    "final_y": "522984.260795",
    "longitude": "-90.07421819140693",
    "latitude": "29.932081380629377",
    "geocoded_column": {
      "latitude": "29.932081380629377",
      "longitude": "-90.07421819140693"
    }
  },
  {
    "service_request": "2025-1215644",
    "request_type": "Trash/Recycling",
    "request_reason": "Replace Recycling Cart",
    "date_created": "2025-08-05T15:13:49.000",
    "date_modified": "2025-08-05T15:13:51.000",
    "request_status": "Pending",
    "responsible_agency": "Department of Sanitation",
    "final_address": "629 Louisa St",
    "address_councildis": "C",
    "status": "Pending",
    "rowid": "1215644",
    "final_x": "3689188.34742",
    "final_y": "534233.377733",
    "longitude": "-90.0436969324975",
    "latitude": "29.96272085418437",
    "geocoded_column": {
      "latitude": "29.96272085418437",
      "longitude": "-90.0436969324975"
    }
  },
  {
    "service_request": "2025-1215643",
    "request_type": "Drainage",
    "request_reason": "Catch Basin Not Draining",
    "date_created": "2025-08-05T15:12:32.000",
    "date_modified": "2025-08-05T15:12:34.000",
    "request_status": "Pending",
    "responsible_agency": "Sewerage & Water Board",
    "final_address": "1943 Sophie Wright Pl",
    "address_councildis": "B",
    "status": "Pending",
    "rowid": "1215643",
    "final_x": "3679487.78306",
    "final_y": "522673.285818",
    "longitude": "-90.07473101556089",
    "latitude": "29.93123110572047",
    "geocoded_column": {
      "latitude": "29.93123110572047",
      "longitude": "-90.07473101556089"
    }
  },
  {
    "service_request": "2025-1215642",
    "request_type": "Property Maintenance",
    "request_reason": "Property Maintenance",
    "date_created": "2025-08-05T15:09:35.000",
    "date_modified": "2025-08-05T15:09:37.000",
    "request_status": "Pending",
    "responsible_agency": "Department of Code Enforcement",
    "final_address": "5719 Paris Ave",
    "address_councildis": "D",
    "status": "Pending",
    "rowid": "1215642",
    "final_x": "3679148.05851",
    "final_y": "553676.053143",
    "longitude": "-90.07472844722645",
    "latitude": "30.01648828991991",
    "geocoded_column": {
      "latitude": "30.01648828991991",
      "longitude": "-90.07472844722645"
    }
  },
  {
    "service_request": "2025-1215641",
    "request_type": "Abandoned Vehicles",
    "request_reason": "Abandoned/Junk Vehicles",
    "date_created": "2025-08-05T15:05:59.000",
    "date_modified": "2025-08-05T15:06:01.000",
    "request_status": "Pending",
    "responsible_agency": "Department of Public Works",
    "final_address": "2317 Conti St",
    "address_councildis": "B",
    "status": "Pending",
    "rowid": "1215641",
    "final_x": "3677296.06498",
    "final_y": "535128.895302",
    "longitude": "-90.08122031708561",
    "latitude": "29.965545898687594",
    "geocoded_column": {
      "latitude": "29.965545898687594",
      "longitude": "-90.08122031708561"
    }
  },
  {
    "service_request": "2025-1215640",
    "request_type": "Trash/Recycling",
    "request_reason": "Replace Trash Cart",
    "date_created": "2025-08-05T15:04:43.000",
    "date_modified": "2025-08-05T15:04:46.000",
    "request_status": "Pending",
    "responsible_agency": "Department of Sanitation",
    "final_address": "3610 Rue Mignon",
    "address_councildis": "C",
    "status": "Assigned to Contractor",
    "contractor": "Richards Disposal",
    "rowid": "1215640",
    "final_x": "3703371.28311",
    "final_y": "517334.499701",
    "longitude": "-89.99953060091201",
    "latitude": "29.915808340149013",
    "geocoded_column": {
      "latitude": "29.915808340149013",
      "longitude": "-89.99953060091201"
    }
  },
  {
    "service_request": "2025-1215639",
    "request_type": "Trash/Recycling",
    "request_reason": "Request a Large Item Pick Up",
    "date_created": "2025-08-05T15:04:30.000",
    "date_modified": "2025-08-05T15:04:32.000",
    "request_status": "Pending",
    "responsible_agency": "Department of Sanitation",
    "final_address": "917 Eighth St",
    "address_councildis": "B",
    "status": "Assigned to Contractor",
    "contractor": "IV Waste",
    "rowid": "1215639",
    "final_x": "3676471.02849",
    "final_y": "519752.87372",
    "longitude": "-90.08435502466122",
    "latitude": "29.92329168924974",
    "geocoded_column": {
      "latitude": "29.92329168924974",
      "longitude": "-90.08435502466122"
    }
  },
  {
    "service_request": "2025-1215638",
    "request_type": "Drainage",
    "request_reason": "Catch Basin Not Draining",
    "date_created": "2025-08-05T15:02:13.000",
    "date_modified": "2025-08-05T15:02:15.000",
    "request_status": "Pending",
    "responsible_agency": "Sewerage & Water Board",
    "final_address": "1931 Burgundy St",
    "address_councildis": "C",
    "status": "Pending",
    "rowid": "1215638",
    "final_x": "3684181.76892",
    "final_y": "535550.929862",
    "longitude": "-90.05946076969607",
    "latitude": "29.966497658138245",
    "geocoded_column": {
      "latitude": "29.966497658138245",
      "longitude": "-90.05946076969607"
    }
  },
  {
    "service_request": "2025-1215637",
    "request_type": "Trash/Recycling",
    "request_reason": "Request a Large Item Pick Up",
    "date_created": "2025-08-05T14:58:34.000",
    "date_modified": "2025-08-05T14:58:37.000",
    "request_status": "Pending",
    "responsible_agency": "Department of Sanitation",
    "final_address": "5504 Camp St",
    "address_councildis": "A",
    "status": "Assigned to Contractor",
    "contractor": "IV Waste",
    "rowid": "1215637",
    "final_x": "3666439.04929",
    "final_y": "519157.082999",
    "longitude": "-90.1160422838497",
    "latitude": "29.921950316635296",
    "geocoded_column": {
      "latitude": "29.921950316635296",
      "longitude": "-90.1160422838497"
    }
  },
  {
    "service_request": "2025-1215636",
    "request_type": "Trash/Recycling",
    "request_reason": "Return Trash Cart",
    "date_created": "2025-08-05T14:53:01.000",
    "date_modified": "2025-08-05T14:53:03.000",
    "request_status": "Pending",
    "responsible_agency": "Department of Sanitation",
    "final_address": "13310 Dwyer Blvd",
    "address_councildis": "E",
    "status": "Assigned to Contractor",
    "contractor": "Waste Pro",
    "rowid": "1215636",
    "final_x": "3725063.29561",
    "final_y": "561552.717983",
    "longitude": "-89.92935316059656",
    "latitude": "30.036679249882237",
    "geocoded_column": {
      "latitude": "30.036679249882237",
      "longitude": "-89.92935316059656"
    }
  },
  {
    "service_request": "2025-1215635",
    "request_type": "Streetlights",
    "request_reason": "Streetlight Outage/Malfunction",
    "date_created": "2025-08-05T14:50:12.000",
    "date_modified": "2025-08-05T14:50:14.000",
    "request_status": "Pending",
    "responsible_agency": "Department of Public Works",
    "final_address": "4617 Tchoupitoulas St",
    "address_councildis": "B",
    "status": "Pending",
    "contractor": "Legacy Professional Services",
    "rowid": "1215635",
    "final_x": "3670283.01402",
    "final_y": "517407.142773",
    "longitude": "-90.10396773847461",
    "latitude": "29.91702568781164",
    "geocoded_column": {
      "latitude": "29.91702568781164",
      "longitude": "-90.10396773847461"
    }
  },
  {
    "service_request": "2025-1215634",
    "request_type": "Roads and Streets",
    "request_reason": "Sidewalk Damaged or Missing",
    "date_created": "2025-08-05T14:47:54.000",
    "date_modified": "2025-08-05T14:47:56.000",
    "request_status": "Pending",
    "responsible_agency": "Department of Public Works",
    "final_address": "7510 Arbor Dr",
    "address_councildis": "E",
    "status": "Pending",
    "rowid": "1215634",
    "final_x": "3701618.05578",
    "final_y": "558126.050395",
    "longitude": "-90.00357021968418",
    "latitude": "30.02802628847796",
    "geocoded_column": {
      "latitude": "30.02802628847796",
      "longitude": "-90.00357021968418"
    }
  },
  {
    "service_request": "2025-1215633",
    "request_type": "Property Maintenance",
    "request_reason": "Property Maintenance",
    "date_created": "2025-08-05T14:47:12.000",
    "date_modified": "2025-08-05T14:47:13.000",
    "request_status": "Pending",
    "responsible_agency": "Department of Code Enforcement",
    "final_address": "102 Kingston Ct",
    "address_councildis": "C",
    "status": "Pending",
    "rowid": "1215633",
    "final_x": "3705672.97303",
    "final_y": "517849.075894",
    "longitude": "-89.99224663273296",
    "latitude": "29.917149375510338",
    "geocoded_column": {
      "latitude": "29.917149375510338",
      "longitude": "-89.99224663273296"
    }
  },
  {
    "service_request": "2025-1215632",
    "request_type": "Trash/Recycling",
    "request_reason": "Repair Recycling Cart",
    "date_created": "2025-08-05T14:47:02.000",
    "date_modified": "2025-08-05T14:47:04.000",
    "request_status": "Pending",
    "responsible_agency": "Department of Sanitation",
    "final_address": "9015 Belfast St",
    "address_councildis": "A",
    "status": "Pending",
    "rowid": "1215632",
    "final_x": "3663146.99898",
    "final_y": "534634.328198",
    "longitude": "-90.12591914378343",
    "latitude": "29.964603550230148",
    "geocoded_column": {
      "latitude": "29.964603550230148",
      "longitude": "-90.12591914378343"
    }
  },
  {
    "service_request": "2025-1215631",
    "request_type": "Abandoned Vehicles",
    "request_reason": "Abandoned/Junk Vehicles",
    "date_created": "2025-08-05T14:45:37.000",
    "date_modified": "2025-08-05T14:45:44.000",
    "request_status": "Pending",
    "responsible_agency": "Department of Public Works",
    "final_address": "204 Fairfax Pl",
    "address_councildis": "C",
    "status": "Pending",
    "rowid": "1215631",
    "final_x": "3706226.78673",
    "final_y": "517505.84575",
    "longitude": "-89.9905112711674",
    "latitude": "29.916187776969036",
    "geocoded_column": {
      "latitude": "29.916187776969036",
      "longitude": "-89.9905112711674"
    }
  },
  {
    "service_request": "2025-1215630",
    "request_type": "Property Maintenance",
    "request_reason": "Property Maintenance",
    "date_created": "2025-08-05T14:43:52.000",
    "date_modified": "2025-08-05T14:43:55.000",
    "request_status": "Pending",
    "responsible_agency": "Department of Code Enforcement",
    "final_address": "204 Fairfax Pl",
    "address_councildis": "C",
    "status": "Pending",
    "rowid": "1215630",
    "final_x": "3706226.78673",
    "final_y": "517505.84575",
    "longitude": "-89.9905112711674",
    "latitude": "29.916187776969036",
    "geocoded_column": {
      "latitude": "29.916187776969036",
      "longitude": "-89.9905112711674"
    }
  },
  {
    "service_request": "2025-1215629",
    "request_type": "Trash/Recycling",
    "request_reason": "Request a Large Item Pick Up",
    "date_created": "2025-08-05T14:43:45.000",
    "date_modified": "2025-08-05T14:43:46.000",
    "request_status": "Pending",
    "responsible_agency": "Department of Sanitation",
    "final_address": "1918 Lafreniere St",
    "address_councildis": "D",
    "status": "Assigned to Contractor",
    "contractor": "IV Waste",
    "rowid": "1215629",
    "final_x": "3682214.13794",
    "final_y": "545286.827791",
    "longitude": "-90.0653342822644",
    "latitude": "29.993327978147793",
    "geocoded_column": {
      "latitude": "29.993327978147793",
      "longitude": "-90.0653342822644"
    }
  },
  {
    "service_request": "2025-1215628",
    "request_type": "Abandoned Vehicles",
    "request_reason": "Abandoned/Junk Vehicles",
    "date_created": "2025-08-05T14:42:48.000",
    "date_modified": "2025-08-05T14:42:50.000",
    "request_status": "Pending",
    "responsible_agency": "Department of Public Works",
    "final_address": "5527 Paris Ave",
    "address_councildis": "D",
    "status": "Pending",
    "rowid": "1215628",
    "final_x": "3679222.94927",
    "final_y": "552763.12559",
    "longitude": "-90.07452351296375",
    "latitude": "30.013975807150196",
    "geocoded_column": {
      "latitude": "30.013975807150196",
      "longitude": "-90.07452351296375"
    }
  },
  {
    "service_request": "2025-1215627",
    "request_type": "Trash/Recycling",
    "request_reason": "Request a Large Item Pick Up",
    "date_created": "2025-08-05T14:41:01.000",
    "date_modified": "2025-08-05T14:41:03.000",
    "request_status": "Pending",
    "responsible_agency": "Department of Sanitation",
    "final_address": "7933 Belfast St",
    "address_councildis": "A",
    "status": "Assigned to Contractor",
    "contractor": "IV Waste",
    "rowid": "1215627",
    "final_x": "3665985.00621",
    "final_y": "532056.464451",
    "longitude": "-90.11704329796949",
    "latitude": "29.957432737456084",
    "geocoded_column": {
      "latitude": "29.957432737456084",
      "longitude": "-90.11704329796949"
    }
  },
  {
    "service_request": "2025-1215626",
    "request_type": "Trash/Recycling",
    "request_reason": "Request a Large Item Pick Up",
    "date_created": "2025-08-05T14:40:41.000",
    "date_modified": "2025-08-05T14:40:43.000",
    "request_status": "Pending",
    "responsible_agency": "Department of Sanitation",
    "final_address": "1717 Lizardi St",
    "address_councildis": "E",
    "status": "Assigned to Contractor",
    "contractor": "Waste Pro",
    "rowid": "1215626",
    "final_x": "3697235.11421",
    "final_y": "536501.180295",
    "longitude": "-90.01820424816353",
    "latitude": "29.968705024601757",
    "geocoded_column": {
      "latitude": "29.968705024601757",
      "longitude": "-90.01820424816353"
    }
  },
  {
    "service_request": "2025-1215625",
    "request_type": "Roads and Streets",
    "request_reason": "Pothole",
    "date_created": "2025-08-05T14:40:08.000",
    "date_modified": "2025-08-05T14:40:10.000",
    "request_status": "Pending",
    "responsible_agency": "Department of Public Works",
    "final_address": "109 Kingston Ct",
    "address_councildis": "C",
    "status": "Pending",
    "rowid": "1215625",
    "final_x": "3705917.67236",
    "final_y": "517703.118582",
    "longitude": "-89.99147965871877",
    "latitude": "29.916740166215465",
    "geocoded_column": {
      "latitude": "29.916740166215465",
      "longitude": "-89.99147965871877"
    }
  },
  {
    "service_request": "2025-1215624",
    "request_type": "Trash/Recycling",
    "request_reason": "Repair Trash Cart",
    "date_created": "2025-08-05T14:39:35.000",
    "date_modified": "2025-08-05T14:39:36.000",
    "request_status": "Pending",
    "responsible_agency": "Department of Sanitation",
    "final_address": "1006 S Carrollton Ave",
    "address_councildis": "A",
    "status": "Assigned to Contractor",
    "contractor": "IV Waste",
    "rowid": "1215624",
    "final_x": "3661549.1104",
    "final_y": "527952.221183",
    "longitude": "-90.13118657331701",
    "latitude": "29.946276113764398",
    "geocoded_column": {
      "latitude": "29.946276113764398",
      "longitude": "-90.13118657331701"
    }
  },
  {
    "service_request": "2025-1215623",
    "request_type": "Trash/Recycling",
    "request_reason": "Order Recycling Cart",
    "date_created": "2025-08-05T14:38:52.000",
    "date_modified": "2025-08-05T14:39:52.000",
    "request_status": "Pending",
    "responsible_agency": "Department of Sanitation",
    "final_address": "321 N Johnson St",
    "address_councildis": "B",
    "status": "Pending",
    "rowid": "1215623",
    "final_x": "3677789.99733",
    "final_y": "534512.566981",
    "longitude": "-90.07968179351673",
    "latitude": "29.963836354745148",
    "geocoded_column": {
      "latitude": "29.963836354745148",
      "longitude": "-90.07968179351673"
    }
  },
  {
    "service_request": "2025-1215622",
    "request_type": "Trash/Recycling",
    "request_reason": "Order Trash Cart",
    "date_created": "2025-08-05T14:34:38.000",
    "date_modified": "2025-08-05T14:34:40.000",
    "request_status": "Pending",
    "responsible_agency": "Department of Sanitation",
    "final_address": "321 N Johnson St",
    "address_councildis": "B",
    "status": "Assigned to Contractor",
    "contractor": "IV Waste",
    "rowid": "1215622",
    "final_x": "3677789.99733",
    "final_y": "534512.566981",
    "longitude": "-90.07968179351673",
    "latitude": "29.963836354745148",
    "geocoded_column": {
      "latitude": "29.963836354745148",
      "longitude": "-90.07968179351673"
    }
  },
  {
    "service_request": "2025-1215621",
    "request_type": "Trash/Recycling",
    "request_reason": "Request a Large Item Pick Up",
    "date_created": "2025-08-05T14:33:58.000",
    "date_modified": "2025-08-05T14:34:00.000",
    "request_status": "Pending",
    "responsible_agency": "Department of Sanitation",
    "final_address": "1930 Desire St",
    "address_councildis": "D",
    "status": "Assigned to Contractor",
    "contractor": "IV Waste",
    "rowid": "1215621",
    "final_x": "3690955.76483",
    "final_y": "538969.955594",
    "longitude": "-90.03794658484497",
    "latitude": "29.975689959035066",
    "geocoded_column": {
      "latitude": "29.975689959035066",
      "longitude": "-90.03794658484497"
    }
  },
  {
    "service_request": "2025-1215620",
    "request_type": "Trash/Recycling",
    "request_reason": "Replace Trash Cart",
    "date_created": "2025-08-05T14:33:50.000",
    "date_modified": "2025-08-05T14:33:52.000",
    "request_status": "Pending",
    "responsible_agency": "Department of Sanitation",
    "final_address": "6170 Marshal Foch St",
    "address_councildis": "A",
    "status": "Assigned to Contractor",
    "contractor": "IV Waste",
    "rowid": "1215620",
    "final_x": "3669871.68801",
    "final_y": "548414.56181",
    "longitude": "-90.1042162034719",
    "latitude": "30.002297943956027",
    "geocoded_column": {
      "latitude": "30.002297943956027",
      "longitude": "-90.1042162034719"
    }
  },
  {
    "service_request": "2025-1215619",
    "request_type": "Trash/Recycling",
    "request_reason": "Request a Large Item Pick Up",
    "date_created": "2025-08-05T14:33:35.000",
    "date_modified": "2025-08-05T14:33:37.000",
    "request_status": "Pending",
    "responsible_agency": "Department of Sanitation",
    "final_address": "1035 St Maurice Ave",
    "address_councildis": "E",
    "status": "Assigned to Contractor",
    "contractor": "Waste Pro",
    "rowid": "1215619",
    "final_x": "3699806.1217",
    "final_y": "532989.708356",
    "longitude": "-90.010212960607",
    "latitude": "29.958968345094647",
    "geocoded_column": {
      "latitude": "29.958968345094647",
      "longitude": "-90.010212960607"
    }
  },
  {
    "service_request": "2025-1215618",
    "request_type": "Trash/Recycling",
    "request_reason": "Order Second Trash Cart",
    "date_created": "2025-08-05T14:25:03.000",
    "date_modified": "2025-08-05T14:25:04.000",
    "request_status": "Pending",
    "responsible_agency": "Department of Sanitation",
    "final_address": "7120 Lake Barrington Dr",
    "address_councildis": "E",
    "status": "Assigned to Contractor",
    "contractor": "Waste Pro",
    "rowid": "1215618",
    "final_x": "3712318.91902",
    "final_y": "564100.268641",
    "longitude": "-89.96953183404712",
    "latitude": "30.04410719882937",
    "geocoded_column": {
      "latitude": "30.04410719882937",
      "longitude": "-89.96953183404712"
    }
  },
  {
    "service_request": "2025-1215617",
    "request_type": "Trash/Recycling",
    "request_reason": "Request a Large Item Pick Up",
    "date_created": "2025-08-05T14:23:46.000",
    "date_modified": "2025-08-05T14:23:49.000",
    "request_status": "Pending",
    "responsible_agency": "Department of Sanitation",
    "final_address": "910 S Carrollton Ave",
    "address_councildis": "A",
    "status": "Assigned to Contractor",
    "contractor": "IV Waste",
    "rowid": "1215617",
    "final_x": "3661272.72806",
    "final_y": "527650.580159",
    "longitude": "-90.13206919777072",
    "latitude": "29.94545466730669",
    "geocoded_column": {
      "latitude": "29.94545466730669",
      "longitude": "-90.13206919777072"
    }
  },
  {
    "service_request": "2025-1215616",
    "request_type": "Trash/Recycling",
    "request_reason": "Request a Large Item Pick Up",
    "date_created": "2025-08-05T14:22:42.000",
    "date_modified": "2025-08-05T14:22:44.000",
    "request_status": "Pending",
    "responsible_agency": "Department of Sanitation",
    "final_address": "2259 Mithra St",
    "address_councildis": "D",
    "status": "Assigned to Contractor",
    "contractor": "IV Waste",
    "rowid": "1215616",
    "final_x": "3684251.48233",
    "final_y": "552761.75087",
    "longitude": "-90.05863597886017",
    "latitude": "30.013819170325803",
    "geocoded_column": {
      "latitude": "30.013819170325803",
      "longitude": "-90.05863597886017"
    }
  },
  {
    "service_request": "2025-1215615",
    "request_type": "Abandoned Vehicles",
    "request_reason": "Abandoned/Junk Vehicles",
    "date_created": "2025-08-05T14:20:49.000",
    "date_modified": "2025-08-05T14:20:51.000",
    "request_status": "Pending",
    "responsible_agency": "Department of Public Works",
    "final_address": "2032 Westbend Prkwy",
    "address_councildis": "C",
    "status": "Pending",
    "rowid": "1215615",
    "final_x": "3696943.14032",
    "final_y": "523510.595067",
    "longitude": "-90.0195966755538",
    "latitude": "29.932994679920967",
    "geocoded_column": {
      "latitude": "29.932994679920967",
      "longitude": "-90.0195966755538"
    }
  },
  {
    "service_request": "2025-1215614",
    "request_type": "Property Maintenance",
    "request_reason": "Property Maintenance",
    "date_created": "2025-08-05T14:20:27.000",
    "date_modified": "2025-08-05T14:20:29.000",
    "request_status": "Pending",
    "responsible_agency": "Department of Code Enforcement",
    "final_address": "32 Honeysuckle Ln",
    "address_councildis": "E",
    "status": "Pending",
    "rowid": "1215614",
    "final_x": "3713100.32606",
    "final_y": "568455.486373",
    "longitude": "-89.96689812292428",
    "latitude": "30.05605668077827",
    "geocoded_column": {
      "latitude": "30.05605668077827",
      "longitude": "-89.96689812292428"
    }
  },
  {
    "service_request": "2025-1215613",
    "request_type": "Trash/Recycling",
    "request_reason": "Request a Large Item Pick Up",
    "date_created": "2025-08-05T14:20:20.000",
    "date_modified": "2025-08-05T14:20:23.000",
    "request_status": "Pending",
    "responsible_agency": "Department of Sanitation",
    "final_address": "424 Huntlee Dr",
    "address_councildis": "C",
    "status": "Assigned to Contractor",
    "contractor": "Richards Disposal",
    "rowid": "1215613",
    "final_x": "3701903.42845",
    "final_y": "522012.305722",
    "longitude": "-90.00399238759181",
    "latitude": "29.92871759640975",
    "geocoded_column": {
      "latitude": "29.92871759640975",
      "longitude": "-90.00399238759181"
    }
  },
  {
    "service_request": "2025-1215612",
    "request_type": "Trash/Recycling",
    "request_reason": "Repair Trash Cart",
    "date_created": "2025-08-05T14:19:32.000",
    "date_modified": "2025-08-05T14:19:34.000",
    "request_status": "Pending",
    "responsible_agency": "Department of Sanitation",
    "final_address": "301 New Orleans-Hammond Hwy",
    "address_councildis": "A",
    "status": "Assigned to Contractor",
    "contractor": "IV Waste",
    "rowid": "1215612",
    "final_x": "3665884.55239",
    "final_y": "554735.189336",
    "longitude": "-90.11660006848159",
    "latitude": "30.019794461879517",
    "geocoded_column": {
      "latitude": "30.019794461879517",
      "longitude": "-90.11660006848159"
    }
  },
  {
    "service_request": "2025-1215611",
    "request_type": "Property Maintenance",
    "request_reason": "Property Maintenance",
    "date_created": "2025-08-05T14:16:42.000",
    "date_modified": "2025-08-05T14:16:44.000",
    "request_status": "Pending",
    "responsible_agency": "Department of Code Enforcement",
    "final_address": "24 Honeysuckle Ln",
    "address_councildis": "E",
    "status": "Pending",
    "rowid": "1215611",
    "final_x": "3712961.00754",
    "final_y": "568464.182373",
    "longitude": "-89.96733815201188",
    "latitude": "30.0560851586808",
    "geocoded_column": {
      "latitude": "30.0560851586808",
      "longitude": "-89.96733815201188"
    }
  },
  {
    "service_request": "2025-1215610",
    "request_type": "Trash/Recycling",
    "request_reason": "Repair Trash Cart",
    "date_created": "2025-08-05T14:15:54.000",
    "date_modified": "2025-08-05T14:15:56.000",
    "request_status": "Pending",
    "responsible_agency": "Department of Sanitation",
    "final_address": "7120 Lake Barrington Dr",
    "address_councildis": "E",
    "status": "Assigned to Contractor",
    "contractor": "Waste Pro",
    "rowid": "1215610",
    "final_x": "3712318.91902",
    "final_y": "564100.268641",
    "longitude": "-89.96953183404712",
    "latitude": "30.04410719882937",
    "geocoded_column": {
      "latitude": "30.04410719882937",
      "longitude": "-89.96953183404712"
    }
  },
  {
    "service_request": "2025-1215609",
    "request_type": "Trash/Recycling",
    "request_reason": "Request a Large Item Pick Up",
    "date_created": "2025-08-05T14:15:43.000",
    "date_modified": "2025-08-05T14:15:45.000",
    "request_status": "Pending",
    "responsible_agency": "Department of Sanitation",
    "final_address": "2137 Soniat St",
    "address_councildis": "B",
    "status": "Assigned to Contractor",
    "contractor": "IV Waste",
    "rowid": "1215609",
    "final_x": "3668532.95585",
    "final_y": "523522.878139",
    "longitude": "-90.10928546584748",
    "latitude": "29.933893532283022",
    "geocoded_column": {
      "latitude": "29.933893532283022",
      "longitude": "-90.10928546584748"
    }
  },
  {
    "service_request": "2025-1215608",
    "request_type": "Trash/Recycling",
    "request_reason": "Request a Large Item Pick Up",
    "date_created": "2025-08-05T14:11:59.000",
    "date_modified": "2025-08-05T14:12:01.000",
    "request_status": "Pending",
    "responsible_agency": "Department of Sanitation",
    "final_address": "11424 N Easterlyn Cir",
    "address_councildis": "E",
    "status": "Assigned to Contractor",
    "contractor": "Waste Pro",
    "rowid": "1215608",
    "final_x": "3718539.65785",
    "final_y": "560929.500318",
    "longitude": "-89.94999275011361",
    "latitude": "30.03518382553971",
    "geocoded_column": {
      "latitude": "30.03518382553971",
      "longitude": "-89.94999275011361"
    }
  },
  {
    "service_request": "2025-1215607",
    "request_type": "Streetlights",
    "request_reason": "Streetlight Outage/Malfunction",
    "date_created": "2025-08-05T14:10:35.000",
    "date_modified": "2025-08-05T14:11:17.000",
    "request_status": "Pending",
    "responsible_agency": "Department of Public Works",
    "final_address": "11420 S Easterlyn Cir",
    "address_councildis": "E",
    "status": "Pending",
    "contractor": "Legacy Professional Services",
    "rowid": "1215607",
    "final_x": "3718827.93772",
    "final_y": "560396.187742",
    "longitude": "-89.94910210993991",
    "latitude": "30.03370785908319",
    "geocoded_column": {
      "latitude": "30.03370785908319",
      "longitude": "-89.94910210993991"
    }
  },
  {
    "service_request": "2025-1215606",
    "request_type": "Streetlights",
    "request_reason": "Streetlight Outage/Malfunction",
    "date_created": "2025-08-05T14:07:06.000",
    "date_modified": "2025-08-05T14:07:08.000",
    "request_status": "Pending",
    "responsible_agency": "Department of Public Works",
    "final_address": "LAW ST & BENTON ST",
    "address_councildis": "E",
    "status": "Pending",
    "contractor": "Legacy Professional Services",
    "rowid": "1215606",
    "final_x": "3700987.5",
    "final_y": "538938.88",
    "longitude": "-90.00626491718646",
    "latitude": "29.975288861114137",
    "geocoded_column": {
      "latitude": "29.975288861114137",
      "longitude": "-90.00626491718646"
    }
  },
  {
    "service_request": "2025-1215605",
    "request_type": "Trash/Recycling",
    "request_reason": "Request a Large Item Pick Up",
    "date_created": "2025-08-05T14:06:29.000",
    "date_modified": "2025-08-05T14:06:31.000",
    "request_status": "Pending",
    "responsible_agency": "Department of Sanitation",
    "final_address": "9763 W Rockton Cir",
    "address_councildis": "E",
    "status": "Assigned to Contractor",
    "contractor": "Waste Pro",
    "rowid": "1215605",
    "final_x": "3708063.53547",
    "final_y": "562701.965152",
    "longitude": "-89.9830327009913",
    "latitude": "30.040400998537717",
    "geocoded_column": {
      "latitude": "30.040400998537717",
      "longitude": "-89.9830327009913"
    }
  },
  {
    "service_request": "2025-1215604",
    "request_type": "Streetlights",
    "request_reason": "Streetlight Outage/Malfunction",
    "date_created": "2025-08-05T14:03:39.000",
    "date_modified": "2025-08-05T14:03:41.000",
    "request_status": "Pending",
    "responsible_agency": "Department of Public Works",
    "final_address": "5917 Law St",
    "address_councildis": "E",
    "status": "Pending",
    "contractor": "Legacy Professional Services",
    "rowid": "1215604",
    "final_x": "3700809.55383",
    "final_y": "539051.522698",
    "longitude": "-90.00682279632018",
    "latitude": "29.975604253156785",
    "geocoded_column": {
      "latitude": "29.975604253156785",
      "longitude": "-90.00682279632018"
    }
  },
  {
    "service_request": "2025-1215603",
    "request_type": "Trash/Recycling",
    "request_reason": "Request a Large Item Pick Up",
    "date_created": "2025-08-05T14:02:10.000",
    "date_modified": "2025-08-05T14:02:12.000",
    "request_status": "Pending",
    "responsible_agency": "Department of Sanitation",
    "final_address": "721 Louque Pl",
    "address_councildis": "A",
    "status": "Assigned to Contractor",
    "contractor": "IV Waste",
    "rowid": "1215603",
    "final_x": "3668417.40558",
    "final_y": "543583.859214",
    "longitude": "-90.10897353868101",
    "latitude": "29.98905798916335",
    "geocoded_column": {
      "latitude": "29.98905798916335",
      "longitude": "-90.10897353868101"
    }
  },
  {
    "service_request": "2025-1215602",
    "request_type": "Streetlights",
    "request_reason": "Streetlight Outage/Malfunction",
    "date_created": "2025-08-05T14:00:17.000",
    "date_modified": "2025-08-05T14:00:18.000",
    "request_status": "Pending",
    "responsible_agency": "Department of Public Works",
    "final_address": "2532 Winthrop St",
    "address_councildis": "E",
    "status": "Pending",
    "contractor": "Legacy Professional Services",
    "rowid": "1215602",
    "final_x": "3700754.43722",
    "final_y": "538936.837002",
    "longitude": "-90.00700106126702",
    "latitude": "29.9752906635259",
    "geocoded_column": {
      "latitude": "29.9752906635259",
      "longitude": "-90.00700106126702"
    }
  },
  {
    "service_request": "2025-1215601",
    "request_type": "Trash/Recycling",
    "request_reason": "Request a Large Item Pick Up",
    "date_created": "2025-08-05T13:58:44.000",
    "date_modified": "2025-08-05T13:58:47.000",
    "request_status": "Pending",
    "responsible_agency": "Department of Sanitation",
    "final_address": "4320 S Tonti St Apt 202",
    "address_councildis": "B",
    "status": "Assigned to Contractor",
    "contractor": "IV Waste",
    "rowid": "1215601",
    "final_x": "3670345.54855",
    "final_y": "528085.303487",
    "longitude": "-90.10340857096298",
    "latitude": "29.94638535675016",
    "geocoded_column": {
      "latitude": "29.94638535675016",
      "longitude": "-90.10340857096298"
    }
  },
  {
    "service_request": "2025-1215600",
    "request_type": "Trash/Recycling",
    "request_reason": "Order Trash Cart",
    "date_created": "2025-08-05T13:57:45.000",
    "date_modified": "2025-08-05T13:57:47.000",
    "request_status": "Pending",
    "responsible_agency": "Department of Sanitation",
    "final_address": "2026 Painters St",
    "address_councildis": "D",
    "status": "Assigned to Contractor",
    "contractor": "IV Waste",
    "rowid": "1215600",
    "final_x": "3687249.86838",
    "final_y": "540038.776587",
    "longitude": "-90.04961299272291",
    "latitude": "29.97874351797522",
    "geocoded_column": {
      "latitude": "29.97874351797522",
      "longitude": "-90.04961299272291"
    }
  },
  {
    "service_request": "2025-1215599",
    "request_type": "Abandoned Vehicles",
    "request_reason": "Abandoned/Junk Vehicles",
    "date_created": "2025-08-05T13:51:46.000",
    "date_modified": "2025-08-05T13:52:46.000",
    "request_status": "Pending",
    "responsible_agency": "Department of Public Works",
    "final_address": "812 N Claiborne Ave",
    "address_councildis": "C",
    "status": "Pending",
    "rowid": "1215599",
    "final_x": "3680151.49397",
    "final_y": "534921.672134",
    "longitude": "-90.07221019743356",
    "latitude": "29.9648900003405",
    "geocoded_column": {
      "latitude": "29.9648900003405",
      "longitude": "-90.07221019743356"
    }
  },
  {
    "service_request": "2025-1215598",
    "request_type": "Trash/Recycling",
    "request_reason": "Missed Trash Pick-Up",
    "date_created": "2025-08-05T13:50:28.000",
    "date_modified": "2025-08-05T14:49:41.000",
    "case_close_date": "2025-08-05T09:49:40.000",
    "request_status": "Closed",
    "responsible_agency": "Department of Sanitation",
    "final_address": "1129 N Miro St",
    "address_councildis": "D",
    "status": "Invalid Request",
    "contractor": "IV Waste",
    "contractor_action": "Invalid Request",
    "rowid": "1215598",
    "final_x": "3679110.13282",
    "final_y": "537324.419912",
    "longitude": "-90.07541545158738",
    "latitude": "29.971528208544346",
    "geocoded_column": {
      "latitude": "29.971528208544346",
      "longitude": "-90.07541545158738"
    }
  },
  {
    "service_request": "2025-1215597",
    "request_type": "Abandoned Vehicles",
    "request_reason": "Abandoned/Junk Vehicles",
    "date_created": "2025-08-05T13:49:47.000",
    "date_modified": "2025-08-05T14:06:12.000",
    "request_status": "Pending",
    "responsible_agency": "Department of Public Works",
    "final_address": "1131 St Andrew St",
    "address_councildis": "B",
    "status": "Pending",
    "rowid": "1215597",
    "final_x": "3679339.66325",
    "final_y": "522834.092155",
    "longitude": "-90.07519303689567",
    "latitude": "29.9316777431345",
    "geocoded_column": {
      "latitude": "29.9316777431345",
      "longitude": "-90.07519303689567"
    }
  },
  {
    "service_request": "2025-1215596",
    "request_type": "Trash/Recycling",
    "request_reason": "Return Recycling Cart",
    "date_created": "2025-08-05T13:47:04.000",
    "date_modified": "2025-08-05T13:47:05.000",
    "request_status": "Pending",
    "responsible_agency": "Department of Sanitation",
    "final_address": "860 Taft Pl",
    "address_councildis": "A",
    "status": "Pending",
    "rowid": "1215596",
    "final_x": "3673862.46452",
    "final_y": "539858.93569",
    "longitude": "-90.09190166604417",
    "latitude": "29.978654627086406",
    "geocoded_column": {
      "latitude": "29.978654627086406",
      "longitude": "-90.09190166604417"
    }
  },
  {
    "service_request": "2025-1215595",
    "request_type": "Trash/Recycling",
    "request_reason": "Request a Large Item Pick Up",
    "date_created": "2025-08-05T13:44:31.000",
    "date_modified": "2025-08-05T13:44:33.000",
    "request_status": "Pending",
    "responsible_agency": "Department of Sanitation",
    "final_address": "3120 Leonidas St",
    "address_councildis": "A",
    "status": "Assigned to Contractor",
    "contractor": "IV Waste",
    "rowid": "1215595",
    "final_x": "3665309.4313",
    "final_y": "534744.759366",
    "longitude": "-90.11908661421899",
    "latitude": "29.964844367614667",
    "geocoded_column": {
      "latitude": "29.964844367614667",
      "longitude": "-90.11908661421899"
    }
  },
  {
    "service_request": "2025-1215594",
    "request_type": "Trash/Recycling",
    "request_reason": "Missed Trash Pick-Up",
    "date_created": "2025-08-05T13:43:55.000",
    "date_modified": "2025-08-05T15:16:43.000",
    "case_close_date": "2025-08-05T10:16:41.000",
    "request_status": "Closed",
    "responsible_agency": "Department of Sanitation",
    "final_address": "860 Taft Pl",
    "address_councildis": "A",
    "status": "Invalid Request",
    "contractor": "IV Waste",
    "contractor_action": "Invalid Request",
    "rowid": "1215594",
    "final_x": "3673862.46452",
    "final_y": "539858.93569",
    "longitude": "-90.09190166604417",
    "latitude": "29.978654627086406",
    "geocoded_column": {
      "latitude": "29.978654627086406",
      "longitude": "-90.09190166604417"
    }
  },
  {
    "service_request": "2025-1215593",
    "request_type": "Trash/Recycling",
    "request_reason": "Repair Trash Cart",
    "date_created": "2025-08-05T13:43:22.000",
    "date_modified": "2025-08-05T13:43:24.000",
    "request_status": "Pending",
    "responsible_agency": "Department of Sanitation",
    "final_address": "8218 Spruce St",
    "address_councildis": "A",
    "status": "Assigned to Contractor",
    "contractor": "IV Waste",
    "rowid": "1215593",
    "final_x": "3663435.21549",
    "final_y": "530777.87629",
    "longitude": "-90.12513738403733",
    "latitude": "29.953991209805327",
    "geocoded_column": {
      "latitude": "29.953991209805327",
      "longitude": "-90.12513738403733"
    }
  },
  {
    "service_request": "2025-1215591",
    "request_type": "Healthy Homes",
    "request_reason": "Healthy Homes",
    "date_created": "2025-08-05T13:42:05.000",
    "date_modified": "2025-08-05T13:42:07.000",
    "request_status": "Pending",
    "responsible_agency": "Department of Code Enforcement",
    "final_address": "3825 Coliseum St",
    "address_councildis": "B",
    "status": "Pending",
    "rowid": "1215591",
    "final_x": "3672909.75867",
    "final_y": "520059.614392",
    "longitude": "-90.0955861666482",
    "latitude": "29.92424138503291",
    "geocoded_column": {
      "latitude": "29.92424138503291",
      "longitude": "-90.0955861666482"
    }
  },