[
  {
    "service_request": "2022-862198",
    "request_type": "Roads/Drainage",
    "request_reason": "Debris in Roadway",
    "date_created": "2022-02-20T01:05:57.000",
    "date_modified": "2022-02-20T01:05:57.000",
    "request_status": "Pending",
    "responsible_agency": "Department of Public Works",
    "final_address": "800 BLK Thayer St",
    "address_councildis": "C",
    "status": "Pending",
    "rowid": "862198",
    "final_x": "3689461.15188",
    "final_y": "528465.079997",
    "longitude": "-90.04304057332203",
    "latitude": "29.946851583254492",
    "geocoded_column": {
      "latitude": "29.946851583254492",
      "longitude": "-90.04304057332203"
    }
  },
  {
    "service_request": "2022-862197",
    "request_type": "Health Related Questions",
    "request_reason": "Noise Ordinance Complaint",
    "date_created": "2022-02-19T23:19:54.000",
    "date_modified": "2022-02-19T23:19:54.000",
    "request_status": "Pending",
    "responsible_agency": "Health Department",
    "final_address": "2300 Chartres St, New Orleans, Louisiana, 70117",
    "address_councildis": "C",
    "status": "Pending",
    "rowid": "862197",
    "final_x": "3685618.1615",
    "final_y": "534515.477317",
    "longitude": "-90.05496114951698",
    "latitude": "29.963606534979835",
    "geocoded_column": {
      "latitude": "29.963606534979835",
      "longitude": "-90.05496114951698"
    }
  },
  {
    "service_request": "2022-862196",
    "request_type": "Trash/Recycling",
    "request_reason": "Request a Large Item Pick Up",
    "date_created": "2022-02-19T23:16:27.000",
    "date_modified": "2022-02-19T23:16:28.000",
    "request_status": "Pending",
    "responsible_agency": "Department of Sanitation",
    "final_address": "66 Lakewood Estates Dr",
    "address_councildis": "C",
    "status": "Assigned to Contractor",
    "contractor": "Richards Disposal",
    "rowid": "862196",
    "final_x": "3701569.69469",
    "final_y": "512838.522801",
    "longitude": "-90.00538153162462",
    "latitude": "29.903503471499263",
    "geocoded_column": {
      "latitude": "29.903503471499263",
      "longitude": "-90.00538153162462"
    }
  },
  {
    "service_request": "2022-862195",
    "request_type": "Traffic Signals/Signs/Striping/Streetlights",
    "request_reason": "Street Light Outage/Malfunction",
    "date_created": "2022-02-19T22:28:25.000",
    "date_modified": "2022-02-19T22:28:26.000",
    "request_status": "Pending",
    "responsible_agency": "Department of Public Works",
    "final_address": "7600 Gannon Rd",
    "address_councildis": "E",
    "status": "Pending",
    "contractor": "Royal Engineering",
    "rowid": "862195",
    "final_x": "3716469.08671",
    "final_y": "569659.73431",
    "longitude": "-89.95620443875303",
    "latitude": "30.059256974348585",
    "geocoded_column": {
      "latitude": "30.059256974348585",
      "longitude": "-89.95620443875303"
    }
  },
  {
    "service_request": "2022-862194",
    "request_type": "Traffic Signals/Signs/Striping/Streetlights",
    "request_reason": "Street Light Outage/Malfunction",
    "date_created": "2022-02-19T22:26:43.000",
    "date_modified": "2022-02-19T22:26:43.000",
    "request_status": "Pending",
    "responsible_agency": "Department of Public Works",
    "final_address": "13000 Hayne Blvd",
    "address_councildis": "E",
    "status": "Pending",
    "contractor": "Royal Engineering",
    "rowid": "862194",
    "final_x": "3715335.98648",
    "final_y": "570859.727719",
    "longitude": "-89.95974057417232",
    "latitude": "30.062593855670972",
    "geocoded_column": {
      "latitude": "30.062593855670972",
      "longitude": "-89.95974057417232"
    }
  },
  {
    "service_request": "2022-862192",
    "request_type": "Trash/Recycling",
    "request_reason": "Repair Trash Cart",
    "date_created": "2022-02-19T21:45:01.000",
    "date_modified": "2022-02-19T21:45:02.000",
    "request_status": "Pending",
    "responsible_agency": "Department of Sanitation",
    "final_address": "4909 Camp St",
    "address_councildis": "B",
    "status": "Assigned to Contractor",
    "contractor": "Richards Disposal",
    "rowid": "862192",
    "final_x": "3668908.3769",
    "final_y": "518996.806647",
    "longitude": "-90.10825304170682",
    "latitude": "29.921437243928448",
    "geocoded_column": {
      "latitude": "29.921437243928448",
      "longitude": "-90.10825304170682"
    }
  },
  {
    "service_request": "2022-862191",
    "request_type": "Safety & Permits",
    "request_reason": "Construction permit",
    "date_created": "2022-02-19T21:35:02.000",
    "date_modified": "2022-02-19T21:35:02.000",
    "request_status": "Pending",
    "responsible_agency": "Department of Code Enforcement",
    "status": "Pending",
    "rowid": "862191",
    "longitude": "0.0",
    "latitude": "0.0",
    "geocoded_column": {
      "latitude": "0.0",
      "longitude": "0.0"
    }
  },
  {
    "service_request": "2022-862190",
    "request_type": "Property Maintenance",
    "request_reason": "Property Maintenance",
    "date_created": "2022-02-19T21:11:56.000",
    "date_modified": "2022-02-19T21:11:56.000",
    "request_status": "Pending",
    "responsible_agency": "Department of Code Enforcement",
    "final_address": "2525 St Charles Ave",
    "address_councildis": "B",
    "status": "Pending",
    "rowid": "862190",
    "final_x": "3676476.79214",
    "final_y": "522986.155067",
    "longitude": "-90.08422557027542",
    "latitude": "29.932181990698187",
    "geocoded_column": {
      "latitude": "29.932181990698187",
      "longitude": "-90.08422557027542"
    }
  },
  {
    "service_request": "2022-862189",
    "request_type": "Roads/Drainage",
    "request_reason": "Pothole",
    "date_created": "2022-02-19T21:02:39.000",
    "date_modified": "2022-02-19T21:02:39.000",
    "request_status": "Pending",
    "responsible_agency": "Department of Public Works",
    "final_address": "817 Hendee St",
    "address_councildis": "C",
    "status": "Pending",
    "rowid": "862189",
    "final_x": "3690778.55568",
    "final_y": "528431.546112",
    "longitude": "-90.03888225768713",
    "latitude": "29.946718520019946",
    "geocoded_column": {
      "latitude": "29.946718520019946",
      "longitude": "-90.03888225768713"
    }
  },
  {
    "service_request": "2022-862187",
    "request_type": "Health Related Questions",
    "request_reason": "Noise Ordinance Complaint",
    "date_created": "2022-02-19T20:17:57.000",
    "date_modified": "2022-02-19T20:17:57.000",
    "request_status": "Pending",
    "responsible_agency": "Health Department",
    "final_address": "1600 Pine St, New Orleans, Louisiana, 70118",
    "address_councildis": "A",
    "status": "Pending",
    "rowid": "862187",
    "final_x": "3664658.30074",
    "final_y": "527916.875647",
    "longitude": "-90.12137091471529",
    "latitude": "29.94608886511559",
    "geocoded_column": {
      "latitude": "29.94608886511559",
      "longitude": "-90.12137091471529"
    }
  },
  {
    "service_request": "2022-862186",
    "request_type": "Traffic Signals/Signs/Striping/Streetlights",
    "request_reason": "Street Light Knocked Down/Leaning",
    "date_created": "2022-02-19T19:08:48.000",
    "date_modified": "2022-02-19T19:08:49.000",
    "request_status": "Pending",
    "responsible_agency": "Department of Public Works",
    "final_address": "1513 Tennessee St",
    "address_councildis": "E",
    "status": "Pending",
    "contractor": "Royal Engineering",
    "rowid": "862186",
    "final_x": "3696232.50679",
    "final_y": "535950.673543",
    "longitude": "-90.02139042928766",
    "latitude": "29.96722293039732",
    "geocoded_column": {
      "latitude": "29.96722293039732",
      "longitude": "-90.02139042928766"
    }
  },
  {
    "service_request": "2022-862185",
    "request_type": "Roads/Drainage",
    "request_reason": "Street Subsidence (Sinking)",
    "date_created": "2022-02-19T19:01:55.000",
    "date_modified": "2022-02-19T19:01:55.000",
    "request_status": "Pending",
    "responsible_agency": "Department of Public Works",
    "final_address": "8712 Hickory St",
    "address_councildis": "A",
    "status": "Pending",
    "rowid": "862185",
    "final_x": "3661706.45075",
    "final_y": "531410.937731",
    "longitude": "-90.13057516404457",
    "latitude": "29.955781933359525",
    "geocoded_column": {
      "latitude": "29.955781933359525",
      "longitude": "-90.13057516404457"
    }
  },
  {
    "service_request": "2022-862184",
    "request_type": "Roads/Drainage",
    "request_reason": "Man hole cover issue",
    "date_created": "2022-02-19T18:53:35.000",
    "date_modified": "2022-02-19T18:53:35.000",
    "request_status": "Pending",
    "responsible_agency": "Department of Public Works",
    "final_address": "3535 Almonaster Ave",
    "address_councildis": "D",
    "status": "Pending",
    "rowid": "862184",
    "final_x": "3689649.84771",
    "final_y": "546139.330192",
    "longitude": "-90.04181580641014",
    "latitude": "29.995443703257852",
    "geocoded_column": {
      "latitude": "29.995443703257852",
      "longitude": "-90.04181580641014"
    }
  },
  {
    "service_request": "2022-862183",
    "request_type": "Traffic Signals/Signs/Striping/Streetlights",
    "request_reason": "Street Light Outage/Malfunction",
    "date_created": "2022-02-19T18:39:21.000",
    "date_modified": "2022-02-19T18:39:22.000",
    "request_status": "Pending",
    "responsible_agency": "Department of Public Works",
    "final_address": "1315 Frankfort St",
    "address_councildis": "D",
    "status": "Pending",
    "contractor": "Royal Engineering",
    "rowid": "862183",
    "final_x": "3677274.78389",
    "final_y": "555898.011865",
    "longitude": "-90.0805704393372",
    "latitude": "30.02265431664843",
    "geocoded_column": {
      "latitude": "30.02265431664843",
      "longitude": "-90.0805704393372"
    }
  },
  {
    "service_request": "2022-862182",
    "request_type": "Traffic Signals/Signs/Striping/Streetlights",
    "request_reason": "Street Name Sign Damaged or Missing",
    "date_created": "2022-02-19T18:26:29.000",
    "date_modified": "2022-02-19T18:26:29.000",
    "request_status": "Pending",
    "responsible_agency": "Department of Public Works",
    "final_address": "900 Howard Ave",
    "address_councildis": "B",
    "status": "Pending",
    "rowid": "862182",
    "final_x": "3679280.57096",
    "final_y": "527611.107455",
    "longitude": "-90.07521400248727",
    "latitude": "29.944814739164837",
    "geocoded_column": {
      "latitude": "29.944814739164837",
      "longitude": "-90.07521400248727"
    }
  },
  {
    "service_request": "2022-862181",
    "request_type": "Traffic Signals/Signs/Striping/Streetlights",
    "request_reason": "Traffic Sign Missing/Damaged",
    "date_created": "2022-02-19T17:28:01.000",
    "date_modified": "2022-02-19T17:28:01.000",
    "request_status": "Pending",
    "responsible_agency": "Department of Public Works",
    "final_address": "FLOOD ST & N RAMPART ST",
    "address_councildis": "E",
    "status": "Pending",
    "rowid": "862181",
    "final_x": "3697586.1",
    "final_y": "533404.08",
    "longitude": "-90.01720816441143",
    "latitude": "29.960178020817747",
    "geocoded_column": {
      "latitude": "29.960178020817747",
      "longitude": "-90.01720816441143"
    }
  },
  {
    "service_request": "2022-862180",
    "request_type": "Traffic Signals/Signs/Striping/Streetlights",
    "request_reason": "Traffic Signal Malfunctioning/Damaged",
    "date_created": "2022-02-19T17:08:17.000",
    "date_modified": "2022-02-19T17:08:17.000",
    "request_status": "Pending",
    "responsible_agency": "Department of Public Works",
    "final_address": "NAPOLEON AVE & PRYTANIA ST",
    "address_councildis": "B",
    "status": "Pending",
    "rowid": "862180",
    "final_x": "3670865.7",
    "final_y": "520323.88",
    "longitude": "-90.10202959904824",
    "latitude": "29.92502858607668",
    "geocoded_column": {
      "latitude": "29.92502858607668",
      "longitude": "-90.10202959904824"
    }
  },
  {
    "service_request": "2022-862179",
    "request_type": "Trash/Recycling",
    "request_reason": "Request a Large Item Pick Up",
    "date_created": "2022-02-19T17:06:01.000",
    "date_modified": "2022-02-19T17:06:02.000",
    "request_status": "Pending",
    "responsible_agency": "Department of Sanitation",
    "final_address": "1433 France St",
    "address_councildis": "D",
    "status": "Assigned to Contractor",
    "contractor": "Metro Disposal",
    "rowid": "862179",
    "final_x": "3692767.67043",
    "final_y": "536544.469831",
    "longitude": "-90.03231108323264",
    "latitude": "29.968964286973783",
    "geocoded_column": {
      "latitude": "29.968964286973783",
      "longitude": "-90.03231108323264"
    }
  },
  {
    "service_request": "2022-862178",
    "request_type": "Trash/Recycling",
    "request_reason": "Request a Large Item Pick Up",
    "date_created": "2022-02-19T17:03:46.000",
    "date_modified": "2022-02-19T17:03:47.000",
    "request_status": "Pending",
    "responsible_agency": "Department of Sanitation",
    "final_address": "5001 S Tonti St",
    "address_councildis": "A",
    "status": "Assigned to Contractor",
    "contractor": "Richards Disposal",
    "rowid": "862178",
    "final_x": "3668908.37511",
    "final_y": "528023.610559",
    "longitude": "-90.10794832995936",
    "latitude": "29.94625806040864",
    "geocoded_column": {
      "latitude": "29.94625806040864",
      "longitude": "-90.10794832995936"
    }
  },
  {
    "service_request": "2022-862177",
    "request_type": "Trash/Recycling",
    "request_reason": "MIssed Recycling Pick-Up",
    "date_created": "2022-02-19T16:43:06.000",
    "date_modified": "2022-02-19T16:43:07.000",
    "request_status": "Pending",
    "responsible_agency": "Department of Sanitation",
    "final_address": "2714 Cambronne St",
    "address_councildis": "A",
    "status": "Assigned to Contractor",
    "contractor": "Richards Disposal",
    "rowid": "862177",
    "final_x": "3664859.27476",
    "final_y": "533216.21626",
    "longitude": "-90.12055927587816",
    "latitude": "29.960654484875583",
    "geocoded_column": {
      "latitude": "29.960654484875583",
      "longitude": "-90.12055927587816"
    }
  },
  {
    "service_request": "2022-862176",
    "request_type": "Trash/Recycling",
    "request_reason": "Request a Large Item Pick Up",
    "date_created": "2022-02-19T16:25:29.000",
    "date_modified": "2022-02-19T16:25:29.000",
    "request_status": "Pending",
    "responsible_agency": "Department of Sanitation",
    "final_address": "817 Egania St",
    "address_councildis": "E",
    "status": "Assigned to Contractor",
    "contractor": "Metro Disposal",
    "rowid": "862176",
    "final_x": "3696567.95146",
    "final_y": "533080.553796",
    "longitude": "-90.0204349501939",
    "latitude": "29.959320554908984",
    "geocoded_column": {
      "latitude": "29.959320554908984",
      "longitude": "-90.0204349501939"
    }
  },
  {
    "service_request": "2022-862175",
    "request_type": "Traffic Signals/Signs/Striping/Streetlights",
    "request_reason": "Traffic Sign Missing/Damaged",
    "date_created": "2022-02-19T16:23:31.000",
    "date_modified": "2022-02-19T16:23:31.000",
    "request_status": "Pending",
    "responsible_agency": "Department of Public Works",
    "final_address": "3661 Post Oak Ave",
    "address_councildis": "C",
    "status": "Pending",
    "rowid": "862175",
    "final_x": "3703965.12746",
    "final_y": "514350.789299",
    "longitude": "-89.99776598503422",
    "latitude": "29.907585137529832",
    "geocoded_column": {
      "latitude": "29.907585137529832",
      "longitude": "-89.99776598503422"
    }
  },
  {
    "service_request": "2022-862174",
    "request_type": "COVID-19",
    "request_reason": "COVID-19 Business Non-Compliance",
    "date_created": "2022-02-19T16:23:30.000",
    "date_modified": "2022-02-19T16:23:31.000",
    "request_status": "Pending",
    "responsible_agency": "Safety and Permits",
    "final_address": "7TH ST & DANNEEL ST",
    "address_councildis": "B",
    "status": "Pending",
    "rowid": "862174",
    "final_x": "3674456.8",
    "final_y": "523290.38",
    "longitude": "-90.09059208113533",
    "latitude": "29.93307890484224",
    "geocoded_column": {
      "latitude": "29.93307890484224",
      "longitude": "-90.09059208113533"
    }
  },
  {
    "service_request": "2022-862173",
    "request_type": "Trash/Recycling",
    "request_reason": "Request a Large Item Pick Up",
    "date_created": "2022-02-19T16:20:05.000",
    "date_modified": "2022-02-19T16:20:06.000",
    "request_status": "Pending",
    "responsible_agency": "Department of Sanitation",
    "final_address": "5514 Jacquelyn Ct",
    "address_councildis": "A",
    "status": "Assigned to Contractor",
    "contractor": "Metro Disposal",
    "rowid": "862173",
    "final_x": "3664651.55124",
    "final_y": "544506.571791",
    "longitude": "-90.12083796132195",
    "latitude": "29.991705241914456",
    "geocoded_column": {
      "latitude": "29.991705241914456",
      "longitude": "-90.12083796132195"
    }
  },
  {
    "service_request": "2022-862171",
    "request_type": "Trash/Recycling",
    "request_reason": "Replace Trash Cart",
    "date_created": "2022-02-19T16:10:20.000",
    "date_modified": "2022-02-19T16:10:21.000",
    "request_status": "Pending",
    "responsible_agency": "Department of Sanitation",
    "final_address": "2429 Magnolia St",
    "address_councildis": "B",
    "status": "Assigned to Contractor",
    "contractor": "Richards Disposal",
    "rowid": "862171",
    "final_x": "3674557.3746",
    "final_y": "526408.81683",
    "longitude": "-90.09016776484984",
    "latitude": "29.94165058818077",
    "geocoded_column": {
      "latitude": "29.94165058818077",
      "longitude": "-90.09016776484984"
    }
  },
  {
    "service_request": "2022-862170",
    "request_type": "Trash/Recycling",
    "request_reason": "Replace Trash Cart",
    "date_created": "2022-02-19T15:21:34.000",
    "date_modified": "2022-02-19T15:21:35.000",
    "request_status": "Pending",
    "responsible_agency": "Department of Sanitation",
    "final_address": "4413 Elba St",
    "address_councildis": "B",
    "status": "Assigned to Contractor",
    "contractor": "Richards Disposal",
    "rowid": "862170",
    "final_x": "3669733.89722",
    "final_y": "530470.213122",
    "longitude": "-90.10525907063196",
    "latitude": "29.952961116360285",
    "geocoded_column": {
      "latitude": "29.952961116360285",
      "longitude": "-90.10525907063196"
    }
  },
  {
    "service_request": "2022-862169",
    "request_type": "Roads/Drainage",
    "request_reason": "Pothole",
    "date_created": "2022-02-19T15:19:26.000",
    "date_modified": "2022-02-19T15:19:26.000",
    "request_status": "Pending",
    "responsible_agency": "Department of Public Works",
    "final_address": "2721 Orleans Ave",
    "address_councildis": "A",
    "status": "Pending",
    "rowid": "862169",
    "final_x": "3676636.60936",
    "final_y": "537199.63796",
    "longitude": "-90.08323150838979",
    "latitude": "29.971259534883114",
    "geocoded_column": {
      "latitude": "29.971259534883114",
      "longitude": "-90.08323150838979"
    }
  },
  {
    "service_request": "2022-862168",
    "request_type": "Traffic Signals/Signs/Striping/Streetlights",
    "request_reason": "Street Name Sign Damaged or Missing",
    "date_created": "2022-02-19T15:13:05.000",
    "date_modified": "2022-02-19T15:13:05.000",
    "request_status": "Pending",
    "responsible_agency": "Department of Public Works",
    "final_address": "1000 St Charles Ave",
    "address_councildis": "B",
    "status": "Pending",
    "rowid": "862168",
    "final_x": "3680334.074",
    "final_y": "526964.819646",
    "longitude": "-90.0719102399457",
    "latitude": "29.943005814995683",
    "geocoded_column": {
      "latitude": "29.943005814995683",
      "longitude": "-90.0719102399457"
    }
  },
  {
    "service_request": "2022-862166",
    "request_type": "Trash/Recycling",
    "request_reason": "Dead Animal Pick Up",
    "date_created": "2022-02-19T14:21:46.000",
    "date_modified": "2022-02-19T14:21:47.000",
    "request_status": "Pending",
    "responsible_agency": "Department of Sanitation",
    "final_address": "5944 Tchoupitoulas St Apt A",
    "address_councildis": "A",
    "status": "Assigned to Contractor",
    "contractor": "Richards Disposal",
    "rowid": "862166",
    "final_x": "3664431.845",
    "final_y": "517366.020661",
    "longitude": "-90.12243795648963",
    "latitude": "29.917083934443124",
    "geocoded_column": {
      "latitude": "29.917083934443124",
      "longitude": "-90.12243795648963"
    }
  },
  {
    "service_request": "2022-862165",
    "request_type": "Trash/Recycling",
    "request_reason": "Missed Trash Pick-Up",
    "date_created": "2022-02-19T14:18:42.000",
    "date_modified": "2022-02-19T14:18:43.000",
    "request_status": "Pending",
    "responsible_agency": "Department of Sanitation",
    "final_address": "4124 Eve St",
    "address_councildis": "B",
    "status": "Assigned to Contractor",
    "contractor": "Richards Disposal",
    "rowid": "862165",
    "final_x": "3670711.26836",
    "final_y": "530475.20205",
    "longitude": "-90.1021727857965",
    "latitude": "29.952945994930364",
    "geocoded_column": {
      "latitude": "29.952945994930364",
      "longitude": "-90.1021727857965"
    }
  },
  {
    "service_request": "2022-862164",
    "request_type": "Traffic Signals/Signs/Striping/Streetlights",
    "request_reason": "Street Light Outage/Malfunction",
    "date_created": "2022-02-19T14:16:17.000",
    "date_modified": "2022-02-19T14:16:17.000",
    "request_status": "Pending",
    "responsible_agency": "Department of Public Works",
    "final_address": "2233 New York St",
    "address_councildis": "D",
    "status": "Pending",
    "contractor": "Royal Engineering",
    "rowid": "862164",
    "final_x": "3683723.39426",
    "final_y": "556679.405466",
    "longitude": "-90.06016693171364",
    "latitude": "30.024607425212682",
    "geocoded_column": {
      "latitude": "30.024607425212682",
      "longitude": "-90.06016693171364"
    }
  },
  {
    "service_request": "2022-862163",
    "request_type": "Trash/Recycling",
    "request_reason": "Missed Trash Pick-Up",
    "date_created": "2022-02-19T14:11:14.000",
    "date_modified": "2022-02-19T14:11:15.000",
    "request_status": "Pending",
    "responsible_agency": "Department of Sanitation",
    "final_address": "6210 N Claiborne Ave",
    "address_councildis": "E",
    "status": "Assigned to Contractor",
    "contractor": "Metro Disposal",
    "rowid": "862163",
    "final_x": "3700651.18954",
    "final_y": "534802.182918",
    "longitude": "-90.00747824083126",
    "latitude": "29.963925143103936",
    "geocoded_column": {
      "latitude": "29.963925143103936",
      "longitude": "-90.00747824083126"
    }
  },
  {
    "service_request": "2022-862162",
    "request_type": "Traffic Signals/Signs/Striping/Streetlights",
    "request_reason": "Striping/Road Surface Markings",
    "date_created": "2022-02-19T13:54:41.000",
    "date_modified": "2022-02-19T13:54:41.000",
    "request_status": "Pending",
    "responsible_agency": "Department of Public Works",
    "final_address": "3925 General Taylor St",
    "address_councildis": "B",
    "status": "Pending",
    "rowid": "862162",
    "final_x": "3670774.97652",
    "final_y": "529110.733952",
    "longitude": "-90.10201792080588",
    "latitude": "29.949192273589972",
    "geocoded_column": {
      "latitude": "29.949192273589972",
      "longitude": "-90.10201792080588"
    }
  },
  {
    "service_request": "2022-862161",
    "request_type": "Trash/Recycling",
    "request_reason": "Request a Large Item Pick Up",
    "date_created": "2022-02-19T13:33:23.000",
    "date_modified": "2022-02-19T13:33:24.000",
    "request_status": "Pending",
    "responsible_agency": "Department of Sanitation",
    "final_address": "6 Snipe St",
    "address_councildis": "D",
    "status": "Assigned to Contractor",
    "contractor": "Metro Disposal",
    "rowid": "862161",
    "final_x": "3672167.10094",
    "final_y": "556691.193882",
    "longitude": "-90.09668250900766",
    "latitude": "30.024987840876765",
    "geocoded_column": {
      "latitude": "30.024987840876765",
      "longitude": "-90.09668250900766"
    }
  },
  {
    "service_request": "2022-862160",
    "request_type": "Abandoned Vehicles",
    "request_reason": "Abandoned/Junk Vehicles",
    "date_created": "2022-02-19T13:28:07.000",
    "date_modified": "2022-02-19T13:28:07.000",
    "request_status": "Pending",
    "responsible_agency": "Department of Public Works",
    "final_address": "5773 Wildair Dr",
    "address_councildis": "D",
    "status": "Pending",
    "rowid": "862160",
    "final_x": "3681573.442",
    "final_y": "554567.053656",
    "longitude": "-90.06703417020613",
    "latitude": "30.018864741202382",
    "geocoded_column": {
      "latitude": "30.018864741202382",
      "longitude": "-90.06703417020613"
    }
  },
  {
    "service_request": "2022-862159",
    "request_type": "Trash/Recycling",
    "request_reason": "Order Trash Cart",
    "date_created": "2022-02-19T13:22:08.000",
    "date_modified": "2022-02-19T13:22:09.000",
    "request_status": "Pending",
    "responsible_agency": "Department of Sanitation",
    "final_address": "2231 Port St",
    "address_councildis": "D",
    "status": "Assigned to Contractor",
    "contractor": "Metro Disposal",
    "rowid": "862159",
    "final_x": "3688571.81475",
    "final_y": "540765.514379",
    "longitude": "-90.04541200226575",
    "latitude": "29.980701000185746",
    "geocoded_column": {
      "latitude": "29.980701000185746",
      "longitude": "-90.04541200226575"
    }
  },
  {
    "service_request": "2022-862158",
    "request_type": "Trash/Recycling",
    "request_reason": "Replace Trash Cart",
    "date_created": "2022-02-19T13:21:31.000",
    "date_modified": "2022-02-19T13:21:32.000",
    "request_status": "Pending",
    "responsible_agency": "Department of Sanitation",
    "final_address": "2231 Port St",
    "address_councildis": "D",
    "status": "Assigned to Contractor",
    "contractor": "Metro Disposal",
    "rowid": "862158",
    "final_x": "3688571.81475",
    "final_y": "540765.514379",
    "longitude": "-90.04541200226575",
    "latitude": "29.980701000185746",
    "geocoded_column": {
      "latitude": "29.980701000185746",
      "longitude": "-90.04541200226575"
    }
  },
  {
    "service_request": "2022-862157",
    "request_type": "Trash/Recycling",
    "request_reason": "Order Recycling Cart",
    "date_created": "2022-02-19T13:12:24.000",
    "date_modified": "2022-02-19T13:12:24.000",
    "request_status": "Pending",
    "responsible_agency": "Department of Sanitation",
    "final_address": "8241 Hickory St",
    "address_councildis": "A",
    "status": "Pending",
    "rowid": "862157",
    "final_x": "3662910.93216",
    "final_y": "530421.08653",
    "longitude": "-90.12680472771325",
    "latitude": "29.95302534339764",
    "geocoded_column": {
      "latitude": "29.95302534339764",
      "longitude": "-90.12680472771325"
    }
  },
  {
    "service_request": "2022-862156",
    "request_type": "Trash/Recycling",
    "request_reason": "MIssed Recycling Pick-Up",
    "date_created": "2022-02-19T13:06:43.000",
    "date_modified": "2022-02-19T13:06:44.000",
    "request_status": "Pending",
    "responsible_agency": "Department of Sanitation",
    "final_address": "7320 Hurst St",
    "address_councildis": "A",
    "status": "Assigned to Contractor",
    "contractor": "Richards Disposal",
    "rowid": "862156",
    "final_x": "3661819.1513",
    "final_y": "523847.623483",
    "longitude": "-90.13047000182155",
    "latitude": "29.934981980100186",
    "geocoded_column": {
      "latitude": "29.934981980100186",
      "longitude": "-90.13047000182155"
    }
  },
  {
    "service_request": "2022-862155",
    "request_type": "Trash/Recycling",
    "request_reason": "Request a Large Item Pick Up",
    "date_created": "2022-02-19T13:02:19.000",
    "date_modified": "2022-02-19T13:02:21.000",
    "request_status": "Pending",
    "responsible_agency": "Department of Sanitation",
    "final_address": "3810 Fairmont Dr",
    "address_councildis": "D",
    "status": "Assigned to Contractor",
    "contractor": "Metro Disposal",
    "rowid": "862155",
    "final_x": "3685022.91593",
    "final_y": "546467.079249",
    "longitude": "-90.05642027811912",
    "latitude": "29.996487483221095",
    "geocoded_column": {
      "latitude": "29.996487483221095",
      "longitude": "-90.05642027811912"
    }
  },
  {
    "service_request": "2022-862154",
    "request_type": "Abandoned Vehicles",
    "request_reason": "Abandoned/Junk Vehicles",
    "date_created": "2022-02-19T12:55:31.000",
    "date_modified": "2022-02-19T12:55:31.000",
    "request_status": "Pending",
    "responsible_agency": "Department of Public Works",
    "final_address": "528 S St Patrick St",
    "address_councildis": "A",
    "status": "Pending",
    "rowid": "862154",
    "final_x": "3668037.85146",
    "final_y": "538295.202121",
    "longitude": "-90.11035074087481",
    "latitude": "29.974527117847355",
    "geocoded_column": {
      "latitude": "29.974527117847355",
      "longitude": "-90.11035074087481"
    }
  },
  {
    "service_request": "2022-862153",
    "request_type": "Trash/Recycling",
    "request_reason": "Repair Trash Cart",
    "date_created": "2022-02-19T12:52:04.000",
    "date_modified": "2022-02-19T12:52:04.000",
    "request_status": "Pending",
    "responsible_agency": "Department of Sanitation",
    "final_address": "4812 Miles Dr",
    "address_councildis": "D",
    "status": "Assigned to Contractor",
    "contractor": "Metro Disposal",
    "rowid": "862153",
    "final_x": "3679917.21013",
    "final_y": "549405.601107",
    "longitude": "-90.07244673375902",
    "latitude": "30.00472283223615",
    "geocoded_column": {
      "latitude": "30.00472283223615",
      "longitude": "-90.07244673375902"
    }
  },
  {
    "service_request": "2022-862152",
    "request_type": "Roads/Drainage",
    "request_reason": "Leaking Hydrant",
    "date_created": "2022-02-19T12:46:38.000",
    "date_modified": "2022-02-19T12:46:38.000",
    "request_status": "Pending",
    "responsible_agency": "Department of Public Works",
    "final_address": "4748 Virgilian St",
    "address_councildis": "D",
    "status": "Pending",
    "rowid": "862152",
    "final_x": "3697389.22199",
    "final_y": "553897.906775",
    "longitude": "-90.01708646699637",
    "latitude": "30.01653476409849",
    "geocoded_column": {
      "latitude": "30.01653476409849",
      "longitude": "-90.01708646699637"
    }
  },
  {
    "service_request": "2022-862151",
    "request_type": "Traffic Signals/Signs/Striping/Streetlights",
    "request_reason": "Request for Traffic Calming due to Speeding",
    "date_created": "2022-02-19T12:39:02.000",
    "date_modified": "2022-02-19T12:39:02.000",
    "request_status": "Pending",
    "responsible_agency": "Department of Public Works",
    "final_address": "3000 Palmer Ave",
    "address_councildis": "A",
    "status": "Pending",
    "rowid": "862151",
    "final_x": "3667046.59687",
    "final_y": "527521.686527",
    "longitude": "-90.11384349850496",
    "latitude": "29.944932546922274",
    "geocoded_column": {
      "latitude": "29.944932546922274",
      "longitude": "-90.11384349850496"
    }
  },
  {
    "service_request": "2022-862150",
    "request_type": "Trash/Recycling",
    "request_reason": "Request a Large Item Pick Up",
    "date_created": "2022-02-19T12:37:31.000",
    "date_modified": "2022-02-19T12:37:31.000",
    "request_status": "Pending",
    "responsible_agency": "Department of Sanitation",
    "final_address": "1910 Eagle St",
    "address_councildis": "A",
    "status": "Assigned to Contractor",
    "contractor": "Richards Disposal",
    "rowid": "862150",
    "final_x": "3661814.2743",
    "final_y": "531960.804163",
    "longitude": "-90.13021646258352",
    "latitude": "29.9572907757137",
    "geocoded_column": {
      "latitude": "29.9572907757137",
      "longitude": "-90.13021646258352"
    }
  },
  {
    "service_request": "2022-862149",
    "request_type": "Trash/Recycling",
    "request_reason": "MIssed Recycling Pick-Up",
    "date_created": "2022-02-19T12:17:53.000",
    "date_modified": "2022-02-19T12:17:54.000",
    "request_status": "Pending",
    "responsible_agency": "Department of Sanitation",
    "final_address": "7224 Walmsley Ave, New Orleans, Louisiana, 70125",
    "address_councildis": "B",
    "status": "Assigned to Contractor",
    "contractor": "Richards Disposal",
    "rowid": "862149",
    "final_x": "3667133.42746",
    "final_y": "531347.688962",
    "longitude": "-90.11344074122005",
    "latitude": "29.955450267875644",
    "geocoded_column": {
      "latitude": "29.955450267875644",
      "longitude": "-90.11344074122005"
    }
  },
  {
    "service_request": "2022-862148",
    "request_type": "Traffic Signals/Signs/Striping/Streetlights",
    "request_reason": "Traffic Sign Missing/Damaged",
    "date_created": "2022-02-19T12:12:06.000",
    "date_modified": "2022-02-19T12:12:06.000",
    "request_status": "Pending",
    "responsible_agency": "Department of Public Works",
    "final_address": "2503 Calhoun St",
    "address_councildis": "A",
    "status": "Pending",
    "rowid": "862148",
    "final_x": "3666248.44186",
    "final_y": "526056.810622",
    "longitude": "-90.11641264735123",
    "latitude": "29.940927942737243",
    "geocoded_column": {
      "latitude": "29.940927942737243",
      "longitude": "-90.11641264735123"
    }
  },
  {
    "service_request": "2022-862147",
    "request_type": "Traffic Signals/Signs/Striping/Streetlights",
    "request_reason": "Traffic Signal Malfunctioning/Damaged",
    "date_created": "2022-02-19T12:07:16.000",
    "date_modified": "2022-02-19T12:07:16.000",
    "request_status": "Pending",
    "responsible_agency": "Department of Public Works",
    "final_address": "4001 General De Gaulle Dr",
    "address_councildis": "C",
    "status": "Pending",
    "rowid": "862147",
    "final_x": "3698622.86826",
    "final_y": "518977.851127",
    "longitude": "-90.01445863110955",
    "latitude": "29.920478127557015",
    "geocoded_column": {
      "latitude": "29.920478127557015",
      "longitude": "-90.01445863110955"
    }
  },
  {
    "service_request": "2022-862146",
    "request_type": "Roads/Drainage",
    "request_reason": "Pothole",
    "date_created": "2022-02-19T12:06:06.000",
    "date_modified": "2022-02-19T12:06:06.000",
    "request_status": "Pending",
    "responsible_agency": "Department of Public Works",
    "final_address": "6435 Memphis St",
    "address_councildis": "A",
    "status": "Pending",
    "rowid": "862146",
    "final_x": "3669554.68244",
    "final_y": "550265.076116",
    "longitude": "-90.10515500458364",
    "latitude": "30.007395558378963",
    "geocoded_column": {
      "latitude": "30.007395558378963",
      "longitude": "-90.10515500458364"
    }
  },
  {
    "service_request": "2022-862145",
    "request_type": "Trash/Recycling",
    "request_reason": "Illegal Dumping",
    "date_created": "2022-02-19T12:01:46.000",
    "date_modified": "2022-02-19T12:01:46.000",
    "request_status": "Pending",
    "responsible_agency": "Department of Sanitation",
    "final_address": "3401 Paris Ave",
    "address_councildis": "D",
    "status": "Pending",
    "rowid": "862145",
    "final_x": "3679819.53435",
    "final_y": "544822.993423",
    "longitude": "-90.0729145611628",
    "latitude": "29.992125242550788",
    "geocoded_column": {
      "latitude": "29.992125242550788",
      "longitude": "-90.0729145611628"
    }
  },
  {
    "service_request": "2022-862144",
    "request_type": "Traffic Signals/Signs/Striping/Streetlights",
    "request_reason": "Traffic Signal Malfunctioning/Damaged",
    "date_created": "2022-02-19T11:56:12.000",
    "date_modified": "2022-02-19T11:56:12.000",
    "request_status": "Pending",
    "responsible_agency": "Department of Public Works",
    "final_address": "CALLIOPE ST & ANNUNCIATION ST & TCHOUPITOULAS EXIT",
    "address_councildis": "B",
    "status": "Pending",
    "rowid": "862144",
    "final_x": "3681443.2",
    "final_y": "525519.78",
    "longitude": "-90.06845882301015",
    "latitude": "29.938998817801245",
    "geocoded_column": {
      "latitude": "29.938998817801245",
      "longitude": "-90.06845882301015"
    }
  },
  {
    "service_request": "2022-862143",
    "request_type": "Trash/Recycling",
    "request_reason": "Replace Trash Cart",
    "date_created": "2022-02-19T11:52:56.000",
    "date_modified": "2022-02-19T11:52:57.000",
    "request_status": "Pending",
    "responsible_agency": "Department of Sanitation",
    "final_address": "121 Huntlee Dr",
    "address_councildis": "C",
    "status": "Assigned to Contractor",
    "contractor": "Richards Disposal",
    "rowid": "862143",
    "final_x": "3702361.71249",
    "final_y": "524055.403708",
    "longitude": "-90.00247077965182",
    "latitude": "29.93432077753387",
    "geocoded_column": {
      "latitude": "29.93432077753387",
      "longitude": "-90.00247077965182"
    }
  },
  {
    "service_request": "2022-862142",
    "request_type": "Safety & Permits",
    "request_reason": "Construction permit",
    "date_created": "2022-02-19T11:45:18.000",
    "date_modified": "2022-02-19T11:45:18.000",
    "request_status": "Pending",
    "responsible_agency": "Department of Code Enforcement",
    "final_address": "6019 Louis Xiv St",
    "address_councildis": "A",
    "status": "Pending",
    "rowid": "862142",
    "final_x": "3668187.46119",
    "final_y": "547458.711953",
    "longitude": "-90.10956914814406",
    "latitude": "29.999719256474307",
    "geocoded_column": {
      "latitude": "29.999719256474307",
      "longitude": "-90.10956914814406"
    }
  },
  {
    "service_request": "2022-862141",
    "request_type": "Trash/Recycling",
    "request_reason": "MIssed Recycling Pick-Up",
    "date_created": "2022-02-19T11:41:20.000",
    "date_modified": "2022-02-19T11:41:20.000",
    "request_status": "Pending",
    "responsible_agency": "Department of Sanitation",
    "final_address": "3416 Livingston St",
    "address_councildis": "A",
    "status": "Assigned to Contractor",
    "contractor": "Richards Disposal",
    "rowid": "862141",
    "final_x": "3663649.56301",
    "final_y": "537623.806216",
    "longitude": "-90.12423245766217",
    "latitude": "29.97280905845163",
    "geocoded_column": {
      "latitude": "29.97280905845163",
      "longitude": "-90.12423245766217"
    }
  },
  {
    "service_request": "2022-862140",
    "request_type": "Roads/Drainage",
    "request_reason": "Accessibility Ramps, Curbs and Sidewalk Repair",
    "date_created": "2022-02-19T11:31:05.000",
    "date_modified": "2022-02-19T11:31:05.000",
    "request_status": "Pending",
    "responsible_agency": "Department of Public Works",
    "final_address": "3666 Clematis St",
    "address_councildis": "D",
    "status": "Pending",
    "rowid": "862140",
    "final_x": "3686030.64687",
    "final_y": "546479.886417",
    "longitude": "-90.05323647376143",
    "latitude": "29.996491781187878",
    "geocoded_column": {
      "latitude": "29.996491781187878",
      "longitude": "-90.05323647376143"
    }
  },
  {
    "service_request": "2022-862139",
    "request_type": "Property Maintenance",
    "request_reason": "Property Maintenance",
    "date_created": "2022-02-19T11:24:42.000",
    "date_modified": "2022-02-19T11:24:42.000",
    "request_status": "Pending",
    "responsible_agency": "Department of Code Enforcement",
    "final_address": "9830 Lake Forest Blvd",
    "address_councildis": "E",
    "status": "Pending",
    "rowid": "862139",
    "final_x": "3709834.59819",
    "final_y": "558955.528476",
    "longitude": "-89.97757570453228",
    "latitude": "30.030042278761563",
    "geocoded_column": {
      "latitude": "30.030042278761563",
      "longitude": "-89.97757570453228"
    }
  },
  {
    "service_request": "2022-862138",
    "request_type": "Trash/Recycling",
    "request_reason": "Request a Large Item Pick Up",
    "date_created": "2022-02-19T11:18:00.000",
    "date_modified": "2022-02-19T11:18:01.000",
    "request_status": "Pending",
    "responsible_agency": "Department of Sanitation",
    "final_address": "4143 Canal St, New Orleans, Louisiana, 70119",
    "address_councildis": "A",
    "status": "Assigned to Contractor",
    "contractor": "Richards Disposal",
    "rowid": "862138",
    "final_x": "3670913.4002",
    "final_y": "538666.959113",
    "longitude": "-90.10125641433191",
    "latitude": "29.975464619714828",
    "geocoded_column": {
      "latitude": "29.975464619714828",
      "longitude": "-90.10125641433191"
    }
  },
  {
    "service_request": "2022-862137",
    "request_type": "Roads/Drainage",
    "request_reason": "Man hole cover issue",
    "date_created": "2022-02-19T10:39:08.000",
    "date_modified": "2022-02-19T10:39:08.000",
    "request_status": "Pending",
    "responsible_agency": "Department of Public Works",
    "final_address": "3200 BLK Magazine St",
    "address_councildis": "B",
    "status": "Pending",
    "rowid": "862137",
    "final_x": "3675676.87138",
    "final_y": "519930.987485",
    "longitude": "-90.08685576435914",
    "latitude": "29.923805223068932",
    "geocoded_column": {
      "latitude": "29.923805223068932",
      "longitude": "-90.08685576435914"
    }
  },
  {
    "service_request": "2022-862136",
    "request_type": "Abandoned Vehicles",
    "request_reason": "Abandoned/Junk Vehicles",
    "date_created": "2022-02-19T10:31:47.000",
    "date_modified": "2022-02-19T10:31:47.000",
    "request_status": "Pending",
    "responsible_agency": "Department of Public Works",
    "final_address": "96 Morrison Ct",
    "address_councildis": "E",
    "status": "Pending",
    "rowid": "862136",
    "final_x": "3703947.40932",
    "final_y": "561468.443231",
    "longitude": "-89.99608640731016",
    "latitude": "30.037142028864295",
    "geocoded_column": {
      "latitude": "30.037142028864295",
      "longitude": "-89.99608640731016"
    }
  },
  {
    "service_request": "2022-862135",
    "request_type": "Trash/Recycling",
    "request_reason": "Illegal Dumping",
    "date_created": "2022-02-19T10:12:57.000",
    "date_modified": "2022-02-19T10:12:58.000",
    "request_status": "Pending",
    "responsible_agency": "Department of Sanitation",
    "final_address": "PRENTISS AVE & ST ANTHONY AVE",
    "address_councildis": "D",
    "status": "Pending",
    "rowid": "862135",
    "final_x": "3682069.8",
    "final_y": "553717.48",
    "longitude": "-90.06549555741026",
    "latitude": "30.01651363160262",
    "geocoded_column": {
      "latitude": "30.01651363160262",
      "longitude": "-90.06549555741026"
    }
  },
  {
    "service_request": "2022-862134",
    "request_type": "Trash/Recycling",
    "request_reason": "Request a Large Item Pick Up",
    "date_created": "2022-02-19T10:12:09.000",
    "date_modified": "2022-02-19T10:12:10.000",
    "request_status": "Pending",
    "responsible_agency": "Department of Sanitation",
    "final_address": "3704 Piedmont Dr",
    "address_councildis": "D",
    "status": "Assigned to Contractor",
    "contractor": "Metro Disposal",
    "rowid": "862134",
    "final_x": "3685754.1087",
    "final_y": "546358.835536",
    "longitude": "-90.05411430787096",
    "latitude": "29.996167426570423",
    "geocoded_column": {
      "latitude": "29.996167426570423",
      "longitude": "-90.05411430787096"
    }
  },
  {
    "service_request": "2022-862133",
    "request_type": "Trash/Recycling",
    "request_reason": "Illegal Dumping",
    "date_created": "2022-02-19T10:06:44.000",
    "date_modified": "2022-02-19T10:07:56.000",
    "request_status": "Pending",
    "responsible_agency": "Department of Sanitation",
    "final_address": "4316 St Anthony Ave",
    "address_councildis": "D",
    "status": "Pending",
    "rowid": "862133",
    "final_x": "3682399.18306",
    "final_y": "548532.745682",
    "longitude": "-90.06463622857191",
    "latitude": "30.002247462383846",
    "geocoded_column": {
      "latitude": "30.002247462383846",
      "longitude": "-90.06463622857191"
    }
  },
  {
    "service_request": "2022-862132",
    "request_type": "Abandoned Vehicles",
    "request_reason": "Abandoned/Junk Vehicles",
    "date_created": "2022-02-19T09:33:33.000",
    "date_modified": "2022-02-19T09:33:33.000",
    "request_status": "Pending",
    "responsible_agency": "Department of Public Works",
    "final_address": "2705 Soniat St",
    "address_councildis": "B",
    "status": "Pending",
    "rowid": "862132",
    "final_x": "3668600.09607",
    "final_y": "525376.588285",
    "longitude": "-90.10901097727508",
    "latitude": "29.938988667245795",
    "geocoded_column": {
      "latitude": "29.938988667245795",
      "longitude": "-90.10901097727508"
    }
  },
  {
    "service_request": "2022-862130",
    "request_type": "Abandoned Vehicles",
    "request_reason": "Abandoned/Junk Vehicles",
    "date_created": "2022-02-19T09:31:02.000",
    "date_modified": "2022-02-19T09:31:02.000",
    "request_status": "Pending",
    "responsible_agency": "Department of Public Works",
    "final_address": "2705 Soniat St",
    "address_councildis": "B",
    "status": "Pending",
    "rowid": "862130",
    "final_x": "3668600.09607",
    "final_y": "525376.588285",
    "longitude": "-90.10901097727508",
    "latitude": "29.938988667245795",
    "geocoded_column": {
      "latitude": "29.938988667245795",
      "longitude": "-90.10901097727508"
    }
  },
  {
    "service_request": "2022-862129",
    "request_type": "Abandoned Vehicles",
    "request_reason": "Abandoned/Junk Vehicles",
    "date_created": "2022-02-19T09:28:29.000",
    "date_modified": "2022-02-19T09:28:29.000",
    "request_status": "Pending",
    "responsible_agency": "Department of Public Works",
    "final_address": "2628 Soniat St",
    "address_councildis": "B",
    "status": "Pending",
    "rowid": "862129",
    "final_x": "3668519.86836",
    "final_y": "525216.029373",
    "longitude": "-90.10926968149279",
    "latitude": "29.93854953880512",
    "geocoded_column": {
      "latitude": "29.93854953880512",
      "longitude": "-90.10926968149279"
    }
  },
  {
    "service_request": "2022-862128",
    "request_type": "Trash/Recycling",
    "request_reason": "MIssed Recycling Pick-Up",
    "date_created": "2022-02-19T09:15:51.000",
    "date_modified": "2022-02-19T09:15:51.000",
    "request_status": "Pending",
    "responsible_agency": "Department of Sanitation",
    "final_address": "2533 S Dorgenois St",
    "address_councildis": "B",
    "status": "Assigned to Contractor",
    "contractor": "Richards Disposal",
    "rowid": "862128",
    "final_x": "3672021.76737",
    "final_y": "529637.260609",
    "longitude": "-90.09806332215604",
    "latitude": "29.950603149781834",
    "geocoded_column": {
      "latitude": "29.950603149781834",
      "longitude": "-90.09806332215604"
    }
  },
  {
    "service_request": "2022-862127",
    "request_type": "Trash/Recycling",
    "request_reason": "Order Recycling Cart",
    "date_created": "2022-02-19T09:07:22.000",
    "date_modified": "2022-02-19T09:07:22.000",
    "request_status": "Pending",
    "responsible_agency": "Department of Sanitation",
    "final_address": "1019 St Ann St",
    "address_councildis": "C",
    "status": "Pending",
    "rowid": "862127",
    "final_x": "3681808.87708",
    "final_y": "533542.056709",
    "longitude": "-90.06702443765853",
    "latitude": "29.961046268566477",
    "geocoded_column": {
      "latitude": "29.961046268566477",
      "longitude": "-90.06702443765853"
    }
  },
  {
    "service_request": "2022-862126",
    "request_type": "Trash/Recycling",
    "request_reason": "Missed Trash Pick-Up",
    "date_created": "2022-02-19T09:06:50.000",
    "date_modified": "2022-02-19T09:06:50.000",
    "request_status": "Pending",
    "responsible_agency": "Department of Sanitation",
    "final_address": "2500 Gentilly Blvd",
    "address_councildis": "D",
    "status": "Assigned to Contractor",
    "contractor": "Metro Disposal",
    "rowid": "862126",
    "final_x": "3681737.48245",
    "final_y": "545064.885519",
    "longitude": "-90.06684770726106",
    "latitude": "29.99273221053106",
    "geocoded_column": {
      "latitude": "29.99273221053106",
      "longitude": "-90.06684770726106"
    }
  },
  {
    "service_request": "2022-862125",
    "request_type": "Roads/Drainage",
    "request_reason": "Alley Way",
    "date_created": "2022-02-19T09:03:29.000",
    "date_modified": "2022-02-19T09:03:29.000",
    "request_status": "Pending",
    "responsible_agency": "Department of Public Works",
    "final_address": "7038 General Haig St",
    "address_councildis": "A",
    "status": "Pending",
    "rowid": "862125",
    "final_x": "3671070.02305",
    "final_y": "554119.965848",
    "longitude": "-90.10023654212395",
    "latitude": "30.01795039391956",
    "geocoded_column": {
      "latitude": "30.01795039391956",
      "longitude": "-90.10023654212395"
    }
  },
  {
    "service_request": "2022-862124",
    "request_type": "Traffic Signals/Signs/Striping/Streetlights",
    "request_reason": "Traffic Signal Malfunctioning/Damaged",
    "date_created": "2022-02-19T09:02:34.000",
    "date_modified": "2022-02-19T09:02:34.000",
    "request_status": "Pending",
    "responsible_agency": "Department of Public Works",
    "final_address": "LONELY OAK DR & CHEF MENTEUR HWY",
    "address_councildis": "E",
    "status": "Pending",
    "rowid": "862124",
    "final_x": "3702614.0",
    "final_y": "552377.98",
    "longitude": "-90.00063437722332",
    "latitude": "30.01218948279537",
    "geocoded_column": {
      "latitude": "30.01218948279537",
      "longitude": "-90.00063437722332"
    }
  },
  {
    "service_request": "2022-862123",
    "request_type": "Property Maintenance",
    "request_reason": "Property Maintenance",
    "date_created": "2022-02-19T08:48:44.000",
    "date_modified": "2022-02-19T08:48:44.000",
    "request_status": "Pending",
    "responsible_agency": "Department of Code Enforcement",
    "final_address": "13200 Hayne Blvd",
    "address_councildis": "E",
    "status": "Pending",
    "rowid": "862123",
    "final_x": "3715676.16376",
    "final_y": "571360.763048",
    "longitude": "-89.95864627429889",
    "latitude": "30.063960277741643",
    "geocoded_column": {
      "latitude": "30.063960277741643",
      "longitude": "-89.95864627429889"
    }
  },
  {
    "service_request": "2022-862122",
    "request_type": "Trash/Recycling",
    "request_reason": "Request a Large Item Pick Up",
    "date_created": "2022-02-19T08:38:25.000",
    "date_modified": "2022-02-19T08:38:25.000",
    "request_status": "Pending",
    "responsible_agency": "Department of Sanitation",
    "final_address": "2247 Hyman Pl",
    "address_councildis": "C",
    "status": "Assigned to Contractor",
    "contractor": "Richards Disposal",
    "rowid": "862122",
    "final_x": "3701040.58897",
    "final_y": "522437.108474",
    "longitude": "-90.00670064862504",
    "latitude": "29.929913153439635",
    "geocoded_column": {
      "latitude": "29.929913153439635",
      "longitude": "-90.00670064862504"
    }
  },
  {
    "service_request": "2022-862121",
    "request_type": "COVID-19",
    "request_reason": "COVID-19 Business Non-Compliance",
    "date_created": "2022-02-19T08:36:24.000",
    "date_modified": "2022-02-19T08:36:26.000",
    "request_status": "Pending",
    "responsible_agency": "Safety and Permits",
    "final_address": "1100 Bourbon St",
    "address_councildis": "C",
    "status": "Pending",
    "rowid": "862121",
    "final_x": "3683190.45525",
    "final_y": "533854.713157",
    "longitude": "-90.06265072512801",
    "latitude": "29.961863911644915",
    "geocoded_column": {
      "latitude": "29.961863911644915",
      "longitude": "-90.06265072512801"
    }
  },
  {
    "service_request": "2022-862120",
    "request_type": "Abandoned Vehicles",
    "request_reason": "Abandoned/Junk Vehicles",
    "date_created": "2022-02-19T08:20:03.000",
    "date_modified": "2022-02-19T08:20:03.000",
    "request_status": "Pending",
    "responsible_agency": "Department of Public Works",
    "final_address": "2247 Hyman Pl",
    "address_councildis": "C",
    "status": "Pending",
    "rowid": "862120",
    "final_x": "3701040.58897",
    "final_y": "522437.108474",
    "longitude": "-90.00670064862504",
    "latitude": "29.929913153439635",
    "geocoded_column": {
      "latitude": "29.929913153439635",
      "longitude": "-90.00670064862504"
    }
  },
  {
    "service_request": "2022-862119",
    "request_type": "Abandoned Vehicles",
    "request_reason": "Abandoned/Junk Vehicles",
    "date_created": "2022-02-19T08:17:31.000",
    "date_modified": "2022-02-19T08:17:31.000",
    "request_status": "Pending",
    "responsible_agency": "Department of Public Works",
    "final_address": "3300 Elysian Fields Ave",
    "address_councildis": "D",
    "status": "Pending",
    "rowid": "862119",
    "final_x": "3684184.66057",
    "final_y": "544817.221583",
    "longitude": "-90.05912622701356",
    "latitude": "29.99197662233376",
    "geocoded_column": {
      "latitude": "29.99197662233376",
      "longitude": "-90.05912622701356"
    }
  },
  {
    "service_request": "2022-862118",
    "request_type": "Abandoned Vehicles",
    "request_reason": "Abandoned/Junk Vehicles",
    "date_created": "2022-02-19T07:48:43.000",
    "date_modified": "2022-02-19T07:48:43.000",
    "request_status": "Pending",
    "responsible_agency": "Department of Public Works",
    "final_address": "1001 Valence St",
    "address_councildis": "B",
    "status": "Pending",
    "rowid": "862118",
    "final_x": "3669950.3771",
    "final_y": "519080.296311",
    "longitude": "-90.1049610684968",
    "latitude": "29.92163613987772",
    "geocoded_column": {
      "latitude": "29.92163613987772",
      "longitude": "-90.1049610684968"
    }
  },
  {
    "service_request": "2022-862117",
    "request_type": "Property Maintenance",
    "request_reason": "Property Maintenance",
    "date_created": "2022-02-19T07:03:53.000",
    "date_modified": "2022-02-19T07:03:53.000",
    "request_status": "Pending",
    "responsible_agency": "Department of Code Enforcement",
    "final_address": "2801 Bienville Ave",
    "address_councildis": "B",
    "status": "Pending",
    "rowid": "862117",
    "final_x": "3675380.00827",
    "final_y": "536184.273415",
    "longitude": "-90.08723490597082",
    "latitude": "29.96850526354875",
    "geocoded_column": {
      "latitude": "29.96850526354875",
      "longitude": "-90.08723490597082"
    }
  },
  {
    "service_request": "2022-862116",
    "request_type": "Roads/Drainage",
    "request_reason": "Catch Basin - Clogged",
    "date_created": "2022-02-19T06:58:57.000",
    "date_modified": "2022-02-19T06:58:57.000",
    "request_status": "Pending",
    "responsible_agency": "Department of Public Works",
    "final_address": "PALM ST & DANTE ST",
    "address_councildis": "A",
    "status": "Pending",
    "rowid": "862116",
    "final_x": "3667180.6",
    "final_y": "535182.28",
    "longitude": "-90.11316284963266",
    "latitude": "29.965992749386018",
    "geocoded_column": {
      "latitude": "29.965992749386018",
      "longitude": "-90.11316284963266"
    }
  },
  {
    "service_request": "2022-862115",
    "request_type": "Trash/Recycling",
    "request_reason": "Repair Trash Cart",
    "date_created": "2022-02-19T06:25:52.000",
    "date_modified": "2022-02-19T06:25:53.000",
    "request_status": "Pending",
    "responsible_agency": "Department of Sanitation",
    "final_address": "3331 Bennett St",
    "address_councildis": "C",
    "status": "Assigned to Contractor",
    "contractor": "Richards Disposal",
    "rowid": "862115",
    "final_x": "3710377.70897",
    "final_y": "518221.478774",
    "longitude": "-89.97738271236172",
    "latitude": "29.91802110693779",
    "geocoded_column": {
      "latitude": "29.91802110693779",
      "longitude": "-89.97738271236172"
    }
  },
  {
    "service_request": "2022-862113",
    "request_type": "Safety & Permits",
    "request_reason": "Licenses & Permits",
    "date_created": "2022-02-18T21:07:24.000",
    "date_modified": "2022-02-18T21:07:24.000",
    "request_status": "Pending",
    "responsible_agency": "Safety and Permits",
    "final_address": "1600 Basin St",
    "address_councildis": "C",
    "status": "Pending",
    "rowid": "862113",
    "final_x": "3680083.14523",
    "final_y": "534450.042117",
    "longitude": "-90.07244242762194",
    "latitude": "29.963595247014634",
    "geocoded_column": {
      "latitude": "29.963595247014634",
      "longitude": "-90.07244242762194"
    }
  },
  {
    "service_request": "2022-862112",
    "request_type": "Safety & Permits",
    "request_reason": "Licenses & Permits",
    "date_created": "2022-02-18T20:44:51.000",
    "date_modified": "2022-02-18T20:44:51.000",
    "request_status": "Pending",
    "responsible_agency": "Safety and Permits",
    "final_address": "2601 Dumaine St",
    "address_councildis": "D",
    "status": "Pending",
    "rowid": "862112",
    "final_x": "3677583.62939",
    "final_y": "537249.257672",
    "longitude": "-90.08023897251466",
    "latitude": "29.97136752894056",
    "geocoded_column": {
      "latitude": "29.97136752894056",
      "longitude": "-90.08023897251466"
    }
  },
  {
    "service_request": "2022-862111",
    "request_type": "Traffic Signals/Signs/Striping/Streetlights",
    "request_reason": "Street Light Outage/Malfunction",
    "date_created": "2022-02-18T19:37:33.000",
    "date_modified": "2022-02-18T19:37:34.000",
    "request_status": "Pending",
    "responsible_agency": "Department of Public Works",
    "final_address": "GOVERNOR NICHOLLS ST & DAUPHINE ST",
    "address_councildis": "C",
    "status": "Pending",
    "contractor": "Royal Engineering",
    "rowid": "862111",
    "final_x": "3683083.6",
    "final_y": "534354.68",
    "longitude": "-90.06297065275913",
    "latitude": "29.963241906748696",
    "geocoded_column": {
      "latitude": "29.963241906748696",
      "longitude": "-90.06297065275913"
    }
  },
  {
    "service_request": "2022-862110",
    "request_type": "Traffic Signals/Signs/Striping/Streetlights",
    "request_reason": "Street Light Outage/Malfunction",
    "date_created": "2022-02-18T19:15:06.000",
    "date_modified": "2022-02-18T19:15:07.000",
    "request_status": "Pending",
    "responsible_agency": "Department of Public Works",
    "final_address": "6332 General Haig St",
    "address_councildis": "A",
    "status": "Pending",
    "contractor": "Royal Engineering",
    "rowid": "862110",
    "final_x": "3670671.99892",
    "final_y": "549377.968723",
    "longitude": "-90.10165520243415",
    "latitude": "30.004923346897353",
    "geocoded_column": {
      "latitude": "30.004923346897353",
      "longitude": "-90.10165520243415"
    }
  },
  {
    "service_request": "2022-862109",
    "request_type": "Traffic Signals/Signs/Striping/Streetlights",
    "request_reason": "Street Light Outage/Malfunction",
    "date_created": "2022-02-18T19:13:31.000",
    "date_modified": "2022-02-18T19:13:31.000",
    "request_status": "Pending",
    "responsible_agency": "Department of Public Works",
    "final_address": "6333 Argonne Blvd",
    "address_councildis": "A",
    "status": "Pending",
    "contractor": "Royal Engineering",
    "rowid": "862109",
    "final_x": "3670416.25882",
    "final_y": "549444.043475",
    "longitude": "-90.1024608975227",
    "latitude": "30.00511258558984",
    "geocoded_column": {
      "latitude": "30.00511258558984",
      "longitude": "-90.1024608975227"
    }
  },
  {
    "service_request": "2022-862108",
    "request_type": "Traffic Signals/Signs/Striping/Streetlights",
    "request_reason": "Street Light Outage/Malfunction",
    "date_created": "2022-02-18T19:12:12.000",
    "date_modified": "2022-02-18T19:12:13.000",
    "request_status": "Pending",
    "responsible_agency": "Department of Public Works",
    "final_address": "6332 General Haig St",
    "address_councildis": "A",
    "status": "Pending",
    "contractor": "Royal Engineering",
    "rowid": "862108",
    "final_x": "3670671.99892",
    "final_y": "549377.968723",
    "longitude": "-90.10165520243415",
    "latitude": "30.004923346897353",
    "geocoded_column": {
      "latitude": "30.004923346897353",
      "longitude": "-90.10165520243415"
    }
  },
  {
    "service_request": "2022-862107",
    "request_type": "Trash/Recycling",
    "request_reason": "Request a Large Item Pick Up",
    "date_created": "2022-02-18T19:10:17.000",
    "date_modified": "2022-02-18T19:10:18.000",
    "request_status": "Pending",
    "responsible_agency": "Department of Sanitation",
    "final_address": "1125 N Villere St",
    "address_councildis": "C",
    "status": "Assigned to Contractor",
    "contractor": "Richards Disposal",
    "rowid": "862107",
    "final_x": "3681317.06645",
    "final_y": "535563.406086",
    "longitude": "-90.06850702517644",
    "latitude": "29.966619223450156",
    "geocoded_column": {
      "latitude": "29.966619223450156",
      "longitude": "-90.06850702517644"
    }
  },
  {
    "service_request": "2022-862106",
    "request_type": "Property Maintenance",
    "request_reason": "Property Maintenance",
    "date_created": "2022-02-18T18:56:13.000",
    "date_modified": "2022-02-18T18:56:13.000",
    "request_status": "Pending",
    "responsible_agency": "Department of Code Enforcement",
    "final_address": "1420 Hendee St",
    "address_councildis": "C",
    "status": "Pending",
    "rowid": "862106",
    "final_x": "3690761.87593",
    "final_y": "525948.817341",
    "longitude": "-90.03902346717162",
    "latitude": "29.939892383876092",
    "geocoded_column": {
      "latitude": "29.939892383876092",
      "longitude": "-90.03902346717162"
    }
  },
  {
    "service_request": "2022-862105",
    "request_type": "Traffic Signals/Signs/Striping/Streetlights",
    "request_reason": "Street Light Outage/Malfunction",
    "date_created": "2022-02-18T18:43:20.000",
    "date_modified": "2022-02-18T18:43:21.000",
    "request_status": "Pending",
    "responsible_agency": "Department of Public Works",
    "final_address": "1618 Gallier St",
    "address_councildis": "D",
    "status": "Pending",
    "contractor": "Royal Engineering",
    "rowid": "862105",
    "final_x": "3690922.97705",
    "final_y": "537677.080264",
    "longitude": "-90.03809629380828",
    "latitude": "29.97213602906852",
    "geocoded_column": {
      "latitude": "29.97213602906852",
      "longitude": "-90.03809629380828"
    }
  },
  {
    "service_request": "2022-862103",
    "request_type": "Traffic Signals/Signs/Striping/Streetlights",
    "request_reason": "Street Light Outage/Malfunction",
    "date_created": "2022-02-18T18:19:15.000",
    "date_modified": "2022-02-18T18:19:16.000",
    "request_status": "Pending",
    "responsible_agency": "Department of Public Works",
    "final_address": "724 Topaz St",
    "address_councildis": "D",
    "status": "Pending",
    "contractor": "Royal Engineering",
    "rowid": "862103",
    "final_x": "3669887.49057",
    "final_y": "556356.06537",
    "longitude": "-90.10389709583342",
    "latitude": "30.024133809025706",
    "geocoded_column": {
      "latitude": "30.024133809025706",
      "longitude": "-90.10389709583342"
    }
  },
  {
    "service_request": "2022-862101",
    "request_type": "Roads/Drainage",
    "request_reason": "Catch Basin - Broken/Damage",
    "date_created": "2022-02-18T17:51:28.000",
    "date_modified": "2022-02-18T17:52:23.000",
    "request_status": "Pending",
    "responsible_agency": "Department of Public Works",
    "final_address": "7720 Freret St",
    "address_councildis": "A",
    "status": "Pending",
    "rowid": "862101",
    "final_x": "3662417.55763",
    "final_y": "526965.288382",
    "longitude": "-90.12847733524323",
    "latitude": "29.943537282426067",
    "geocoded_column": {
      "latitude": "29.943537282426067",
      "longitude": "-90.12847733524323"
    }
  },
  {
    "service_request": "2022-862100",
    "request_type": "Trash/Recycling",
    "request_reason": "Missed Trash Pick-Up",
    "date_created": "2022-02-18T17:47:52.000",
    "date_modified": "2022-02-18T17:47:53.000",
    "request_status": "Pending",
    "responsible_agency": "Department of Sanitation",
    "final_address": "931 N Tonti St",
    "address_councildis": "D",
    "status": "Assigned to Contractor",
    "contractor": "Richards Disposal",
    "rowid": "862100",
    "final_x": "3678302.37614",
    "final_y": "536986.383816",
    "longitude": "-90.07797816285691",
    "latitude": "29.97062308333351",
    "geocoded_column": {
      "latitude": "29.97062308333351",
      "longitude": "-90.07797816285691"
    }
  },
  {
    "service_request": "2022-862099",
    "request_type": "Traffic Signals/Signs/Striping/Streetlights",
    "request_reason": "Street Light Outage/Malfunction",
    "date_created": "2022-02-18T17:44:13.000",
    "date_modified": "2022-02-18T17:44:14.000",
    "request_status": "Pending",
    "responsible_agency": "Department of Public Works",
    "final_address": "CHIPPEWA ST & JOSEPHINE ST",
    "address_councildis": "B",
    "status": "Pending",
    "contractor": "Royal Engineering",
    "rowid": "862099",
    "final_x": "3680052.5",
    "final_y": "521155.28",
    "longitude": "-90.07300098652237",
    "latitude": "29.92704001968496",
    "geocoded_column": {
      "latitude": "29.92704001968496",
      "longitude": "-90.07300098652237"
    }
  },
  {
    "service_request": "2022-862098",
    "request_type": "Trash/Recycling",
    "request_reason": "Repair Trash Cart",
    "date_created": "2022-02-18T17:37:07.000",
    "date_modified": "2022-02-18T17:37:08.000",
    "request_status": "Pending",
    "responsible_agency": "Department of Sanitation",
    "final_address": "3555 Bacchus Dr",
    "address_councildis": "C",
    "status": "Assigned to Contractor",
    "contractor": "Richards Disposal",
    "rowid": "862098",
    "final_x": "3710042.62885",
    "final_y": "517476.323574",
    "longitude": "-89.97846817832347",
    "latitude": "29.915983089508394",
    "geocoded_column": {
      "latitude": "29.915983089508394",
      "longitude": "-89.97846817832347"
    }
  },
  {
    "service_request": "2022-862097",
    "request_type": "Trash/Recycling",
    "request_reason": "Order Trash Cart",
    "date_created": "2022-02-18T17:11:22.000",
    "date_modified": "2022-02-18T17:11:22.000",
    "request_status": "Pending",
    "responsible_agency": "Department of Sanitation",
    "final_address": "2608 Bienville Ave",
    "address_councildis": "B",
    "status": "Assigned to Contractor",
    "contractor": "Richards Disposal",
    "rowid": "862097",
    "final_x": "3676147.7508",
    "final_y": "535398.338694",
    "longitude": "-90.08483737707807",
    "latitude": "29.966321229969104",
    "geocoded_column": {
      "latitude": "29.966321229969104",
      "longitude": "-90.08483737707807"
    }
  },
  {
    "service_request": "2022-862095",
    "request_type": "Trash/Recycling",
    "request_reason": "Order Trash Cart",
    "date_created": "2022-02-18T17:10:11.000",
    "date_modified": "2022-02-18T17:10:12.000",
    "request_status": "Pending",
    "responsible_agency": "Department of Sanitation",
    "final_address": "15530 Dwyer Blvd",
    "address_councildis": "E",
    "status": "Assigned to Contractor",
    "contractor": "Metro Disposal",
    "rowid": "862095",
    "final_x": "3731043.53171",
    "final_y": "563730.722977",
    "longitude": "-89.91036919488947",
    "latitude": "30.042465018778252",
    "geocoded_column": {
      "latitude": "30.042465018778252",
      "longitude": "-89.91036919488947"
    }
  },
  {
    "service_request": "2022-862094",
    "request_type": "Roads/Drainage",
    "request_reason": "Street Flooding / Drainage",
    "date_created": "2022-02-18T17:03:58.000",
    "date_modified": "2022-02-18T17:03:58.000",
    "request_status": "Pending",
    "responsible_agency": "Department of Public Works",
    "final_address": "2224 Odin St",
    "address_councildis": "D",
    "status": "Pending",
    "rowid": "862094",
    "final_x": "3683940.46332",
    "final_y": "553013.649367",
    "longitude": "-90.05960979083996",
    "latitude": "30.014521309175315",
    "geocoded_column": {
      "latitude": "30.014521309175315",
      "longitude": "-90.05960979083996"
    }
  },
  {
    "service_request": "2022-862093",
    "request_type": "Trash/Recycling",
    "request_reason": "Request a Large Item Pick Up",
    "date_created": "2022-02-18T16:48:25.000",
    "date_modified": "2022-02-18T16:48:25.000",
    "request_status": "Pending",
    "responsible_agency": "Department of Sanitation",
    "final_address": "816 Aline St",
    "address_councildis": "B",
    "status": "Assigned to Contractor",
    "contractor": "Richards Disposal",
    "rowid": "862093",
    "final_x": "3674722.52948",
    "final_y": "518508.377335",
    "longitude": "-90.08991701062574",
    "latitude": "29.919922013428625",
    "geocoded_column": {
      "latitude": "29.919922013428625",
      "longitude": "-90.08991701062574"
    }
  },
  {
    "service_request": "2022-862091",
    "request_type": "Parks & Parkways",
    "request_reason": "Request Tree Service (Right of Way/Public Property)",
    "date_created": "2022-02-18T16:39:07.000",
    "date_modified": "2022-02-18T16:39:07.000",
    "request_status": "Pending",
    "responsible_agency": "Department of Parks & Parkway",
    "final_address": "331 S Cortez St",
    "address_councildis": "A",
    "status": "Pending",
    "rowid": "862091",
    "final_x": "3671376.91086",
    "final_y": "536766.55092",
    "longitude": "-90.09985712875033",
    "latitude": "29.970225426263415",
    "geocoded_column": {
      "latitude": "29.970225426263415",
      "longitude": "-90.09985712875033"
    }
  },
  {
    "service_request": "2022-862090",
    "request_type": "Property Maintenance",
    "request_reason": "Property Maintenance",
    "date_created": "2022-02-18T16:29:46.000",
    "date_modified": "2022-02-18T16:29:46.000",
    "request_status": "Pending",
    "responsible_agency": "Department of Code Enforcement",
    "final_address": "9909 Lake Forest Blvd",
    "address_councildis": "E",
    "status": "Pending",
    "rowid": "862090",
    "final_x": "3710161.52312",
    "final_y": "559482.142813",
    "longitude": "-89.97652292682352",
    "latitude": "30.031479620005726",
    "geocoded_column": {
      "latitude": "30.031479620005726",
      "longitude": "-89.97652292682352"
    }
  },
  {
    "service_request": "2022-862089",
    "request_type": "Traffic Signals/Signs/Striping/Streetlights",
    "request_reason": "Street Light Outage/Malfunction",
    "date_created": "2022-02-18T16:16:54.000",
    "date_modified": "2022-02-18T16:16:55.000",
    "request_status": "Pending",
    "responsible_agency": "Department of Public Works",
    "final_address": "2512 Broadway St",
    "address_councildis": "A",
    "status": "Pending",
    "contractor": "Royal Engineering",
    "rowid": "862089",
    "final_x": "3666812.69895",
    "final_y": "530549.710338",
    "longitude": "-90.11448029251594",
    "latitude": "29.953265472274552",
    "geocoded_column": {
      "latitude": "29.953265472274552",
      "longitude": "-90.11448029251594"
    }
  },
  {
    "service_request": "2022-862088",
    "request_type": "Traffic Signals/Signs/Striping/Streetlights",
    "request_reason": "Street Light Outage/Malfunction",
    "date_created": "2022-02-18T16:16:31.000",
    "date_modified": "2022-02-18T16:16:32.000",
    "request_status": "Pending",
    "responsible_agency": "Department of Public Works",
    "final_address": "2512 Broadway St",
    "address_councildis": "A",
    "status": "Pending",
    "contractor": "Royal Engineering",
    "rowid": "862088",
    "final_x": "3666812.69895",
    "final_y": "530549.710338",
    "longitude": "-90.11448029251594",
    "latitude": "29.953265472274552",
    "geocoded_column": {
      "latitude": "29.953265472274552",
      "longitude": "-90.11448029251594"
    }
  },
  {
    "service_request": "2022-862087",
    "request_type": "Safety & Permits",
    "request_reason": "Licenses & Permits",
    "date_created": "2022-02-18T15:50:59.000",
    "date_modified": "2022-02-18T15:50:59.000",
    "request_status": "Pending",
    "responsible_agency": "Safety and Permits",
    "status": "Pending",
    "rowid": "862087",
    "longitude": "0.0",
    "latitude": "0.0",
    "geocoded_column": {
      "latitude": "0.0",
      "longitude": "0.0"
    }
  },
  {
    "service_request": "2022-862086",
    "request_type": "Abandoned Vehicles",
    "request_reason": "Abandoned/Junk Vehicles",
    "date_created": "2022-02-18T15:48:34.000",
    "date_modified": "2022-02-18T15:48:34.000",
    "request_status": "Pending",
    "responsible_agency": "Department of Public Works",
    "final_address": "5622 Canal Blvd",
    "address_councildis": "A",
    "status": "Pending",
    "rowid": "862086",
    "final_x": "3668131.29415",
    "final_y": "544944.143887",
    "longitude": "-90.10983140288653",
    "latitude": "29.992806709608",
    "geocoded_column": {
      "latitude": "29.992806709608",
      "longitude": "-90.10983140288653"
    }
  },
  {
    "service_request": "2022-862085",
    "request_type": "Trash/Recycling",
    "request_reason": "Illegal Dumping",
    "date_created": "2022-02-18T15:48:29.000",
    "date_modified": "2022-02-18T15:48:29.000",
    "request_status": "Pending",
    "responsible_agency": "Department of Sanitation",
    "final_address": "1330 France St",
    "address_councildis": "D",
    "status": "Pending",
    "rowid": "862085",
    "final_x": "3692595.24067",
    "final_y": "536148.997703",
    "longitude": "-90.03286980016354",
    "latitude": "29.96788226063104",
    "geocoded_column": {
      "latitude": "29.96788226063104",
      "longitude": "-90.03286980016354"
    }
  },
  {
    "service_request": "2022-862084",
    "request_type": "Traffic Signals/Signs/Striping/Streetlights",
    "request_reason": "Street Name Sign Damaged or Missing",
    "date_created": "2022-02-18T15:43:31.000",
    "date_modified": "2022-02-18T15:43:31.000",
    "request_status": "Pending",
    "responsible_agency": "Department of Public Works",
    "final_address": "900 Howard Ave",
    "address_councildis": "B",
    "status": "Pending",
    "rowid": "862084",
    "final_x": "3679280.57096",
    "final_y": "527611.107455",
    "longitude": "-90.07521400248727",
    "latitude": "29.944814739164837",
    "geocoded_column": {
      "latitude": "29.944814739164837",
      "longitude": "-90.07521400248727"
    }
  },
  {
    "service_request": "2022-862083",
    "request_type": "Traffic Signals/Signs/Striping/Streetlights",
    "request_reason": "Disabled Parking Sign ",
    "date_created": "2022-02-18T15:39:22.000",
    "date_modified": "2022-02-18T15:39:22.000",
    "request_status": "Pending",
    "responsible_agency": "Department of Public Works",
    "final_address": "320 Elmira Ave",
    "address_councildis": "C",
    "status": "Pending",
    "rowid": "862083",
    "final_x": "3688279.18076",
    "final_y": "530549.793986",
    "longitude": "-90.04669856902677",
    "latitude": "29.952620376964962",
    "geocoded_column": {
      "latitude": "29.952620376964962",
      "longitude": "-90.04669856902677"
    }
  },
  {
    "service_request": "2022-862082",
    "request_type": "Trash/Recycling",
    "request_reason": "Missed Trash Pick-Up",
    "date_created": "2022-02-18T15:35:56.000",
    "date_modified": "2022-02-18T15:35:59.000",
    "request_status": "Pending",
    "responsible_agency": "Department of Sanitation",
    "final_address": "2530 Palmer Ave",
    "address_councildis": "A",
    "status": "Assigned to Contractor",
    "contractor": "Richards Disposal",
    "rowid": "862082",
    "final_x": "3666507.57914",
    "final_y": "526176.081982",
    "longitude": "-90.11559049956274",
    "latitude": "29.941248330668945",
    "geocoded_column": {
      "latitude": "29.941248330668945",
      "longitude": "-90.11559049956274"
    }
  },
  {
    "service_request": "2022-862081",
    "request_type": "Traffic Signals/Signs/Striping/Streetlights",
    "request_reason": "Striping/Road Surface Markings",
    "date_created": "2022-02-18T15:33:05.000",
    "date_modified": "2022-02-18T15:33:05.000",
    "request_status": "Pending",
    "responsible_agency": "Department of Public Works",
    "final_address": "928 St Ann St",
    "address_councildis": "C",
    "status": "Pending",
    "rowid": "862081",
    "final_x": "3682002.70792",
    "final_y": "533310.100548",
    "longitude": "-90.0664204548366",
    "latitude": "29.960402576888974",
    "geocoded_column": {
      "latitude": "29.960402576888974",
      "longitude": "-90.0664204548366"
    }
  },
  {
    "service_request": "2022-862080",
    "request_type": "Traffic Signals/Signs/Striping/Streetlights",
    "request_reason": "Traffic Sign Missing/Damaged",
    "date_created": "2022-02-18T15:32:25.000",
    "date_modified": "2022-02-18T15:32:25.000",
    "request_status": "Pending",
    "responsible_agency": "Department of Public Works",
    "final_address": "2510 Calhoun St",
    "address_councildis": "A",
    "status": "Pending",
    "rowid": "862080",
    "final_x": "3666192.33972",
    "final_y": "526186.825854",
    "longitude": "-90.11658541370161",
    "latitude": "29.941287081077714",
    "geocoded_column": {
      "latitude": "29.941287081077714",
      "longitude": "-90.11658541370161"
    }
  },
  {
    "service_request": "2022-862079",
    "request_type": "Trash/Recycling",
    "request_reason": "Missed Trash Pick-Up",
    "date_created": "2022-02-18T15:32:15.000",
    "date_modified": "2022-02-18T15:32:16.000",
    "request_status": "Pending",
    "responsible_agency": "Department of Sanitation",
    "final_address": "2530 Palmer Ave",
    "address_councildis": "A",
    "status": "Assigned to Contractor",
    "contractor": "Richards Disposal",
    "rowid": "862079",
    "final_x": "3666507.57914",
    "final_y": "526176.081982",
    "longitude": "-90.11559049956274",
    "latitude": "29.941248330668945",
    "geocoded_column": {
      "latitude": "29.941248330668945",
      "longitude": "-90.11559049956274"
    }
  },
  {
    "service_request": "2022-862078",
    "request_type": "Trash/Recycling",
    "request_reason": "Request a Large Item Pick Up",
    "date_created": "2022-02-18T15:26:43.000",
    "date_modified": "2022-02-18T15:26:44.000",
    "request_status": "Pending",
    "responsible_agency": "Department of Sanitation",
    "final_address": "5600 Macarthur Blvd",
    "address_councildis": "C",
    "status": "Assigned to Contractor",
    "contractor": "Richards Disposal",
    "rowid": "862078",
    "final_x": "3704201.42455",
    "final_y": "519610.672184",
    "longitude": "-89.99682657624919",
    "latitude": "29.922040432242518",
    "geocoded_column": {
      "latitude": "29.922040432242518",
      "longitude": "-89.99682657624919"
    }
  },
  {
    "service_request": "2022-862077",
    "request_type": "Abandoned Vehicles",
    "request_reason": "Abandoned/Junk Vehicles",
    "date_created": "2022-02-18T15:26:11.000",
    "date_modified": "2022-02-18T15:26:11.000",
    "request_status": "Pending",
    "responsible_agency": "Department of Public Works",
    "final_address": "2661 Gravier St",
    "address_councildis": "B",
    "status": "Pending",
    "rowid": "862077",
    "final_x": "3674126.7451",
    "final_y": "533326.828612",
    "longitude": "-90.09129059775364",
    "latitude": "29.96068566801399",
    "geocoded_column": {
      "latitude": "29.96068566801399",
      "longitude": "-90.09129059775364"
    }
  },
  {
    "service_request": "2022-862075",
    "request_type": "Property Maintenance",
    "request_reason": "Property Maintenance",
    "date_created": "2022-02-18T15:24:44.000",
    "date_modified": "2022-02-18T15:24:44.000",
    "request_status": "Pending",
    "responsible_agency": "Department of Code Enforcement",
    "final_address": "1900 BLK N Johnson St",
    "address_councildis": "D",
    "status": "Pending",
    "rowid": "862075",
    "final_x": "3683065.06723",
    "final_y": "539481.116035",
    "longitude": "-90.06284968028763",
    "latitude": "29.97733839621652",
    "geocoded_column": {
      "latitude": "29.97733839621652",
      "longitude": "-90.06284968028763"
    }
  },
  {
    "service_request": "2022-862074",
    "request_type": "Property Maintenance",
    "request_reason": "Property Maintenance",
    "date_created": "2022-02-18T15:24:42.000",
    "date_modified": "2022-02-18T15:24:42.000",
    "request_status": "Pending",
    "responsible_agency": "Department of Code Enforcement",
    "final_address": "200 Roselyn Park Pl",
    "address_councildis": "C",
    "status": "Pending",
    "rowid": "862074",
    "final_x": "3702698.0721",
    "final_y": "523535.037691",
    "longitude": "-90.00142800554907",
    "latitude": "29.932879206173343",
    "geocoded_column": {
      "latitude": "29.932879206173343",
      "longitude": "-90.00142800554907"
    }
  },
  {
    "service_request": "2022-862072",
    "request_type": "Health Related Questions",
    "request_reason": "Noise Ordinance Complaint",
    "date_created": "2022-02-18T15:18:55.000",
    "date_modified": "2022-02-18T15:18:55.000",
    "request_status": "Pending",
    "responsible_agency": "Health Department",
    "final_address": "2301 Dauphine St  in the street",
    "status": "Pending",
    "rowid": "862072",
    "longitude": "0.0",
    "latitude": "0.0",
    "geocoded_column": {
      "latitude": "0.0",
      "longitude": "0.0"
    }
  },
  {
    "service_request": "2022-862071",
    "request_type": "Abandoned Vehicles",
    "request_reason": "Abandoned/Junk Vehicles",
    "date_created": "2022-02-18T15:16:11.000",
    "date_modified": "2022-02-18T15:16:11.000",
    "request_status": "Pending",
    "responsible_agency": "Department of Public Works",
    "final_address": "1819 Esplanade Ave",
    "address_councildis": "D",
    "status": "Pending",
    "rowid": "862071",
    "final_x": "3680626.53787",
    "final_y": "537186.093384",
    "longitude": "-90.07063123727167",
    "latitude": "29.97110199680513",
    "geocoded_column": {
      "latitude": "29.97110199680513",
      "longitude": "-90.07063123727167"
    }
  },
  {
    "service_request": "2022-862070",
    "request_type": "Parks & Parkways",
    "request_reason": "Request Tree Service (Right of Way/Public Property)",
    "date_created": "2022-02-18T15:07:33.000",
    "date_modified": "2022-02-18T15:07:33.000",
    "request_status": "Pending",
    "responsible_agency": "Department of Parks & Parkway",
    "final_address": "513 Arabella St",
    "address_councildis": "A",
    "status": "Pending",
    "rowid": "862070",
    "final_x": "3665662.03885",
    "final_y": "518046.946614",
    "longitude": "-90.11853213980099",
    "latitude": "29.918920463942538",
    "geocoded_column": {
      "latitude": "29.918920463942538",
      "longitude": "-90.11853213980099"
    }
  },
  {
    "service_request": "2022-862069",
    "request_type": "Abandoned Vehicles",
    "request_reason": "Abandoned/Junk Vehicles",
    "date_created": "2022-02-18T15:02:47.000",
    "date_modified": "2022-02-18T15:02:47.000",
    "request_status": "Pending",
    "responsible_agency": "Department of Public Works",
    "final_address": "2661 Gravier St",
    "address_councildis": "B",
    "status": "Pending",
    "rowid": "862069",
    "final_x": "3674126.7451",
    "final_y": "533326.828612",
    "longitude": "-90.09129059775364",
    "latitude": "29.96068566801399",
    "geocoded_column": {
      "latitude": "29.96068566801399",
      "longitude": "-90.09129059775364"
    }
  },
  {
    "service_request": "2022-862068",
    "request_type": "Traffic Signals/Signs/Striping/Streetlights",
    "request_reason": "Street Light Outage/Malfunction",
    "date_created": "2022-02-18T15:01:44.000",
    "date_modified": "2022-02-18T15:01:45.000",
    "request_status": "Pending",
    "responsible_agency": "Department of Public Works",
    "final_address": "5827 Brighton Pl",
    "address_councildis": "C",
    "status": "Pending",
    "contractor": "Royal Engineering",
    "rowid": "862068",
    "final_x": "3705123.11479",
    "final_y": "520053.0462",
    "longitude": "-89.9939008861738",
    "latitude": "29.92322721445709",
    "geocoded_column": {
      "latitude": "29.92322721445709",
      "longitude": "-89.9939008861738"
    }
  },
  {
    "service_request": "2022-862067",
    "request_type": "Safety & Permits",
    "request_reason": "Licenses & Permits",
    "date_created": "2022-02-18T14:57:00.000",
    "date_modified": "2022-02-18T14:57:00.000",
    "request_status": "Pending",
    "responsible_agency": "Safety and Permits",
    "final_address": "4113 Carondelet St",
    "address_councildis": "B",
    "status": "Pending",
    "rowid": "862067",
    "final_x": "3671768.13166",
    "final_y": "521379.821049",
    "longitude": "-90.0991450054662",
    "latitude": "29.927905390220314",
    "geocoded_column": {
      "latitude": "29.927905390220314",
      "longitude": "-90.0991450054662"
    }
  },
  {
    "service_request": "2022-862066",
    "request_type": "Roads/Drainage",
    "request_reason": "Catch Basin - Broken/Damage",
    "date_created": "2022-02-18T14:55:17.000",
    "date_modified": "2022-02-18T14:55:17.000",
    "request_status": "Pending",
    "responsible_agency": "Department of Public Works",
    "final_address": "1201 Calhoun St",
    "address_councildis": "A",
    "status": "Pending",
    "rowid": "862066",
    "final_x": "3664061.2505",
    "final_y": "521005.796985",
    "longitude": "-90.1234864109245",
    "latitude": "29.92710294545106",
    "geocoded_column": {
      "latitude": "29.92710294545106",
      "longitude": "-90.1234864109245"
    }
  },
  {
    "service_request": "2022-862065",
    "request_type": "Trash/Recycling",
    "request_reason": "Repair Recycling Cart",
    "date_created": "2022-02-18T14:55:01.000",
    "date_modified": "2022-02-18T14:55:01.000",
    "request_status": "Pending",
    "responsible_agency": "Department of Sanitation",
    "final_address": "6391 Eastover Dr",
    "address_councildis": "E",
    "status": "Pending",
    "rowid": "862065",
    "final_x": "3718334.99129",
    "final_y": "563527.49296",
    "longitude": "-89.95054044349781",
    "latitude": "30.042334042378123",
    "geocoded_column": {
      "latitude": "30.042334042378123",
      "longitude": "-89.95054044349781"
    }
  },
  {
    "service_request": "2022-862064",
    "request_type": "Trash/Recycling",
    "request_reason": "Request a Large Item Pick Up",
    "date_created": "2022-02-18T14:54:35.000",
    "date_modified": "2022-02-18T14:54:36.000",
    "request_status": "Pending",
    "responsible_agency": "Department of Sanitation",
    "final_address": "3550 Rue Delphine, New Orleans, Louisiana, 70131",
    "address_councildis": "C",
    "status": "Assigned to Contractor",
    "contractor": "Richards Disposal",
    "rowid": "862064",
    "final_x": "3703099.76177",
    "final_y": "517524.10687",
    "longitude": "-90.0003806583224",
    "latitude": "29.916338382649183",
    "geocoded_column": {
      "latitude": "29.916338382649183",
      "longitude": "-90.0003806583224"
    }
  },
  {
    "service_request": "2022-862063",
    "request_type": "Trash/Recycling",
    "request_reason": "Illegal Dumping",
    "date_created": "2022-02-18T14:53:40.000",
    "date_modified": "2022-02-18T14:53:40.000",
    "request_status": "Pending",
    "responsible_agency": "Department of Sanitation",
    "final_address": "1211 France St",
    "address_councildis": "D",
    "status": "Pending",
    "rowid": "862063",
    "final_x": "3692549.57296",
    "final_y": "535620.402822",
    "longitude": "-90.03303296307601",
    "latitude": "29.966430236367017",
    "geocoded_column": {
      "latitude": "29.966430236367017",
      "longitude": "-90.03303296307601"
    }
  },
  {
    "service_request": "2022-862062",
    "request_type": "Trash/Recycling",
    "request_reason": "Replace Trash Cart",
    "date_created": "2022-02-18T14:52:46.000",
    "date_modified": "2022-02-18T14:52:47.000",
    "request_status": "Pending",
    "responsible_agency": "Department of Sanitation",
    "final_address": "220 Cherokee St",
    "address_councildis": "A",
    "status": "Assigned to Contractor",
    "contractor": "Richards Disposal",
    "rowid": "862062",
    "final_x": "3661083.46458",
    "final_y": "524302.835964",
    "longitude": "-90.13277751330457",
    "latitude": "29.936254886227",
    "geocoded_column": {
      "latitude": "29.936254886227",
      "longitude": "-90.13277751330457"
    }
  },
  {
    "service_request": "2022-862061",
    "request_type": "Property Maintenance",
    "request_reason": "Property Maintenance",
    "date_created": "2022-02-18T14:52:03.000",
    "date_modified": "2022-02-18T14:52:03.000",
    "request_status": "Pending",
    "responsible_agency": "Department of Code Enforcement",
    "final_address": "3417 S Liberty St",
    "address_councildis": "B",
    "status": "Pending",
    "rowid": "862061",
    "final_x": "3673032.99528",
    "final_y": "523788.320059",
    "longitude": "-90.09506995481556",
    "latitude": "29.934490462685165",
    "geocoded_column": {
      "latitude": "29.934490462685165",
      "longitude": "-90.09506995481556"
    }
  },
  {
    "service_request": "2022-862060",
    "request_type": "Trash/Recycling",
    "request_reason": "Illegal Dumping",
    "date_created": "2022-02-18T14:51:04.000",
    "date_modified": "2022-02-18T14:51:04.000",
    "request_status": "Pending",
    "responsible_agency": "Department of Sanitation",
    "final_address": "2252 N Galvez St",
    "address_councildis": "D",
    "status": "Pending",
    "rowid": "862060",
    "final_x": "3685236.39049",
    "final_y": "539996.984075",
    "longitude": "-90.05597377205928",
    "latitude": "29.97869047519888",
    "geocoded_column": {
      "latitude": "29.97869047519888",
      "longitude": "-90.05597377205928"
    }
  },
  {
    "service_request": "2022-862059",
    "request_type": "Property Maintenance",
    "request_reason": "Property Maintenance",
    "date_created": "2022-02-18T14:49:55.000",
    "date_modified": "2022-02-18T14:49:55.000",
    "request_status": "Pending",
    "responsible_agency": "Department of Code Enforcement",
    "final_address": "2456 N Rampart St",
    "address_councildis": "C",
    "status": "Pending",
    "rowid": "862059",
    "final_x": "3686296.61404",
    "final_y": "536015.361159",
    "longitude": "-90.05276573736514",
    "latitude": "29.967709864726412",
    "geocoded_column": {
      "latitude": "29.967709864726412",
      "longitude": "-90.05276573736514"
    }
  },
  {
    "service_request": "2022-862058",
    "request_type": "Trash/Recycling",
    "request_reason": "Request a Large Item Pick Up",
    "date_created": "2022-02-18T14:49:41.000",
    "date_modified": "2022-02-18T14:49:42.000",
    "request_status": "Pending",
    "responsible_agency": "Department of Sanitation",
    "final_address": "3416 S Liberty St",
    "address_councildis": "B",
    "status": "Assigned to Contractor",
    "contractor": "Richards Disposal",
    "rowid": "862058",
    "final_x": "3673042.92123",
    "final_y": "523724.144187",
    "longitude": "-90.0950408082643",
    "latitude": "29.934313704892734",
    "geocoded_column": {
      "latitude": "29.934313704892734",
      "longitude": "-90.0950408082643"
    }
  },
  {
    "service_request": "2022-862057",
    "request_type": "Trash/Recycling",
    "request_reason": "Request a Large Item Pick Up",
    "date_created": "2022-02-18T14:48:44.000",
    "date_modified": "2022-02-18T14:48:45.000",
    "request_status": "Pending",
    "responsible_agency": "Department of Sanitation",
    "final_address": "4536 S Miro St",
    "address_councildis": "B",
    "status": "Assigned to Contractor",
    "contractor": "Richards Disposal",
    "rowid": "862057",
    "final_x": "3669469.61441",
    "final_y": "527715.523199",
    "longitude": "-90.10618671485473",
    "latitude": "29.94539440498541",
    "geocoded_column": {
      "latitude": "29.94539440498541",
      "longitude": "-90.10618671485473"
    }
  },
  {
    "service_request": "2022-862056",
    "request_type": "Roads/Drainage",
    "request_reason": "Pothole",
    "date_created": "2022-02-18T14:48:40.000",
    "date_modified": "2022-02-18T14:48:40.000",
    "request_status": "Pending",
    "responsible_agency": "Department of Public Works",
    "final_address": "1469 Calhoun St",
    "address_councildis": "A",
    "status": "Pending",
    "rowid": "862056",
    "final_x": "3664517.47636",
    "final_y": "522124.241786",
    "longitude": "-90.1220088932127",
    "latitude": "29.930165062765358",
    "geocoded_column": {
      "latitude": "29.930165062765358",
      "longitude": "-90.1220088932127"
    }
  },
  {
    "service_request": "2022-862055",
    "request_type": "Trash/Recycling",
    "request_reason": "Illegal Dumping",
    "date_created": "2022-02-18T14:47:27.000",
    "date_modified": "2022-02-18T14:47:27.000",
    "request_status": "Pending",
    "responsible_agency": "Department of Sanitation",
    "final_address": "2101 St Anthony St",
    "address_councildis": "D",
    "status": "Pending",
    "rowid": "862055",
    "final_x": "3683299.71234",
    "final_y": "539919.536586",
    "longitude": "-90.0620932321007",
    "latitude": "29.97853674370028",
    "geocoded_column": {
      "latitude": "29.97853674370028",
      "longitude": "-90.0620932321007"
    }
  },
  {
    "service_request": "2022-862054",
    "request_type": "Trash/Recycling",
    "request_reason": "MIssed Recycling Pick-Up",
    "date_created": "2022-02-18T14:44:28.000",
    "date_modified": "2022-02-18T14:44:30.000",
    "request_status": "Pending",
    "responsible_agency": "Department of Sanitation",
    "final_address": "2412 S Saratoga St",
    "address_councildis": "B",
    "status": "Assigned to Contractor",
    "contractor": "Richards Disposal",
    "rowid": "862054",
    "final_x": "3675879.20225",
    "final_y": "524608.144956",
    "longitude": "-90.08605636752623",
    "latitude": "29.936659832396415",
    "geocoded_column": {
      "latitude": "29.936659832396415",
      "longitude": "-90.08605636752623"
    }
  },
  {
    "service_request": "2022-862052",
    "request_type": "Traffic Signals/Signs/Striping/Streetlights",
    "request_reason": "Street Light Outage/Malfunction",
    "date_created": "2022-02-18T14:39:55.000",
    "date_modified": "2022-02-18T14:39:56.000",
    "request_status": "Pending",
    "responsible_agency": "Department of Public Works",
    "final_address": "1017 Robert E Lee Blvd",
    "address_councildis": "D",
    "status": "Pending",
    "contractor": "Royal Engineering",
    "rowid": "862052",
    "final_x": "3672830.88526",
    "final_y": "554482.413848",
    "longitude": "-90.094660501015",
    "latitude": "30.018894774370303",
    "geocoded_column": {
      "latitude": "30.018894774370303",
      "longitude": "-90.094660501015"
    }
  },
  {
    "service_request": "2022-862051",
    "request_type": "Roads/Drainage",
    "request_reason": "Pothole",
    "date_created": "2022-02-18T14:36:53.000",
    "date_modified": "2022-02-18T14:37:35.000",
    "request_status": "Pending",
    "responsible_agency": "Department of Public Works",
    "final_address": "3917 N Roman St",
    "address_councildis": "D",
    "status": "Pending",
    "rowid": "862051",
    "final_x": "3692306.33558",
    "final_y": "538008.715657",
    "longitude": "-90.03371555565288",
    "latitude": "29.97300483922761",
    "geocoded_column": {
      "latitude": "29.97300483922761",
      "longitude": "-90.03371555565288"
    }
  },
  {
    "service_request": "2022-862050",
    "request_type": "Abandoned Vehicles",
    "request_reason": "Abandoned/Junk Vehicles",
    "date_created": "2022-02-18T14:31:34.000",
    "date_modified": "2022-02-18T14:31:34.000",
    "request_status": "Pending",
    "responsible_agency": "Department of Public Works",
    "final_address": "7501 Branch Dr",
    "address_councildis": "E",
    "status": "Pending",
    "rowid": "862050",
    "final_x": "3715257.28991",
    "final_y": "568096.032485",
    "longitude": "-89.9600940320064",
    "latitude": "30.054997427956625",
    "geocoded_column": {
      "latitude": "30.054997427956625",
      "longitude": "-89.9600940320064"
    }
  },
  {
    "service_request": "2022-862048",
    "request_type": "Trash/Recycling",
    "request_reason": "Replace Trash Cart",
    "date_created": "2022-02-18T14:21:08.000",
    "date_modified": "2022-02-18T14:21:09.000",
    "request_status": "Pending",
    "responsible_agency": "Department of Sanitation",
    "final_address": "744 Seventh St",
    "address_councildis": "B",
    "status": "Assigned to Contractor",
    "contractor": "Richards Disposal",
    "rowid": "862048",
    "final_x": "3676966.07016",
    "final_y": "519405.504887",
    "longitude": "-90.0828043314808",
    "latitude": "29.922321690690197",
    "geocoded_column": {
      "latitude": "29.922321690690197",
      "longitude": "-90.0828043314808"
    }
  },
  {
    "service_request": "2022-862047",
    "request_type": "Trash/Recycling",
    "request_reason": "Replace Trash Cart",
    "date_created": "2022-02-18T14:17:22.000",
    "date_modified": "2022-02-18T14:17:23.000",
    "request_status": "Pending",
    "responsible_agency": "Department of Sanitation",
    "final_address": "5819 S Galvez St",
    "address_councildis": "A",
    "status": "Assigned to Contractor",
    "contractor": "Richards Disposal",
    "rowid": "862047",
    "final_x": "3667708.89178",
    "final_y": "527603.205439",
    "longitude": "-90.11174967989895",
    "latitude": "29.945137299480255",
    "geocoded_column": {
      "latitude": "29.945137299480255",
      "longitude": "-90.11174967989895"
    }
  },
  {
    "service_request": "2022-862046",
    "request_type": "Roads/Drainage",
    "request_reason": "Pothole",
    "date_created": "2022-02-18T14:13:59.000",
    "date_modified": "2022-02-18T14:14:00.000",
    "request_status": "Pending",
    "responsible_agency": "Department of Public Works",
    "final_address": "3231 Pauger St",
    "address_councildis": "D",
    "status": "Pending",
    "rowid": "862046",
    "final_x": "3683474.41705",
    "final_y": "541634.832908",
    "longitude": "-90.06148131766462",
    "latitude": "29.98324787630903",
    "geocoded_column": {
      "latitude": "29.98324787630903",
      "longitude": "-90.06148131766462"
    }
  },