[
  {
    "service_request": "2024-1091667",
    "request_type": "Trash/Recycling",
    "request_reason": "Repair Trash Cart",
    "date_created": "2024-05-08T23:55:29.000",
    "date_modified": "2024-05-08T23:55:30.000",
    "request_status": "Pending",
    "responsible_agency": "Department of Sanitation",
    "final_address": "2206 Ursulines Ave",
    "address_councildis": "D",
    "status": "Assigned to Contractor",
    "contractor": "IV Waste",
    "rowid": "1091667",
    "final_x": "3679167.87272",
    "final_y": "536880.164936",
    "longitude": "-90.07524850507848",
    "latitude": "29.970304916736975",
    "geocoded_column": {
      "latitude": "29.970304916736975",
      "longitude": "-90.07524850507848"
    }
  },
  {
    "service_request": "2024-1091666",
    "request_type": "Health Related Request",
    "request_reason": "Noise Ordinance Complaint",
    "date_created": "2024-05-08T23:47:23.000",
    "date_modified": "2024-05-08T23:47:23.000",
    "request_status": "Pending",
    "responsible_agency": "Health Department",
    "final_address": "315 Decatur St, New Orleans, Louisiana, 70130",
    "address_councildis": "C",
    "status": "Pending",
    "rowid": "1091666",
    "final_x": "3682332.13967",
    "final_y": "530970.484162",
    "longitude": "-90.06546192627788",
    "latitude": "29.953959408807965",
    "geocoded_column": {
      "latitude": "29.953959408807965",
      "longitude": "-90.06546192627788"
    }
  },
  {
    "service_request": "2024-1091665",
    "request_type": "Trash/Recycling",
    "request_reason": "Replace Recycling Cart",
    "date_created": "2024-05-08T23:29:26.000",
    "date_modified": "2024-05-08T23:29:26.000",
    "request_status": "Pending",
    "responsible_agency": "Department of Sanitation",
    "final_address": "1025 Desire St",
    "address_councildis": "C",
    "status": "Pending",
    "rowid": "1091665",
    "final_x": "3690160.81033",
    "final_y": "535471.795334",
    "longitude": "-90.04058191118158",
    "latitude": "29.966095938467845",
    "geocoded_column": {
      "latitude": "29.966095938467845",
      "longitude": "-90.04058191118158"
    }
  },
  {
    "service_request": "2024-1091664",
    "request_type": "Trash/Recycling",
    "request_reason": "Repair Trash Cart",
    "date_created": "2024-05-08T23:27:06.000",
    "date_modified": "2024-05-08T23:27:06.000",
    "request_status": "Pending",
    "responsible_agency": "Department of Sanitation",
    "final_address": "1025 Desire St",
    "address_councildis": "C",
    "status": "Assigned to Contractor",
    "contractor": "IV Waste",
    "rowid": "1091664",
    "final_x": "3690160.81033",
    "final_y": "535471.795334",
    "longitude": "-90.04058191118158",
    "latitude": "29.966095938467845",
    "geocoded_column": {
      "latitude": "29.966095938467845",
      "longitude": "-90.04058191118158"
    }
  },
  {
    "service_request": "2024-1091663",
    "request_type": "Trash/Recycling",
    "request_reason": "Repair Recycling Cart",
    "date_created": "2024-05-08T23:24:50.000",
    "date_modified": "2024-05-08T23:24:50.000",
    "request_status": "Pending",
    "responsible_agency": "Department of Sanitation",
    "final_address": "5 Monplaiser Pl",
    "address_councildis": "C",
    "status": "Pending",
    "rowid": "1091663",
    "final_x": "3689160.89161",
    "final_y": "530464.090434",
    "longitude": "-90.04391757757917",
    "latitude": "29.95235746922773",
    "geocoded_column": {
      "latitude": "29.95235746922773",
      "longitude": "-90.04391757757917"
    }
  },
  {
    "service_request": "2024-1091662",
    "request_type": "Trash/Recycling",
    "request_reason": "Repair Trash Cart",
    "date_created": "2024-05-08T23:23:18.000",
    "date_modified": "2024-05-08T23:23:19.000",
    "request_status": "Pending",
    "responsible_agency": "Department of Sanitation",
    "final_address": "5 Monplaiser Pl",
    "address_councildis": "C",
    "status": "Assigned to Contractor",
    "contractor": "Richards Disposal",
    "rowid": "1091662",
    "final_x": "3689160.89161",
    "final_y": "530464.090434",
    "longitude": "-90.04391757757917",
    "latitude": "29.95235746922773",
    "geocoded_column": {
      "latitude": "29.95235746922773",
      "longitude": "-90.04391757757917"
    }
  },
  {
    "service_request": "2024-1091661",
    "request_type": "Traffic Signals/Signs/Striping/Streetlights",
    "request_reason": "Street Light Outage/Malfunction",
    "date_created": "2024-05-08T23:13:23.000",
    "date_modified": "2024-05-08T23:13:23.000",
    "request_status": "Pending",
    "responsible_agency": "Department of Public Works",
    "final_address": "1830 Mardi Gras Blvd",
    "address_councildis": "C",
    "status": "Assigned to Contractor",
    "contractor": "Legacy Professional Services",
    "rowid": "1091661",
    "final_x": "3690946.82428",
    "final_y": "525347.245373",
    "longitude": "-90.03846102299066",
    "latitude": "29.938232520342563",
    "geocoded_column": {
      "latitude": "29.938232520342563",
      "longitude": "-90.03846102299066"
    }
  },
  {
    "service_request": "2024-1091660",
    "request_type": "Trash/Recycling",
    "request_reason": "Request a Large Item Pick Up",
    "date_created": "2024-05-08T23:01:49.000",
    "date_modified": "2024-05-08T23:01:50.000",
    "request_status": "Pending",
    "responsible_agency": "Department of Sanitation",
    "final_address": "4620 Lennox Blvd",
    "address_councildis": "C",
    "status": "Assigned to Contractor",
    "contractor": "Richards Disposal",
    "rowid": "1091660",
    "final_x": "3700852.62589",
    "final_y": "513666.958706",
    "longitude": "-90.00761433269719",
    "latitude": "29.905804222118054",
    "geocoded_column": {
      "latitude": "29.905804222118054",
      "longitude": "-90.00761433269719"
    }
  },
  {
    "service_request": "2024-1091659",
    "request_type": "Property Maintenance",
    "request_reason": "Property Maintenance",
    "date_created": "2024-05-08T22:30:51.000",
    "date_modified": "2024-05-08T22:30:51.000",
    "request_status": "Pending",
    "responsible_agency": "Department of Code Enforcement",
    "final_address": "2938 Ursulines Ave",
    "address_councildis": "A",
    "status": "Pending",
    "rowid": "1091659",
    "final_x": "3676527.46056",
    "final_y": "538901.495882",
    "longitude": "-90.08351759158572",
    "latitude": "29.97594233594543",
    "geocoded_column": {
      "latitude": "29.97594233594543",
      "longitude": "-90.08351759158572"
    }
  },
  {
    "service_request": "2024-1091658",
    "request_type": "Safety & Permits",
    "request_reason": "Construction permit",
    "date_created": "2024-05-08T22:28:44.000",
    "date_modified": "2024-05-08T22:28:44.000",
    "request_status": "Pending",
    "responsible_agency": "Department of Code Enforcement",
    "final_address": "2938 Ursulines Ave",
    "address_councildis": "A",
    "status": "Pending",
    "rowid": "1091658",
    "final_x": "3676527.46056",
    "final_y": "538901.495882",
    "longitude": "-90.08351759158572",
    "latitude": "29.97594233594543",
    "geocoded_column": {
      "latitude": "29.97594233594543",
      "longitude": "-90.08351759158572"
    }
  },
  {
    "service_request": "2024-1091657",
    "request_type": "Traffic Signals/Signs/Striping/Streetlights",
    "request_reason": "Street Light Outage/Malfunction",
    "date_created": "2024-05-08T22:18:32.000",
    "date_modified": "2024-05-08T22:18:33.000",
    "request_status": "Pending",
    "responsible_agency": "Department of Public Works",
    "final_address": "331 Fairway Dr",
    "address_councildis": "A",
    "status": "Assigned to Contractor",
    "contractor": "Legacy Professional Services",
    "rowid": "1091657",
    "final_x": "3664313.95719",
    "final_y": "541862.683532",
    "longitude": "-90.12199264231886",
    "latitude": "29.984445260994764",
    "geocoded_column": {
      "latitude": "29.984445260994764",
      "longitude": "-90.12199264231886"
    }
  },
  {
    "service_request": "2024-1091656",
    "request_type": "Property Maintenance",
    "request_reason": "Property Maintenance",
    "date_created": "2024-05-08T22:07:08.000",
    "date_modified": "2024-05-08T22:07:08.000",
    "request_status": "Pending",
    "responsible_agency": "Department of Code Enforcement",
    "final_address": "1201 Kentucky St",
    "address_councildis": "D",
    "status": "Pending",
    "rowid": "1091656",
    "final_x": "3693451.99561",
    "final_y": "535301.960518",
    "longitude": "-90.03019457441668",
    "latitude": "29.965526443296298",
    "geocoded_column": {
      "latitude": "29.965526443296298",
      "longitude": "-90.03019457441668"
    }
  },
  {
    "service_request": "2024-1091655",
    "request_type": "Abandoned Vehicles",
    "request_reason": "Vehicle Blocking Your Driveway",
    "date_created": "2024-05-08T21:54:49.000",
    "date_modified": "2024-05-08T21:54:49.000",
    "request_status": "Pending",
    "responsible_agency": "Department of Public Works",
    "final_address": "2107 Annunciation St",
    "address_councildis": "B",
    "status": "Pending",
    "rowid": "1091655",
    "final_x": "3679758.14146",
    "final_y": "521431.067449",
    "longitude": "-90.073920630889",
    "latitude": "29.927807244285876",
    "geocoded_column": {
      "latitude": "29.927807244285876",
      "longitude": "-90.073920630889"
    }
  },
  {
    "service_request": "2024-1091654",
    "request_type": "Trash/Recycling",
    "request_reason": "Missed Trash Pick-Up",
    "date_created": "2024-05-08T21:52:28.000",
    "date_modified": "2024-05-08T21:52:29.000",
    "request_status": "Pending",
    "responsible_agency": "Department of Sanitation",
    "final_address": "4682 Evangeline Dr",
    "address_councildis": "E",
    "status": "Assigned to Contractor",
    "contractor": "Waste Pro",
    "rowid": "1091654",
    "final_x": "3709072.51064",
    "final_y": "555425.061657",
    "longitude": "-89.9801156322122",
    "latitude": "30.02035964943668",
    "geocoded_column": {
      "latitude": "30.02035964943668",
      "longitude": "-89.9801156322122"
    }
  },
  {
    "service_request": "2024-1091653",
    "request_type": "Traffic Signals/Signs/Striping/Streetlights",
    "request_reason": "Street Light Knocked Down/Leaning",
    "date_created": "2024-05-08T21:48:58.000",
    "date_modified": "2024-05-08T21:48:58.000",
    "request_status": "Pending",
    "responsible_agency": "Department of Public Works",
    "final_address": "IBERVILLE ST & MARAIS ST",
    "address_councildis": "C",
    "status": "Pending",
    "contractor": "Legacy Professional Services",
    "rowid": "1091653",
    "final_x": "3679454.8",
    "final_y": "532533.08",
    "longitude": "-90.07449318203658",
    "latitude": "29.958343249143503",
    "geocoded_column": {
      "latitude": "29.958343249143503",
      "longitude": "-90.07449318203658"
    }
  },
  {
    "service_request": "2024-1091652",
    "request_type": "Trash/Recycling",
    "request_reason": "Request a Large Item Pick Up",
    "date_created": "2024-05-08T21:28:07.000",
    "date_modified": "2024-05-08T21:28:08.000",
    "request_status": "Pending",
    "responsible_agency": "Department of Sanitation",
    "final_address": "2515 N Rampart St",
    "address_councildis": "C",
    "status": "Assigned to Contractor",
    "contractor": "IV Waste",
    "rowid": "1091652",
    "final_x": "3686650.49602",
    "final_y": "536102.920263",
    "longitude": "-90.05164507830017",
    "latitude": "29.967939742381322",
    "geocoded_column": {
      "latitude": "29.967939742381322",
      "longitude": "-90.05164507830017"
    }
  },
  {
    "service_request": "2024-1091651",
    "request_type": "Abandoned Vehicles",
    "request_reason": "Abandoned/Junk Vehicles",
    "date_created": "2024-05-08T21:14:29.000",
    "date_modified": "2024-05-08T21:14:29.000",
    "request_status": "Pending",
    "responsible_agency": "Department of Public Works",
    "final_address": "9300 BLK Edinburgh St",
    "address_councildis": "A",
    "status": "Pending",
    "rowid": "1091651",
    "final_x": "3664200.39105",
    "final_y": "537422.29535",
    "longitude": "-90.12249955658665",
    "latitude": "29.972238976799563",
    "geocoded_column": {
      "latitude": "29.972238976799563",
      "longitude": "-90.12249955658665"
    }
  },
  {
    "service_request": "2024-1091650",
    "request_type": "Roads/Drainage",
    "request_reason": "Pothole",
    "date_created": "2024-05-08T21:14:04.000",
    "date_modified": "2024-05-08T21:14:04.000",
    "request_status": "Pending",
    "responsible_agency": "Department of Public Works",
    "final_address": "SYCAMORE ST & FERN ST",
    "address_councildis": "A",
    "status": "Pending",
    "rowid": "1091650",
    "final_x": "3664900.9",
    "final_y": "530445.78",
    "longitude": "-90.12052042940522",
    "latitude": "29.953035476840334",
    "geocoded_column": {
      "latitude": "29.953035476840334",
      "longitude": "-90.12052042940522"
    }
  },
  {
    "service_request": "2024-1091649",
    "request_type": "Trash/Recycling",
    "request_reason": "Replace Recycling Cart",
    "date_created": "2024-05-08T21:10:00.000",
    "date_modified": "2024-05-08T21:10:00.000",
    "request_status": "Pending",
    "responsible_agency": "Department of Sanitation",
    "final_address": "2030 Fern St",
    "address_councildis": "A",
    "status": "Pending",
    "rowid": "1091649",
    "final_x": "3664572.79072",
    "final_y": "530137.495361",
    "longitude": "-90.12156675367952",
    "latitude": "29.95219733915586",
    "geocoded_column": {
      "latitude": "29.95219733915586",
      "longitude": "-90.12156675367952"
    }
  },
  {
    "service_request": "2024-1091648",
    "request_type": "Roads/Drainage",
    "request_reason": "Catch Basin - Clogged",
    "date_created": "2024-05-08T20:55:59.000",
    "date_modified": "2024-05-08T20:55:59.000",
    "request_status": "Pending",
    "responsible_agency": "Department of Public Works",
    "final_address": "2850 Coliseum St",
    "address_councildis": "B",
    "status": "Pending",
    "rowid": "1091648",
    "final_x": "3676143.12808",
    "final_y": "521431.072889",
    "longitude": "-90.08533238553449",
    "latitude": "29.927916017654866",
    "geocoded_column": {
      "latitude": "29.927916017654866",
      "longitude": "-90.08533238553449"
    }
  },
  {
    "service_request": "2024-1091647",
    "request_type": "Roads/Drainage",
    "request_reason": "Catch Basin - Clogged",
    "date_created": "2024-05-08T20:53:55.000",
    "date_modified": "2024-05-08T20:53:56.000",
    "request_status": "Pending",
    "responsible_agency": "Department of Public Works",
    "final_address": "4217 General Ogden St",
    "address_councildis": "A",
    "status": "Pending",
    "rowid": "1091647",
    "final_x": "538238.959689",
    "final_y": "538238.959689",
    "longitude": "-99.97966596554397",
    "latitude": "29.695385950278247",
    "geocoded_column": {
      "latitude": "29.695385950278247",
      "longitude": "-99.97966596554397"
    }
  },
  {
    "service_request": "2024-1091645",
    "request_type": "Trash/Recycling",
    "request_reason": "Replace Trash Cart",
    "date_created": "2024-05-08T20:48:17.000",
    "date_modified": "2024-05-08T20:48:18.000",
    "request_status": "Pending",
    "responsible_agency": "Department of Sanitation",
    "final_address": "803 Pine St",
    "address_councildis": "A",
    "status": "Assigned to Contractor",
    "contractor": "IV Waste",
    "rowid": "1091645",
    "final_x": "3663193.33811",
    "final_y": "525512.342205",
    "longitude": "-90.12607631388748",
    "latitude": "29.939519690828067",
    "geocoded_column": {
      "latitude": "29.939519690828067",
      "longitude": "-90.12607631388748"
    }
  },
  {
    "service_request": "2024-1091644",
    "request_type": "Property Maintenance",
    "request_reason": "Property Maintenance",
    "date_created": "2024-05-08T20:39:22.000",
    "date_modified": "2024-05-08T20:39:22.000",
    "request_status": "Pending",
    "responsible_agency": "Department of Code Enforcement",
    "final_address": "3425 Cleveland Ave",
    "address_councildis": "B",
    "status": "Pending",
    "rowid": "1091644",
    "final_x": "3672680.69486",
    "final_y": "536652.150151",
    "longitude": "-90.09574353475398",
    "latitude": "29.96987220688831",
    "geocoded_column": {
      "latitude": "29.96987220688831",
      "longitude": "-90.09574353475398"
    }
  },
  {
    "service_request": "2024-1091643",
    "request_type": "Trash/Recycling",
    "request_reason": "Order Trash Cart",
    "date_created": "2024-05-08T20:32:53.000",
    "date_modified": "2024-05-08T20:32:53.000",
    "request_status": "Pending",
    "responsible_agency": "Department of Sanitation",
    "final_address": "1905 N Robertson St",
    "address_councildis": "C",
    "status": "Assigned to Contractor",
    "contractor": "IV Waste",
    "rowid": "1091643",
    "final_x": "3683820.91541",
    "final_y": "537724.051912",
    "longitude": "-90.06052410781994",
    "latitude": "29.972484016810295",
    "geocoded_column": {
      "latitude": "29.972484016810295",
      "longitude": "-90.06052410781994"
    }
  },
  {
    "service_request": "2024-1091642",
    "request_type": "Trash/Recycling",
    "request_reason": "Order Trash Cart",
    "date_created": "2024-05-08T20:32:18.000",
    "date_modified": "2024-05-08T20:32:19.000",
    "request_status": "Pending",
    "responsible_agency": "Department of Sanitation",
    "final_address": "1923 N Robertson St",
    "address_councildis": "C",
    "status": "Assigned to Contractor",
    "contractor": "IV Waste",
    "rowid": "1091642",
    "final_x": "3683950.91349",
    "final_y": "537734.56916",
    "longitude": "-90.06011318232117",
    "latitude": "29.972508964361165",
    "geocoded_column": {
      "latitude": "29.972508964361165",
      "longitude": "-90.06011318232117"
    }
  },
  {
    "service_request": "2024-1091641",
    "request_type": "Trash/Recycling",
    "request_reason": "Order Trash Cart",
    "date_created": "2024-05-08T20:31:35.000",
    "date_modified": "2024-05-08T20:31:36.000",
    "request_status": "Pending",
    "responsible_agency": "Department of Sanitation",
    "final_address": "1921 N Robertson St",
    "address_councildis": "C",
    "status": "Assigned to Contractor",
    "contractor": "IV Waste",
    "rowid": "1091641",
    "final_x": "3683940.49685",
    "final_y": "537733.320392",
    "longitude": "-90.0601461237017",
    "latitude": "29.972505848941648",
    "geocoded_column": {
      "latitude": "29.972505848941648",
      "longitude": "-90.0601461237017"
    }
  },
  {
    "service_request": "2024-1091640",
    "request_type": "Trash/Recycling",
    "request_reason": "Order Trash Cart",
    "date_created": "2024-05-08T20:30:17.000",
    "date_modified": "2024-05-08T20:30:18.000",
    "request_status": "Pending",
    "responsible_agency": "Department of Sanitation",
    "final_address": "1909 N Robertson St",
    "address_councildis": "C",
    "status": "Assigned to Contractor",
    "contractor": "IV Waste",
    "rowid": "1091640",
    "final_x": "3683855.63765",
    "final_y": "537727.176904",
    "longitude": "-90.06041433933909",
    "latitude": "29.972491548870863",
    "geocoded_column": {
      "latitude": "29.972491548870863",
      "longitude": "-90.06041433933909"
    }
  },
  {
    "service_request": "2024-1091639",
    "request_type": "Trash/Recycling",
    "request_reason": "Order Trash Cart",
    "date_created": "2024-05-08T20:29:37.000",
    "date_modified": "2024-05-08T20:29:38.000",
    "request_status": "Pending",
    "responsible_agency": "Department of Sanitation",
    "final_address": "1905 N Robertson St",
    "address_councildis": "C",
    "status": "Assigned to Contractor",
    "contractor": "IV Waste",
    "rowid": "1091639",
    "final_x": "3683820.91541",
    "final_y": "537724.051912",
    "longitude": "-90.06052410781994",
    "latitude": "29.972484016810295",
    "geocoded_column": {
      "latitude": "29.972484016810295",
      "longitude": "-90.06052410781994"
    }
  },
  {
    "service_request": "2024-1091638",
    "request_type": "Trash/Recycling",
    "request_reason": "Order Trash Cart",
    "date_created": "2024-05-08T20:28:37.000",
    "date_modified": "2024-05-08T20:28:37.000",
    "request_status": "Pending",
    "responsible_agency": "Department of Sanitation",
    "final_address": "1901 N Robertson St",
    "address_councildis": "C",
    "status": "Assigned to Contractor",
    "contractor": "IV Waste",
    "rowid": "1091638",
    "final_x": "3683792.44322",
    "final_y": "537721.621384",
    "longitude": "-90.0606141131849",
    "latitude": "29.972478203309944",
    "geocoded_column": {
      "latitude": "29.972478203309944",
      "longitude": "-90.0606141131849"
    }
  },
  {
    "service_request": "2024-1091637",
    "request_type": "Trash/Recycling",
    "request_reason": "MIssed Recycling Pick-Up",
    "date_created": "2024-05-08T19:51:13.000",
    "date_modified": "2024-05-08T19:51:13.000",
    "request_status": "Pending",
    "responsible_agency": "Department of Sanitation",
    "final_address": "100 Pinehurst Ct",
    "address_councildis": "E",
    "status": "Assigned to Contractor",
    "contractor": "Waste Pro",
    "rowid": "1091637",
    "final_x": "3720011.82521",
    "final_y": "564647.877857",
    "longitude": "-89.94519816762362",
    "latitude": "30.04535889381705",
    "geocoded_column": {
      "latitude": "30.04535889381705",
      "longitude": "-89.94519816762362"
    }
  },
  {
    "service_request": "2024-1091636",
    "request_type": "Parks & Parkways",
    "request_reason": "Request Tree Service (Right of Way/Public Property)",
    "date_created": "2024-05-08T19:46:25.000",
    "date_modified": "2024-05-08T19:46:25.000",
    "request_status": "Pending",
    "responsible_agency": "Department of Parks & Parkway",
    "final_address": "3232 Napoleon Ave",
    "address_councildis": "B",
    "status": "Pending",
    "rowid": "1091636",
    "final_x": "3670119.91137",
    "final_y": "526835.195134",
    "longitude": "-90.10416332960266",
    "latitude": "29.942954623441906",
    "geocoded_column": {
      "latitude": "29.942954623441906",
      "longitude": "-90.10416332960266"
    }
  },
  {
    "service_request": "2024-1091635",
    "request_type": "Trash/Recycling",
    "request_reason": "Replace Trash Cart",
    "date_created": "2024-05-08T19:32:03.000",
    "date_modified": "2024-05-08T19:32:04.000",
    "request_status": "Pending",
    "responsible_agency": "Department of Sanitation",
    "final_address": "4515 Tchoupitoulas St",
    "address_councildis": "B",
    "status": "Assigned to Contractor",
    "contractor": "IV Waste",
    "rowid": "1091635",
    "final_x": "3670648.76449",
    "final_y": "517518.410998",
    "longitude": "-90.10280950061293",
    "latitude": "29.917320845137358",
    "geocoded_column": {
      "latitude": "29.917320845137358",
      "longitude": "-90.10280950061293"
    }
  },
  {
    "service_request": "2024-1091633",
    "request_type": "Traffic Signals/Signs/Striping/Streetlights",
    "request_reason": "Traffic Sign Missing/Damaged",
    "date_created": "2024-05-08T19:25:57.000",
    "date_modified": "2024-05-08T19:25:57.000",
    "request_status": "Pending",
    "responsible_agency": "Department of Public Works",
    "final_address": "1331 S Derbigny St",
    "address_councildis": "B",
    "status": "Pending",
    "rowid": "1091633",
    "final_x": "3674898.4964",
    "final_y": "528649.941312",
    "longitude": "-90.0890139350397",
    "latitude": "29.947802761177808",
    "geocoded_column": {
      "latitude": "29.947802761177808",
      "longitude": "-90.0890139350397"
    }
  },
  {
    "service_request": "2024-1091632",
    "request_type": "Abandoned Vehicles",
    "request_reason": "Abandoned/Junk Vehicles",
    "date_created": "2024-05-08T19:25:48.000",
    "date_modified": "2024-05-08T19:25:48.000",
    "request_status": "Pending",
    "responsible_agency": "Department of Public Works",
    "final_address": "1816 Franklin Ave",
    "address_councildis": "D",
    "status": "Pending",
    "rowid": "1091632",
    "final_x": "3687623.75318",
    "final_y": "539249.60193",
    "longitude": "-90.0484600765208",
    "latitude": "29.97656204331189",
    "geocoded_column": {
      "latitude": "29.97656204331189",
      "longitude": "-90.0484600765208"
    }
  },
  {
    "service_request": "2024-1091631",
    "request_type": "Trash/Recycling",
    "request_reason": "Illegal Dumping",
    "date_created": "2024-05-08T19:24:50.000",
    "date_modified": "2024-05-08T19:24:50.000",
    "request_status": "Pending",
    "responsible_agency": "Department of Sanitation",
    "final_address": "2014 Philip St",
    "address_councildis": "B",
    "status": "Pending",
    "rowid": "1091631",
    "final_x": "3676254.25973",
    "final_y": "524632.856636",
    "longitude": "-90.08487144346644",
    "latitude": "29.93671655029176",
    "geocoded_column": {
      "latitude": "29.93671655029176",
      "longitude": "-90.08487144346644"
    }
  },
  {
    "service_request": "2024-1091630",
    "request_type": "Abandoned Vehicles",
    "request_reason": "Abandoned/Junk Vehicles",
    "date_created": "2024-05-08T19:22:24.000",
    "date_modified": "2024-05-08T19:22:24.000",
    "request_status": "Pending",
    "responsible_agency": "Department of Public Works",
    "final_address": "1816 Franklin Ave",
    "address_councildis": "D",
    "status": "Pending",
    "rowid": "1091630",
    "final_x": "3687623.75318",
    "final_y": "539249.60193",
    "longitude": "-90.0484600765208",
    "latitude": "29.97656204331189",
    "geocoded_column": {
      "latitude": "29.97656204331189",
      "longitude": "-90.0484600765208"
    }
  },
  {
    "service_request": "2024-1091629",
    "request_type": "Abandoned Vehicles",
    "request_reason": "Abandoned/Junk Vehicles",
    "date_created": "2024-05-08T19:19:55.000",
    "date_modified": "2024-05-08T19:19:55.000",
    "request_status": "Pending",
    "responsible_agency": "Department of Public Works",
    "final_address": "1816 Franklin Ave",
    "address_councildis": "D",
    "status": "Pending",
    "rowid": "1091629",
    "final_x": "3687623.75318",
    "final_y": "539249.60193",
    "longitude": "-90.0484600765208",
    "latitude": "29.97656204331189",
    "geocoded_column": {
      "latitude": "29.97656204331189",
      "longitude": "-90.0484600765208"
    }
  },
  {
    "service_request": "2024-1091628",
    "request_type": "Abandoned Vehicles",
    "request_reason": "Abandoned/Junk Vehicles",
    "date_created": "2024-05-08T19:13:48.000",
    "date_modified": "2024-05-08T19:13:48.000",
    "request_status": "Pending",
    "responsible_agency": "Department of Public Works",
    "final_address": "1816 Franklin Ave",
    "address_councildis": "D",
    "status": "Pending",
    "rowid": "1091628",
    "final_x": "3687623.75318",
    "final_y": "539249.60193",
    "longitude": "-90.0484600765208",
    "latitude": "29.97656204331189",
    "geocoded_column": {
      "latitude": "29.97656204331189",
      "longitude": "-90.0484600765208"
    }
  },
  {
    "service_request": "2024-1091627",
    "request_type": "Trash/Recycling",
    "request_reason": "Order Recycling Cart",
    "date_created": "2024-05-08T18:44:10.000",
    "date_modified": "2024-05-08T18:44:10.000",
    "request_status": "Pending",
    "responsible_agency": "Department of Sanitation",
    "final_address": "4444 Franklin Ave",
    "address_councildis": "D",
    "status": "Pending",
    "rowid": "1091627",
    "final_x": "3686845.06486",
    "final_y": "549270.041043",
    "longitude": "-90.0505651123889",
    "latitude": "30.004138654908058",
    "geocoded_column": {
      "latitude": "30.004138654908058",
      "longitude": "-90.0505651123889"
    }
  },
  {
    "service_request": "2024-1091626",
    "request_type": "Trash/Recycling",
    "request_reason": "Start Trash Service",
    "date_created": "2024-05-08T18:31:10.000",
    "date_modified": "2024-05-08T18:31:11.000",
    "request_status": "Pending",
    "responsible_agency": "Department of Sanitation",
    "final_address": "6511 S Claiborne Ave",
    "address_councildis": "A",
    "status": "Assigned to Contractor",
    "contractor": "IV Waste",
    "rowid": "1091626",
    "final_x": "3666787.61857",
    "final_y": "528985.805568",
    "longitude": "-90.1146120081786",
    "latitude": "29.948965976484548",
    "geocoded_column": {
      "latitude": "29.948965976484548",
      "longitude": "-90.1146120081786"
    }
  },
  {
    "service_request": "2024-1091625",
    "request_type": "Trash/Recycling",
    "request_reason": "Replace Trash Cart",
    "date_created": "2024-05-08T18:30:37.000",
    "date_modified": "2024-05-08T18:30:37.000",
    "request_status": "Pending",
    "responsible_agency": "Department of Sanitation",
    "final_address": "1450 Tita St",
    "address_councildis": "C",
    "status": "Assigned to Contractor",
    "contractor": "Richards Disposal",
    "rowid": "1091625",
    "final_x": "3695705.57955",
    "final_y": "525937.302845",
    "longitude": "-90.02341596675768",
    "latitude": "29.939706248427825",
    "geocoded_column": {
      "latitude": "29.939706248427825",
      "longitude": "-90.02341596675768"
    }
  },
  {
    "service_request": "2024-1091624",
    "request_type": "Trash/Recycling",
    "request_reason": "Order Recycling Cart",
    "date_created": "2024-05-08T18:18:53.000",
    "date_modified": "2024-05-08T18:18:53.000",
    "request_status": "Pending",
    "responsible_agency": "Department of Sanitation",
    "final_address": "3500 Octavia St",
    "address_councildis": "A",
    "status": "Pending",
    "rowid": "1091624",
    "final_x": "3668492.10356",
    "final_y": "528401.537152",
    "longitude": "-90.10924990088628",
    "latitude": "29.94730946980304",
    "geocoded_column": {
      "latitude": "29.94730946980304",
      "longitude": "-90.10924990088628"
    }
  },
  {
    "service_request": "2024-1091623",
    "request_type": "Roads/Drainage",
    "request_reason": "Street Flooding / Drainage",
    "date_created": "2024-05-08T18:08:03.000",
    "date_modified": "2024-05-08T18:08:03.000",
    "request_status": "Pending",
    "responsible_agency": "Department of Public Works",
    "final_address": "3502 S Tonti St",
    "address_councildis": "B",
    "status": "Pending",
    "rowid": "1091623",
    "final_x": "3671184.07508",
    "final_y": "528260.998272",
    "longitude": "-90.10075507424078",
    "latitude": "29.946843684635024",
    "geocoded_column": {
      "latitude": "29.946843684635024",
      "longitude": "-90.10075507424078"
    }
  },
  {
    "service_request": "2024-1091622",
    "request_type": "Trash/Recycling",
    "request_reason": "Missed Trash Pick-Up",
    "date_created": "2024-05-08T17:27:07.000",
    "date_modified": "2024-05-08T17:27:07.000",
    "request_status": "Pending",
    "responsible_agency": "Department of Sanitation",
    "final_address": "1700 Fern St, New Orleans, Louisiana, 70118",
    "address_councildis": "A",
    "status": "Assigned to Contractor",
    "contractor": "IV Waste",
    "rowid": "1091622",
    "final_x": "3663710.84243",
    "final_y": "529199.635968",
    "longitude": "-90.12431964450678",
    "latitude": "29.949643564749703",
    "geocoded_column": {
      "latitude": "29.949643564749703",
      "longitude": "-90.12431964450678"
    }
  },
  {
    "service_request": "2024-1091621",
    "request_type": "Trash/Recycling",
    "request_reason": "Order Recycling Cart",
    "date_created": "2024-05-08T17:17:08.000",
    "date_modified": "2024-05-08T17:17:08.000",
    "request_status": "Pending",
    "responsible_agency": "Department of Sanitation",
    "final_address": "2209 Peniston St",
    "address_councildis": "B",
    "status": "Pending",
    "rowid": "1091621",
    "final_x": "3672393.66375",
    "final_y": "523322.155707",
    "longitude": "-90.09710419048115",
    "latitude": "29.933227643497833",
    "geocoded_column": {
      "latitude": "29.933227643497833",
      "longitude": "-90.09710419048115"
    }
  },
  {
    "service_request": "2024-1091620",
    "request_type": "Property Maintenance",
    "request_reason": "Property Maintenance",
    "date_created": "2024-05-08T17:16:13.000",
    "date_modified": "2024-05-08T17:16:13.000",
    "request_status": "Pending",
    "responsible_agency": "Department of Code Enforcement",
    "final_address": " & BALDWIN ST",
    "address_councildis": "D",
    "status": "Pending",
    "rowid": "1091620",
    "final_x": "3687880.8",
    "final_y": "560035.64",
    "longitude": "-90.04691121641319",
    "latitude": "30.03370814054373",
    "geocoded_column": {
      "latitude": "30.03370814054373",
      "longitude": "-90.04691121641319"
    }
  },
  {
    "service_request": "2024-1091619",
    "request_type": "Property Maintenance",
    "request_reason": "Property Maintenance",
    "date_created": "2024-05-08T17:14:47.000",
    "date_modified": "2024-05-08T17:14:47.000",
    "request_status": "Pending",
    "responsible_agency": "Department of Code Enforcement",
    "final_address": " & BALDWIN ST",
    "address_councildis": "D",
    "status": "Pending",
    "rowid": "1091619",
    "final_x": "3687880.8",
    "final_y": "560035.64",
    "longitude": "-90.04691121641319",
    "latitude": "30.03370814054373",
    "geocoded_column": {
      "latitude": "30.03370814054373",
      "longitude": "-90.04691121641319"
    }
  },
  {
    "service_request": "2024-1091618",
    "request_type": "Abandoned Vehicles",
    "request_reason": "Abandoned/Junk Vehicles",
    "date_created": "2024-05-08T17:13:43.000",
    "date_modified": "2024-05-08T17:13:43.000",
    "request_status": "Pending",
    "responsible_agency": "Department of Public Works",
    "final_address": "2933 Grand Rte Saint John St, New Orleans, Louisiana, 70119",
    "status": "Pending",
    "rowid": "1091618",
    "longitude": "0.0",
    "latitude": "0.0",
    "geocoded_column": {
      "latitude": "0.0",
      "longitude": "0.0"
    }
  },
  {
    "service_request": "2024-1091617",
    "request_type": "Parks & Parkways",
    "request_reason": "Request Tree Service (Right of Way/Public Property)",
    "date_created": "2024-05-08T17:08:50.000",
    "date_modified": "2024-05-08T17:08:50.000",
    "request_status": "Pending",
    "responsible_agency": "Department of Parks & Parkway",
    "final_address": "3636 St Charles Ave",
    "address_councildis": "B",
    "status": "Pending",
    "rowid": "1091617",
    "final_x": "3673333.46516",
    "final_y": "521069.859257",
    "longitude": "-90.09421418468852",
    "latitude": "29.927006642039224",
    "geocoded_column": {
      "latitude": "29.927006642039224",
      "longitude": "-90.09421418468852"
    }
  },
  {
    "service_request": "2024-1091616",
    "request_type": "Trash/Recycling",
    "request_reason": "Return Trash Cart",
    "date_created": "2024-05-08T17:03:36.000",
    "date_modified": "2024-05-08T17:03:36.000",
    "request_status": "Pending",
    "responsible_agency": "Department of Sanitation",
    "final_address": "1321 Napoleon Ave",
    "address_councildis": "B",
    "status": "Assigned to Contractor",
    "contractor": "IV Waste",
    "rowid": "1091616",
    "final_x": "3671023.31835",
    "final_y": "520251.073592",
    "longitude": "-90.10153451841299",
    "latitude": "29.924823733498815",
    "geocoded_column": {
      "latitude": "29.924823733498815",
      "longitude": "-90.10153451841299"
    }
  },
  {
    "service_request": "2024-1091615",
    "request_type": "Abandoned Vehicles",
    "request_reason": "Abandoned/Junk Vehicles",
    "date_created": "2024-05-08T17:01:38.000",
    "date_modified": "2024-05-08T17:01:38.000",
    "request_status": "Pending",
    "responsible_agency": "Department of Public Works",
    "final_address": "1239 S Carrollton Ave",
    "address_councildis": "A",
    "status": "Pending",
    "rowid": "1091615",
    "final_x": "3662288.7824",
    "final_y": "528483.84544",
    "longitude": "-90.12883351500743",
    "latitude": "29.947716551560887",
    "geocoded_column": {
      "latitude": "29.947716551560887",
      "longitude": "-90.12883351500743"
    }
  },
  {
    "service_request": "2024-1091613",
    "request_type": "Trash/Recycling",
    "request_reason": "Repair Trash Cart",
    "date_created": "2024-05-08T16:54:44.000",
    "date_modified": "2024-05-08T16:54:44.000",
    "request_status": "Pending",
    "responsible_agency": "Department of Sanitation",
    "final_address": "3500 Upperline St",
    "address_councildis": "B",
    "status": "Assigned to Contractor",
    "contractor": "IV Waste",
    "rowid": "1091613",
    "final_x": "3669243.4201",
    "final_y": "527751.661503",
    "longitude": "-90.10689966361467",
    "latitude": "29.94550043255526",
    "geocoded_column": {
      "latitude": "29.94550043255526",
      "longitude": "-90.10689966361467"
    }
  },
  {
    "service_request": "2024-1091612",
    "request_type": "Trash/Recycling",
    "request_reason": "Replace Trash Cart",
    "date_created": "2024-05-08T16:52:39.000",
    "date_modified": "2024-05-08T16:52:39.000",
    "request_status": "Pending",
    "responsible_agency": "Department of Sanitation",
    "final_address": "4901 S Miro St",
    "address_councildis": "B",
    "status": "Assigned to Contractor",
    "contractor": "IV Waste",
    "rowid": "1091612",
    "final_x": "3669192.7257",
    "final_y": "527741.939263",
    "longitude": "-90.10706005123285",
    "latitude": "29.945475191430056",
    "geocoded_column": {
      "latitude": "29.945475191430056",
      "longitude": "-90.10706005123285"
    }
  },
  {
    "service_request": "2024-1091611",
    "request_type": "Trash/Recycling",
    "request_reason": "Replace Recycling Cart",
    "date_created": "2024-05-08T16:51:56.000",
    "date_modified": "2024-05-08T16:51:56.000",
    "request_status": "Pending",
    "responsible_agency": "Department of Sanitation",
    "final_address": "6026 Chamberlain Dr",
    "address_councildis": "D",
    "status": "Pending",
    "rowid": "1091611",
    "final_x": "3679200.76143",
    "final_y": "554645.477016",
    "longitude": "-90.07452827930078",
    "latitude": "30.019152262122052",
    "geocoded_column": {
      "latitude": "30.019152262122052",
      "longitude": "-90.07452827930078"
    }
  },
  {
    "service_request": "2024-1091610",
    "request_type": "Trash/Recycling",
    "request_reason": "MIssed Recycling Pick-Up",
    "date_created": "2024-05-08T16:50:26.000",
    "date_modified": "2024-05-08T16:50:27.000",
    "request_status": "Pending",
    "responsible_agency": "Department of Sanitation",
    "final_address": "252 Audubon Blvd",
    "address_councildis": "A",
    "status": "Assigned to Contractor",
    "contractor": "IV Waste",
    "rowid": "1091610",
    "final_x": "3666659.46881",
    "final_y": "529268.423553",
    "longitude": "-90.11500714602647",
    "latitude": "29.949746831412483",
    "geocoded_column": {
      "latitude": "29.949746831412483",
      "longitude": "-90.11500714602647"
    }
  },
  {
    "service_request": "2024-1091609",
    "request_type": "Traffic Signals/Signs/Striping/Streetlights",
    "request_reason": "Street Light Outage/Malfunction",
    "date_created": "2024-05-08T16:49:06.000",
    "date_modified": "2024-05-08T16:49:07.000",
    "request_status": "Pending",
    "responsible_agency": "Department of Public Works",
    "final_address": "1001 Charbonnet St",
    "address_councildis": "E",
    "status": "Assigned to Contractor",
    "contractor": "Legacy Professional Services",
    "rowid": "1091609",
    "final_x": "3698584.69002",
    "final_y": "533239.953476",
    "longitude": "-90.01406081491524",
    "latitude": "29.95969515510252",
    "geocoded_column": {
      "latitude": "29.95969515510252",
      "longitude": "-90.01406081491524"
    }
  },
  {
    "service_request": "2024-1091608",
    "request_type": "Trash/Recycling",
    "request_reason": "Request a Large Item Pick Up",
    "date_created": "2024-05-08T16:45:59.000",
    "date_modified": "2024-05-08T16:45:59.000",
    "request_status": "Pending",
    "responsible_agency": "Department of Sanitation",
    "final_address": "7411 Spring Lake Dr",
    "address_councildis": "E",
    "status": "Assigned to Contractor",
    "contractor": "Waste Pro",
    "rowid": "1091608",
    "final_x": "3700782.20445",
    "final_y": "559197.249436",
    "longitude": "-90.00617223358309",
    "latitude": "30.030998317375992",
    "geocoded_column": {
      "latitude": "30.030998317375992",
      "longitude": "-90.00617223358309"
    }
  },
  {
    "service_request": "2024-1091607",
    "request_type": "Trash/Recycling",
    "request_reason": "Order Trash Cart",
    "date_created": "2024-05-08T16:43:43.000",
    "date_modified": "2024-05-08T16:43:44.000",
    "request_status": "Pending",
    "responsible_agency": "Department of Sanitation",
    "final_address": "383 Broadway St",
    "address_councildis": "A",
    "status": "Assigned to Contractor",
    "contractor": "IV Waste",
    "rowid": "1091607",
    "final_x": "3661986.98522",
    "final_y": "523132.345659",
    "longitude": "-90.1299638639817",
    "latitude": "29.933010345861852",
    "geocoded_column": {
      "latitude": "29.933010345861852",
      "longitude": "-90.1299638639817"
    }
  },
  {
    "service_request": "2024-1091606",
    "request_type": "Trash/Recycling",
    "request_reason": "Request a Large Item Pick Up",
    "date_created": "2024-05-08T16:42:50.000",
    "date_modified": "2024-05-08T16:42:51.000",
    "request_status": "Pending",
    "responsible_agency": "Department of Sanitation",
    "final_address": "4222 Prytania St",
    "address_councildis": "B",
    "status": "Assigned to Contractor",
    "contractor": "IV Waste",
    "rowid": "1091606",
    "final_x": "3671457.3234",
    "final_y": "520320.240568",
    "longitude": "-90.10016215485933",
    "latitude": "29.925001084476996",
    "geocoded_column": {
      "latitude": "29.925001084476996",
      "longitude": "-90.10016215485933"
    }
  },
  {
    "service_request": "2024-1091605",
    "request_type": "Trash/Recycling",
    "request_reason": "Request a Large Item Pick Up",
    "date_created": "2024-05-08T16:39:23.000",
    "date_modified": "2024-05-08T16:39:23.000",
    "request_status": "Pending",
    "responsible_agency": "Department of Sanitation",
    "final_address": "632 N Rampart St",
    "address_councildis": "C",
    "status": "Assigned to Contractor",
    "contractor": "Empire Services",
    "rowid": "1091605",
    "final_x": "3681348.47816",
    "final_y": "533223.760516",
    "longitude": "-90.0684893866696",
    "latitude": "29.960185044878504",
    "geocoded_column": {
      "latitude": "29.960185044878504",
      "longitude": "-90.0684893866696"
    }
  },
  {
    "service_request": "2024-1091604",
    "request_type": "Traffic Signals/Signs/Striping/Streetlights",
    "request_reason": "Street Light Outage/Malfunction",
    "date_created": "2024-05-08T16:33:21.000",
    "date_modified": "2024-05-08T16:33:21.000",
    "request_status": "Pending",
    "responsible_agency": "Department of Public Works",
    "final_address": "5173 Marigny St",
    "address_councildis": "D",
    "status": "Assigned to Contractor",
    "contractor": "Legacy Professional Services",
    "rowid": "1091604",
    "final_x": "3684376.02172",
    "final_y": "551891.841238",
    "longitude": "-90.05827308315861",
    "latitude": "30.0114234260872",
    "geocoded_column": {
      "latitude": "30.0114234260872",
      "longitude": "-90.05827308315861"
    }
  },
  {
    "service_request": "2024-1091603",
    "request_type": "Trash/Recycling",
    "request_reason": "Order Recycling Cart",
    "date_created": "2024-05-08T16:32:45.000",
    "date_modified": "2024-05-08T16:32:45.000",
    "request_status": "Pending",
    "responsible_agency": "Department of Sanitation",
    "final_address": "2420 Robert St",
    "address_councildis": "B",
    "status": "Pending",
    "rowid": "1091603",
    "final_x": "3668774.30324",
    "final_y": "524461.625852",
    "longitude": "-90.10849186109728",
    "latitude": "29.936467695742923",
    "geocoded_column": {
      "latitude": "29.936467695742923",
      "longitude": "-90.10849186109728"
    }
  },
  {
    "service_request": "2024-1091602",
    "request_type": "Trash/Recycling",
    "request_reason": "Order Recycling Cart",
    "date_created": "2024-05-08T16:32:34.000",
    "date_modified": "2024-05-08T16:32:35.000",
    "request_status": "Pending",
    "responsible_agency": "Department of Sanitation",
    "final_address": "2418 Robert St",
    "address_councildis": "B",
    "status": "Pending",
    "rowid": "1091602",
    "final_x": "3668769.44334",
    "final_y": "524428.292476",
    "longitude": "-90.10850832892218",
    "latitude": "29.936376182517535",
    "geocoded_column": {
      "latitude": "29.936376182517535",
      "longitude": "-90.10850832892218"
    }
  },
  {
    "service_request": "2024-1091601",
    "request_type": "Trash/Recycling",
    "request_reason": "Request a Large Item Pick Up",
    "date_created": "2024-05-08T16:28:37.000",
    "date_modified": "2024-05-08T16:28:38.000",
    "request_status": "Pending",
    "responsible_agency": "Department of Sanitation",
    "final_address": "2016 Pauline St",
    "address_councildis": "D",
    "status": "Assigned to Contractor",
    "contractor": "IV Waste",
    "rowid": "1091601",
    "final_x": "3692035.46909",
    "final_y": "538950.945482",
    "longitude": "-90.0345372715457",
    "latitude": "29.975604081049923",
    "geocoded_column": {
      "latitude": "29.975604081049923",
      "longitude": "-90.0345372715457"
    }
  },
  {
    "service_request": "2024-1091600",
    "request_type": "Trash/Recycling",
    "request_reason": "Request a Large Item Pick Up",
    "date_created": "2024-05-08T16:22:53.000",
    "date_modified": "2024-05-08T16:22:54.000",
    "request_status": "Pending",
    "responsible_agency": "Department of Sanitation",
    "final_address": "1257 Sere St",
    "address_councildis": "D",
    "status": "Assigned to Contractor",
    "contractor": "IV Waste",
    "rowid": "1091600",
    "final_x": "3677177.37224",
    "final_y": "545353.204304",
    "longitude": "-90.08124232484515",
    "latitude": "29.993662786916715",
    "geocoded_column": {
      "latitude": "29.993662786916715",
      "longitude": "-90.08124232484515"
    }
  },
  {
    "service_request": "2024-1091599",
    "request_type": "Trash/Recycling",
    "request_reason": "Repair Trash Cart",
    "date_created": "2024-05-08T16:18:02.000",
    "date_modified": "2024-05-08T16:18:02.000",
    "request_status": "Pending",
    "responsible_agency": "Department of Sanitation",
    "final_address": "315 Alonzo St",
    "address_councildis": "A",
    "status": "Assigned to Contractor",
    "contractor": "IV Waste",
    "rowid": "1091599",
    "final_x": "3664633.40052",
    "final_y": "517528.854134",
    "longitude": "-90.12179632445114",
    "latitude": "29.917525817485902",
    "geocoded_column": {
      "latitude": "29.917525817485902",
      "longitude": "-90.12179632445114"
    }
  },
  {
    "service_request": "2024-1091598",
    "request_type": "Trash/Recycling",
    "request_reason": "Request a Large Item Pick Up",
    "date_created": "2024-05-08T16:05:39.000",
    "date_modified": "2024-05-08T16:05:40.000",
    "request_status": "Pending",
    "responsible_agency": "Department of Sanitation",
    "final_address": "8340 Curran Rd",
    "address_councildis": "E",
    "status": "Assigned to Contractor",
    "contractor": "Waste Pro",
    "rowid": "1091598",
    "final_x": "3703227.45956",
    "final_y": "562037.290463",
    "longitude": "-89.99834064939546",
    "latitude": "30.038729218664777",
    "geocoded_column": {
      "latitude": "30.038729218664777",
      "longitude": "-89.99834064939546"
    }
  },
  {
    "service_request": "2024-1091597",
    "request_type": "Trash/Recycling",
    "request_reason": "Request a Large Item Pick Up",
    "date_created": "2024-05-08T15:59:44.000",
    "date_modified": "2024-05-08T15:59:45.000",
    "request_status": "Pending",
    "responsible_agency": "Department of Sanitation",
    "final_address": "3112 Kansas St",
    "address_councildis": "C",
    "status": "Assigned to Contractor",
    "contractor": "Richards Disposal",
    "rowid": "1091597",
    "final_x": "3694584.20464",
    "final_y": "520844.707193",
    "longitude": "-90.0271395683772",
    "latitude": "29.92573855220775",
    "geocoded_column": {
      "latitude": "29.92573855220775",
      "longitude": "-90.0271395683772"
    }
  },
  {
    "service_request": "2024-1091596",
    "request_type": "Trash/Recycling",
    "request_reason": "Request a Large Item Pick Up",
    "date_created": "2024-05-08T15:53:27.000",
    "date_modified": "2024-05-08T15:53:27.000",
    "request_status": "Pending",
    "responsible_agency": "Department of Sanitation",
    "final_address": "4600 S Miro St",
    "address_councildis": "B",
    "status": "Assigned to Contractor",
    "contractor": "IV Waste",
    "rowid": "1091596",
    "final_x": "3669383.69146",
    "final_y": "527708.926655",
    "longitude": "-90.10645822493018",
    "latitude": "29.94537879659669",
    "geocoded_column": {
      "latitude": "29.94537879659669",
      "longitude": "-90.10645822493018"
    }
  },
  {
    "service_request": "2024-1091595",
    "request_type": "Trash/Recycling",
    "request_reason": "Request a Large Item Pick Up",
    "date_created": "2024-05-08T15:53:07.000",
    "date_modified": "2024-05-08T15:53:07.000",
    "request_status": "Pending",
    "responsible_agency": "Department of Sanitation",
    "final_address": "2228 Broadway St",
    "address_councildis": "A",
    "status": "Assigned to Contractor",
    "contractor": "IV Waste",
    "rowid": "1091595",
    "final_x": "3666223.68845",
    "final_y": "529672.762433",
    "longitude": "-90.11636955023377",
    "latitude": "29.950871365429478",
    "geocoded_column": {
      "latitude": "29.950871365429478",
      "longitude": "-90.11636955023377"
    }
  },
  {
    "service_request": "2024-1091594",
    "request_type": "Trash/Recycling",
    "request_reason": "Order Recycling Cart",
    "date_created": "2024-05-08T15:50:58.000",
    "date_modified": "2024-05-08T15:50:59.000",
    "request_status": "Pending",
    "responsible_agency": "Department of Sanitation",
    "final_address": "925 Dufossat St",
    "address_councildis": "B",
    "status": "Pending",
    "rowid": "1091594",
    "final_x": "3668137.16557",
    "final_y": "518825.179575",
    "longitude": "-90.11069320723162",
    "latitude": "29.920987973399363",
    "geocoded_column": {
      "latitude": "29.920987973399363",
      "longitude": "-90.11069320723162"
    }
  },
  {
    "service_request": "2024-1091593",
    "request_type": "Trash/Recycling",
    "request_reason": "Repair Recycling Cart",
    "date_created": "2024-05-08T15:49:15.000",
    "date_modified": "2024-05-08T15:49:25.000",
    "request_status": "Pending",
    "responsible_agency": "Department of Sanitation",
    "final_address": "3031 Esplanade Ave Apt A",
    "address_councildis": "A",
    "status": "Pending",
    "rowid": "1091593",
    "final_x": "3676652.78555",
    "final_y": "540232.131467",
    "longitude": "-90.08307592405797",
    "latitude": "29.97959736704469",
    "geocoded_column": {
      "latitude": "29.97959736704469",
      "longitude": "-90.08307592405797"
    }
  },
  {
    "service_request": "2024-1091592",
    "request_type": "Trash/Recycling",
    "request_reason": "Repair Trash Cart",
    "date_created": "2024-05-08T15:48:22.000",
    "date_modified": "2024-05-08T15:48:22.000",
    "request_status": "Pending",
    "responsible_agency": "Department of Sanitation",
    "final_address": "3031 Esplanade Ave Apt A",
    "address_councildis": "A",
    "status": "Assigned to Contractor",
    "contractor": "IV Waste",
    "rowid": "1091592",
    "final_x": "3676652.78555",
    "final_y": "540232.131467",
    "longitude": "-90.08307592405797",
    "latitude": "29.97959736704469",
    "geocoded_column": {
      "latitude": "29.97959736704469",
      "longitude": "-90.08307592405797"
    }
  },
  {
    "service_request": "2024-1091591",
    "request_type": "Trash/Recycling",
    "request_reason": "Order Trash Cart",
    "date_created": "2024-05-08T15:46:08.000",
    "date_modified": "2024-05-08T15:46:09.000",
    "request_status": "Pending",
    "responsible_agency": "Department of Sanitation",
    "final_address": "2416 Felicity St",
    "address_councildis": "B",
    "status": "Assigned to Contractor",
    "contractor": "IV Waste",
    "rowid": "1091591",
    "final_x": "3676057.04385",
    "final_y": "526956.874046",
    "longitude": "-90.08541415701447",
    "latitude": "29.94311274126071",
    "geocoded_column": {
      "latitude": "29.94311274126071",
      "longitude": "-90.08541415701447"
    }
  },
  {
    "service_request": "2024-1091590",
    "request_type": "Trash/Recycling",
    "request_reason": "Replace Trash Cart",
    "date_created": "2024-05-08T15:43:02.000",
    "date_modified": "2024-05-08T15:43:03.000",
    "request_status": "Pending",
    "responsible_agency": "Department of Sanitation",
    "final_address": "1415 Feliciana St",
    "address_councildis": "C",
    "status": "Assigned to Contractor",
    "contractor": "IV Waste",
    "rowid": "1091590",
    "final_x": "3689070.22415",
    "final_y": "537297.058888",
    "longitude": "-90.04396108335644",
    "latitude": "29.97114856037776",
    "geocoded_column": {
      "latitude": "29.97114856037776",
      "longitude": "-90.04396108335644"
    }
  },
  {
    "service_request": "2024-1091589",
    "request_type": "Trash/Recycling",
    "request_reason": "Request a Large Item Pick Up",
    "date_created": "2024-05-08T15:42:37.000",
    "date_modified": "2024-05-08T15:42:38.000",
    "request_status": "Pending",
    "responsible_agency": "Department of Sanitation",
    "final_address": "1935 Port St",
    "address_councildis": "D",
    "status": "Assigned to Contractor",
    "contractor": "IV Waste",
    "rowid": "1091589",
    "final_x": "3688291.34236",
    "final_y": "539670.133386",
    "longitude": "-90.04633671324238",
    "latitude": "29.97769775566643",
    "geocoded_column": {
      "latitude": "29.97769775566643",
      "longitude": "-90.04633671324238"
    }
  },
  {
    "service_request": "2024-1091588",
    "request_type": "Roads/Drainage",
    "request_reason": "Pothole",
    "date_created": "2024-05-08T15:42:36.000",
    "date_modified": "2024-05-08T15:42:37.000",
    "request_status": "Pending",
    "responsible_agency": "Department of Public Works",
    "final_address": "TOLEDANO ST & S ROMAN ST",
    "address_councildis": "B",
    "status": "Pending",
    "rowid": "1091588",
    "final_x": "3672312.1",
    "final_y": "527059.88",
    "longitude": "-90.09723439014674",
    "latitude": "29.943507589767385",
    "geocoded_column": {
      "latitude": "29.943507589767385",
      "longitude": "-90.09723439014674"
    }
  },
  {
    "service_request": "2024-1091587",
    "request_type": "Property Maintenance",
    "request_reason": "Property Maintenance",
    "date_created": "2024-05-08T15:41:52.000",
    "date_modified": "2024-05-08T15:41:52.000",
    "request_status": "Pending",
    "responsible_agency": "Department of Code Enforcement",
    "final_address": "449 Leboeuf St",
    "address_councildis": "C",
    "status": "Pending",
    "rowid": "1091587",
    "final_x": "3689784.61161",
    "final_y": "529872.560257",
    "longitude": "-90.0419692126298",
    "latitude": "29.950711651199036",
    "geocoded_column": {
      "latitude": "29.950711651199036",
      "longitude": "-90.0419692126298"
    }
  },
  {
    "service_request": "2024-1091586",
    "request_type": "Trash/Recycling",
    "request_reason": "Request a Large Item Pick Up",
    "date_created": "2024-05-08T15:41:42.000",
    "date_modified": "2024-05-08T15:41:42.000",
    "request_status": "Pending",
    "responsible_agency": "Department of Sanitation",
    "final_address": "1529 General Collins Ave",
    "address_councildis": "C",
    "status": "Assigned to Contractor",
    "contractor": "Richards Disposal",
    "rowid": "1091586",
    "final_x": "3698426.96887",
    "final_y": "525488.320765",
    "longitude": "-90.01484052058193",
    "latitude": "29.938385879024665",
    "geocoded_column": {
      "latitude": "29.938385879024665",
      "longitude": "-90.01484052058193"
    }
  },
  {
    "service_request": "2024-1091585",
    "request_type": "Trash/Recycling",
    "request_reason": "Request a Large Item Pick Up",
    "date_created": "2024-05-08T15:41:40.000",
    "date_modified": "2024-05-08T15:41:41.000",
    "request_status": "Pending",
    "responsible_agency": "Department of Sanitation",
    "final_address": "5570 Red Maple Dr",
    "address_councildis": "E",
    "status": "Assigned to Contractor",
    "contractor": "Waste Pro",
    "rowid": "1091585",
    "final_x": "3723350.5431",
    "final_y": "563929.053857",
    "longitude": "-89.93467407672138",
    "latitude": "30.043270788388522",
    "geocoded_column": {
      "latitude": "30.043270788388522",
      "longitude": "-89.93467407672138"
    }
  },
  {
    "service_request": "2024-1091584",
    "request_type": "Trash/Recycling",
    "request_reason": "Request a Large Item Pick Up",
    "date_created": "2024-05-08T15:41:10.000",
    "date_modified": "2024-05-08T15:41:11.000",
    "request_status": "Pending",
    "responsible_agency": "Department of Sanitation",
    "final_address": "600 BLK Eleonore St",
    "address_councildis": "A",
    "status": "Assigned to Contractor",
    "contractor": "IV Waste",
    "rowid": "1091584",
    "final_x": "3665116.76815",
    "final_y": "518569.891454",
    "longitude": "-90.12023580914506",
    "latitude": "29.92037428313183",
    "geocoded_column": {
      "latitude": "29.92037428313183",
      "longitude": "-90.12023580914506"
    }
  },
  {
    "service_request": "2024-1091583",
    "request_type": "Roads/Drainage",
    "request_reason": "Leaking Hydrant",
    "date_created": "2024-05-08T15:40:19.000",
    "date_modified": "2024-05-08T15:40:19.000",
    "request_status": "Pending",
    "responsible_agency": "Department of Public Works",
    "final_address": "FRANKLIN AVE & MADRID ST",
    "address_councildis": "D",
    "status": "Pending",
    "rowid": "1091583",
    "final_x": "3686360.7",
    "final_y": "555558.48",
    "longitude": "-90.05187312831583",
    "latitude": "30.021444458067",
    "geocoded_column": {
      "latitude": "30.021444458067",
      "longitude": "-90.05187312831583"
    }
  },
  {
    "service_request": "2024-1091582",
    "request_type": "Traffic Signals/Signs/Striping/Streetlights",
    "request_reason": "Traffic Sign Missing/Damaged",
    "date_created": "2024-05-08T15:39:51.000",
    "date_modified": "2024-05-08T15:39:52.000",
    "request_status": "Pending",
    "responsible_agency": "Department of Public Works",
    "final_address": "FRANKLIN AVE & MADRID ST",
    "address_councildis": "D",
    "status": "Pending",
    "rowid": "1091582",
    "final_x": "3686360.7",
    "final_y": "555558.48",
    "longitude": "-90.05187312831583",
    "latitude": "30.021444458067",
    "geocoded_column": {
      "latitude": "30.021444458067",
      "longitude": "-90.05187312831583"
    }
  },
  {
    "service_request": "2024-1091581",
    "request_type": "Abandoned Vehicles",
    "request_reason": "Abandoned/Junk Vehicles",
    "date_created": "2024-05-08T15:37:42.000",
    "date_modified": "2024-05-08T15:37:43.000",
    "request_status": "Pending",
    "responsible_agency": "Department of Public Works",
    "final_address": "730 St Peter St",
    "address_councildis": "C",
    "status": "Pending",
    "rowid": "1091581",
    "final_x": "3682303.80885",
    "final_y": "532566.748228",
    "longitude": "-90.0654956134231",
    "latitude": "29.95834945418128",
    "geocoded_column": {
      "latitude": "29.95834945418128",
      "longitude": "-90.0654956134231"
    }
  },
  {
    "service_request": "2024-1091580",
    "request_type": "Abandoned Vehicles",
    "request_reason": "Abandoned/Junk Vehicles",
    "date_created": "2024-05-08T15:34:09.000",
    "date_modified": "2024-05-08T15:35:46.000",
    "request_status": "Pending",
    "responsible_agency": "Department of Public Works",
    "final_address": "5766 Pasteur Blvd",
    "address_councildis": "D",
    "status": "Pending",
    "rowid": "1091580",
    "final_x": "3682659.17186",
    "final_y": "554610.203544",
    "longitude": "-90.06360214073291",
    "latitude": "30.01895035086976",
    "geocoded_column": {
      "latitude": "30.01895035086976",
      "longitude": "-90.06360214073291"
    }
  },
  {
    "service_request": "2024-1091579",
    "request_type": "Traffic Signals/Signs/Striping/Streetlights",
    "request_reason": "Street Name Sign Damaged or Missing",
    "date_created": "2024-05-08T15:34:00.000",
    "date_modified": "2024-05-08T15:34:00.000",
    "request_status": "Pending",
    "responsible_agency": "Department of Public Works",
    "final_address": "6900 BLK Canal Blvd",
    "address_councildis": "A",
    "status": "Pending",
    "rowid": "1091579",
    "final_x": "3669000.77843",
    "final_y": "553666.116537",
    "longitude": "-90.10678993305115",
    "latitude": "30.01676353619436",
    "geocoded_column": {
      "latitude": "30.01676353619436",
      "longitude": "-90.10678993305115"
    }
  },
  {
    "service_request": "2024-1091578",
    "request_type": "Property Maintenance",
    "request_reason": "Property Maintenance",
    "date_created": "2024-05-08T15:31:31.000",
    "date_modified": "2024-05-08T15:31:31.000",
    "request_status": "Pending",
    "responsible_agency": "Department of Code Enforcement",
    "final_address": "MORRISON RD & GANNON RD",
    "address_councildis": "E",
    "status": "Pending",
    "rowid": "1091578",
    "final_x": "3716844.9",
    "final_y": "569274.68",
    "longitude": "-89.9550311752423",
    "latitude": "30.058185809886584",
    "geocoded_column": {
      "latitude": "30.058185809886584",
      "longitude": "-89.9550311752423"
    }
  },
  {
    "service_request": "2024-1091577",
    "request_type": "Trash/Recycling",
    "request_reason": "Request a Large Item Pick Up",
    "date_created": "2024-05-08T15:29:47.000",
    "date_modified": "2024-05-08T15:29:47.000",
    "request_status": "Pending",
    "responsible_agency": "Department of Sanitation",
    "final_address": "1610 Tupelo St",
    "address_councildis": "E",
    "status": "Assigned to Contractor",
    "contractor": "Waste Pro",
    "rowid": "1091577",
    "final_x": "3700111.45776",
    "final_y": "535220.600774",
    "longitude": "-90.00916738276443",
    "latitude": "29.96509280343922",
    "geocoded_column": {
      "latitude": "29.96509280343922",
      "longitude": "-90.00916738276443"
    }
  },
  {
    "service_request": "2024-1091576",
    "request_type": "Trash/Recycling",
    "request_reason": "Order Recycling Cart",
    "date_created": "2024-05-08T15:29:38.000",
    "date_modified": "2024-05-08T15:29:38.000",
    "request_status": "Pending",
    "responsible_agency": "Department of Sanitation",
    "final_address": "2463 Burgundy St",
    "address_councildis": "C",
    "status": "Pending",
    "rowid": "1091576",
    "final_x": "3686359.79074",
    "final_y": "535757.446791",
    "longitude": "-90.0525753281479",
    "latitude": "29.966998748365924",
    "geocoded_column": {
      "latitude": "29.966998748365924",
      "longitude": "-90.0525753281479"
    }
  },
  {
    "service_request": "2024-1091575",
    "request_type": "Trash/Recycling",
    "request_reason": "Illegal Dumping",
    "date_created": "2024-05-08T15:27:39.000",
    "date_modified": "2024-05-08T15:27:40.000",
    "request_status": "Pending",
    "responsible_agency": "Department of Sanitation",
    "final_address": "2025 Spain St",
    "address_councildis": "D",
    "status": "Pending",
    "rowid": "1091575",
    "final_x": "3685896.51446",
    "final_y": "539950.232458",
    "longitude": "-90.05389050670242",
    "latitude": "29.97854167369995",
    "geocoded_column": {
      "latitude": "29.97854167369995",
      "longitude": "-90.05389050670242"
    }
  },
  {
    "service_request": "2024-1091574",
    "request_type": "Abandoned Vehicles",
    "request_reason": "Abandoned/Junk Vehicles",
    "date_created": "2024-05-08T15:26:28.000",
    "date_modified": "2024-05-08T15:26:28.000",
    "request_status": "Closed",
    "responsible_agency": "Department of Public Works",
    "final_address": "523 Washington Ave",
    "address_councildis": "B",
    "status": "Inspected",
    "rowid": "1091574",
    "final_x": "3678226.08405",
    "final_y": "519129.546167",
    "longitude": "-90.07883651922418",
    "latitude": "29.921525021762484",
    "geocoded_column": {
      "latitude": "29.921525021762484",
      "longitude": "-90.07883651922418"
    }
  },
  {
    "service_request": "2024-1091573",
    "request_type": "Trash/Recycling",
    "request_reason": "Request a Large Item Pick Up",
    "date_created": "2024-05-08T15:26:26.000",
    "date_modified": "2024-05-08T15:26:27.000",
    "request_status": "Pending",
    "responsible_agency": "Department of Sanitation",
    "final_address": "1488 Casa Calvo St",
    "address_councildis": "C",
    "status": "Assigned to Contractor",
    "contractor": "Richards Disposal",
    "rowid": "1091573",
    "final_x": "3692075.39241",
    "final_y": "525532.826941",
    "longitude": "-90.03489140240688",
    "latitude": "29.93870769004822",
    "geocoded_column": {
      "latitude": "29.93870769004822",
      "longitude": "-90.03489140240688"
    }
  },
  {
    "service_request": "2024-1091572",
    "request_type": "Trash/Recycling",
    "request_reason": "Replace Trash Cart",
    "date_created": "2024-05-08T15:24:39.000",
    "date_modified": "2024-05-08T15:24:39.000",
    "request_status": "Pending",
    "responsible_agency": "Department of Sanitation",
    "final_address": "2501 Third St",
    "address_councildis": "B",
    "status": "Assigned to Contractor",
    "contractor": "IV Waste",
    "rowid": "1091572",
    "final_x": "3674633.56622",
    "final_y": "525667.886525",
    "longitude": "-90.08995259618175",
    "latitude": "29.93961099952239",
    "geocoded_column": {
      "latitude": "29.93961099952239",
      "longitude": "-90.08995259618175"
    }
  },
  {
    "service_request": "2024-1091571",
    "request_type": "Trash/Recycling",
    "request_reason": "Illegal Dumping",
    "date_created": "2024-05-08T15:18:52.000",
    "date_modified": "2024-05-08T15:18:53.000",
    "request_status": "Pending",
    "responsible_agency": "Department of Sanitation",
    "final_address": "8450 Curran Rd",
    "address_councildis": "E",
    "status": "Pending",
    "rowid": "1091571",
    "final_x": "3703680.72682",
    "final_y": "562258.186527",
    "longitude": "-89.99690006876068",
    "latitude": "30.039322067696215",
    "geocoded_column": {
      "latitude": "30.039322067696215",
      "longitude": "-89.99690006876068"
    }
  },
  {
    "service_request": "2024-1091570",
    "request_type": "Graffiti Removal",
    "request_reason": "Graffiti Removal",
    "date_created": "2024-05-08T15:17:02.000",
    "date_modified": "2024-05-08T15:17:02.000",
    "request_status": "Pending",
    "responsible_agency": "Department of Code Enforcement",
    "final_address": "1925 Conti St",
    "address_councildis": "B",
    "status": "Pending",
    "rowid": "1091570",
    "final_x": "3678380.90638",
    "final_y": "534319.528325",
    "longitude": "-90.07782243852954",
    "latitude": "29.963287774018504",
    "geocoded_column": {
      "latitude": "29.963287774018504",
      "longitude": "-90.07782243852954"
    }
  },
  {
    "service_request": "2024-1091569",
    "request_type": "Trash/Recycling",
    "request_reason": "Repair Trash Cart",
    "date_created": "2024-05-08T15:12:20.000",
    "date_modified": "2024-05-08T15:12:21.000",
    "request_status": "Pending",
    "responsible_agency": "Department of Sanitation",
    "final_address": "3019 Robert St",
    "address_councildis": "B",
    "status": "Assigned to Contractor",
    "contractor": "IV Waste",
    "rowid": "1091569",
    "final_x": "3668943.94478",
    "final_y": "526528.040574",
    "longitude": "-90.10788652479106",
    "latitude": "29.942144682220924",
    "geocoded_column": {
      "latitude": "29.942144682220924",
      "longitude": "-90.10788652479106"
    }
  },
  {
    "service_request": "2024-1091568",
    "request_type": "Trash/Recycling",
    "request_reason": "Repair Recycling Cart",
    "date_created": "2024-05-08T15:11:06.000",
    "date_modified": "2024-05-08T15:11:06.000",
    "request_status": "Pending",
    "responsible_agency": "Department of Sanitation",
    "final_address": "5135 Paris Ave",
    "address_councildis": "D",
    "status": "Pending",
    "rowid": "1091568",
    "final_x": "3679331.82293",
    "final_y": "551424.954005",
    "longitude": "-90.07422598634398",
    "latitude": "30.010293028242707",
    "geocoded_column": {
      "latitude": "30.010293028242707",
      "longitude": "-90.07422598634398"
    }
  },
  {
    "service_request": "2024-1091567",
    "request_type": "Trash/Recycling",
    "request_reason": "Replace Recycling Cart",
    "date_created": "2024-05-08T15:10:53.000",
    "date_modified": "2024-05-08T15:10:53.000",
    "request_status": "Pending",
    "responsible_agency": "Department of Sanitation",
    "final_address": "5950 Laurel St",
    "address_councildis": "A",
    "status": "Pending",
    "rowid": "1091567",
    "final_x": "3664571.87872",
    "final_y": "518072.660278",
    "longitude": "-90.12197236865597",
    "latitude": "29.919022903462455",
    "geocoded_column": {
      "latitude": "29.919022903462455",
      "longitude": "-90.12197236865597"
    }
  },
  {
    "service_request": "2024-1091566",
    "request_type": "Trash/Recycling",
    "request_reason": "Request a Large Item Pick Up",
    "date_created": "2024-05-08T15:10:00.000",
    "date_modified": "2024-05-08T15:10:00.000",
    "request_status": "Pending",
    "responsible_agency": "Department of Sanitation",
    "final_address": "2822 Bell St",
    "address_councildis": "A",
    "status": "Assigned to Contractor",
    "contractor": "IV Waste",
    "rowid": "1091566",
    "final_x": "3677160.39598",
    "final_y": "539158.054154",
    "longitude": "-90.0815097463394",
    "latitude": "29.97662878508844",
    "geocoded_column": {
      "latitude": "29.97662878508844",
      "longitude": "-90.0815097463394"
    }
  },
  {
    "service_request": "2024-1091565",
    "request_type": "Trash/Recycling",
    "request_reason": "Missed Trash Pick-Up",
    "date_created": "2024-05-08T15:06:31.000",
    "date_modified": "2024-05-08T15:21:38.000",
    "case_close_date": "2024-05-08T10:21:38.000",
    "request_status": "Closed",
    "responsible_agency": "Department of Sanitation",
    "final_address": "6529 Wuerpel St",
    "address_councildis": "A",
    "status": "Invalid Request",
    "contractor": "IV Waste",
    "contractor_action": "Invalid",
    "rowid": "1091565",
    "final_x": "3667102.01857",
    "final_y": "551076.166421",
    "longitude": "-90.11287639831295",
    "latitude": "30.009697831427466",
    "geocoded_column": {
      "latitude": "30.009697831427466",
      "longitude": "-90.11287639831295"
    }
  },
  {
    "service_request": "2024-1091564",
    "request_type": "Parks & Parkways",
    "request_reason": "Request Tree Service (Right of Way/Public Property)",
    "date_created": "2024-05-08T15:06:22.000",
    "date_modified": "2024-05-08T15:06:22.000",
    "request_status": "Pending",
    "responsible_agency": "Department of Parks & Parkway",
    "final_address": "7141 S Claiborne Ave",
    "address_councildis": "A",
    "status": "Pending",
    "rowid": "1091564",
    "final_x": "3666517.62349",
    "final_y": "529805.529281",
    "longitude": "-90.11543699299403",
    "latitude": "29.95122784391853",
    "geocoded_column": {
      "latitude": "29.95122784391853",
      "longitude": "-90.11543699299403"
    }
  },
  {
    "service_request": "2024-1091563",
    "request_type": "Traffic Signals/Signs/Striping/Streetlights",
    "request_reason": "Disabled Parking Sign ",
    "date_created": "2024-05-08T15:05:26.000",
    "date_modified": "2024-05-08T15:05:26.000",
    "request_status": "Pending",
    "responsible_agency": "Department of Public Works",
    "final_address": "2324 Jena St",
    "address_councildis": "B",
    "status": "Pending",
    "rowid": "1091563",
    "final_x": "3670130.86158",
    "final_y": "523529.264635",
    "longitude": "-90.10424071695566",
    "latitude": "29.933864060326734",
    "geocoded_column": {
      "latitude": "29.933864060326734",
      "longitude": "-90.10424071695566"
    }
  },
  {
    "service_request": "2024-1091562",
    "request_type": "Trash/Recycling",
    "request_reason": "Request a Large Item Pick Up",
    "date_created": "2024-05-08T15:02:41.000",
    "date_modified": "2024-05-08T15:02:42.000",
    "request_status": "Pending",
    "responsible_agency": "Department of Sanitation",
    "final_address": "1400 BLK Constance St",
    "address_councildis": "B",
    "status": "Assigned to Contractor",
    "contractor": "IV Waste",
    "rowid": "1091562",
    "final_x": "3680691.37316",
    "final_y": "524281.769138",
    "longitude": "-90.07087549136872",
    "latitude": "29.935617497322603",
    "geocoded_column": {
      "latitude": "29.935617497322603",
      "longitude": "-90.07087549136872"
    }
  },
  {
    "service_request": "2024-1091561",
    "request_type": "Property Maintenance",
    "request_reason": "Property Maintenance",
    "date_created": "2024-05-08T15:00:37.000",
    "date_modified": "2024-05-08T15:00:38.000",
    "request_status": "Pending",
    "responsible_agency": "Department of Code Enforcement",
    "final_address": "4945 Robin Hood Dr",
    "address_councildis": "E",
    "status": "Pending",
    "rowid": "1091561",
    "final_x": "3717473.74303",
    "final_y": "557964.210523",
    "longitude": "-89.9534740200135",
    "latitude": "30.027065810950596",
    "geocoded_column": {
      "latitude": "30.027065810950596",
      "longitude": "-89.9534740200135"
    }
  },
  {
    "service_request": "2024-1091560",
    "request_type": "Property Maintenance",
    "request_reason": "Property Maintenance",
    "date_created": "2024-05-08T15:00:36.000",
    "date_modified": "2024-05-08T15:00:36.000",
    "request_status": "Pending",
    "responsible_agency": "Department of Code Enforcement",
    "final_address": "1326 S Roman St",
    "address_councildis": "B",
    "status": "Pending",
    "rowid": "1091560",
    "final_x": "3674694.82587",
    "final_y": "528833.043648",
    "longitude": "-90.089650729606",
    "latitude": "29.948312312068964",
    "geocoded_column": {
      "latitude": "29.948312312068964",
      "longitude": "-90.089650729606"
    }
  },
  {
    "service_request": "2024-1091559",
    "request_type": "Roads/Drainage",
    "request_reason": "Catch Basin - Clogged",
    "date_created": "2024-05-08T14:59:51.000",
    "date_modified": "2024-05-08T14:59:51.000",
    "request_status": "Pending",
    "responsible_agency": "Department of Public Works",
    "final_address": "3200 BLK Canal St",
    "address_councildis": "B",
    "status": "Pending",
    "rowid": "1091559",
    "final_x": "3673709.2408",
    "final_y": "536313.590546",
    "longitude": "-90.09250686211166",
    "latitude": "29.96891069627765",
    "geocoded_column": {
      "latitude": "29.96891069627765",
      "longitude": "-90.09250686211166"
    }
  },
  {
    "service_request": "2024-1091558",
    "request_type": "Property Maintenance",
    "request_reason": "Property Maintenance",
    "date_created": "2024-05-08T14:59:49.000",
    "date_modified": "2024-05-08T14:59:49.000",
    "request_status": "Pending",
    "responsible_agency": "Department of Code Enforcement",
    "final_address": "1328 S Roman St",
    "address_councildis": "B",
    "status": "Pending",
    "rowid": "1091558",
    "final_x": "3674684.40916",
    "final_y": "528819.293696",
    "longitude": "-90.08968409070373",
    "latitude": "29.94827481512613",
    "geocoded_column": {
      "latitude": "29.94827481512613",
      "longitude": "-90.08968409070373"
    }
  },
  {
    "service_request": "2024-1091557",
    "request_type": "Trash/Recycling",
    "request_reason": "Illegal Dumping",
    "date_created": "2024-05-08T14:58:31.000",
    "date_modified": "2024-05-08T14:58:31.000",
    "request_status": "Pending",
    "responsible_agency": "Department of Sanitation",
    "final_address": "3125 Thalia St",
    "address_councildis": "B",
    "status": "Pending",
    "rowid": "1091557",
    "final_x": "3674715.77243",
    "final_y": "528770.55136",
    "longitude": "-90.0895867343185",
    "latitude": "29.94813985378458",
    "geocoded_column": {
      "latitude": "29.94813985378458",
      "longitude": "-90.0895867343185"
    }
  },
  {
    "service_request": "2024-1091556",
    "request_type": "Trash/Recycling",
    "request_reason": "Illegal Dumping",
    "date_created": "2024-05-08T14:58:31.000",
    "date_modified": "2024-05-08T14:58:31.000",
    "request_status": "Pending",
    "responsible_agency": "Department of Sanitation",
    "final_address": "3125 Thalia St",
    "address_councildis": "B",
    "status": "Pending",
    "rowid": "1091556",
    "final_x": "3674715.77243",
    "final_y": "528770.55136",
    "longitude": "-90.0895867343185",
    "latitude": "29.94813985378458",
    "geocoded_column": {
      "latitude": "29.94813985378458",
      "longitude": "-90.0895867343185"
    }
  },
  {
    "service_request": "2024-1091555",
    "request_type": "Traffic Signals/Signs/Striping/Streetlights",
    "request_reason": "Request for Stop Sign",
    "date_created": "2024-05-08T14:58:14.000",
    "date_modified": "2024-05-08T14:58:14.000",
    "request_status": "Pending",
    "responsible_agency": "Department of Public Works",
    "final_address": "1001 Alabo St",
    "address_councildis": "E",
    "status": "Pending",
    "rowid": "1091555",
    "final_x": "3698834.70468",
    "final_y": "533121.962436",
    "longitude": "-90.01327562260755",
    "latitude": "29.959362804255633",
    "geocoded_column": {
      "latitude": "29.959362804255633",
      "longitude": "-90.01327562260755"
    }
  },
  {
    "service_request": "2024-1091554",
    "request_type": "Trash/Recycling",
    "request_reason": "Order Recycling Cart",
    "date_created": "2024-05-08T14:57:08.000",
    "date_modified": "2024-05-08T14:57:08.000",
    "request_status": "Pending",
    "responsible_agency": "Department of Sanitation",
    "final_address": "10911 Willowbrae Dr",
    "address_councildis": "E",
    "status": "Pending",
    "rowid": "1091554",
    "final_x": "3711180.4307",
    "final_y": "564462.388705",
    "longitude": "-89.97311634308",
    "latitude": "30.045140092840576",
    "geocoded_column": {
      "latitude": "30.045140092840576",
      "longitude": "-89.97311634308"
    }
  },
  {
    "service_request": "2024-1091553",
    "request_type": "Trash/Recycling",
    "request_reason": "Replace Trash Cart",
    "date_created": "2024-05-08T14:56:24.000",
    "date_modified": "2024-05-08T14:56:24.000",
    "request_status": "Pending",
    "responsible_agency": "Department of Sanitation",
    "final_address": "10911 Willowbrae Dr",
    "address_councildis": "E",
    "status": "Assigned to Contractor",
    "contractor": "Waste Pro",
    "rowid": "1091553",
    "final_x": "3711180.4307",
    "final_y": "564462.388705",
    "longitude": "-89.97311634308",
    "latitude": "30.045140092840576",
    "geocoded_column": {
      "latitude": "30.045140092840576",
      "longitude": "-89.97311634308"
    }
  },
  {
    "service_request": "2024-1091552",
    "request_type": "Trash/Recycling",
    "request_reason": "Replace Trash Cart",
    "date_created": "2024-05-08T14:53:22.000",
    "date_modified": "2024-05-08T14:53:23.000",
    "request_status": "Pending",
    "responsible_agency": "Department of Sanitation",
    "final_address": "3615 Banks St",
    "address_councildis": "B",
    "status": "Assigned to Contractor",
    "contractor": "IV Waste",
    "rowid": "1091552",
    "final_x": "3671805.58593",
    "final_y": "536366.788935",
    "longitude": "-90.09851692967594",
    "latitude": "29.969113519792653",
    "geocoded_column": {
      "latitude": "29.969113519792653",
      "longitude": "-90.09851692967594"
    }
  },
  {
    "service_request": "2024-1091551",
    "request_type": "Trash/Recycling",
    "request_reason": "Request a Large Item Pick Up",
    "date_created": "2024-05-08T14:42:53.000",
    "date_modified": "2024-05-08T16:38:47.000",
    "case_close_date": "2024-05-08T11:38:47.000",
    "request_status": "Closed",
    "responsible_agency": "Department of Sanitation",
    "final_address": "2606 Jefferson Ave",
    "address_councildis": "A",
    "status": "Assigned to Contractor",
    "contractor": "IV Waste",
    "contractor_action": "Completed",
    "rowid": "1091551",
    "final_x": "3668051.46612",
    "final_y": "525071.182525",
    "longitude": "-90.11075336013599",
    "latitude": "29.93816500701529",
    "geocoded_column": {
      "latitude": "29.93816500701529",
      "longitude": "-90.11075336013599"
    }
  },
  {
    "service_request": "2024-1091550",
    "request_type": "Trash/Recycling",
    "request_reason": "Request a Large Item Pick Up",
    "date_created": "2024-05-08T14:42:40.000",
    "date_modified": "2024-05-08T14:42:41.000",
    "request_status": "Pending",
    "responsible_agency": "Department of Sanitation",
    "final_address": "7312 Onyx St",
    "address_councildis": "D",
    "status": "Assigned to Contractor",
    "contractor": "IV Waste",
    "rowid": "1091550",
    "final_x": "3668815.22522",
    "final_y": "555696.395609",
    "longitude": "-90.10730756759968",
    "latitude": "30.022351543176477",
    "geocoded_column": {
      "latitude": "30.022351543176477",
      "longitude": "-90.10730756759968"
    }
  },
  {
    "service_request": "2024-1091549",
    "request_type": "Trash/Recycling",
    "request_reason": "Missed Trash Pick-Up",
    "date_created": "2024-05-08T14:41:43.000",
    "date_modified": "2024-05-08T16:58:23.000",
    "case_close_date": "2024-05-08T11:58:23.000",
    "request_status": "Closed",
    "responsible_agency": "Department of Sanitation",
    "final_address": "1607 Joliet St",
    "address_councildis": "A",
    "status": "Assigned to Contractor",
    "contractor": "IV Waste",
    "contractor_action": "Completed",
    "rowid": "1091549",
    "final_x": "3661931.76051",
    "final_y": "530402.019138",
    "longitude": "-90.1298971707884",
    "latitude": "29.95300122785835",
    "geocoded_column": {
      "latitude": "29.95300122785835",
      "longitude": "-90.1298971707884"
    }
  },
  {
    "service_request": "2024-1091548",
    "request_type": "Roads/Drainage",
    "request_reason": "Pothole",
    "date_created": "2024-05-08T14:40:58.000",
    "date_modified": "2024-05-08T14:40:58.000",
    "request_status": "Pending",
    "responsible_agency": "Department of Public Works",
    "final_address": "ELYSIAN FIELDS AV OVER & ELYSIAN FIELDS AVE & ABUNDANCE ST",
    "address_councildis": "D",
    "status": "Pending",
    "rowid": "1091548",
    "final_x": "3684376.2",
    "final_y": "543672.68",
    "longitude": "-90.05856141600397",
    "latitude": "29.98882368167206",
    "geocoded_column": {
      "latitude": "29.98882368167206",
      "longitude": "-90.05856141600397"
    }
  },
  {
    "service_request": "2024-1091546",
    "request_type": "Traffic Signals/Signs/Striping/Streetlights",
    "request_reason": "Request for Traffic Calming due to Speeding",
    "date_created": "2024-05-08T14:40:56.000",
    "date_modified": "2024-05-08T14:40:56.000",
    "request_status": "Pending",
    "responsible_agency": "Department of Public Works",
    "final_address": "1323 S Derbigny St",
    "address_councildis": "B",
    "status": "Pending",
    "rowid": "1091546",
    "final_x": "3674920.98037",
    "final_y": "528685.855808",
    "longitude": "-90.08894171264667",
    "latitude": "29.947900842776853",
    "geocoded_column": {
      "latitude": "29.947900842776853",
      "longitude": "-90.08894171264667"
    }
  },
  {
    "service_request": "2024-1091547",
    "request_type": "Traffic Signals/Signs/Striping/Streetlights",
    "request_reason": "Request for Traffic Calming due to Speeding",
    "date_created": "2024-05-08T14:40:56.000",
    "date_modified": "2024-05-08T14:40:56.000",
    "request_status": "Pending",
    "responsible_agency": "Department of Public Works",
    "final_address": "1323 S Derbigny St",
    "address_councildis": "B",
    "status": "Pending",
    "rowid": "1091547",
    "final_x": "3674920.98037",
    "final_y": "528685.855808",
    "longitude": "-90.08894171264667",
    "latitude": "29.947900842776853",
    "geocoded_column": {
      "latitude": "29.947900842776853",
      "longitude": "-90.08894171264667"
    }
  },
  {
    "service_request": "2024-1091545",
    "request_type": "Trash/Recycling",
    "request_reason": "Request a Large Item Pick Up",
    "date_created": "2024-05-08T14:39:58.000",
    "date_modified": "2024-05-08T14:39:58.000",
    "request_status": "Pending",
    "responsible_agency": "Department of Sanitation",
    "final_address": "1235 Casa Calvo St",
    "address_councildis": "C",
    "status": "Assigned to Contractor",
    "contractor": "Richards Disposal",
    "rowid": "1091545",
    "final_x": "3692022.42173",
    "final_y": "526442.866494",
    "longitude": "-90.03502608208196",
    "latitude": "29.941211637838627",
    "geocoded_column": {
      "latitude": "29.941211637838627",
      "longitude": "-90.03502608208196"
    }
  },
  {
    "service_request": "2024-1091544",
    "request_type": "Trash/Recycling",
    "request_reason": "Order Recycling Cart",
    "date_created": "2024-05-08T14:39:48.000",
    "date_modified": "2024-05-08T14:39:48.000",
    "request_status": "Pending",
    "responsible_agency": "Department of Sanitation",
    "final_address": "326 S Gayoso St",
    "address_councildis": "B",
    "status": "Pending",
    "rowid": "1091544",
    "final_x": "3673749.92852",
    "final_y": "535017.451974",
    "longitude": "-90.09242269656946",
    "latitude": "29.965345540648517",
    "geocoded_column": {
      "latitude": "29.965345540648517",
      "longitude": "-90.09242269656946"
    }
  },
  {
    "service_request": "2024-1091543",
    "request_type": "Trash/Recycling",
    "request_reason": "Order Trash Cart",
    "date_created": "2024-05-08T14:39:32.000",
    "date_modified": "2024-05-08T14:39:32.000",
    "request_status": "Pending",
    "responsible_agency": "Department of Sanitation",
    "final_address": "326 S Gayoso St",
    "address_councildis": "B",
    "status": "Assigned to Contractor",
    "contractor": "IV Waste",
    "rowid": "1091543",
    "final_x": "3673749.92852",
    "final_y": "535017.451974",
    "longitude": "-90.09242269656946",
    "latitude": "29.965345540648517",
    "geocoded_column": {
      "latitude": "29.965345540648517",
      "longitude": "-90.09242269656946"
    }
  },
  {
    "service_request": "2024-1091542",
    "request_type": "Trash/Recycling",
    "request_reason": "Request a Large Item Pick Up",
    "date_created": "2024-05-08T14:36:35.000",
    "date_modified": "2024-05-08T14:36:36.000",
    "request_status": "Pending",
    "responsible_agency": "Department of Sanitation",
    "final_address": "2719 S Liberty St",
    "address_councildis": "B",
    "status": "Assigned to Contractor",
    "contractor": "IV Waste",
    "rowid": "1091542",
    "final_x": "3674651.48206",
    "final_y": "524714.789692",
    "longitude": "-90.08992868603079",
    "latitude": "29.93698976025974",
    "geocoded_column": {
      "latitude": "29.93698976025974",
      "longitude": "-90.08992868603079"
    }
  },
  {
    "service_request": "2024-1091541",
    "request_type": "Trash/Recycling",
    "request_reason": "Repair Trash Cart",
    "date_created": "2024-05-08T14:35:08.000",
    "date_modified": "2024-05-08T14:35:08.000",
    "request_status": "Pending",
    "responsible_agency": "Department of Sanitation",
    "final_address": "5023 S Liberty St",
    "address_councildis": "B",
    "status": "Assigned to Contractor",
    "contractor": "IV Waste",
    "rowid": "1091541",
    "final_x": "3668597.03783",
    "final_y": "523254.100667",
    "longitude": "-90.10909222695186",
    "latitude": "29.933152597843257",
    "geocoded_column": {
      "latitude": "29.933152597843257",
      "longitude": "-90.10909222695186"
    }
  },
  {
    "service_request": "2024-1091540",
    "request_type": "Trash/Recycling",
    "request_reason": "Repair Trash Cart",
    "date_created": "2024-05-08T14:34:42.000",
    "date_modified": "2024-05-08T14:34:43.000",
    "request_status": "Pending",
    "responsible_agency": "Department of Sanitation",
    "final_address": "1427 Sumner St",
    "address_councildis": "C",
    "status": "Assigned to Contractor",
    "contractor": "Richards Disposal",
    "rowid": "1091540",
    "final_x": "3690972.02275",
    "final_y": "526020.423934",
    "longitude": "-90.03835745035494",
    "latitude": "29.940082748850315",
    "geocoded_column": {
      "latitude": "29.940082748850315",
      "longitude": "-90.03835745035494"
    }
  },
  {
    "service_request": "2024-1091539",
    "request_type": "Trash/Recycling",
    "request_reason": "Request a Large Item Pick Up",
    "date_created": "2024-05-08T14:32:48.000",
    "date_modified": "2024-05-08T14:32:49.000",
    "request_status": "Pending",
    "responsible_agency": "Department of Sanitation",
    "final_address": "3507 S Liberty St",
    "address_councildis": "B",
    "status": "Assigned to Contractor",
    "contractor": "IV Waste",
    "rowid": "1091539",
    "final_x": "3672755.65217",
    "final_y": "523693.737275",
    "longitude": "-90.09594874640213",
    "latitude": "29.93423862889288",
    "geocoded_column": {
      "latitude": "29.93423862889288",
      "longitude": "-90.09594874640213"
    }
  },
  {
    "service_request": "2024-1091538",
    "request_type": "Trash/Recycling",
    "request_reason": "Replace Recycling Cart",
    "date_created": "2024-05-08T14:29:52.000",
    "date_modified": "2024-05-08T14:29:52.000",
    "request_status": "Pending",
    "responsible_agency": "Department of Sanitation",
    "final_address": "30 Forest Oaks Dr",
    "address_councildis": "C",
    "status": "Pending",
    "rowid": "1091538",
    "final_x": "3722388.64255",
    "final_y": "510252.565871",
    "longitude": "-89.93977717787448",
    "latitude": "29.895713160679822",
    "geocoded_column": {
      "latitude": "29.895713160679822",
      "longitude": "-89.93977717787448"
    }
  },
  {
    "service_request": "2024-1091536",
    "request_type": "Traffic Signals/Signs/Striping/Streetlights",
    "request_reason": "Street Name Sign Damaged or Missing",
    "date_created": "2024-05-08T14:25:26.000",
    "date_modified": "2024-05-08T14:25:27.000",
    "request_status": "Pending",
    "responsible_agency": "Department of Public Works",
    "final_address": "CATINA ST & MILNE ST",
    "address_councildis": "A",
    "status": "Pending",
    "rowid": "1091536",
    "final_x": "3666836.7",
    "final_y": "545288.78",
    "longitude": "-90.1139092234718",
    "latitude": "29.993792286954058",
    "geocoded_column": {
      "latitude": "29.993792286954058",
      "longitude": "-90.1139092234718"
    }
  },
  {
    "service_request": "2024-1091535",
    "request_type": "Property Maintenance",
    "request_reason": "Property Maintenance",
    "date_created": "2024-05-08T14:25:13.000",
    "date_modified": "2024-05-08T14:25:13.000",
    "request_status": "Pending",
    "responsible_agency": "Department of Code Enforcement",
    "final_address": "3101 Erato St",
    "address_councildis": "B",
    "status": "Pending",
    "rowid": "1091535",
    "final_x": "3675051.61614",
    "final_y": "528968.586304",
    "longitude": "-90.08851954479236",
    "latitude": "29.94867435642137",
    "geocoded_column": {
      "latitude": "29.94867435642137",
      "longitude": "-90.08851954479236"
    }
  },
  {
    "service_request": "2024-1091534",
    "request_type": "Traffic Signals/Signs/Striping/Streetlights",
    "request_reason": "Traffic Sign Missing/Damaged",
    "date_created": "2024-05-08T14:21:42.000",
    "date_modified": "2024-05-08T14:21:42.000",
    "request_status": "Pending",
    "responsible_agency": "Department of Public Works",
    "final_address": "1220 S Derbigny St",
    "address_councildis": "B",
    "status": "Pending",
    "rowid": "1091534",
    "final_x": "3675214.23925",
    "final_y": "528957.366528",
    "longitude": "-90.08800645906568",
    "latitude": "29.948638646919786",
    "geocoded_column": {
      "latitude": "29.948638646919786",
      "longitude": "-90.08800645906568"
    }
  },
  {
    "service_request": "2024-1091533",
    "request_type": "Traffic Signals/Signs/Striping/Streetlights",
    "request_reason": "Crosswalks and Signage",
    "date_created": "2024-05-08T14:20:19.000",
    "date_modified": "2024-05-08T14:20:19.000",
    "request_status": "Pending",
    "responsible_agency": "Department of Public Works",
    "final_address": "2401 Bienville Ave",
    "address_councildis": "B",
    "status": "Pending",
    "rowid": "1091533",
    "final_x": "3676865.25345",
    "final_y": "535023.914822",
    "longitude": "-90.08258442150571",
    "latitude": "29.96527017544061",
    "geocoded_column": {
      "latitude": "29.96527017544061",
      "longitude": "-90.08258442150571"
    }
  },
  {
    "service_request": "2024-1091532",
    "request_type": "Roads/Drainage",
    "request_reason": "WaterMain Break",
    "date_created": "2024-05-08T14:18:12.000",
    "date_modified": "2024-05-08T14:18:12.000",
    "request_status": "Pending",
    "responsible_agency": "Department of Public Works",
    "final_address": "216 38Th St",
    "address_councildis": "A",
    "status": "Pending",
    "rowid": "1091532",
    "final_x": "3665586.8713",
    "final_y": "552615.445334",
    "longitude": "-90.11761170986269",
    "latitude": "30.013974598392412",
    "geocoded_column": {
      "latitude": "30.013974598392412",
      "longitude": "-90.11761170986269"
    }
  },
  {
    "service_request": "2024-1091531",
    "request_type": "Trash/Recycling",
    "request_reason": "Request a Large Item Pick Up",
    "date_created": "2024-05-08T14:15:06.000",
    "date_modified": "2024-05-08T14:15:07.000",
    "request_status": "Pending",
    "responsible_agency": "Department of Sanitation",
    "final_address": "318 N Anthony St",
    "address_councildis": "A",
    "status": "Assigned to Contractor",
    "contractor": "IV Waste",
    "rowid": "1091531",
    "final_x": "3669218.95233",
    "final_y": "541034.670091",
    "longitude": "-90.10652789461801",
    "latitude": "29.982025013576067",
    "geocoded_column": {
      "latitude": "29.982025013576067",
      "longitude": "-90.10652789461801"
    }
  },
  {
    "service_request": "2024-1091530",
    "request_type": "Parks & Parkways",
    "request_reason": "Request Tree Service (Right of Way/Public Property)",
    "date_created": "2024-05-08T14:10:26.000",
    "date_modified": "2024-05-08T14:10:26.000",
    "request_status": "Pending",
    "responsible_agency": "Department of Parks & Parkway",
    "final_address": "5979 Marshal Foch St",
    "address_councildis": "A",
    "status": "Pending",
    "rowid": "1091530",
    "final_x": "3669905.39572",
    "final_y": "547098.300945",
    "longitude": "-90.10415432308314",
    "latitude": "29.998677689870977",
    "geocoded_column": {
      "latitude": "29.998677689870977",
      "longitude": "-90.10415432308314"
    }
  },
  {
    "service_request": "2024-1091529",
    "request_type": "Trash/Recycling",
    "request_reason": "Request a Large Item Pick Up",
    "date_created": "2024-05-08T14:06:27.000",
    "date_modified": "2024-05-08T14:06:28.000",
    "request_status": "Pending",
    "responsible_agency": "Department of Sanitation",
    "final_address": "4834 Michoud Blvd",
    "address_councildis": "E",
    "status": "Assigned to Contractor",
    "contractor": "Waste Pro",
    "rowid": "1091529",
    "final_x": "3724987.40089",
    "final_y": "560760.549662",
    "longitude": "-89.92962366832438",
    "latitude": "30.034503669224947",
    "geocoded_column": {
      "latitude": "30.034503669224947",
      "longitude": "-89.92962366832438"
    }
  },
  {
    "service_request": "2024-1091528",
    "request_type": "Trash/Recycling",
    "request_reason": "Illegal Dumping",
    "date_created": "2024-05-08T14:04:09.000",
    "date_modified": "2024-05-08T14:04:09.000",
    "request_status": "Pending",
    "responsible_agency": "Department of Sanitation",
    "final_address": "3121 Thalia St",
    "address_councildis": "B",
    "status": "Pending",
    "rowid": "1091528",
    "final_x": "3674792.5755",
    "final_y": "528736.531136",
    "longitude": "-90.08934540159737",
    "latitude": "29.948044016922328",
    "geocoded_column": {
      "latitude": "29.948044016922328",
      "longitude": "-90.08934540159737"
    }
  },
  {
    "service_request": "2024-1091527",
    "request_type": "Mosquito, Termite & Rodent Control",
    "request_reason": "Rodent Complaint (Rats)",
    "date_created": "2024-05-08T14:02:30.000",
    "date_modified": "2024-05-08T14:02:30.000",
    "request_status": "Pending",
    "responsible_agency": "Mosquito, Termite & Rodent Control Board",
    "final_address": "3117 Thalia St",
    "address_councildis": "B",
    "status": "Pending",
    "rowid": "1091527",
    "final_x": "3674817.87566",
    "final_y": "528720.670336",
    "longitude": "-90.0892660623818",
    "latitude": "29.947999649685144",
    "geocoded_column": {
      "latitude": "29.947999649685144",
      "longitude": "-90.0892660623818"
    }
  },
  {
    "service_request": "2024-1091526",
    "request_type": "Trash/Recycling",
    "request_reason": "Missed Trash Pick-Up",
    "date_created": "2024-05-08T14:00:27.000",
    "date_modified": "2024-05-08T14:00:27.000",
    "request_status": "Pending",
    "responsible_agency": "Department of Sanitation",
    "final_address": "4827 Chrysler St",
    "address_councildis": "E",
    "status": "Assigned to Contractor",
    "contractor": "Waste Pro",
    "rowid": "1091526",
    "final_x": "3715316.29035",
    "final_y": "557199.628059",
    "longitude": "-89.96032023986007",
    "latitude": "30.02503477412572",
    "geocoded_column": {
      "latitude": "30.02503477412572",
      "longitude": "-89.96032023986007"
    }
  },
  {
    "service_request": "2024-1091525",
    "request_type": "Trash/Recycling",
    "request_reason": "Return Recycling Cart",
    "date_created": "2024-05-08T13:56:45.000",
    "date_modified": "2024-05-08T13:56:45.000",
    "request_status": "Pending",
    "responsible_agency": "Department of Sanitation",
    "final_address": "1664 St Denis St",
    "address_councildis": "D",
    "status": "Pending",
    "rowid": "1091525",
    "final_x": "3680275.05672",
    "final_y": "545880.445776",
    "longitude": "-90.07143887195188",
    "latitude": "29.995019077379084",
    "geocoded_column": {
      "latitude": "29.995019077379084",
      "longitude": "-90.07143887195188"
    }
  },