[
  {
    "service_request": "2022-867045",
    "request_type": "Trash/Recycling",
    "request_reason": "Replace Trash Cart",
    "date_created": "2022-03-14T22:57:15.000",
    "date_modified": "2022-03-14T22:57:15.000",
    "request_status": "Pending",
    "responsible_agency": "Department of Sanitation",
    "final_address": "4123 N Rampart St",
    "address_councildis": "C",
    "status": "Assigned to Contractor",
    "contractor": "Metro Disposal",
    "rowid": "867045",
    "final_x": "3692199.27203",
    "final_y": "534772.880198",
    "longitude": "-90.03416955000782",
    "latitude": "29.964110773256415",
    "geocoded_column": {
      "latitude": "29.964110773256415",
      "longitude": "-90.03416955000782"
    }
  },
  {
    "service_request": "2022-867044",
    "request_type": "Trash/Recycling",
    "request_reason": "Order Trash Cart",
    "date_created": "2022-03-14T22:43:09.000",
    "date_modified": "2022-03-14T22:43:10.000",
    "request_status": "Pending",
    "responsible_agency": "Department of Sanitation",
    "final_address": "20 Honeysuckle Ln",
    "address_councildis": "E",
    "status": "Assigned to Contractor",
    "contractor": "Metro Disposal",
    "rowid": "867044",
    "final_x": "3712932.88818",
    "final_y": "568382.247589",
    "longitude": "-89.96743011865442",
    "latitude": "30.05586079325025",
    "geocoded_column": {
      "latitude": "30.05586079325025",
      "longitude": "-89.96743011865442"
    }
  },
  {
    "service_request": "2022-867043",
    "request_type": "Trash/Recycling",
    "request_reason": "Missed Trash Pick-Up",
    "date_created": "2022-03-14T22:42:39.000",
    "date_modified": "2022-03-14T22:42:40.000",
    "request_status": "Pending",
    "responsible_agency": "Department of Sanitation",
    "final_address": "2420 Ursulines Ave",
    "address_councildis": "D",
    "status": "Assigned to Contractor",
    "contractor": "Richards Disposal",
    "rowid": "867043",
    "final_x": "3678523.08565",
    "final_y": "537359.475272",
    "longitude": "-90.0772682197892",
    "latitude": "29.97164230635432",
    "geocoded_column": {
      "latitude": "29.97164230635432",
      "longitude": "-90.0772682197892"
    }
  },
  {
    "service_request": "2022-867042",
    "request_type": "Traffic Signals/Signs/Striping/Streetlights",
    "request_reason": "Traffic Signal Malfunctioning/Damaged",
    "date_created": "2022-03-14T22:26:21.000",
    "date_modified": "2022-03-14T22:26:21.000",
    "request_status": "Pending",
    "responsible_agency": "Department of Public Works",
    "final_address": "2223 Broadway St",
    "address_councildis": "A",
    "status": "Pending",
    "rowid": "867042",
    "final_x": "3666277.71597",
    "final_y": "529550.944705",
    "longitude": "-90.11620304372894",
    "latitude": "29.950534828339777",
    "geocoded_column": {
      "latitude": "29.950534828339777",
      "longitude": "-90.11620304372894"
    }
  },
  {
    "service_request": "2022-867041",
    "request_type": "Traffic Signals/Signs/Striping/Streetlights",
    "request_reason": "Street Light Outage/Malfunction",
    "date_created": "2022-03-14T22:07:21.000",
    "date_modified": "2022-03-14T22:07:22.000",
    "request_status": "Pending",
    "responsible_agency": "Department of Public Works",
    "final_address": "404 Notre Dame St",
    "address_councildis": "B",
    "status": "Pending",
    "contractor": "Royal Engineering",
    "rowid": "867041",
    "final_x": "3681650.56789",
    "final_y": "527968.232959",
    "longitude": "-90.06771875788849",
    "latitude": "29.945724949155576",
    "geocoded_column": {
      "latitude": "29.945724949155576",
      "longitude": "-90.06771875788849"
    }
  },
  {
    "service_request": "2022-867040",
    "request_type": "Traffic Signals/Signs/Striping/Streetlights",
    "request_reason": "Street Light Outage/Malfunction",
    "date_created": "2022-03-14T22:03:04.000",
    "date_modified": "2022-03-14T22:03:05.000",
    "request_status": "Pending",
    "responsible_agency": "Department of Public Works",
    "final_address": "418 Girod St",
    "address_councildis": "B",
    "status": "Pending",
    "contractor": "Royal Engineering",
    "rowid": "867040",
    "final_x": "3681563.71074",
    "final_y": "528259.404288",
    "longitude": "-90.06798284235923",
    "latitude": "29.946528210240025",
    "geocoded_column": {
      "latitude": "29.946528210240025",
      "longitude": "-90.06798284235923"
    }
  },
  {
    "service_request": "2022-867039",
    "request_type": "Traffic Signals/Signs/Striping/Streetlights",
    "request_reason": "Street Light Outage/Malfunction",
    "date_created": "2022-03-14T21:52:19.000",
    "date_modified": "2022-03-14T21:52:20.000",
    "request_status": "Pending",
    "responsible_agency": "Department of Public Works",
    "final_address": "425 Notre Dame St",
    "address_councildis": "B",
    "status": "Pending",
    "contractor": "Royal Engineering",
    "rowid": "867039",
    "final_x": "3681490.72015",
    "final_y": "528052.216383",
    "longitude": "-90.0682205220806",
    "latitude": "29.9459607291493",
    "geocoded_column": {
      "latitude": "29.9459607291493",
      "longitude": "-90.0682205220806"
    }
  },
  {
    "service_request": "2022-867037",
    "request_type": "Trash/Recycling",
    "request_reason": "Request a Large Item Pick Up",
    "date_created": "2022-03-14T21:44:05.000",
    "date_modified": "2022-03-14T21:44:06.000",
    "request_status": "Pending",
    "responsible_agency": "Department of Sanitation",
    "final_address": "2120 Cadiz St",
    "address_councildis": "B",
    "status": "Assigned to Contractor",
    "contractor": "Richards Disposal",
    "rowid": "867037",
    "final_x": "3669871.16538",
    "final_y": "522750.692538",
    "longitude": "-90.10508691549002",
    "latitude": "29.931730894057985",
    "geocoded_column": {
      "latitude": "29.931730894057985",
      "longitude": "-90.10508691549002"
    }
  },
  {
    "service_request": "2022-867036",
    "request_type": "Property Maintenance",
    "request_reason": "Property Maintenance",
    "date_created": "2022-03-14T21:19:44.000",
    "date_modified": "2022-03-14T21:19:44.000",
    "request_status": "Pending",
    "responsible_agency": "Department of Code Enforcement",
    "final_address": "1930 Fourth St",
    "address_councildis": "B",
    "status": "Pending",
    "rowid": "867036",
    "final_x": "3675411.85697",
    "final_y": "523820.229051",
    "longitude": "-90.08755884315187",
    "latitude": "29.934507300745267",
    "geocoded_column": {
      "latitude": "29.934507300745267",
      "longitude": "-90.08755884315187"
    }
  },
  {
    "service_request": "2022-867035",
    "request_type": "Property Maintenance",
    "request_reason": "Property Maintenance",
    "date_created": "2022-03-14T20:30:33.000",
    "date_modified": "2022-03-14T20:30:33.000",
    "request_status": "Pending",
    "responsible_agency": "Department of Code Enforcement",
    "final_address": "3232 General Meyer Ave",
    "address_councildis": "C",
    "status": "Pending",
    "rowid": "867035",
    "final_x": "3696228.68381",
    "final_y": "526194.229374",
    "longitude": "-90.02175517706966",
    "latitude": "29.94039625392122",
    "geocoded_column": {
      "latitude": "29.94039625392122",
      "longitude": "-90.02175517706966"
    }
  },
  {
    "service_request": "2022-867034",
    "request_type": "Trash/Recycling",
    "request_reason": "Request a Large Item Pick Up",
    "date_created": "2022-03-14T20:21:04.000",
    "date_modified": "2022-03-14T20:21:05.000",
    "request_status": "Pending",
    "responsible_agency": "Department of Sanitation",
    "final_address": "4516 S Roman St",
    "address_councildis": "B",
    "status": "Assigned to Contractor",
    "contractor": "Richards Disposal",
    "rowid": "867034",
    "final_x": "3669735.46894",
    "final_y": "526464.347838",
    "longitude": "-90.1053896587823",
    "latitude": "29.941946247754846",
    "geocoded_column": {
      "latitude": "29.941946247754846",
      "longitude": "-90.1053896587823"
    }
  },
  {
    "service_request": "2022-867033",
    "request_type": "Tax and Revenue",
    "request_reason": "General Tax Question",
    "date_created": "2022-03-14T20:20:26.000",
    "date_modified": "2022-03-14T20:20:26.000",
    "request_status": "Pending",
    "responsible_agency": "Bureau of Revenue",
    "final_address": "1216 Lyons St",
    "address_councildis": "B",
    "status": "Pending",
    "rowid": "867033",
    "final_x": "3669086.3849",
    "final_y": "519782.129784",
    "longitude": "-90.10766463035743",
    "latitude": "29.923591399527027",
    "geocoded_column": {
      "latitude": "29.923591399527027",
      "longitude": "-90.10766463035743"
    }
  },
  {
    "service_request": "2022-867032",
    "request_type": "Roads/Drainage",
    "request_reason": "Pothole",
    "date_created": "2022-03-14T20:13:44.000",
    "date_modified": "2022-03-14T20:13:44.000",
    "request_status": "Pending",
    "responsible_agency": "Department of Public Works",
    "final_address": "1619 Farragut St",
    "address_councildis": "C",
    "status": "Pending",
    "rowid": "867032",
    "final_x": "3692226.0015",
    "final_y": "525237.085245",
    "longitude": "-90.03442649916113",
    "latitude": "29.937889807810247",
    "geocoded_column": {
      "latitude": "29.937889807810247",
      "longitude": "-90.03442649916113"
    }
  },
  {
    "service_request": "2022-867031",
    "request_type": "Traffic Signals/Signs/Striping/Streetlights",
    "request_reason": "Street Name Sign Damaged or Missing",
    "date_created": "2022-03-14T20:11:39.000",
    "date_modified": "2022-03-14T20:11:39.000",
    "request_status": "Pending",
    "responsible_agency": "Department of Public Works",
    "final_address": "3019 Wabash St",
    "address_councildis": "C",
    "status": "Pending",
    "rowid": "867031",
    "final_x": "3694811.71485",
    "final_y": "520549.544952",
    "longitude": "-90.02643201769148",
    "latitude": "29.924919822972946",
    "geocoded_column": {
      "latitude": "29.924919822972946",
      "longitude": "-90.02643201769148"
    }
  },
  {
    "service_request": "2022-867029",
    "request_type": "Parks & Parkways",
    "request_reason": "Request Tree Service (Right of Way/Public Property)",
    "date_created": "2022-03-14T20:04:00.000",
    "date_modified": "2022-03-14T20:04:00.000",
    "request_status": "Pending",
    "responsible_agency": "Department of Parks & Parkway",
    "final_address": "2131 Marengo St",
    "address_councildis": "B",
    "status": "Pending",
    "rowid": "867029",
    "final_x": "3671805.91463",
    "final_y": "523036.669371",
    "longitude": "-90.09896938955197",
    "latitude": "29.932460071129636",
    "geocoded_column": {
      "latitude": "29.932460071129636",
      "longitude": "-90.09896938955197"
    }
  },
  {
    "service_request": "2022-867028",
    "request_type": "Trash/Recycling",
    "request_reason": "Request a Large Item Pick Up",
    "date_created": "2022-03-14T19:58:26.000",
    "date_modified": "2022-03-14T19:58:27.000",
    "request_status": "Pending",
    "responsible_agency": "Department of Sanitation",
    "final_address": "5001 S Tonti St",
    "address_councildis": "A",
    "status": "Assigned to Contractor",
    "contractor": "Richards Disposal",
    "rowid": "867028",
    "final_x": "3668908.37511",
    "final_y": "528023.610559",
    "longitude": "-90.10794832995936",
    "latitude": "29.94625806040864",
    "geocoded_column": {
      "latitude": "29.94625806040864",
      "longitude": "-90.10794832995936"
    }
  },
  {
    "service_request": "2022-867027",
    "request_type": "Trash/Recycling",
    "request_reason": "Missed Trash Pick-Up",
    "date_created": "2022-03-14T19:43:00.000",
    "date_modified": "2022-03-14T19:43:01.000",
    "request_status": "Pending",
    "responsible_agency": "Department of Sanitation",
    "final_address": "1106 Dante St",
    "address_councildis": "A",
    "status": "Assigned to Contractor",
    "contractor": "Richards Disposal",
    "rowid": "867027",
    "final_x": "3661214.0368",
    "final_y": "528690.53632",
    "longitude": "-90.13222008727224",
    "latitude": "29.948315906467307",
    "geocoded_column": {
      "latitude": "29.948315906467307",
      "longitude": "-90.13222008727224"
    }
  },
  {
    "service_request": "2022-867026",
    "request_type": "Abandoned Vehicles",
    "request_reason": "Abandoned/Junk Vehicles",
    "date_created": "2022-03-14T19:36:15.000",
    "date_modified": "2022-03-14T19:36:15.000",
    "request_status": "Pending",
    "responsible_agency": "Department of Public Works",
    "final_address": "7000 E Renaissance Ct",
    "address_councildis": "E",
    "status": "Pending",
    "rowid": "867026",
    "final_x": "3717270.09349",
    "final_y": "567175.10378",
    "longitude": "-89.95376710264327",
    "latitude": "30.052398772238057",
    "geocoded_column": {
      "latitude": "30.052398772238057",
      "longitude": "-89.95376710264327"
    }
  },
  {
    "service_request": "2022-867024",
    "request_type": "Abandoned Vehicles",
    "request_reason": "Abandoned/Junk Vehicles",
    "date_created": "2022-03-14T19:26:13.000",
    "date_modified": "2022-03-14T19:26:13.000",
    "request_status": "Pending",
    "responsible_agency": "Department of Public Works",
    "final_address": "7000 E Renaissance Ct",
    "address_councildis": "E",
    "status": "Pending",
    "rowid": "867024",
    "final_x": "3717270.09349",
    "final_y": "567175.10378",
    "longitude": "-89.95376710264327",
    "latitude": "30.052398772238057",
    "geocoded_column": {
      "latitude": "30.052398772238057",
      "longitude": "-89.95376710264327"
    }
  },
  {
    "service_request": "2022-867023",
    "request_type": "Trash/Recycling",
    "request_reason": "Illegal Dumping",
    "date_created": "2022-03-14T19:16:18.000",
    "date_modified": "2022-03-14T19:16:18.000",
    "request_status": "Pending",
    "responsible_agency": "Department of Sanitation",
    "final_address": "2000 BLK Touro St",
    "address_councildis": "D",
    "status": "Pending",
    "rowid": "867023",
    "final_x": "3683950.80201",
    "final_y": "539740.885529",
    "longitude": "-90.0600431236231",
    "latitude": "29.97802563781426",
    "geocoded_column": {
      "latitude": "29.97802563781426",
      "longitude": "-90.0600431236231"
    }
  },
  {
    "service_request": "2022-867022",
    "request_type": "Property Maintenance",
    "request_reason": "Property Maintenance",
    "date_created": "2022-03-14T19:11:36.000",
    "date_modified": "2022-03-14T19:11:36.000",
    "request_status": "Pending",
    "responsible_agency": "Department of Code Enforcement",
    "final_address": "4010 Mithra St",
    "address_councildis": "D",
    "status": "Pending",
    "rowid": "867022",
    "final_x": "3688825.71548",
    "final_y": "552972.090455",
    "longitude": "-90.04417631713933",
    "latitude": "30.014256814386865",
    "geocoded_column": {
      "latitude": "30.014256814386865",
      "longitude": "-90.04417631713933"
    }
  },
  {
    "service_request": "2022-867021",
    "request_type": "Property Maintenance",
    "request_reason": "Property Maintenance",
    "date_created": "2022-03-14T19:09:53.000",
    "date_modified": "2022-03-14T19:09:53.000",
    "request_status": "Pending",
    "responsible_agency": "Department of Code Enforcement",
    "final_address": "2600 Behrman Hwy",
    "address_councildis": "C",
    "status": "Pending",
    "rowid": "867021",
    "final_x": "3692749.28867",
    "final_y": "520880.119097",
    "longitude": "-90.03293055235815",
    "latitude": "29.92589331033643",
    "geocoded_column": {
      "latitude": "29.92589331033643",
      "longitude": "-90.03293055235815"
    }
  },
  {
    "service_request": "2022-867020",
    "request_type": "Property Maintenance",
    "request_reason": "Property Maintenance",
    "date_created": "2022-03-14T19:09:45.000",
    "date_modified": "2022-03-14T19:36:46.000",
    "request_status": "Pending",
    "responsible_agency": "Department of Code Enforcement",
    "final_address": "7518 LAFOURCHE STREET, NEW ORLEANS, LA 70127",
    "address_councildis": "E",
    "rowid": "867020",
    "final_x": "3710488.51198",
    "final_y": "564994.56733",
    "longitude": "-89.97528318177193",
    "latitude": "30.046625936322616",
    "geocoded_column": {
      "latitude": "30.046625936322616",
      "longitude": "-89.97528318177193"
    }
  },
  {
    "service_request": "2022-867019",
    "request_type": "Property Maintenance",
    "request_reason": "Property Maintenance",
    "date_created": "2022-03-14T19:08:05.000",
    "date_modified": "2022-03-14T19:08:05.000",
    "request_status": "Pending",
    "responsible_agency": "Department of Code Enforcement",
    "final_address": "2530 Behrman Hwy",
    "address_councildis": "C",
    "status": "Pending",
    "rowid": "867019",
    "final_x": "3692694.80649",
    "final_y": "520914.069945",
    "longitude": "-90.03310131960312",
    "latitude": "29.925988363749667",
    "geocoded_column": {
      "latitude": "29.925988363749667",
      "longitude": "-90.03310131960312"
    }
  },
  {
    "service_request": "2022-867018",
    "request_type": "Property Maintenance",
    "request_reason": "Property Maintenance",
    "date_created": "2022-03-14T19:07:07.000",
    "date_modified": "2022-03-14T19:07:07.000",
    "request_status": "Pending",
    "responsible_agency": "Department of Code Enforcement",
    "final_address": "2524 Behrman Hwy",
    "address_councildis": "C",
    "status": "Pending",
    "rowid": "867018",
    "final_x": "3692647.85033",
    "final_y": "520938.039161",
    "longitude": "-90.03324868731819",
    "latitude": "29.926055736026708",
    "geocoded_column": {
      "latitude": "29.926055736026708",
      "longitude": "-90.03324868731819"
    }
  },
  {
    "service_request": "2022-867017",
    "request_type": "Property Maintenance",
    "request_reason": "Property Maintenance",
    "date_created": "2022-03-14T19:05:01.000",
    "date_modified": "2022-03-14T19:05:01.000",
    "request_status": "Pending",
    "responsible_agency": "Department of Code Enforcement",
    "final_address": "1247 Foy St",
    "address_councildis": "D",
    "status": "Pending",
    "rowid": "867017",
    "final_x": "3677020.78926",
    "final_y": "546445.387857",
    "longitude": "-90.08169926120956",
    "latitude": "29.99667061187954",
    "geocoded_column": {
      "latitude": "29.99667061187954",
      "longitude": "-90.08169926120956"
    }
  },
  {
    "service_request": "2022-867016",
    "request_type": "Mayor's Request",
    "request_reason": "Requests to the Mayor",
    "date_created": "2022-03-14T18:56:20.000",
    "date_modified": "2022-03-14T18:56:20.000",
    "request_status": "Pending",
    "responsible_agency": "Executive Office of the Mayor",
    "final_address": "3900 St Bernard Ave",
    "address_councildis": "D",
    "status": "Pending",
    "rowid": "867016",
    "final_x": "3677593.07842",
    "final_y": "546518.145041",
    "longitude": "-90.07988891714871",
    "latitude": "29.996853467281106",
    "geocoded_column": {
      "latitude": "29.996853467281106",
      "longitude": "-90.07988891714871"
    }
  },
  {
    "service_request": "2022-867015",
    "request_type": "Trash/Recycling",
    "request_reason": "Order Recycling Cart",
    "date_created": "2022-03-14T18:28:23.000",
    "date_modified": "2022-03-14T18:28:23.000",
    "request_status": "Pending",
    "responsible_agency": "Department of Sanitation",
    "final_address": "1224 Soniat St",
    "address_councildis": "B",
    "status": "Pending",
    "rowid": "867015",
    "final_x": "3668335.09722",
    "final_y": "519858.505912",
    "longitude": "-90.11003360193652",
    "latitude": "29.92382348551325",
    "geocoded_column": {
      "latitude": "29.92382348551325",
      "longitude": "-90.11003360193652"
    }
  },
  {
    "service_request": "2022-867014",
    "request_type": "Trash/Recycling",
    "request_reason": "Missed Trash Pick-Up",
    "date_created": "2022-03-14T18:27:19.000",
    "date_modified": "2022-03-14T18:27:20.000",
    "request_status": "Pending",
    "responsible_agency": "Department of Sanitation",
    "final_address": "1222 Monroe St",
    "address_councildis": "A",
    "status": "Assigned to Contractor",
    "contractor": "Richards Disposal",
    "rowid": "867014",
    "final_x": "3660498.32832",
    "final_y": "529994.318593",
    "longitude": "-90.13443681485316",
    "latitude": "29.951921500124534",
    "geocoded_column": {
      "latitude": "29.951921500124534",
      "longitude": "-90.13443681485316"
    }
  },
  {
    "service_request": "2022-867013",
    "request_type": "Traffic Signals/Signs/Striping/Streetlights",
    "request_reason": "Traffic Signal Malfunctioning/Damaged",
    "date_created": "2022-03-14T18:23:34.000",
    "date_modified": "2022-03-14T18:23:34.000",
    "request_status": "Pending",
    "responsible_agency": "Department of Public Works",
    "final_address": "A P Tureaud Ave & N Galvez St, New Orleans, Louisiana, 70119",
    "status": "Pending",
    "rowid": "867013",
    "longitude": "0.0",
    "latitude": "0.0",
    "geocoded_column": {
      "latitude": "0.0",
      "longitude": "0.0"
    }
  },
  {
    "service_request": "2022-867012",
    "request_type": "Trash/Recycling",
    "request_reason": "Request a Large Item Pick Up",
    "date_created": "2022-03-14T18:22:45.000",
    "date_modified": "2022-03-14T18:22:45.000",
    "request_status": "Pending",
    "responsible_agency": "Department of Sanitation",
    "final_address": "2109 A P Tureaud Ave, New Orleans, Louisiana, 70119",
    "status": "Assigned to Contractor",
    "rowid": "867012",
    "longitude": "0.0",
    "latitude": "0.0",
    "geocoded_column": {
      "latitude": "0.0",
      "longitude": "0.0"
    }
  },
  {
    "service_request": "2022-867011",
    "request_type": "Abandoned Vehicles",
    "request_reason": "Abandoned/Junk Vehicles",
    "date_created": "2022-03-14T18:19:01.000",
    "date_modified": "2022-03-14T18:19:01.000",
    "request_status": "Pending",
    "responsible_agency": "Department of Public Works",
    "final_address": "1701 Eagle St",
    "address_councildis": "A",
    "status": "Pending",
    "rowid": "867011",
    "final_x": "3661366.14227",
    "final_y": "531347.089986",
    "longitude": "-90.13165185877536",
    "latitude": "29.9556161904415",
    "geocoded_column": {
      "latitude": "29.9556161904415",
      "longitude": "-90.13165185877536"
    }
  },
  {
    "service_request": "2022-867010",
    "request_type": "Abandoned Vehicles",
    "request_reason": "Abandoned/Junk Vehicles",
    "date_created": "2022-03-14T18:00:25.000",
    "date_modified": "2022-03-14T18:00:25.000",
    "request_status": "Pending",
    "responsible_agency": "Department of Public Works",
    "final_address": "3919 Cleveland Ave",
    "address_councildis": "A",
    "status": "Pending",
    "rowid": "867010",
    "final_x": "3671410.2875",
    "final_y": "537625.635272",
    "longitude": "-90.0997225125238",
    "latitude": "29.972586630789603",
    "geocoded_column": {
      "latitude": "29.972586630789603",
      "longitude": "-90.0997225125238"
    }
  },
  {
    "service_request": "2022-867009",
    "request_type": "Roads/Drainage",
    "request_reason": "Pothole",
    "date_created": "2022-03-14T18:00:22.000",
    "date_modified": "2022-03-14T18:00:22.000",
    "request_status": "Pending",
    "responsible_agency": "Department of Public Works",
    "final_address": "1000 Dublin St",
    "address_councildis": "A",
    "status": "Pending",
    "rowid": "867009",
    "final_x": "3661228.21286",
    "final_y": "528150.302016",
    "longitude": "-90.13219320803226",
    "latitude": "29.946830026152547",
    "geocoded_column": {
      "latitude": "29.946830026152547",
      "longitude": "-90.13219320803226"
    }
  },
  {
    "service_request": "2022-867008",
    "request_type": "Roads/Drainage",
    "request_reason": "Damaged Sidewalk",
    "date_created": "2022-03-14T17:57:27.000",
    "date_modified": "2022-03-14T17:57:27.000",
    "request_status": "Pending",
    "responsible_agency": "Department of Public Works",
    "final_address": "923 Dublin St",
    "address_councildis": "A",
    "status": "Pending",
    "rowid": "867008",
    "final_x": "3661145.83443",
    "final_y": "527943.447103",
    "longitude": "-90.13246015311209",
    "latitude": "29.946263615343952",
    "geocoded_column": {
      "latitude": "29.946263615343952",
      "longitude": "-90.13246015311209"
    }
  },
  {
    "service_request": "2022-867007",
    "request_type": "Traffic Signals/Signs/Striping/Streetlights",
    "request_reason": "Traffic Sign Missing/Damaged",
    "date_created": "2022-03-14T17:55:06.000",
    "date_modified": "2022-03-14T17:55:06.000",
    "request_status": "Pending",
    "responsible_agency": "Department of Public Works",
    "final_address": "8739 Oak St",
    "address_councildis": "A",
    "status": "Pending",
    "rowid": "867007",
    "final_x": "3660184.85171",
    "final_y": "530042.509121",
    "longitude": "-90.13542504043907",
    "latitude": "29.9520630235976",
    "geocoded_column": {
      "latitude": "29.9520630235976",
      "longitude": "-90.13542504043907"
    }
  },
  {
    "service_request": "2022-867006",
    "request_type": "Trash/Recycling",
    "request_reason": "Order Recycling Cart",
    "date_created": "2022-03-14T17:53:50.000",
    "date_modified": "2022-03-14T17:53:50.000",
    "request_status": "Pending",
    "responsible_agency": "Department of Sanitation",
    "final_address": "2311 Royal St",
    "address_councildis": "C",
    "status": "Pending",
    "rowid": "867006",
    "final_x": "3685635.92418",
    "final_y": "534940.554694",
    "longitude": "-90.0548900799873",
    "latitude": "29.96477480580549",
    "geocoded_column": {
      "latitude": "29.96477480580549",
      "longitude": "-90.0548900799873"
    }
  },
  {
    "service_request": "2022-867005",
    "request_type": "Abandoned Vehicles",
    "request_reason": "Abandoned/Junk Vehicles",
    "date_created": "2022-03-14T17:52:04.000",
    "date_modified": "2022-03-14T17:52:04.000",
    "request_status": "Pending",
    "responsible_agency": "Department of Public Works",
    "final_address": "4406 Eden St",
    "address_councildis": "B",
    "status": "Pending",
    "rowid": "867005",
    "final_x": "3669893.73377",
    "final_y": "530616.73837",
    "longitude": "-90.1047494150525",
    "latitude": "29.953359301286916",
    "geocoded_column": {
      "latitude": "29.953359301286916",
      "longitude": "-90.1047494150525"
    }
  },
  {
    "service_request": "2022-867004",
    "request_type": "Traffic Signals/Signs/Striping/Streetlights",
    "request_reason": "Street Light Outage/Malfunction",
    "date_created": "2022-03-14T17:50:29.000",
    "date_modified": "2022-03-14T17:50:29.000",
    "request_status": "Pending",
    "responsible_agency": "Department of Public Works",
    "final_address": "917 Dublin St",
    "address_councildis": "A",
    "status": "Pending",
    "contractor": "Royal Engineering",
    "rowid": "867004",
    "final_x": "3661124.53811",
    "final_y": "527920.493951",
    "longitude": "-90.13252815283674",
    "latitude": "29.946201115182895",
    "geocoded_column": {
      "latitude": "29.946201115182895",
      "longitude": "-90.13252815283674"
    }
  },
  {
    "service_request": "2022-867003",
    "request_type": "Safety & Permits",
    "request_reason": "Licenses & Permits",
    "date_created": "2022-03-14T17:48:39.000",
    "date_modified": "2022-03-14T17:55:07.000",
    "request_status": "Pending",
    "responsible_agency": "Safety and Permits",
    "final_address": "New Orleans,LA",
    "rowid": "867003",
    "longitude": "0.0",
    "latitude": "0.0",
    "geocoded_column": {
      "latitude": "0.0",
      "longitude": "0.0"
    }
  },
  {
    "service_request": "2022-867002",
    "request_type": "Traffic Signals/Signs/Striping/Streetlights",
    "request_reason": "Street Light Outage/Malfunction",
    "date_created": "2022-03-14T17:47:41.000",
    "date_modified": "2022-03-14T17:47:42.000",
    "request_status": "Pending",
    "responsible_agency": "Department of Public Works",
    "final_address": "917 Dublin St",
    "address_councildis": "A",
    "status": "Pending",
    "contractor": "Royal Engineering",
    "rowid": "867002",
    "final_x": "3661124.53811",
    "final_y": "527920.493951",
    "longitude": "-90.13252815283674",
    "latitude": "29.946201115182895",
    "geocoded_column": {
      "latitude": "29.946201115182895",
      "longitude": "-90.13252815283674"
    }
  },
  {
    "service_request": "2022-867001",
    "request_type": "Traffic Signals/Signs/Striping/Streetlights",
    "request_reason": "Street Light Outage/Malfunction",
    "date_created": "2022-03-14T17:44:57.000",
    "date_modified": "2022-03-14T17:44:58.000",
    "request_status": "Pending",
    "responsible_agency": "Department of Public Works",
    "final_address": "917 Dublin St",
    "address_councildis": "A",
    "status": "Pending",
    "contractor": "Royal Engineering",
    "rowid": "867001",
    "final_x": "3661124.53811",
    "final_y": "527920.493951",
    "longitude": "-90.13252815283674",
    "latitude": "29.946201115182895",
    "geocoded_column": {
      "latitude": "29.946201115182895",
      "longitude": "-90.13252815283674"
    }
  },
  {
    "service_request": "2022-867000",
    "request_type": "Trash/Recycling",
    "request_reason": "Repair Trash Cart",
    "date_created": "2022-03-14T17:38:21.000",
    "date_modified": "2022-03-14T17:45:10.000",
    "case_close_date": "2021-06-10T19:00:00.000",
    "request_status": "Pending",
    "responsible_agency": "Department of Sanitation",
    "final_address": "7100 Colapissa St",
    "address_councildis": "B",
    "status": "Assigned to Contractor",
    "contractor": "Richards Disposal",
    "rowid": "867000",
    "final_x": "3668088.45588",
    "final_y": "531951.059331",
    "longitude": "-90.11040476270401",
    "latitude": "29.95708134652548",
    "geocoded_column": {
      "latitude": "29.95708134652548",
      "longitude": "-90.11040476270401"
    }
  },
  {
    "service_request": "2022-866999",
    "request_type": "Traffic Signals/Signs/Striping/Streetlights",
    "request_reason": "Request for Stop Sign",
    "date_created": "2022-03-14T17:36:24.000",
    "date_modified": "2022-03-14T17:36:24.000",
    "request_status": "Pending",
    "responsible_agency": "Department of Public Works",
    "final_address": "Oak St & Eagle St, New Orleans, Louisiana, 70118",
    "address_councildis": "A",
    "status": "Pending",
    "rowid": "866999",
    "final_x": "3660129.3",
    "final_y": "530043.78",
    "longitude": "-90.13560040574403",
    "latitude": "29.952068114889247",
    "geocoded_column": {
      "latitude": "29.952068114889247",
      "longitude": "-90.13560040574403"
    }
  },
  {
    "service_request": "2022-866998",
    "request_type": "Abandoned Vehicles",
    "request_reason": "Abandoned/Junk Vehicles",
    "date_created": "2022-03-14T17:36:20.000",
    "date_modified": "2022-03-14T17:36:20.000",
    "request_status": "Pending",
    "responsible_agency": "Department of Public Works",
    "final_address": "3529 Mimosa Ct",
    "address_councildis": "C",
    "status": "Pending",
    "rowid": "866998",
    "final_x": "3703487.17649",
    "final_y": "512959.242737",
    "longitude": "-89.99932557757127",
    "latitude": "29.903774166990836",
    "geocoded_column": {
      "latitude": "29.903774166990836",
      "longitude": "-89.99932557757127"
    }
  },
  {
    "service_request": "2022-866997",
    "request_type": "Trash/Recycling",
    "request_reason": "Replace Trash Cart",
    "date_created": "2022-03-14T17:32:05.000",
    "date_modified": "2022-03-14T17:32:06.000",
    "request_status": "Pending",
    "responsible_agency": "Department of Sanitation",
    "final_address": "4238 Hollygrove St, New Orleans, Louisiana, 70118",
    "address_councildis": "A",
    "status": "Assigned to Contractor",
    "contractor": "Richards Disposal",
    "rowid": "866997",
    "final_x": "3666945.21434",
    "final_y": "538635.210825",
    "longitude": "-90.11379013711323",
    "latitude": "29.97549404916784",
    "geocoded_column": {
      "latitude": "29.97549404916784",
      "longitude": "-90.11379013711323"
    }
  },
  {
    "service_request": "2022-866996",
    "request_type": "Abandoned Vehicles",
    "request_reason": "Abandoned/Junk Vehicles",
    "date_created": "2022-03-14T17:27:09.000",
    "date_modified": "2022-03-14T17:27:09.000",
    "request_status": "Pending",
    "responsible_agency": "Department of Public Works",
    "final_address": "6317 Barrett St",
    "address_councildis": "A",
    "status": "Pending",
    "rowid": "866996",
    "final_x": "3666461.69677",
    "final_y": "527040.701246",
    "longitude": "-90.11570635154182",
    "latitude": "29.94362709610832",
    "geocoded_column": {
      "latitude": "29.94362709610832",
      "longitude": "-90.11570635154182"
    }
  },
  {
    "service_request": "2022-866995",
    "request_type": "Roads/Drainage",
    "request_reason": "Debris in Roadway",
    "date_created": "2022-03-14T17:27:03.000",
    "date_modified": "2022-03-14T17:27:03.000",
    "request_status": "Pending",
    "responsible_agency": "Department of Public Works",
    "final_address": "2127 Bienville Ave",
    "address_councildis": "B",
    "status": "Pending",
    "rowid": "866995",
    "final_x": "3677576.70664",
    "final_y": "534480.915141",
    "longitude": "-90.08035643832693",
    "latitude": "29.963755737771763",
    "geocoded_column": {
      "latitude": "29.963755737771763",
      "longitude": "-90.08035643832693"
    }
  },
  {
    "service_request": "2022-866994",
    "request_type": "Trash/Recycling",
    "request_reason": "Request a Large Item Pick Up",
    "date_created": "2022-03-14T17:25:14.000",
    "date_modified": "2022-03-14T17:25:15.000",
    "request_status": "Pending",
    "responsible_agency": "Department of Sanitation",
    "final_address": "2127 Bienville Ave",
    "address_councildis": "B",
    "status": "Assigned to Contractor",
    "contractor": "Richards Disposal",
    "rowid": "866994",
    "final_x": "3677576.70664",
    "final_y": "534480.915141",
    "longitude": "-90.08035643832693",
    "latitude": "29.963755737771763",
    "geocoded_column": {
      "latitude": "29.963755737771763",
      "longitude": "-90.08035643832693"
    }
  },
  {
    "service_request": "2022-866993",
    "request_type": "Trash/Recycling",
    "request_reason": "Order Recycling Cart",
    "date_created": "2022-03-14T17:03:52.000",
    "date_modified": "2022-03-14T17:03:52.000",
    "request_status": "Pending",
    "responsible_agency": "Department of Sanitation",
    "final_address": "1831 S Dupre St",
    "address_councildis": "B",
    "status": "Pending",
    "rowid": "866993",
    "final_x": "3670426.38862",
    "final_y": "529658.538625",
    "longitude": "-90.10309999869328",
    "latitude": "29.95070885225849",
    "geocoded_column": {
      "latitude": "29.95070885225849",
      "longitude": "-90.10309999869328"
    }
  },
  {
    "service_request": "2022-866992",
    "request_type": "Mosquito, Termite & Rodent Control",
    "request_reason": "Mosquito Complaint",
    "date_created": "2022-03-14T17:03:12.000",
    "date_modified": "2022-03-14T17:03:12.000",
    "request_status": "Pending",
    "responsible_agency": "Mosquito, Termite & Rodent Control Board",
    "final_address": "1240 Kerlerec St",
    "address_councildis": "C",
    "status": "Pending",
    "rowid": "866992",
    "final_x": "3682543.26543",
    "final_y": "536025.416327",
    "longitude": "-90.06461854783367",
    "latitude": "29.967852318050607",
    "geocoded_column": {
      "latitude": "29.967852318050607",
      "longitude": "-90.06461854783367"
    }
  },
  {
    "service_request": "2022-866991",
    "request_type": "Trash/Recycling",
    "request_reason": "Repair Trash Cart",
    "date_created": "2022-03-14T17:02:53.000",
    "date_modified": "2022-03-14T17:02:55.000",
    "request_status": "Pending",
    "responsible_agency": "Department of Sanitation",
    "final_address": "4618 Gallatin St",
    "address_councildis": "C",
    "status": "Assigned to Contractor",
    "contractor": "Richards Disposal",
    "rowid": "866991",
    "final_x": "3702150.59818",
    "final_y": "522428.252282",
    "longitude": "-90.00319688708471",
    "latitude": "29.92985341804357",
    "geocoded_column": {
      "latitude": "29.92985341804357",
      "longitude": "-90.00319688708471"
    }
  },
  {
    "service_request": "2022-866990",
    "request_type": "Mosquito, Termite & Rodent Control",
    "request_reason": "Mosquito Complaint",
    "date_created": "2022-03-14T17:01:23.000",
    "date_modified": "2022-03-14T17:01:23.000",
    "request_status": "Pending",
    "responsible_agency": "Mosquito, Termite & Rodent Control Board",
    "final_address": "1244 Kerlerec St",
    "address_councildis": "C",
    "status": "Pending",
    "rowid": "866990",
    "final_x": "3682518.73877",
    "final_y": "536042.787527",
    "longitude": "-90.06469539632775",
    "latitude": "29.967900829557486",
    "geocoded_column": {
      "latitude": "29.967900829557486",
      "longitude": "-90.06469539632775"
    }
  },
  {
    "service_request": "2022-866989",
    "request_type": "Mosquito, Termite & Rodent Control",
    "request_reason": "Rodent Complaint (Rats)",
    "date_created": "2022-03-14T16:57:44.000",
    "date_modified": "2022-03-14T16:57:44.000",
    "request_status": "Pending",
    "responsible_agency": "Mosquito, Termite & Rodent Control Board",
    "final_address": "1240 Kerlerec St",
    "address_councildis": "C",
    "status": "Pending",
    "rowid": "866989",
    "final_x": "3682543.26543",
    "final_y": "536025.416327",
    "longitude": "-90.06461854783367",
    "latitude": "29.967852318050607",
    "geocoded_column": {
      "latitude": "29.967852318050607",
      "longitude": "-90.06461854783367"
    }
  },
  {
    "service_request": "2022-866988",
    "request_type": "Traffic Signals/Signs/Striping/Streetlights",
    "request_reason": "Traffic Sign Missing/Damaged",
    "date_created": "2022-03-14T16:55:58.000",
    "date_modified": "2022-03-14T16:55:58.000",
    "request_status": "Pending",
    "responsible_agency": "Department of Public Works",
    "final_address": "PATTERSON ST & OLIVIER ST",
    "address_councildis": "C",
    "status": "Pending",
    "rowid": "866988",
    "final_x": "3687203.2",
    "final_y": "531426.58",
    "longitude": "-90.05006501725443",
    "latitude": "29.95506441484077",
    "geocoded_column": {
      "latitude": "29.95506441484077",
      "longitude": "-90.05006501725443"
    }
  },
  {
    "service_request": "2022-866987",
    "request_type": "Trash/Recycling",
    "request_reason": "Missed Trash Pick-Up",
    "date_created": "2022-03-14T16:49:29.000",
    "date_modified": "2022-03-14T16:49:29.000",
    "request_status": "Pending",
    "responsible_agency": "Department of Sanitation",
    "final_address": "5535 Press Dr, New Orleans, Louisiana, 70126",
    "address_councildis": "D",
    "status": "Assigned to Contractor",
    "contractor": "Metro Disposal",
    "rowid": "866987",
    "final_x": "3689452.67945",
    "final_y": "553689.724375",
    "longitude": "-90.04216988129849",
    "latitude": "30.01621063166319",
    "geocoded_column": {
      "latitude": "30.01621063166319",
      "longitude": "-90.04216988129849"
    }
  },
  {
    "service_request": "2022-866986",
    "request_type": "Trash/Recycling",
    "request_reason": "Missed Trash Pick-Up",
    "date_created": "2022-03-14T16:45:44.000",
    "date_modified": "2022-03-14T16:45:45.000",
    "request_status": "Pending",
    "responsible_agency": "Department of Sanitation",
    "final_address": "1315 Ferry Pl",
    "address_councildis": "A",
    "status": "Assigned to Contractor",
    "contractor": "Richards Disposal",
    "rowid": "866986",
    "final_x": "3660089.57421",
    "final_y": "530721.480002",
    "longitude": "-90.13570347608284",
    "latitude": "29.953932714298965",
    "geocoded_column": {
      "latitude": "29.953932714298965",
      "longitude": "-90.13570347608284"
    }
  },
  {
    "service_request": "2022-866985",
    "request_type": "Safety & Permits",
    "request_reason": "Licenses & Permits",
    "date_created": "2022-03-14T16:43:38.000",
    "date_modified": "2022-03-14T16:43:38.000",
    "request_status": "Pending",
    "responsible_agency": "Safety and Permits",
    "final_address": "445 Spencer Ave",
    "address_councildis": "A",
    "status": "Pending",
    "rowid": "866985",
    "final_x": "3664742.24084",
    "final_y": "553718.780631",
    "longitude": "-90.12024341819023",
    "latitude": "30.017032998107318",
    "geocoded_column": {
      "latitude": "30.017032998107318",
      "longitude": "-90.12024341819023"
    }
  },
  {
    "service_request": "2022-866983",
    "request_type": "Trash/Recycling",
    "request_reason": "Illegal Dumping",
    "date_created": "2022-03-14T16:37:14.000",
    "date_modified": "2022-03-14T16:37:14.000",
    "request_status": "Pending",
    "responsible_agency": "Department of Code Enforcement",
    "final_address": "300 S Norman C Francis Prkwy",
    "address_councildis": "B",
    "status": "Pending",
    "rowid": "866983",
    "final_x": "3672825.83284",
    "final_y": "535970.148551",
    "longitude": "-90.09530844542148",
    "latitude": "29.967992621260002",
    "geocoded_column": {
      "latitude": "29.967992621260002",
      "longitude": "-90.09530844542148"
    }
  },
  {
    "service_request": "2022-866982",
    "request_type": "Trash/Recycling",
    "request_reason": "Replace Trash Cart",
    "date_created": "2022-03-14T16:35:09.000",
    "date_modified": "2022-03-14T16:35:09.000",
    "request_status": "Pending",
    "responsible_agency": "Department of Sanitation",
    "final_address": "909 Hendee St",
    "address_councildis": "C",
    "status": "Assigned to Contractor",
    "contractor": "Richards Disposal",
    "rowid": "866982",
    "final_x": "3690769.0031",
    "final_y": "528108.539839",
    "longitude": "-90.03892393932743",
    "latitude": "29.945830660425127",
    "geocoded_column": {
      "latitude": "29.945830660425127",
      "longitude": "-90.03892393932743"
    }
  },
  {
    "service_request": "2022-866981",
    "request_type": "Roads/Drainage",
    "request_reason": "Pothole",
    "date_created": "2022-03-14T16:32:27.000",
    "date_modified": "2022-03-14T16:32:27.000",
    "request_status": "Pending",
    "responsible_agency": "Department of Public Works",
    "final_address": "St Claude Ave & Touro St, New Orleans, Louisiana, 70116",
    "address_councildis": "C",
    "status": "Pending",
    "rowid": "866981",
    "final_x": "3684231.9",
    "final_y": "536241.98",
    "longitude": "-90.05927819138616",
    "latitude": "29.9683962743543",
    "geocoded_column": {
      "latitude": "29.9683962743543",
      "longitude": "-90.05927819138616"
    }
  },
  {
    "service_request": "2022-866980",
    "request_type": "Traffic Signals/Signs/Striping/Streetlights",
    "request_reason": "Additional signage",
    "date_created": "2022-03-14T16:24:30.000",
    "date_modified": "2022-03-14T16:24:30.000",
    "request_status": "Pending",
    "responsible_agency": "Department of Public Works",
    "final_address": "1103 Royal St",
    "address_councildis": "C",
    "status": "Pending",
    "rowid": "866980",
    "final_x": "3683454.08885",
    "final_y": "533683.208389",
    "longitude": "-90.06182422292649",
    "latitude": "29.961384290915166",
    "geocoded_column": {
      "latitude": "29.961384290915166",
      "longitude": "-90.06182422292649"
    }
  },
  {
    "service_request": "2022-866979",
    "request_type": "Abandoned Vehicles",
    "request_reason": "Abandoned/Junk Vehicles",
    "date_created": "2022-03-14T16:24:24.000",
    "date_modified": "2022-03-14T16:25:10.000",
    "request_status": "Pending",
    "responsible_agency": "Department of Public Works",
    "final_address": "2505 Governor Nicholls St",
    "address_councildis": "D",
    "status": "Pending",
    "rowid": "866979",
    "final_x": "3678609.70517",
    "final_y": "537877.237577",
    "longitude": "-90.07697673339058",
    "latitude": "29.973063363834786",
    "geocoded_column": {
      "latitude": "29.973063363834786",
      "longitude": "-90.07697673339058"
    }
  },
  {
    "service_request": "2022-866978",
    "request_type": "Trash/Recycling",
    "request_reason": "Illegal Dumping",
    "date_created": "2022-03-14T16:18:33.000",
    "date_modified": "2022-03-14T16:18:33.000",
    "request_status": "Pending",
    "responsible_agency": "Department of Sanitation",
    "final_address": "305 Leboeuf St",
    "address_councildis": "C",
    "status": "Pending",
    "rowid": "866978",
    "final_x": "3689835.09737",
    "final_y": "530653.010562",
    "longitude": "-90.04178202866211",
    "latitude": "29.952856055921597",
    "geocoded_column": {
      "latitude": "29.952856055921597",
      "longitude": "-90.04178202866211"
    }
  },
  {
    "service_request": "2022-866977",
    "request_type": "Trash/Recycling",
    "request_reason": "Missed Trash Pick-Up",
    "date_created": "2022-03-14T16:15:23.000",
    "date_modified": "2022-03-14T16:37:02.000",
    "request_status": "Pending",
    "responsible_agency": "Department of Sanitation",
    "final_address": "New Orleans,LA",
    "address_councildis": "A",
    "status": "Assigned to Contractor",
    "contractor": "Richards Disposal",
    "rowid": "866977",
    "final_x": "3663783.50752",
    "final_y": "538170.099081",
    "longitude": "-90.12379122166736",
    "latitude": "29.974307295625167",
    "geocoded_column": {
      "latitude": "29.974307295625167",
      "longitude": "-90.12379122166736"
    }
  },
  {
    "service_request": "2022-866976",
    "request_type": "Trash/Recycling",
    "request_reason": "Replace Trash Cart",
    "date_created": "2022-03-14T16:15:21.000",
    "date_modified": "2022-03-14T16:15:22.000",
    "request_status": "Pending",
    "responsible_agency": "Department of Sanitation",
    "final_address": "8813 Jeannette St",
    "address_councildis": "A",
    "status": "Assigned to Contractor",
    "contractor": "Richards Disposal",
    "rowid": "866976",
    "final_x": "3660774.89152",
    "final_y": "530936.146178",
    "longitude": "-90.13353241540686",
    "latitude": "29.954503263773873",
    "geocoded_column": {
      "latitude": "29.954503263773873",
      "longitude": "-90.13353241540686"
    }
  },
  {
    "service_request": "2022-866975",
    "request_type": "Trash/Recycling",
    "request_reason": "Repair Trash Cart",
    "date_created": "2022-03-14T16:13:08.000",
    "date_modified": "2022-03-14T16:13:09.000",
    "request_status": "Pending",
    "responsible_agency": "Department of Sanitation",
    "final_address": "7831 Sand St",
    "address_councildis": "E",
    "status": "Assigned to Contractor",
    "contractor": "Metro Disposal",
    "rowid": "866975",
    "final_x": "3720277.32108",
    "final_y": "574256.528298",
    "longitude": "-89.94399086935161",
    "latitude": "30.071769827719354",
    "geocoded_column": {
      "latitude": "30.071769827719354",
      "longitude": "-89.94399086935161"
    }
  },
  {
    "service_request": "2022-866974",
    "request_type": "Trash/Recycling",
    "request_reason": "Request a Large Item Pick Up",
    "date_created": "2022-03-14T16:12:06.000",
    "date_modified": "2022-03-14T16:12:07.000",
    "request_status": "Pending",
    "responsible_agency": "Department of Sanitation",
    "final_address": "12971 Mcraven Ct",
    "address_councildis": "E",
    "status": "Assigned to Contractor",
    "contractor": "Metro Disposal",
    "rowid": "866974",
    "final_x": "3716763.07512",
    "final_y": "568250.978853",
    "longitude": "-89.95532872597605",
    "latitude": "30.05537376065675",
    "geocoded_column": {
      "latitude": "30.05537376065675",
      "longitude": "-89.95532872597605"
    }
  },
  {
    "service_request": "2022-866973",
    "request_type": "Traffic Signals/Signs/Striping/Streetlights",
    "request_reason": "Street Light Outage/Malfunction",
    "date_created": "2022-03-14T16:08:25.000",
    "date_modified": "2022-03-14T16:08:26.000",
    "request_status": "Pending",
    "responsible_agency": "Department of Public Works",
    "final_address": "10301 Chevy Chase Dr",
    "address_councildis": "E",
    "status": "Pending",
    "contractor": "Royal Engineering",
    "rowid": "866973",
    "final_x": "3710200.78104",
    "final_y": "563398.777696",
    "longitude": "-89.97625228715108",
    "latitude": "30.04224752897532",
    "geocoded_column": {
      "latitude": "30.04224752897532",
      "longitude": "-89.97625228715108"
    }
  },
  {
    "service_request": "2022-866972",
    "request_type": "Traffic Signals/Signs/Striping/Streetlights",
    "request_reason": "Traffic Signal Malfunctioning/Damaged",
    "date_created": "2022-03-14T16:03:24.000",
    "date_modified": "2022-03-14T16:03:24.000",
    "request_status": "Pending",
    "responsible_agency": "Department of Public Works",
    "final_address": "CHEF MENTEUR HWY & DOWNMAN RD & CHEF MENTEUR BRIDGE",
    "address_councildis": "D",
    "status": "Pending",
    "rowid": "866972",
    "final_x": "3696211.9",
    "final_y": "551507.88",
    "longitude": "-90.02089277553281",
    "latitude": "30.010000220946775",
    "geocoded_column": {
      "latitude": "30.010000220946775",
      "longitude": "-90.02089277553281"
    }
  },
  {
    "service_request": "2022-866971",
    "request_type": "Traffic Signals/Signs/Striping/Streetlights",
    "request_reason": "Street Light Outage/Malfunction",
    "date_created": "2022-03-14T16:02:34.000",
    "date_modified": "2022-03-14T16:02:35.000",
    "request_status": "Pending",
    "responsible_agency": "Department of Public Works",
    "final_address": "LOMBARD ST & PEOPLES AVE",
    "address_councildis": "D",
    "status": "Pending",
    "contractor": "Royal Engineering",
    "rowid": "866971",
    "final_x": "3688250.9",
    "final_y": "549766.38",
    "longitude": "-90.04610622373151",
    "latitude": "30.005460056379203",
    "geocoded_column": {
      "latitude": "30.005460056379203",
      "longitude": "-90.04610622373151"
    }
  },
  {
    "service_request": "2022-866970",
    "request_type": "Trash/Recycling",
    "request_reason": "Order Trash Cart",
    "date_created": "2022-03-14T16:01:06.000",
    "date_modified": "2022-03-14T16:01:07.000",
    "request_status": "Pending",
    "responsible_agency": "Department of Sanitation",
    "final_address": "222 S Genois St",
    "address_councildis": "B",
    "status": "Assigned to Contractor",
    "contractor": "Richards Disposal",
    "rowid": "866970",
    "final_x": "3672284.29761",
    "final_y": "536629.656775",
    "longitude": "-90.09699616393596",
    "latitude": "29.96982212405138",
    "geocoded_column": {
      "latitude": "29.96982212405138",
      "longitude": "-90.09699616393596"
    }
  },
  {
    "service_request": "2022-866969",
    "request_type": "Roads/Drainage",
    "request_reason": "Ditch Issue",
    "date_created": "2022-03-14T15:58:06.000",
    "date_modified": "2022-03-14T15:58:06.000",
    "request_status": "Pending",
    "responsible_agency": "Department of Public Works",
    "final_address": "3406 Bryson St",
    "address_councildis": "C",
    "status": "Pending",
    "rowid": "866969",
    "final_x": "3714823.31935",
    "final_y": "517742.660854",
    "longitude": "-89.96336857259142",
    "latitude": "29.91655912444637",
    "geocoded_column": {
      "latitude": "29.91655912444637",
      "longitude": "-89.96336857259142"
    }
  },
  {
    "service_request": "2022-866968",
    "request_type": "Trash/Recycling",
    "request_reason": "Request a Large Item Pick Up",
    "date_created": "2022-03-14T15:57:21.000",
    "date_modified": "2022-03-14T15:57:22.000",
    "request_status": "Pending",
    "responsible_agency": "Department of Sanitation",
    "final_address": "1245 Kerlerec St",
    "address_councildis": "C",
    "status": "Assigned to Contractor",
    "contractor": "Metro Disposal",
    "rowid": "866968",
    "final_x": "3682549.60264",
    "final_y": "536090.237703",
    "longitude": "-90.06459626811194",
    "latitude": "29.968030361545498",
    "geocoded_column": {
      "latitude": "29.968030361545498",
      "longitude": "-90.06459626811194"
    }
  },
  {
    "service_request": "2022-866967",
    "request_type": "Trash/Recycling",
    "request_reason": "Repair Trash Cart",
    "date_created": "2022-03-14T15:55:56.000",
    "date_modified": "2022-03-14T15:55:57.000",
    "request_status": "Pending",
    "responsible_agency": "Department of Sanitation",
    "final_address": "1774 N Tonti St",
    "address_councildis": "D",
    "status": "Assigned to Contractor",
    "contractor": "Metro Disposal",
    "rowid": "866967",
    "final_x": "3681178.99016",
    "final_y": "540415.606155",
    "longitude": "-90.06877396050334",
    "latitude": "29.97996528602878",
    "geocoded_column": {
      "latitude": "29.97996528602878",
      "longitude": "-90.06877396050334"
    }
  },
  {
    "service_request": "2022-866966",
    "request_type": "Abandoned Vehicles",
    "request_reason": "Abandoned/Junk Vehicles",
    "date_created": "2022-03-14T15:54:27.000",
    "date_modified": "2022-03-14T15:54:27.000",
    "request_status": "Pending",
    "responsible_agency": "Department of Public Works",
    "final_address": "812 Foucher St",
    "address_councildis": "B",
    "status": "Pending",
    "rowid": "866966",
    "final_x": "3674440.4763",
    "final_y": "518368.772598",
    "longitude": "-90.09081209537266",
    "latitude": "29.919546558059444",
    "geocoded_column": {
      "latitude": "29.919546558059444",
      "longitude": "-90.09081209537266"
    }
  },
  {
    "service_request": "2022-866965",
    "request_type": "Trash/Recycling",
    "request_reason": "Return Recycling Cart",
    "date_created": "2022-03-14T15:51:49.000",
    "date_modified": "2022-03-14T15:51:49.000",
    "request_status": "Pending",
    "responsible_agency": "Department of Sanitation",
    "final_address": "4431 Loyola Ave",
    "address_councildis": "B",
    "status": "Pending",
    "rowid": "866965",
    "final_x": "3670334.18753",
    "final_y": "523005.976251",
    "longitude": "-90.10361655352604",
    "latitude": "29.93241918694525",
    "geocoded_column": {
      "latitude": "29.93241918694525",
      "longitude": "-90.10361655352604"
    }
  },
  {
    "service_request": "2022-866964",
    "request_type": "Traffic Signals/Signs/Striping/Streetlights",
    "request_reason": "Disabled Parking Sign ",
    "date_created": "2022-03-14T15:49:44.000",
    "date_modified": "2022-03-14T15:49:44.000",
    "request_status": "Pending",
    "responsible_agency": "Department of Public Works",
    "final_address": "2723 Calhoun St",
    "address_councildis": "A",
    "status": "Pending",
    "rowid": "866964",
    "final_x": "3666563.96903",
    "final_y": "526785.500414",
    "longitude": "-90.11539201413689",
    "latitude": "29.942922387318557",
    "geocoded_column": {
      "latitude": "29.942922387318557",
      "longitude": "-90.11539201413689"
    }
  },
  {
    "service_request": "2022-866963",
    "request_type": "Traffic Signals/Signs/Striping/Streetlights",
    "request_reason": "Traffic Signal Malfunctioning/Damaged",
    "date_created": "2022-03-14T15:45:28.000",
    "date_modified": "2022-03-14T15:45:28.000",
    "request_status": "Pending",
    "responsible_agency": "Department of Public Works",
    "final_address": "CHEF MENTEUR HWY & DOWNMAN RD & CHEF MENTEUR BRIDGE",
    "address_councildis": "D",
    "status": "Pending",
    "rowid": "866963",
    "final_x": "3696211.9",
    "final_y": "551507.88",
    "longitude": "-90.02089277553281",
    "latitude": "30.010000220946775",
    "geocoded_column": {
      "latitude": "30.010000220946775",
      "longitude": "-90.02089277553281"
    }
  },
  {
    "service_request": "2022-866962",
    "request_type": "Traffic Signals/Signs/Striping/Streetlights",
    "request_reason": "Additional signage",
    "date_created": "2022-03-14T15:45:14.000",
    "date_modified": "2022-03-14T15:45:14.000",
    "request_status": "Pending",
    "responsible_agency": "Department of Public Works",
    "final_address": "FRANKLIN AVE & LEON C SIMON DR",
    "address_councildis": "D",
    "status": "Pending",
    "rowid": "866962",
    "final_x": "3686215.6",
    "final_y": "557350.08",
    "longitude": "-90.05226831351399",
    "latitude": "30.026375154078544",
    "geocoded_column": {
      "latitude": "30.026375154078544",
      "longitude": "-90.05226831351399"
    }
  },
  {
    "service_request": "2022-866961",
    "request_type": "Trash/Recycling",
    "request_reason": "Illegal Dumping",
    "date_created": "2022-03-14T15:43:48.000",
    "date_modified": "2022-03-14T15:43:48.000",
    "request_status": "Pending",
    "responsible_agency": "Department of Sanitation",
    "final_address": "3950 Metropolitan St",
    "address_councildis": "D",
    "status": "Pending",
    "rowid": "866961",
    "final_x": "3691438.41161",
    "final_y": "547943.736018",
    "longitude": "-90.0361013950067",
    "latitude": "30.0003496087696",
    "geocoded_column": {
      "latitude": "30.0003496087696",
      "longitude": "-90.0361013950067"
    }
  },
  {
    "service_request": "2022-866960",
    "request_type": "Roads/Drainage",
    "request_reason": "Leaking Hydrant",
    "date_created": "2022-03-14T15:40:42.000",
    "date_modified": "2022-03-14T15:40:42.000",
    "request_status": "Pending",
    "responsible_agency": "Department of Public Works",
    "final_address": "ODIN ST & ELYSIAN FIELDS AVE",
    "address_councildis": "D",
    "status": "Pending",
    "rowid": "866960",
    "final_x": "3683724.0",
    "final_y": "553041.88",
    "longitude": "-90.0602927166661",
    "latitude": "30.014605547566983",
    "geocoded_column": {
      "latitude": "30.014605547566983",
      "longitude": "-90.0602927166661"
    }
  },
  {
    "service_request": "2022-866959",
    "request_type": "Traffic Signals/Signs/Striping/Streetlights",
    "request_reason": "Street Light Outage/Malfunction",
    "date_created": "2022-03-14T15:40:06.000",
    "date_modified": "2022-03-14T15:40:07.000",
    "request_status": "Pending",
    "responsible_agency": "Department of Public Works",
    "final_address": "2258 Odin St",
    "address_councildis": "D",
    "status": "Pending",
    "contractor": "Royal Engineering",
    "rowid": "866959",
    "final_x": "3684279.22261",
    "final_y": "553050.277975",
    "longitude": "-90.0585381920623",
    "latitude": "30.01461166588153",
    "geocoded_column": {
      "latitude": "30.01461166588153",
      "longitude": "-90.0585381920623"
    }
  },
  {
    "service_request": "2022-866958",
    "request_type": "Traffic Signals/Signs/Striping/Streetlights",
    "request_reason": "Traffic Signal Malfunctioning/Damaged",
    "date_created": "2022-03-14T15:39:25.000",
    "date_modified": "2022-03-14T15:39:25.000",
    "request_status": "Pending",
    "responsible_agency": "Department of Public Works",
    "final_address": "CHEF MENTEUR HWY & CHANTILLY DR",
    "address_councildis": "E",
    "status": "Pending",
    "rowid": "866958",
    "final_x": "3700963.5",
    "final_y": "552101.28",
    "longitude": "-90.00585911693433",
    "latitude": "30.011481342826563",
    "geocoded_column": {
      "latitude": "30.011481342826563",
      "longitude": "-90.00585911693433"
    }
  },
  {
    "service_request": "2022-866957",
    "request_type": "Trash/Recycling",
    "request_reason": "MIssed Recycling Pick-Up",
    "date_created": "2022-03-14T15:38:46.000",
    "date_modified": "2022-03-14T15:38:47.000",
    "request_status": "Pending",
    "responsible_agency": "Department of Sanitation",
    "final_address": "7522 Jeannette St",
    "address_councildis": "A",
    "status": "Assigned to Contractor",
    "contractor": "Richards Disposal",
    "rowid": "866957",
    "final_x": "3664069.328",
    "final_y": "527748.667711",
    "longitude": "-90.12323612034218",
    "latitude": "29.945643463521094",
    "geocoded_column": {
      "latitude": "29.945643463521094",
      "longitude": "-90.12323612034218"
    }
  },
  {
    "service_request": "2022-866956",
    "request_type": "Traffic Signals/Signs/Striping/Streetlights",
    "request_reason": "Traffic Signal Malfunctioning/Damaged",
    "date_created": "2022-03-14T15:38:31.000",
    "date_modified": "2022-03-14T15:41:08.000",
    "request_status": "Pending",
    "responsible_agency": "Department of Public Works",
    "final_address": "DOWNMAN RD & CHEF MENTEUR HWY & CHEF MENTEUR BRIDGE",
    "address_councildis": "E",
    "status": "Pending",
    "rowid": "866956",
    "final_x": "3696226.0",
    "final_y": "551412.88",
    "longitude": "-90.02085166660345",
    "latitude": "30.009738562374903",
    "geocoded_column": {
      "latitude": "30.009738562374903",
      "longitude": "-90.02085166660345"
    }
  },
  {
    "service_request": "2022-866955",
    "request_type": "Trash/Recycling",
    "request_reason": "Repair Trash Cart",
    "date_created": "2022-03-14T15:35:29.000",
    "date_modified": "2022-03-14T15:35:30.000",
    "request_status": "Pending",
    "responsible_agency": "Department of Sanitation",
    "final_address": "2634 Cupid St",
    "address_councildis": "C",
    "status": "Assigned to Contractor",
    "contractor": "Richards Disposal",
    "rowid": "866955",
    "final_x": "3700408.78084",
    "final_y": "521284.176441",
    "longitude": "-90.00873722072939",
    "latitude": "29.92676308688055",
    "geocoded_column": {
      "latitude": "29.92676308688055",
      "longitude": "-90.00873722072939"
    }
  },
  {
    "service_request": "2022-866954",
    "request_type": "Trash/Recycling",
    "request_reason": "Request a Large Item Pick Up",
    "date_created": "2022-03-14T15:29:14.000",
    "date_modified": "2022-03-14T15:29:15.000",
    "request_status": "Pending",
    "responsible_agency": "Department of Sanitation",
    "final_address": "2519 Dumaine St",
    "address_councildis": "D",
    "status": "Assigned to Contractor",
    "contractor": "Richards Disposal",
    "rowid": "866954",
    "final_x": "3677866.65934",
    "final_y": "537032.38932",
    "longitude": "-90.07935261872454",
    "latitude": "29.97076270132913",
    "geocoded_column": {
      "latitude": "29.97076270132913",
      "longitude": "-90.07935261872454"
    }
  },
  {
    "service_request": "2022-866953",
    "request_type": "Abandoned Vehicles",
    "request_reason": "Abandoned/Junk Vehicles",
    "date_created": "2022-03-14T15:25:17.000",
    "date_modified": "2022-03-14T15:25:17.000",
    "request_status": "Pending",
    "responsible_agency": "Department of Public Works",
    "final_address": "1201 Bienville St, New Orleans, Louisiana, 70112",
    "address_councildis": "C",
    "status": "Pending",
    "rowid": "866953",
    "final_x": "3680214.96136",
    "final_y": "532455.287812",
    "longitude": "-90.07209550229297",
    "latitude": "29.958106361958762",
    "geocoded_column": {
      "latitude": "29.958106361958762",
      "longitude": "-90.07209550229297"
    }
  },
  {
    "service_request": "2022-866952",
    "request_type": "Roads/Drainage",
    "request_reason": "Pothole",
    "date_created": "2022-03-14T15:25:02.000",
    "date_modified": "2022-03-14T15:25:02.000",
    "request_status": "Pending",
    "responsible_agency": "Department of Public Works",
    "final_address": "9970 Lake Forest Blvd",
    "address_councildis": "E",
    "status": "Pending",
    "rowid": "866952",
    "final_x": "3711111.22251",
    "final_y": "559708.436061",
    "longitude": "-89.9735133769334",
    "latitude": "30.032070881469185",
    "geocoded_column": {
      "latitude": "30.032070881469185",
      "longitude": "-89.9735133769334"
    }
  },
  {
    "service_request": "2022-866950",
    "request_type": "Trash/Recycling",
    "request_reason": "Replace Recycling Cart",
    "date_created": "2022-03-14T15:20:52.000",
    "date_modified": "2022-03-14T15:20:52.000",
    "request_status": "Pending",
    "responsible_agency": "Department of Sanitation",
    "final_address": "10151 River Rd",
    "address_councildis": "C",
    "status": "Pending",
    "rowid": "866950",
    "final_x": "3723327.60313",
    "final_y": "518314.739318",
    "longitude": "-89.93650394532473",
    "latitude": "29.917849816378087",
    "geocoded_column": {
      "latitude": "29.917849816378087",
      "longitude": "-89.93650394532473"
    }
  },
  {
    "service_request": "2022-866949",
    "request_type": "Trash/Recycling",
    "request_reason": "Repair Trash Cart",
    "date_created": "2022-03-14T15:20:06.000",
    "date_modified": "2022-03-14T15:20:07.000",
    "request_status": "Pending",
    "responsible_agency": "Department of Sanitation",
    "final_address": "3523 Camp St",
    "address_councildis": "B",
    "status": "Assigned to Contractor",
    "contractor": "Richards Disposal",
    "rowid": "866949",
    "final_x": "3674120.76622",
    "final_y": "519723.240056",
    "longitude": "-90.091774937416",
    "latitude": "29.923280438470304",
    "geocoded_column": {
      "latitude": "29.923280438470304",
      "longitude": "-90.091774937416"
    }
  },
  {
    "service_request": "2022-866948",
    "request_type": "Property Maintenance",
    "request_reason": "Property Maintenance",
    "date_created": "2022-03-14T15:19:22.000",
    "date_modified": "2022-03-14T15:19:22.000",
    "request_status": "Pending",
    "responsible_agency": "Department of Code Enforcement",
    "final_address": "2377 Rousseau St",
    "address_councildis": "B",
    "status": "Pending",
    "rowid": "866948",
    "final_x": "3679361.64648",
    "final_y": "519686.39052",
    "longitude": "-90.07523274310176",
    "latitude": "29.923021928728236",
    "geocoded_column": {
      "latitude": "29.923021928728236",
      "longitude": "-90.07523274310176"
    }
  },
  {
    "service_request": "2022-866947",
    "request_type": "Traffic Signals/Signs/Striping/Streetlights",
    "request_reason": "Street Light Outage/Malfunction",
    "date_created": "2022-03-14T15:17:25.000",
    "date_modified": "2022-03-14T15:17:27.000",
    "request_status": "Pending",
    "responsible_agency": "Department of Public Works",
    "final_address": "8944 Jeannette St",
    "address_councildis": "A",
    "status": "Pending",
    "contractor": "Royal Engineering",
    "rowid": "866947",
    "final_x": "3660265.63891",
    "final_y": "531296.277506",
    "longitude": "-90.13512855353822",
    "latitude": "29.9555081614642",
    "geocoded_column": {
      "latitude": "29.9555081614642",
      "longitude": "-90.13512855353822"
    }
  },
  {
    "service_request": "2022-866945",
    "request_type": "Parks & Parkways",
    "request_reason": "Request Tree Service (Right of Way/Public Property)",
    "date_created": "2022-03-14T15:07:42.000",
    "date_modified": "2022-03-14T15:07:42.000",
    "request_status": "Pending",
    "responsible_agency": "Department of Parks & Parkway",
    "final_address": "5526 Charlotte Dr",
    "address_councildis": "D",
    "status": "Pending",
    "rowid": "866945",
    "final_x": "3679950.46671",
    "final_y": "552828.767638",
    "longitude": "-90.07222264581773",
    "latitude": "30.014134302653048",
    "geocoded_column": {
      "latitude": "30.014134302653048",
      "longitude": "-90.07222264581773"
    }
  },
  {
    "service_request": "2022-866944",
    "request_type": "Trash/Recycling",
    "request_reason": "Missed Trash Pick-Up",
    "date_created": "2022-03-14T15:07:14.000",
    "date_modified": "2022-03-14T15:07:15.000",
    "request_status": "Pending",
    "responsible_agency": "Department of Sanitation",
    "final_address": "6117 Magazine St",
    "address_councildis": "A",
    "status": "Assigned to Contractor",
    "contractor": "Richards Disposal",
    "rowid": "866944",
    "final_x": "3663985.58548",
    "final_y": "519529.824695",
    "longitude": "-90.1237744505849",
    "latitude": "29.923046680896892",
    "geocoded_column": {
      "latitude": "29.923046680896892",
      "longitude": "-90.1237744505849"
    }
  },
  {
    "service_request": "2022-866943",
    "request_type": "Traffic Signals/Signs/Striping/Streetlights",
    "request_reason": "Street Light Outage/Malfunction",
    "date_created": "2022-03-14T15:06:58.000",
    "date_modified": "2022-03-14T15:06:59.000",
    "request_status": "Pending",
    "responsible_agency": "Department of Public Works",
    "final_address": "6321 N Galvez St",
    "address_councildis": "E",
    "status": "Pending",
    "contractor": "Royal Engineering",
    "rowid": "866943",
    "final_x": "3701770.41322",
    "final_y": "536611.478471",
    "longitude": "-90.00387757033093",
    "latitude": "29.968864396234107",
    "geocoded_column": {
      "latitude": "29.968864396234107",
      "longitude": "-90.00387757033093"
    }
  },
  {
    "service_request": "2022-866942",
    "request_type": "Traffic Signals/Signs/Striping/Streetlights",
    "request_reason": "Street Light Outage/Malfunction",
    "date_created": "2022-03-14T15:03:27.000",
    "date_modified": "2022-03-14T15:03:28.000",
    "request_status": "Pending",
    "responsible_agency": "Department of Public Works",
    "final_address": "2115 New Orleans St",
    "address_councildis": "D",
    "status": "Pending",
    "contractor": "Royal Engineering",
    "rowid": "866942",
    "final_x": "3682128.87413",
    "final_y": "539935.640138",
    "longitude": "-90.06579060542812",
    "latitude": "29.978616688167563",
    "geocoded_column": {
      "latitude": "29.978616688167563",
      "longitude": "-90.06579060542812"
    }
  },
  {
    "service_request": "2022-866941",
    "request_type": "Trash/Recycling",
    "request_reason": "Request a Large Item Pick Up",
    "date_created": "2022-03-14T15:03:12.000",
    "date_modified": "2022-03-14T15:03:13.000",
    "request_status": "Pending",
    "responsible_agency": "Department of Sanitation",
    "final_address": "5863 West End Blvd",
    "address_councildis": "A",
    "status": "Assigned to Contractor",
    "contractor": "Metro Disposal",
    "rowid": "866941",
    "final_x": "3666490.34106",
    "final_y": "547026.299281",
    "longitude": "-90.11494496350359",
    "latitude": "29.998579999643205",
    "geocoded_column": {
      "latitude": "29.998579999643205",
      "longitude": "-90.11494496350359"
    }
  },
  {
    "service_request": "2022-866940",
    "request_type": "Trash/Recycling",
    "request_reason": "Request a Large Item Pick Up",
    "date_created": "2022-03-14T15:01:14.000",
    "date_modified": "2022-03-14T15:01:16.000",
    "request_status": "Pending",
    "responsible_agency": "Department of Sanitation",
    "final_address": "5170 Mandeville St",
    "address_councildis": "D",
    "status": "Assigned to Contractor",
    "contractor": "Metro Disposal",
    "rowid": "866940",
    "final_x": "3684491.9389",
    "final_y": "551951.352662",
    "longitude": "-90.05790476094116",
    "latitude": "30.011583513563775",
    "geocoded_column": {
      "latitude": "30.011583513563775",
      "longitude": "-90.05790476094116"
    }
  },
  {
    "service_request": "2022-866939",
    "request_type": "Trash/Recycling",
    "request_reason": "Request a Large Item Pick Up",
    "date_created": "2022-03-14T15:00:26.000",
    "date_modified": "2022-03-14T15:00:28.000",
    "request_status": "Pending",
    "responsible_agency": "Department of Sanitation",
    "final_address": "4635 Constance St, New Orleans, Louisiana, 70115",
    "address_councildis": "B",
    "status": "Assigned to Contractor",
    "contractor": "Richards Disposal",
    "rowid": "866939",
    "final_x": "3670063.93242",
    "final_y": "518355.021046",
    "longitude": "-90.10462717180957",
    "latitude": "29.919638514878766",
    "geocoded_column": {
      "latitude": "29.919638514878766",
      "longitude": "-90.10462717180957"
    }
  },
  {
    "service_request": "2022-866938",
    "request_type": "Traffic Signals/Signs/Striping/Streetlights",
    "request_reason": "Traffic Sign Missing/Damaged",
    "date_created": "2022-03-14T14:57:21.000",
    "date_modified": "2022-03-14T14:57:21.000",
    "request_status": "Pending",
    "responsible_agency": "Department of Public Works",
    "final_address": "ERATO ST & S ROBERTSON ST",
    "address_councildis": "B",
    "status": "Pending",
    "rowid": "866938",
    "final_x": "3676471.9",
    "final_y": "527982.08",
    "longitude": "-90.08406906225716",
    "latitude": "29.94591928864511",
    "geocoded_column": {
      "latitude": "29.94591928864511",
      "longitude": "-90.08406906225716"
    }
  },
  {
    "service_request": "2022-866937",
    "request_type": "Roads/Drainage",
    "request_reason": "Street Flooding / Drainage",
    "date_created": "2022-03-14T14:54:15.000",
    "date_modified": "2022-03-14T14:54:15.000",
    "request_status": "Pending",
    "responsible_agency": "Department of Public Works",
    "final_address": "4300 Camp St, New Orleans, Louisiana, 70115",
    "address_councildis": "B",
    "status": "Pending",
    "rowid": "866937",
    "final_x": "3671380.87751",
    "final_y": "519143.957623",
    "longitude": "-90.10044342261612",
    "latitude": "29.921768943440483",
    "geocoded_column": {
      "latitude": "29.921768943440483",
      "longitude": "-90.10044342261612"
    }
  },
  {
    "service_request": "2022-866936",
    "request_type": "Abandoned Vehicles",
    "request_reason": "Vehicle Blocking Your Driveway",
    "date_created": "2022-03-14T14:53:44.000",
    "date_modified": "2022-03-14T14:53:45.000",
    "request_status": "Pending",
    "responsible_agency": "Department of Public Works",
    "final_address": "6001 Campus Blvd",
    "address_councildis": "D",
    "status": "Pending",
    "rowid": "866936",
    "final_x": "3688670.64035",
    "final_y": "555364.945753",
    "longitude": "-90.04458124416482",
    "latitude": "30.020841076203197",
    "geocoded_column": {
      "latitude": "30.020841076203197",
      "longitude": "-90.04458124416482"
    }
  },
  {
    "service_request": "2022-866933",
    "request_type": "Trash/Recycling",
    "request_reason": "Request a Large Item Pick Up",
    "date_created": "2022-03-14T14:53:19.000",
    "date_modified": "2022-03-14T14:53:20.000",
    "request_status": "Pending",
    "responsible_agency": "Department of Sanitation",
    "final_address": "839 Roosevelt Pl",
    "address_councildis": "A",
    "status": "Assigned to Contractor",
    "contractor": "Richards Disposal",
    "rowid": "866933",
    "final_x": "3673543.10452",
    "final_y": "539952.155722",
    "longitude": "-90.09290713843701",
    "latitude": "29.978920460336294",
    "geocoded_column": {
      "latitude": "29.978920460336294",
      "longitude": "-90.09290713843701"
    }
  },
  {
    "service_request": "2022-866932",
    "request_type": "Trash/Recycling",
    "request_reason": "Request a Large Item Pick Up",
    "date_created": "2022-03-14T14:52:29.000",
    "date_modified": "2022-03-14T14:52:30.000",
    "request_status": "Pending",
    "responsible_agency": "Department of Sanitation",
    "final_address": "5553 Pasteur Blvd",
    "address_councildis": "D",
    "status": "Assigned to Contractor",
    "contractor": "Metro Disposal",
    "rowid": "866932",
    "final_x": "3682956.75535",
    "final_y": "553637.784215",
    "longitude": "-90.06269595381913",
    "latitude": "30.016267482832973",
    "geocoded_column": {
      "latitude": "30.016267482832973",
      "longitude": "-90.06269595381913"
    }
  },
  {
    "service_request": "2022-866931",
    "request_type": "Trash/Recycling",
    "request_reason": "Request a Large Item Pick Up",
    "date_created": "2022-03-14T14:52:12.000",
    "date_modified": "2022-03-14T14:52:13.000",
    "request_status": "Pending",
    "responsible_agency": "Department of Sanitation",
    "final_address": "2738 Dumaine St",
    "address_councildis": "A",
    "status": "Assigned to Contractor",
    "contractor": "Richards Disposal",
    "rowid": "866931",
    "final_x": "3676833.02011",
    "final_y": "537721.048392",
    "longitude": "-90.08259324116189",
    "latitude": "29.97268734195046",
    "geocoded_column": {
      "latitude": "29.97268734195046",
      "longitude": "-90.08259324116189"
    }
  },
  {
    "service_request": "2022-866930",
    "request_type": "Trash/Recycling",
    "request_reason": "Order Recycling Cart",
    "date_created": "2022-03-14T14:48:45.000",
    "date_modified": "2022-03-14T14:48:45.000",
    "request_status": "Pending",
    "responsible_agency": "Department of Sanitation",
    "final_address": "2738 Dumaine St",
    "address_councildis": "A",
    "status": "Pending",
    "rowid": "866930",
    "final_x": "3676833.02011",
    "final_y": "537721.048392",
    "longitude": "-90.08259324116189",
    "latitude": "29.97268734195046",
    "geocoded_column": {
      "latitude": "29.97268734195046",
      "longitude": "-90.08259324116189"
    }
  },
  {
    "service_request": "2022-866929",
    "request_type": "Trash/Recycling",
    "request_reason": "Request a Large Item Pick Up",
    "date_created": "2022-03-14T14:43:02.000",
    "date_modified": "2022-03-14T14:43:03.000",
    "request_status": "Pending",
    "responsible_agency": "Department of Sanitation",
    "final_address": "7351 Shaw Ave",
    "address_councildis": "E",
    "status": "Assigned to Contractor",
    "contractor": "Metro Disposal",
    "rowid": "866929",
    "final_x": "3707675.15211",
    "final_y": "563468.392352",
    "longitude": "-89.98423159087669",
    "latitude": "30.04252094733744",
    "geocoded_column": {
      "latitude": "30.04252094733744",
      "longitude": "-89.98423159087669"
    }
  },
  {
    "service_request": "2022-866928",
    "request_type": "Trash/Recycling",
    "request_reason": "Order Trash Cart",
    "date_created": "2022-03-14T14:35:17.000",
    "date_modified": "2022-03-14T14:35:18.000",
    "request_status": "Pending",
    "responsible_agency": "Department of Sanitation",
    "final_address": "837 Jackson Ave Apt A",
    "address_councildis": "B",
    "status": "Assigned to Contractor",
    "contractor": "Richards Disposal",
    "rowid": "866928",
    "final_x": "3679392.73429",
    "final_y": "521472.001593",
    "longitude": "-90.07507271606889",
    "latitude": "29.927930838116723",
    "geocoded_column": {
      "latitude": "29.927930838116723",
      "longitude": "-90.07507271606889"
    }
  },
  {
    "service_request": "2022-866927",
    "request_type": "Trash/Recycling",
    "request_reason": "Request a Large Item Pick Up",
    "date_created": "2022-03-14T14:31:36.000",
    "date_modified": "2022-03-14T14:31:40.000",
    "request_status": "Pending",
    "responsible_agency": "Department of Sanitation",
    "final_address": "515 Milan St",
    "address_councildis": "B",
    "status": "Assigned to Contractor",
    "contractor": "Richards Disposal",
    "rowid": "866927",
    "final_x": "3671956.16289",
    "final_y": "517673.354998",
    "longitude": "-90.0986775070982",
    "latitude": "29.917708221158424",
    "geocoded_column": {
      "latitude": "29.917708221158424",
      "longitude": "-90.0986775070982"
    }
  },
  {
    "service_request": "2022-866926",
    "request_type": "Trash/Recycling",
    "request_reason": "Illegal Dumping",
    "date_created": "2022-03-14T14:29:53.000",
    "date_modified": "2022-03-14T14:29:53.000",
    "request_status": "Pending",
    "responsible_agency": "Department of Sanitation",
    "final_address": "I 10 E SERVICE RD & BUNDY RD",
    "address_councildis": "E",
    "status": "Pending",
    "rowid": "866926",
    "final_x": "3707500.3",
    "final_y": "560045.28",
    "longitude": "-89.98491149801148",
    "latitude": "30.033114403333823",
    "geocoded_column": {
      "latitude": "30.033114403333823",
      "longitude": "-89.98491149801148"
    }
  },
  {
    "service_request": "2022-866925",
    "request_type": "Trash/Recycling",
    "request_reason": "Dead Animal Pick Up",
    "date_created": "2022-03-14T14:29:11.000",
    "date_modified": "2022-03-14T14:29:12.000",
    "request_status": "Pending",
    "responsible_agency": "Department of Sanitation",
    "final_address": "1922 Painters St",
    "address_councildis": "D",
    "status": "Assigned to Contractor",
    "contractor": "Metro Disposal",
    "rowid": "866925",
    "final_x": "3687228.26665",
    "final_y": "539611.17601",
    "longitude": "-90.049696348267",
    "latitude": "29.977568432678684",
    "geocoded_column": {
      "latitude": "29.977568432678684",
      "longitude": "-90.049696348267"
    }
  },
  {
    "service_request": "2022-866924",
    "request_type": "Trash/Recycling",
    "request_reason": "Request a Large Item Pick Up",
    "date_created": "2022-03-14T14:28:37.000",
    "date_modified": "2022-03-14T14:28:43.000",
    "request_status": "Pending",
    "responsible_agency": "Department of Sanitation",
    "final_address": "4520 Annunciation St",
    "address_councildis": "B",
    "status": "Assigned to Contractor",
    "contractor": "Richards Disposal",
    "rowid": "866924",
    "final_x": "3670550.41019",
    "final_y": "517650.62079",
    "longitude": "-90.10311546970641",
    "latitude": "29.917687284206043",
    "geocoded_column": {
      "latitude": "29.917687284206043",
      "longitude": "-90.10311546970641"
    }
  },
  {
    "service_request": "2022-866923",
    "request_type": "Abandoned Vehicles",
    "request_reason": "Abandoned/Junk Vehicles",
    "date_created": "2022-03-14T14:27:46.000",
    "date_modified": "2022-03-14T14:27:46.000",
    "request_status": "Pending",
    "responsible_agency": "Department of Public Works",
    "final_address": "2216 Constance St",
    "address_councildis": "B",
    "status": "Pending",
    "rowid": "866923",
    "final_x": "3678961.20315",
    "final_y": "521650.962169",
    "longitude": "-90.07642876289297",
    "latitude": "29.92843594401731",
    "geocoded_column": {
      "latitude": "29.92843594401731",
      "longitude": "-90.07642876289297"
    }
  },
  {
    "service_request": "2022-866922",
    "request_type": "Trash/Recycling",
    "request_reason": "Illegal Dumping",
    "date_created": "2022-03-14T14:24:43.000",
    "date_modified": "2022-03-14T14:24:43.000",
    "request_status": "Pending",
    "responsible_agency": "Department of Sanitation",
    "final_address": "6920 Bundy Rd",
    "address_councildis": "E",
    "rowid": "866922",
    "final_x": "3707086.86174",
    "final_y": "560448.356254",
    "longitude": "-89.9862030167308",
    "latitude": "30.0342360756623",
    "geocoded_column": {
      "latitude": "30.0342360756623",
      "longitude": "-89.9862030167308"
    }
  },
  {
    "service_request": "2022-866921",
    "request_type": "Trash/Recycling",
    "request_reason": "Missed Trash Pick-Up",
    "date_created": "2022-03-14T14:18:19.000",
    "date_modified": "2022-03-14T14:18:20.000",
    "request_status": "Pending",
    "responsible_agency": "Department of Sanitation",
    "final_address": "1107 Aurora Dr",
    "address_councildis": "C",
    "status": "Assigned to Contractor",
    "contractor": "Richards Disposal",
    "rowid": "866921",
    "final_x": "3706958.36785",
    "final_y": "517674.521206",
    "longitude": "-89.98819588095697",
    "latitude": "29.91662798150707",
    "geocoded_column": {
      "latitude": "29.91662798150707",
      "longitude": "-89.98819588095697"
    }
  },
  {
    "service_request": "2022-866919",
    "request_type": "Trash/Recycling",
    "request_reason": "Repair Trash Cart",
    "date_created": "2022-03-14T14:15:38.000",
    "date_modified": "2022-03-14T14:15:39.000",
    "request_status": "Pending",
    "responsible_agency": "Department of Sanitation",
    "final_address": "3441 Baronne St",
    "address_councildis": "B",
    "status": "Assigned to Contractor",
    "contractor": "Richards Disposal",
    "rowid": "866919",
    "final_x": "3673567.30849",
    "final_y": "522123.806074",
    "longitude": "-90.0934399998805",
    "latitude": "29.929897700495513",
    "geocoded_column": {
      "latitude": "29.929897700495513",
      "longitude": "-90.0934399998805"
    }
  },
  {
    "service_request": "2022-866918",
    "request_type": "Trash/Recycling",
    "request_reason": "Repair Recycling Cart",
    "date_created": "2022-03-14T14:12:21.000",
    "date_modified": "2022-03-14T14:12:21.000",
    "request_status": "Pending",
    "responsible_agency": "Department of Sanitation",
    "final_address": "5515 Hurst St",
    "address_councildis": "A",
    "status": "Pending",
    "rowid": "866918",
    "final_x": "3666849.02906",
    "final_y": "521442.289081",
    "longitude": "-90.11467142686236",
    "latitude": "29.928221929277377",
    "geocoded_column": {
      "latitude": "29.928221929277377",
      "longitude": "-90.11467142686236"
    }
  },
  {
    "service_request": "2022-866917",
    "request_type": "Trash/Recycling",
    "request_reason": "Repair Trash Cart",
    "date_created": "2022-03-14T14:11:34.000",
    "date_modified": "2022-03-14T14:11:35.000",
    "request_status": "Pending",
    "responsible_agency": "Department of Sanitation",
    "final_address": "5515 Hurst St",
    "address_councildis": "A",
    "status": "Assigned to Contractor",
    "contractor": "Richards Disposal",
    "rowid": "866917",
    "final_x": "3666849.02906",
    "final_y": "521442.289081",
    "longitude": "-90.11467142686236",
    "latitude": "29.928221929277377",
    "geocoded_column": {
      "latitude": "29.928221929277377",
      "longitude": "-90.11467142686236"
    }
  },
  {
    "service_request": "2022-866916",
    "request_type": "Trash/Recycling",
    "request_reason": "Replace Trash Cart",
    "date_created": "2022-03-14T14:08:44.000",
    "date_modified": "2022-03-14T14:08:45.000",
    "request_status": "Pending",
    "responsible_agency": "Department of Sanitation",
    "final_address": "1100 S Gayoso St",
    "address_councildis": "B",
    "status": "Assigned to Contractor",
    "contractor": "Richards Disposal",
    "rowid": "866916",
    "final_x": "3671534.89051",
    "final_y": "531834.435075",
    "longitude": "-90.09952593059826",
    "latitude": "29.956659077558694",
    "geocoded_column": {
      "latitude": "29.956659077558694",
      "longitude": "-90.09952593059826"
    }
  },
  {
    "service_request": "2022-866915",
    "request_type": "Trash/Recycling",
    "request_reason": "Request a Large Item Pick Up",
    "date_created": "2022-03-14T13:58:53.000",
    "date_modified": "2022-03-14T13:58:54.000",
    "request_status": "Pending",
    "responsible_agency": "Department of Sanitation",
    "final_address": "1934 Jo Ann Pl",
    "address_councildis": "C",
    "status": "Assigned to Contractor",
    "contractor": "Richards Disposal",
    "rowid": "866915",
    "final_x": "3695022.5441",
    "final_y": "523491.236923",
    "longitude": "-90.02566052759607",
    "latitude": "29.93300185998983",
    "geocoded_column": {
      "latitude": "29.93300185998983",
      "longitude": "-90.02566052759607"
    }
  },
  {
    "service_request": "2022-866914",
    "request_type": "Trash/Recycling",
    "request_reason": "Request a Large Item Pick Up",
    "date_created": "2022-03-14T13:58:08.000",
    "date_modified": "2022-03-14T13:58:10.000",
    "request_status": "Pending",
    "responsible_agency": "Department of Sanitation",
    "final_address": "2449 Wisteria St",
    "address_councildis": "D",
    "status": "Assigned to Contractor",
    "contractor": "Metro Disposal",
    "rowid": "866914",
    "final_x": "3685947.64828",
    "final_y": "548339.251602",
    "longitude": "-90.0534330524906",
    "latitude": "30.001606914786667",
    "geocoded_column": {
      "latitude": "30.001606914786667",
      "longitude": "-90.0534330524906"
    }
  },
  {
    "service_request": "2022-866913",
    "request_type": "Traffic Signals/Signs/Striping/Streetlights",
    "request_reason": "Street Light Outage/Malfunction",
    "date_created": "2022-03-14T13:57:33.000",
    "date_modified": "2022-03-14T13:57:36.000",
    "request_status": "Pending",
    "responsible_agency": "Department of Public Works",
    "final_address": "3705 Freret St",
    "address_councildis": "B",
    "status": "Pending",
    "contractor": "Royal Engineering",
    "rowid": "866913",
    "final_x": "3672267.72571",
    "final_y": "524329.748604",
    "longitude": "-90.09746746134557",
    "latitude": "29.936001933327432",
    "geocoded_column": {
      "latitude": "29.936001933327432",
      "longitude": "-90.09746746134557"
    }
  },
  {
    "service_request": "2022-866911",
    "request_type": "Parks & Parkways",
    "request_reason": "Request Tree Service (Right of Way/Public Property)",
    "date_created": "2022-03-14T13:56:07.000",
    "date_modified": "2022-03-14T14:53:29.000",
    "case_close_date": "2022-03-14T09:53:29.000",
    "request_status": "Closed",
    "responsible_agency": "Department of Parks & Parkway",
    "final_address": "1629 Pine St",
    "address_councildis": "A",
    "status": "Duplicate Case",
    "rowid": "866911",
    "final_x": "3664946.96237",
    "final_y": "528045.489215",
    "longitude": "-90.12045520893072",
    "latitude": "29.946434112585354",
    "geocoded_column": {
      "latitude": "29.946434112585354",
      "longitude": "-90.12045520893072"
    }
  },
  {
    "service_request": "2022-866910",
    "request_type": "Trash/Recycling",
    "request_reason": "Illegal Dumping",
    "date_created": "2022-03-14T13:53:52.000",
    "date_modified": "2022-03-14T13:53:52.000",
    "request_status": "Pending",
    "responsible_agency": "Department of Code Enforcement",
    "final_address": "DOWNMAN RD & HAYNE BLVD",
    "address_councildis": "D",
    "status": "Pending",
    "rowid": "866910",
    "final_x": "3694194.8",
    "final_y": "559738.38",
    "longitude": "-90.02696904225085",
    "latitude": "30.032694365951052",
    "geocoded_column": {
      "latitude": "30.032694365951052",
      "longitude": "-90.02696904225085"
    }
  },
  {
    "service_request": "2022-866909",
    "request_type": "Trash/Recycling",
    "request_reason": "Missed Trash Pick-Up",
    "date_created": "2022-03-14T13:53:23.000",
    "date_modified": "2022-03-14T13:53:24.000",
    "request_status": "Pending",
    "responsible_agency": "Department of Sanitation",
    "final_address": "139 Alvin Callender St",
    "address_councildis": "A",
    "status": "Assigned to Contractor",
    "contractor": "Richards Disposal",
    "rowid": "866909",
    "final_x": "3661149.68736",
    "final_y": "523378.593595",
    "longitude": "-90.13259902134006",
    "latitude": "29.933711602642685",
    "geocoded_column": {
      "latitude": "29.933711602642685",
      "longitude": "-90.13259902134006"
    }
  },
  {
    "service_request": "2022-866908",
    "request_type": "Roads/Drainage",
    "request_reason": "Accessibility Ramps, Curbs and Sidewalk Repair",
    "date_created": "2022-03-14T13:53:01.000",
    "date_modified": "2022-03-14T13:53:01.000",
    "request_status": "Pending",
    "responsible_agency": "Department of Public Works",
    "final_address": "1629 Pine St",
    "address_councildis": "A",
    "status": "Pending",
    "rowid": "866908",
    "final_x": "3664946.96237",
    "final_y": "528045.489215",
    "longitude": "-90.12045520893072",
    "latitude": "29.946434112585354",
    "geocoded_column": {
      "latitude": "29.946434112585354",
      "longitude": "-90.12045520893072"
    }
  },
  {
    "service_request": "2022-866907",
    "request_type": "Trash/Recycling",
    "request_reason": "Request a Large Item Pick Up",
    "date_created": "2022-03-14T13:52:09.000",
    "date_modified": "2022-03-14T13:52:10.000",
    "request_status": "Pending",
    "responsible_agency": "Department of Sanitation",
    "final_address": "201 S Dupre St",
    "address_councildis": "B",
    "status": "Assigned to Contractor",
    "contractor": "Richards Disposal",
    "rowid": "866907",
    "final_x": "3674300.89467",
    "final_y": "535318.520134",
    "longitude": "-90.09067245861642",
    "latitude": "29.96615695843576",
    "geocoded_column": {
      "latitude": "29.96615695843576",
      "longitude": "-90.09067245861642"
    }
  },
  {
    "service_request": "2022-866906",
    "request_type": "Traffic Signals/Signs/Striping/Streetlights",
    "request_reason": "Street Light Outage/Malfunction",
    "date_created": "2022-03-14T13:50:59.000",
    "date_modified": "2022-03-14T15:42:33.000",
    "request_status": "Pending",
    "responsible_agency": "Department of Public Works",
    "final_address": "New Orleans,LA",
    "address_councildis": "B",
    "status": "Pending",
    "contractor": "Royal Engineering",
    "rowid": "866906",
    "final_x": "3672267.72571",
    "final_y": "524329.748604",
    "longitude": "-90.09746746134557",
    "latitude": "29.936001933327432",
    "geocoded_column": {
      "latitude": "29.936001933327432",
      "longitude": "-90.09746746134557"
    }
  },
  {
    "service_request": "2022-866905",
    "request_type": "Trash/Recycling",
    "request_reason": "Request a Large Item Pick Up",
    "date_created": "2022-03-14T13:49:31.000",
    "date_modified": "2022-03-14T13:49:32.000",
    "request_status": "Pending",
    "responsible_agency": "Department of Sanitation",
    "final_address": "3213 Maurepas St",
    "address_councildis": "A",
    "status": "Assigned to Contractor",
    "contractor": "Metro Disposal",
    "rowid": "866905",
    "final_x": "3676021.94273",
    "final_y": "540838.699339",
    "longitude": "-90.08504751093072",
    "latitude": "29.981284131422193",
    "geocoded_column": {
      "latitude": "29.981284131422193",
      "longitude": "-90.08504751093072"
    }
  },
  {
    "service_request": "2022-866904",
    "request_type": "Health Related Questions",
    "request_reason": "Noise Ordinance Complaint",
    "date_created": "2022-03-14T13:48:34.000",
    "date_modified": "2022-03-14T13:48:34.000",
    "request_status": "Pending",
    "responsible_agency": "Health Department",
    "final_address": "3826 Constance St, New Orleans, Louisiana, 70115",
    "address_councildis": "B",
    "status": "Pending",
    "rowid": "866904",
    "final_x": "3673254.62984",
    "final_y": "518601.049719",
    "longitude": "-90.09454730321264",
    "latitude": "29.92022055093025",
    "geocoded_column": {
      "latitude": "29.92022055093025",
      "longitude": "-90.09454730321264"
    }
  },
  {
    "service_request": "2022-866903",
    "request_type": "Trash/Recycling",
    "request_reason": "Illegal Dumping",
    "date_created": "2022-03-14T13:47:51.000",
    "date_modified": "2022-03-14T13:49:03.000",
    "request_status": "Pending",
    "responsible_agency": "Department of Code Enforcement",
    "final_address": "1401 S Gayoso St",
    "address_councildis": "B",
    "status": "Pending",
    "rowid": "866903",
    "final_x": "3670883.90881",
    "final_y": "531063.941186",
    "longitude": "-90.10160767881328",
    "latitude": "29.95455973184467",
    "geocoded_column": {
      "latitude": "29.95455973184467",
      "longitude": "-90.10160767881328"
    }
  },
  {
    "service_request": "2022-866902",
    "request_type": "Traffic Signals/Signs/Striping/Streetlights",
    "request_reason": "Traffic Signal Malfunctioning/Damaged",
    "date_created": "2022-03-14T13:46:34.000",
    "date_modified": "2022-03-14T13:46:34.000",
    "request_status": "Pending",
    "responsible_agency": "Department of Public Works",
    "final_address": "400 Poydras St",
    "address_councildis": "B",
    "status": "Pending",
    "rowid": "866902",
    "final_x": "3681589.68706",
    "final_y": "529065.294848",
    "longitude": "-90.06787272477939",
    "latitude": "29.948743349579406",
    "geocoded_column": {
      "latitude": "29.948743349579406",
      "longitude": "-90.06787272477939"
    }
  },
  {
    "service_request": "2022-866901",
    "request_type": "Traffic Signals/Signs/Striping/Streetlights",
    "request_reason": "Traffic Signal Malfunctioning/Damaged",
    "date_created": "2022-03-14T13:45:30.000",
    "date_modified": "2022-03-14T13:45:30.000",
    "request_status": "Pending",
    "responsible_agency": "Department of Public Works",
    "final_address": "2416 St Charles Ave",
    "address_councildis": "B",
    "status": "Pending",
    "rowid": "866901",
    "final_x": "3676902.78862",
    "final_y": "523076.342715",
    "longitude": "-90.08287763295023",
    "latitude": "29.93241720123134",
    "geocoded_column": {
      "latitude": "29.93241720123134",
      "longitude": "-90.08287763295023"
    }
  },
  {
    "service_request": "2022-866900",
    "request_type": "Traffic Signals/Signs/Striping/Streetlights",
    "request_reason": "Traffic Signal Malfunctioning/Damaged",
    "date_created": "2022-03-14T13:44:45.000",
    "date_modified": "2022-03-14T13:44:45.000",
    "request_status": "Pending",
    "responsible_agency": "Department of Public Works",
    "final_address": "4301 St Charles Ave",
    "address_councildis": "B",
    "status": "Pending",
    "rowid": "866900",
    "final_x": "3671149.01979",
    "final_y": "520964.798649",
    "longitude": "-90.10111349114433",
    "latitude": "29.92678253307938",
    "geocoded_column": {
      "latitude": "29.92678253307938",
      "longitude": "-90.10111349114433"
    }
  },
  {
    "service_request": "2022-866899",
    "request_type": "Trash/Recycling",
    "request_reason": "Request a Large Item Pick Up",
    "date_created": "2022-03-14T13:41:40.000",
    "date_modified": "2022-03-14T13:41:41.000",
    "request_status": "Pending",
    "responsible_agency": "Department of Sanitation",
    "final_address": "4921 Magnolia St",
    "address_councildis": "B",
    "status": "Assigned to Contractor",
    "contractor": "Richards Disposal",
    "rowid": "866899",
    "final_x": "3669023.80135",
    "final_y": "524648.525436",
    "longitude": "-90.10769787230097",
    "latitude": "29.936974273727458",
    "geocoded_column": {
      "latitude": "29.936974273727458",
      "longitude": "-90.10769787230097"
    }
  },
  {
    "service_request": "2022-866898",
    "request_type": "Traffic Signals/Signs/Striping/Streetlights",
    "request_reason": "Street Light Outage/Malfunction",
    "date_created": "2022-03-14T13:41:20.000",
    "date_modified": "2022-03-14T13:41:21.000",
    "request_status": "Pending",
    "responsible_agency": "Department of Public Works",
    "final_address": "9 Blanc Pl",
    "address_councildis": "B",
    "status": "Pending",
    "contractor": "Royal Engineering",
    "rowid": "866898",
    "final_x": "3667860.3961",
    "final_y": "520958.726393",
    "longitude": "-90.11149503314553",
    "latitude": "29.92686266998376",
    "geocoded_column": {
      "latitude": "29.92686266998376",
      "longitude": "-90.11149503314553"
    }
  },