[
  {
    "service_request": "2026-1300106",
    "request_type": "Trash/Recycling",
    "request_reason": "Request a Large Item Pick Up",
    "date_created": "2026-07-14T23:20:17.000",
    "date_modified": "2026-07-14T23:20:21.000",
    "request_status": "Pending",
    "responsible_agency": "Department of Sanitation",
    "final_address": "2428 Amelia St",
    "address_councildis": "B",
    "status": "Assigned to Contractor",
    "contractor": "IV Waste",
    "rowid": "1300106",
    "final_x": "3672355.39527",
    "final_y": "524144.14438",
    "longitude": "-90.09719700726566",
    "latitude": "29.93548898155597",
    "geocoded_column": {
      "latitude": "29.93548898155597",
      "longitude": "-90.09719700726566"
    }
  },
  {
    "service_request": "2026-1300105",
    "request_type": "Health Related Request",
    "request_reason": "Noise Ordinance Complaint",
    "date_created": "2026-07-14T23:07:41.000",
    "date_modified": "2026-07-14T23:07:42.000",
    "request_status": "Pending",
    "responsible_agency": "Health Department",
    "final_address": "801 Bourbon St, New Orleans, Louisiana, 70116",
    "address_councildis": "C",
    "status": "Pending",
    "rowid": "1300105",
    "final_x": "3682490.98735",
    "final_y": "533018.672772",
    "longitude": "-90.06488875731978",
    "latitude": "29.959586396383013",
    "geocoded_column": {
      "latitude": "29.959586396383013",
      "longitude": "-90.06488875731978"
    }
  },
  {
    "service_request": "2026-1300104",
    "request_type": "Health Related Request",
    "request_reason": "Noise Ordinance Complaint",
    "date_created": "2026-07-14T23:07:22.000",
    "date_modified": "2026-07-14T23:07:23.000",
    "request_status": "Pending",
    "responsible_agency": "Health Department",
    "final_address": "800 Bourbon St, New Orleans, Louisiana, 70116",
    "address_councildis": "C",
    "status": "Pending",
    "rowid": "1300104",
    "final_x": "3682553.51528",
    "final_y": "533013.631428",
    "longitude": "-90.06469148499534",
    "latitude": "29.95957063099051",
    "geocoded_column": {
      "latitude": "29.95957063099051",
      "longitude": "-90.06469148499534"
    }
  },
  {
    "service_request": "2026-1300103",
    "request_type": "Health Related Request",
    "request_reason": "Noise Ordinance Complaint",
    "date_created": "2026-07-14T23:07:07.000",
    "date_modified": "2026-07-14T23:07:09.000",
    "request_status": "Pending",
    "responsible_agency": "Health Department",
    "final_address": "801 Bourbon St, New Orleans, Louisiana, 70116",
    "address_councildis": "C",
    "status": "Pending",
    "rowid": "1300103",
    "final_x": "3682490.98735",
    "final_y": "533018.672772",
    "longitude": "-90.06488875731978",
    "latitude": "29.959586396383013",
    "geocoded_column": {
      "latitude": "29.959586396383013",
      "longitude": "-90.06488875731978"
    }
  },
  {
    "service_request": "2026-1300102",
    "request_type": "Health Related Request",
    "request_reason": "Noise Ordinance Complaint",
    "date_created": "2026-07-14T23:06:47.000",
    "date_modified": "2026-07-14T23:06:48.000",
    "request_status": "Pending",
    "responsible_agency": "Health Department",
    "final_address": "800 Bourbon St, New Orleans, Louisiana, 70116",
    "address_councildis": "C",
    "status": "Pending",
    "rowid": "1300102",
    "final_x": "3682553.51528",
    "final_y": "533013.631428",
    "longitude": "-90.06469148499534",
    "latitude": "29.95957063099051",
    "geocoded_column": {
      "latitude": "29.95957063099051",
      "longitude": "-90.06469148499534"
    }
  },
  {
    "service_request": "2026-1300101",
    "request_type": "Health Related Request",
    "request_reason": "Noise Ordinance Complaint",
    "date_created": "2026-07-14T23:06:29.000",
    "date_modified": "2026-07-14T23:06:30.000",
    "request_status": "Pending",
    "responsible_agency": "Health Department",
    "final_address": "801 Bourbon St, New Orleans, Louisiana, 70116",
    "address_councildis": "C",
    "status": "Pending",
    "rowid": "1300101",
    "final_x": "3682490.98735",
    "final_y": "533018.672772",
    "longitude": "-90.06488875731978",
    "latitude": "29.959586396383013",
    "geocoded_column": {
      "latitude": "29.959586396383013",
      "longitude": "-90.06488875731978"
    }
  },
  {
    "service_request": "2026-1300100",
    "request_type": "Health Related Request",
    "request_reason": "Noise Ordinance Complaint",
    "date_created": "2026-07-14T23:06:09.000",
    "date_modified": "2026-07-14T23:06:11.000",
    "request_status": "Pending",
    "responsible_agency": "Health Department",
    "final_address": "800 Bourbon St, New Orleans, Louisiana, 70116",
    "address_councildis": "C",
    "status": "Pending",
    "rowid": "1300100",
    "final_x": "3682553.51528",
    "final_y": "533013.631428",
    "longitude": "-90.06469148499534",
    "latitude": "29.95957063099051",
    "geocoded_column": {
      "latitude": "29.95957063099051",
      "longitude": "-90.06469148499534"
    }
  },
  {
    "service_request": "2026-1300099",
    "request_type": "Trash/Recycling",
    "request_reason": "Request a Large Item Pick Up",
    "date_created": "2026-07-14T22:41:32.000",
    "date_modified": "2026-07-14T22:41:35.000",
    "request_status": "Pending",
    "responsible_agency": "Department of Sanitation",
    "final_address": "4842 Gabriel Dr",
    "address_councildis": "E",
    "status": "Assigned to Contractor",
    "contractor": "Waste Pro",
    "rowid": "1300099",
    "final_x": "3708759.61144",
    "final_y": "556382.21609",
    "longitude": "-89.98106859726059",
    "latitude": "30.023001607871134",
    "geocoded_column": {
      "latitude": "30.023001607871134",
      "longitude": "-89.98106859726059"
    }
  },
  {
    "service_request": "2026-1300098",
    "request_type": "Trash/Recycling",
    "request_reason": "Replace Recycling Cart",
    "date_created": "2026-07-14T22:32:53.000",
    "date_modified": "2026-07-14T22:32:54.000",
    "request_status": "Pending",
    "responsible_agency": "Department of Sanitation",
    "final_address": "1851 Hope St",
    "address_councildis": "D",
    "status": "Pending",
    "rowid": "1300098",
    "final_x": "3680932.86351",
    "final_y": "541948.386124",
    "longitude": "-90.06949793323494",
    "latitude": "29.9841873623775",
    "geocoded_column": {
      "latitude": "29.9841873623775",
      "longitude": "-90.06949793323494"
    }
  },
  {
    "service_request": "2026-1300097",
    "request_type": "Trash/Recycling",
    "request_reason": "Order Trash Cart",
    "date_created": "2026-07-14T22:31:19.000",
    "date_modified": "2026-07-14T22:31:22.000",
    "request_status": "Pending",
    "responsible_agency": "Department of Sanitation",
    "final_address": "1851 Hope St",
    "address_councildis": "D",
    "status": "Assigned to Contractor",
    "contractor": "IV Waste",
    "rowid": "1300097",
    "final_x": "3680932.86351",
    "final_y": "541948.386124",
    "longitude": "-90.06949793323494",
    "latitude": "29.9841873623775",
    "geocoded_column": {
      "latitude": "29.9841873623775",
      "longitude": "-90.06949793323494"
    }
  },
  {
    "service_request": "2026-1300096",
    "request_type": "Trash/Recycling",
    "request_reason": "Stop Trash Service",
    "date_created": "2026-07-14T22:09:12.000",
    "date_modified": "2026-07-14T22:09:15.000",
    "request_status": "Pending",
    "responsible_agency": "Department of Sanitation",
    "final_address": "2711 Third St",
    "address_councildis": "B",
    "status": "Assigned to Contractor",
    "contractor": "IV Waste",
    "rowid": "1300096",
    "final_x": "3674229.16782",
    "final_y": "526274.744702",
    "longitude": "-90.09120857008621",
    "latitude": "29.941291720822615",
    "geocoded_column": {
      "latitude": "29.941291720822615",
      "longitude": "-90.09120857008621"
    }
  },
  {
    "service_request": "2026-1300095",
    "request_type": "Traffic Signals",
    "request_reason": "Traffic Signal Completely Dark (Blacked Out)",
    "date_created": "2026-07-14T22:00:38.000",
    "date_modified": "2026-07-14T22:00:41.000",
    "request_status": "Pending",
    "responsible_agency": "Department of Public Works",
    "final_address": "2800 BLK Chickasaw St",
    "address_councildis": "D",
    "rowid": "1300095",
    "final_x": "3688870.52609",
    "final_y": "547231.273435",
    "longitude": "-90.0442387958019",
    "latitude": "29.998470281854953",
    "geocoded_column": {
      "latitude": "29.998470281854953",
      "longitude": "-90.0442387958019"
    }
  },
  {
    "service_request": "2026-1300094",
    "request_type": "General Services",
    "request_reason": "General Service Request",
    "date_created": "2026-07-14T21:54:34.000",
    "date_modified": "2026-07-14T21:54:37.000",
    "request_status": "Pending",
    "responsible_agency": "Orleans Parish Communication District",
    "final_address": "Orleans and Carrolton intersection in New Orleans Louisiana",
    "status": "Pending",
    "rowid": "1300094",
    "longitude": "0.0",
    "latitude": "0.0",
    "geocoded_column": {
      "latitude": "0.0",
      "longitude": "0.0"
    }
  },
  {
    "service_request": "2026-1300093",
    "request_type": "Tree Service",
    "request_reason": "Tree Trim",
    "date_created": "2026-07-14T21:53:29.000",
    "date_modified": "2026-07-14T21:53:34.000",
    "request_status": "Pending",
    "responsible_agency": "Department of Parks & Parkways",
    "final_address": "2117 Treasure St",
    "address_councildis": "D",
    "status": "Pending",
    "rowid": "1300093",
    "final_x": "3683757.23305",
    "final_y": "544045.342734",
    "longitude": "-90.06050346513102",
    "latitude": "29.989867292046405",
    "geocoded_column": {
      "latitude": "29.989867292046405",
      "longitude": "-90.06050346513102"
    }
  },
  {
    "service_request": "2026-1300092",
    "request_type": "Streetlights",
    "request_reason": "Streetlight Outage/Malfunction",
    "date_created": "2026-07-14T21:51:18.000",
    "date_modified": "2026-07-14T21:51:20.000",
    "request_status": "Pending",
    "responsible_agency": "Department of Public Works",
    "final_address": "13056 Biscay St",
    "address_councildis": "E",
    "status": "Pending",
    "rowid": "1300092",
    "final_x": "3724136.74291",
    "final_y": "561606.397343",
    "longitude": "-89.93227914606689",
    "latitude": "30.036858029649977",
    "geocoded_column": {
      "latitude": "30.036858029649977",
      "longitude": "-89.93227914606689"
    }
  },
  {
    "service_request": "2026-1300091",
    "request_type": "Health Related Request",
    "request_reason": "Noise Ordinance Complaint",
    "date_created": "2026-07-14T21:48:18.000",
    "date_modified": "2026-07-14T21:48:20.000",
    "request_status": "Pending",
    "responsible_agency": "Health Department",
    "final_address": "801 Bourbon St, New Orleans, Louisiana, 70116",
    "address_councildis": "C",
    "status": "Pending",
    "rowid": "1300091",
    "final_x": "3682490.98735",
    "final_y": "533018.672772",
    "longitude": "-90.06488875731978",
    "latitude": "29.959586396383013",
    "geocoded_column": {
      "latitude": "29.959586396383013",
      "longitude": "-90.06488875731978"
    }
  },
  {
    "service_request": "2026-1300090",
    "request_type": "Health Related Request",
    "request_reason": "Noise Ordinance Complaint",
    "date_created": "2026-07-14T21:47:52.000",
    "date_modified": "2026-07-14T21:47:54.000",
    "request_status": "Pending",
    "responsible_agency": "Health Department",
    "final_address": "800 Bourbon St, New Orleans, Louisiana, 70116",
    "address_councildis": "C",
    "status": "Pending",
    "rowid": "1300090",
    "final_x": "3682553.51528",
    "final_y": "533013.631428",
    "longitude": "-90.06469148499534",
    "latitude": "29.95957063099051",
    "geocoded_column": {
      "latitude": "29.95957063099051",
      "longitude": "-90.06469148499534"
    }
  },
  {
    "service_request": "2026-1300089",
    "request_type": "Drainage",
    "request_reason": "Catch Basin Not Draining",
    "date_created": "2026-07-14T21:42:09.000",
    "date_modified": "2026-07-14T21:42:13.000",
    "request_status": "Pending",
    "responsible_agency": "Sewerage & Water Board",
    "final_address": "1056 N Carrollton Ave",
    "address_councildis": "A",
    "status": "Pending",
    "rowid": "1300089",
    "final_x": "3674016.72692",
    "final_y": "541344.52878",
    "longitude": "-90.09136359015503",
    "latitude": "29.982734902377576",
    "geocoded_column": {
      "latitude": "29.982734902377576",
      "longitude": "-90.09136359015503"
    }
  },
  {
    "service_request": "2026-1300088",
    "request_type": "Trash/Recycling",
    "request_reason": "Order Recycling Cart",
    "date_created": "2026-07-14T21:37:31.000",
    "date_modified": "2026-07-14T21:37:33.000",
    "request_status": "Pending",
    "responsible_agency": "Department of Sanitation",
    "final_address": "3615 Washington Ave",
    "address_councildis": "B",
    "status": "Pending",
    "rowid": "1300088",
    "final_x": "3671989.98471",
    "final_y": "528547.243904",
    "longitude": "-90.09820077481857",
    "latitude": "29.94760690431263",
    "geocoded_column": {
      "latitude": "29.94760690431263",
      "longitude": "-90.09820077481857"
    }
  },
  {
    "service_request": "2026-1300087",
    "request_type": "Trash/Recycling",
    "request_reason": "Order Trash Cart",
    "date_created": "2026-07-14T21:36:21.000",
    "date_modified": "2026-07-14T21:36:24.000",
    "request_status": "Pending",
    "responsible_agency": "Department of Sanitation",
    "final_address": "3615 Washington Ave",
    "address_councildis": "B",
    "status": "Assigned to Contractor",
    "contractor": "IV Waste",
    "rowid": "1300087",
    "final_x": "3671989.98471",
    "final_y": "528547.243904",
    "longitude": "-90.09820077481857",
    "latitude": "29.94760690431263",
    "geocoded_column": {
      "latitude": "29.94760690431263",
      "longitude": "-90.09820077481857"
    }
  },
  {
    "service_request": "2026-1300086",
    "request_type": "Trash/Recycling",
    "request_reason": "Damaged Caused By Contractor",
    "date_created": "2026-07-14T21:29:38.000",
    "date_modified": "2026-07-14T21:29:41.000",
    "request_status": "Pending",
    "responsible_agency": "Department of Sanitation",
    "final_address": "7529 Zimple St",
    "address_councildis": "A",
    "status": "Assigned to Contractor",
    "contractor": "IV Waste",
    "rowid": "1300086",
    "final_x": "3663151.71047",
    "final_y": "526867.521214",
    "longitude": "-90.12616266365171",
    "latitude": "29.943247207035967",
    "geocoded_column": {
      "latitude": "29.943247207035967",
      "longitude": "-90.12616266365171"
    }
  },
  {
    "service_request": "2026-1300085",
    "request_type": "Trash/Recycling",
    "request_reason": "Damaged Caused By Contractor",
    "date_created": "2026-07-14T21:28:04.000",
    "date_modified": "2026-07-14T21:28:06.000",
    "request_status": "Pending",
    "responsible_agency": "Department of Sanitation",
    "final_address": "3614 Robert St",
    "address_councildis": "B",
    "status": "Assigned to Contractor",
    "contractor": "IV Waste",
    "rowid": "1300085",
    "final_x": "3668868.17748",
    "final_y": "528098.432447",
    "longitude": "-90.10807272211252",
    "latitude": "29.946464978238428",
    "geocoded_column": {
      "latitude": "29.946464978238428",
      "longitude": "-90.10807272211252"
    }
  },
  {
    "service_request": "2026-1300084",
    "request_type": "Traffic Signals",
    "request_reason": "Traffic Signal Flashing",
    "date_created": "2026-07-14T21:22:06.000",
    "date_modified": "2026-07-14T21:22:07.000",
    "request_status": "Pending",
    "final_address": "MOSS ST & ORLEANS AVE",
    "address_councildis": "A",
    "rowid": "1300084",
    "final_x": "3674424.0",
    "final_y": "538813.88",
    "longitude": "-90.09016393547608",
    "latitude": "29.975764340725075",
    "geocoded_column": {
      "latitude": "29.975764340725075",
      "longitude": "-90.09016393547608"
    }
  },
  {
    "service_request": "2026-1300083",
    "request_type": "Trash/Recycling",
    "request_reason": "Replace Recycling Cart",
    "date_created": "2026-07-14T21:20:56.000",
    "date_modified": "2026-07-14T21:20:59.000",
    "request_status": "Pending",
    "responsible_agency": "Department of Sanitation",
    "final_address": "964 Topaz St",
    "address_councildis": "D",
    "status": "Pending",
    "rowid": "1300083",
    "final_x": "3671310.7058",
    "final_y": "557046.424922",
    "longitude": "-90.09937649931264",
    "latitude": "30.02598998467284",
    "geocoded_column": {
      "latitude": "30.02598998467284",
      "longitude": "-90.09937649931264"
    }
  },
  {
    "service_request": "2026-1300082",
    "request_type": "Drainage",
    "request_reason": "Catch Basin Not Draining",
    "date_created": "2026-07-14T21:15:17.000",
    "date_modified": "2026-07-14T21:15:20.000",
    "request_status": "Pending",
    "responsible_agency": "Sewerage & Water Board",
    "final_address": "3200 Banks St",
    "address_councildis": "B",
    "status": "Pending",
    "rowid": "1300082",
    "final_x": "3673077.26459",
    "final_y": "535245.009734",
    "longitude": "-90.09453917147644",
    "latitude": "29.965991261455468",
    "geocoded_column": {
      "latitude": "29.965991261455468",
      "longitude": "-90.09453917147644"
    }
  },
  {
    "service_request": "2026-1300081",
    "request_type": "Trash/Recycling",
    "request_reason": "Request a Large Item Pick Up",
    "date_created": "2026-07-14T20:41:58.000",
    "date_modified": "2026-07-14T20:41:59.000",
    "request_status": "Pending",
    "responsible_agency": "Department of Sanitation",
    "final_address": "4425 Constance St",
    "address_councildis": "B",
    "status": "Assigned to Contractor",
    "contractor": "IV Waste",
    "rowid": "1300081",
    "final_x": "3670827.01703",
    "final_y": "518433.002742",
    "longitude": "-90.10221584012152",
    "latitude": "29.91983041797052",
    "geocoded_column": {
      "latitude": "29.91983041797052",
      "longitude": "-90.10221584012152"
    }
  },
  {
    "service_request": "2026-1300080",
    "request_type": "Alley Ways",
    "request_reason": "Alley Way Issues",
    "date_created": "2026-07-14T20:40:25.000",
    "date_modified": "2026-07-14T20:40:27.000",
    "request_status": "Pending",
    "responsible_agency": "Department of Public Works",
    "final_address": "5948 Orleans Ave",
    "address_councildis": "A",
    "status": "Pending",
    "rowid": "1300080",
    "final_x": "3670812.84833",
    "final_y": "546813.638097",
    "longitude": "-90.10129733587083",
    "latitude": "29.997868168193477",
    "geocoded_column": {
      "latitude": "29.997868168193477",
      "longitude": "-90.10129733587083"
    }
  },
  {
    "service_request": "2026-1300079",
    "request_type": "Alley Ways",
    "request_reason": "Alley Way Issues",
    "date_created": "2026-07-14T20:35:40.000",
    "date_modified": "2026-07-14T20:35:42.000",
    "request_status": "Pending",
    "responsible_agency": "Department of Public Works",
    "final_address": "5948 Orleans Ave",
    "address_councildis": "A",
    "status": "Pending",
    "rowid": "1300079",
    "final_x": "3670812.84833",
    "final_y": "546813.638097",
    "longitude": "-90.10129733587083",
    "latitude": "29.997868168193477",
    "geocoded_column": {
      "latitude": "29.997868168193477",
      "longitude": "-90.10129733587083"
    }
  },
  {
    "service_request": "2026-1300078",
    "request_type": "Traffic Signals",
    "request_reason": "Traffic Signal Malfunctioning or Damaged",
    "date_created": "2026-07-14T20:33:05.000",
    "date_modified": "2026-07-14T20:33:07.000",
    "request_status": "Pending",
    "responsible_agency": "Department of Public Works",
    "final_address": "1400 Camp St",
    "address_councildis": "B",
    "status": "Pending",
    "rowid": "1300078",
    "final_x": "3680010.15701",
    "final_y": "524563.615292",
    "longitude": "-90.07301631089209",
    "latitude": "29.93641310106202",
    "geocoded_column": {
      "latitude": "29.93641310106202",
      "longitude": "-90.07301631089209"
    }
  },
  {
    "service_request": "2026-1300077",
    "request_type": "Trash/Recycling",
    "request_reason": "Request a Large Item Pick Up",
    "date_created": "2026-07-14T20:26:46.000",
    "date_modified": "2026-07-14T20:26:48.000",
    "request_status": "Pending",
    "responsible_agency": "Department of Sanitation",
    "final_address": "5860 W Louis Prima Dr",
    "address_councildis": "E",
    "status": "Assigned to Contractor",
    "contractor": "Waste Pro",
    "rowid": "1300077",
    "final_x": "3715168.22885",
    "final_y": "562951.864224",
    "longitude": "-89.96057032858108",
    "latitude": "30.040855996101165",
    "geocoded_column": {
      "latitude": "30.040855996101165",
      "longitude": "-89.96057032858108"
    }
  },
  {
    "service_request": "2026-1300076",
    "request_type": "Street and Traffic Signs",
    "request_reason": "Traffic or Parking Sign Damaged or Missing",
    "date_created": "2026-07-14T20:24:25.000",
    "date_modified": "2026-07-14T20:24:27.000",
    "request_status": "Pending",
    "responsible_agency": "Department of Public Works",
    "final_address": "1051 Magazine St",
    "address_councildis": "B",
    "status": "Pending",
    "rowid": "1300076",
    "final_x": "3680774.25685",
    "final_y": "526412.116478",
    "longitude": "-90.07053970689567",
    "latitude": "29.941472733783712",
    "geocoded_column": {
      "latitude": "29.941472733783712",
      "longitude": "-90.07053970689567"
    }
  },
  {
    "service_request": "2026-1300075",
    "request_type": "Trash/Recycling",
    "request_reason": "Request a Large Item Pick Up",
    "date_created": "2026-07-14T20:23:46.000",
    "date_modified": "2026-07-14T20:23:48.000",
    "request_status": "Pending",
    "responsible_agency": "Department of Sanitation",
    "final_address": "1124 Bordeaux St",
    "address_councildis": "B",
    "status": "Assigned to Contractor",
    "contractor": "IV Waste",
    "rowid": "1300075",
    "final_x": "3669465.69831",
    "final_y": "519609.726776",
    "longitude": "-90.10647310143604",
    "latitude": "29.923106183983027",
    "geocoded_column": {
      "latitude": "29.923106183983027",
      "longitude": "-90.10647310143604"
    }
  },
  {
    "service_request": "2026-1300074",
    "request_type": "Trash/Recycling",
    "request_reason": "Request a Large Item Pick Up",
    "date_created": "2026-07-14T19:53:42.000",
    "date_modified": "2026-07-14T19:53:43.000",
    "request_status": "Pending",
    "responsible_agency": "Department of Sanitation",
    "final_address": "4835 Corinne St",
    "address_councildis": "E",
    "status": "Assigned to Contractor",
    "contractor": "Waste Pro",
    "rowid": "1300074",
    "final_x": "3715073.19992",
    "final_y": "557236.347419",
    "longitude": "-89.96108696889746",
    "latitude": "30.025143744790675",
    "geocoded_column": {
      "latitude": "30.025143744790675",
      "longitude": "-89.96108696889746"
    }
  },
  {
    "service_request": "2026-1300073",
    "request_type": "Trash/Recycling",
    "request_reason": "Order Trash Cart",
    "date_created": "2026-07-14T19:41:54.000",
    "date_modified": "2026-07-14T19:41:56.000",
    "request_status": "Pending",
    "responsible_agency": "Department of Sanitation",
    "final_address": "4266 Joycelyn Dr",
    "address_councildis": "C",
    "status": "Assigned to Contractor",
    "contractor": "Richards Disposal",
    "rowid": "1300073",
    "final_x": "3708304.32273",
    "final_y": "514940.375731",
    "longitude": "-89.98404915669077",
    "latitude": "29.90906651429033",
    "geocoded_column": {
      "latitude": "29.90906651429033",
      "longitude": "-89.98404915669077"
    }
  },
  {
    "service_request": "2026-1300072",
    "request_type": "Parks & Grass Service",
    "request_reason": "Park Maintenance/Clean Up",
    "date_created": "2026-07-14T19:41:40.000",
    "date_modified": "2026-07-14T19:41:42.000",
    "request_status": "Pending",
    "responsible_agency": "Department of Parks & Parkways",
    "final_address": "1443 Murl St",
    "address_councildis": "C",
    "status": "Pending",
    "rowid": "1300072",
    "final_x": "3695348.2328",
    "final_y": "526131.468286",
    "longitude": "-90.02453715313985",
    "latitude": "29.940251364392925",
    "geocoded_column": {
      "latitude": "29.940251364392925",
      "longitude": "-90.02453715313985"
    }
  },
  {
    "service_request": "2026-1300071",
    "request_type": "Trash/Recycling",
    "request_reason": "Missed Trash Pick-Up",
    "date_created": "2026-07-14T19:37:58.000",
    "date_modified": "2026-07-14T19:38:01.000",
    "request_status": "Pending",
    "responsible_agency": "Department of Sanitation",
    "final_address": "4646 Rosalia Dr, New Orleans, Louisiana, 70127",
    "address_councildis": "E",
    "status": "Assigned to Contractor",
    "contractor": "Waste Pro",
    "rowid": "1300071",
    "final_x": "3711174.15179",
    "final_y": "555431.182873",
    "longitude": "-89.97347492745033",
    "latitude": "30.02030806713717",
    "geocoded_column": {
      "latitude": "30.02030806713717",
      "longitude": "-89.97347492745033"
    }
  },
  {
    "service_request": "2026-1300070",
    "request_type": "Trash/Recycling",
    "request_reason": "Request a Large Item Pick Up",
    "date_created": "2026-07-14T19:33:26.000",
    "date_modified": "2026-07-14T19:33:28.000",
    "request_status": "Pending",
    "responsible_agency": "Department of Sanitation",
    "final_address": "2340 Wirth Pl",
    "address_councildis": "A",
    "status": "Assigned to Contractor",
    "contractor": "IV Waste",
    "rowid": "1300070",
    "final_x": "3667170.49882",
    "final_y": "524805.648252",
    "longitude": "-90.11354358879973",
    "latitude": "29.937460689545734",
    "geocoded_column": {
      "latitude": "29.937460689545734",
      "longitude": "-90.11354358879973"
    }
  },
  {
    "service_request": "2026-1300069",
    "request_type": "Drainage",
    "request_reason": "Catch Basin Frame and Cover Missing or Damaged",
    "date_created": "2026-07-14T19:32:09.000",
    "date_modified": "2026-07-14T19:32:11.000",
    "request_status": "Pending",
    "responsible_agency": "Sewerage & Water Board",
    "final_address": "638 Seguin St",
    "address_councildis": "C",
    "status": "Pending",
    "rowid": "1300069",
    "final_x": "3686888.66351",
    "final_y": "529436.816833",
    "longitude": "-90.05112851003524",
    "latitude": "29.94960292968739",
    "geocoded_column": {
      "latitude": "29.94960292968739",
      "longitude": "-90.05112851003524"
    }
  },
  {
    "service_request": "2026-1300068",
    "request_type": "Roads and Streets",
    "request_reason": "Pothole",
    "date_created": "2026-07-14T19:23:39.000",
    "date_modified": "2026-07-14T19:23:40.000",
    "request_status": "Pending",
    "responsible_agency": "Department of Public Works",
    "final_address": "1027 Eliza St",
    "address_councildis": "C",
    "status": "Pending",
    "rowid": "1300068",
    "final_x": "3688760.1087",
    "final_y": "529827.772417",
    "longitude": "-90.0452056491381",
    "latitude": "29.950620208302546",
    "geocoded_column": {
      "latitude": "29.950620208302546",
      "longitude": "-90.0452056491381"
    }
  },
  {
    "service_request": "2026-1300067",
    "request_type": "Drainage",
    "request_reason": "Ditch and Culvert Maintenance",
    "date_created": "2026-07-14T19:23:07.000",
    "date_modified": "2026-07-14T19:23:09.000",
    "request_status": "Pending",
    "responsible_agency": "Department of Public Works",
    "final_address": "2025 Marais St",
    "address_councildis": "C",
    "status": "Pending",
    "rowid": "1300067",
    "final_x": "3684415.56303",
    "final_y": "536653.315975",
    "longitude": "-90.05868372514992",
    "latitude": "29.96952168918304",
    "geocoded_column": {
      "latitude": "29.96952168918304",
      "longitude": "-90.05868372514992"
    }
  },
  {
    "service_request": "2026-1300066",
    "request_type": "Trash/Recycling",
    "request_reason": "Replace Trash Cart",
    "date_created": "2026-07-14T19:16:48.000",
    "date_modified": "2026-07-14T19:16:49.000",
    "request_status": "Pending",
    "responsible_agency": "Department of Sanitation",
    "final_address": "149 Pine Valley Dr",
    "address_councildis": "C",
    "status": "Assigned to Contractor",
    "contractor": "Richards Disposal",
    "rowid": "1300066",
    "final_x": "3714061.82482",
    "final_y": "515354.253108",
    "longitude": "-89.96586210314703",
    "latitude": "29.91001685598998",
    "geocoded_column": {
      "latitude": "29.91001685598998",
      "longitude": "-89.96586210314703"
    }
  },
  {
    "service_request": "2026-1300065",
    "request_type": "Trash/Recycling",
    "request_reason": "Order Recycling Cart",
    "date_created": "2026-07-14T19:16:45.000",
    "date_modified": "2026-07-14T19:16:46.000",
    "request_status": "Pending",
    "responsible_agency": "Department of Sanitation",
    "final_address": "5015 St Claude Ave",
    "address_councildis": "E",
    "status": "Pending",
    "rowid": "1300065",
    "final_x": "3696113.05085",
    "final_y": "534351.361221",
    "longitude": "-90.02182547915295",
    "latitude": "29.962829149857008",
    "geocoded_column": {
      "latitude": "29.962829149857008",
      "longitude": "-90.02182547915295"
    }
  },
  {
    "service_request": "2026-1300064",
    "request_type": "Trash/Recycling",
    "request_reason": "Request a Large Item Pick Up",
    "date_created": "2026-07-14T19:12:19.000",
    "date_modified": "2026-07-14T19:12:21.000",
    "request_status": "Pending",
    "responsible_agency": "Department of Sanitation",
    "final_address": "7450 Dalewood Rd",
    "address_councildis": "E",
    "status": "Assigned to Contractor",
    "contractor": "Waste Pro",
    "rowid": "1300064",
    "final_x": "3700016.9624",
    "final_y": "559958.410525",
    "longitude": "-90.00856259742376",
    "latitude": "30.033115564689613",
    "geocoded_column": {
      "latitude": "30.033115564689613",
      "longitude": "-90.00856259742376"
    }
  },
  {
    "service_request": "2026-1300063",
    "request_type": "Trash/Recycling",
    "request_reason": "Request a Large Item Pick Up",
    "date_created": "2026-07-14T19:04:41.000",
    "date_modified": "2026-07-14T19:04:43.000",
    "request_status": "Pending",
    "responsible_agency": "Department of Sanitation",
    "final_address": "1927 Burdette St",
    "address_councildis": "A",
    "status": "Assigned to Contractor",
    "contractor": "IV Waste",
    "rowid": "1300063",
    "final_x": "3664613.46266",
    "final_y": "529552.438081",
    "longitude": "-90.12145786807126",
    "latitude": "29.9505874382597",
    "geocoded_column": {
      "latitude": "29.9505874382597",
      "longitude": "-90.12145786807126"
    }
  },
  {
    "service_request": "2026-1300062",
    "request_type": "Business Issues",
    "request_reason": "Illegal Business",
    "date_created": "2026-07-14T19:00:30.000",
    "date_modified": "2026-07-14T19:00:32.000",
    "request_status": "Pending",
    "responsible_agency": "Bureau of Revenue",
    "final_address": "6200 Campus Blvd",
    "address_councildis": "D",
    "status": "Pending",
    "rowid": "1300062",
    "final_x": "3688447.30665",
    "final_y": "556256.72585",
    "longitude": "-90.04525523620772",
    "latitude": "30.023300044297823",
    "geocoded_column": {
      "latitude": "30.023300044297823",
      "longitude": "-90.04525523620772"
    }
  },
  {
    "service_request": "2026-1300061",
    "request_type": "Trash/Recycling",
    "request_reason": "Order Recycling Cart",
    "date_created": "2026-07-14T18:50:59.000",
    "date_modified": "2026-07-14T18:51:02.000",
    "request_status": "Pending",
    "responsible_agency": "Department of Sanitation",
    "final_address": "2412 Verbena St, New Orleans, Louisiana, 70122",
    "address_councildis": "D",
    "status": "Pending",
    "rowid": "1300061",
    "final_x": "3685745.25948",
    "final_y": "547637.07477",
    "longitude": "-90.05409718246386",
    "latitude": "29.99968239635671",
    "geocoded_column": {
      "latitude": "29.99968239635671",
      "longitude": "-90.05409718246386"
    }
  },
  {
    "service_request": "2026-1300060",
    "request_type": "Trash/Recycling",
    "request_reason": "Request a Large Item Pick Up",
    "date_created": "2026-07-14T18:44:59.000",
    "date_modified": "2026-07-14T18:45:02.000",
    "request_status": "Pending",
    "responsible_agency": "Department of Sanitation",
    "final_address": "5514 Jacquelyn Ct",
    "address_councildis": "A",
    "status": "Assigned to Contractor",
    "contractor": "IV Waste",
    "rowid": "1300060",
    "final_x": "3664651.55124",
    "final_y": "544506.571791",
    "longitude": "-90.12083796132195",
    "latitude": "29.991705241914456",
    "geocoded_column": {
      "latitude": "29.991705241914456",
      "longitude": "-90.12083796132195"
    }
  },
  {
    "service_request": "2026-1300059",
    "request_type": "Tree Service",
    "request_reason": "Dead or Dying Tree",
    "date_created": "2026-07-14T18:41:22.000",
    "date_modified": "2026-07-14T18:41:24.000",
    "request_status": "Pending",
    "responsible_agency": "Department of Parks & Parkways",
    "final_address": "2517 Banks St",
    "address_councildis": "B",
    "status": "Pending",
    "rowid": "1300059",
    "final_x": "3675310.47067",
    "final_y": "533699.422085",
    "longitude": "-90.08753982776392",
    "latitude": "29.96167484058573",
    "geocoded_column": {
      "latitude": "29.96167484058573",
      "longitude": "-90.08753982776392"
    }
  },
  {
    "service_request": "2026-1300058",
    "request_type": "Trash/Recycling",
    "request_reason": "Order Recycling Cart",
    "date_created": "2026-07-14T18:40:58.000",
    "date_modified": "2026-07-14T18:41:00.000",
    "request_status": "Pending",
    "responsible_agency": "Department of Sanitation",
    "final_address": "6211 Colbert St",
    "address_councildis": "A",
    "status": "Pending",
    "rowid": "1300058",
    "final_x": "3667618.50234",
    "final_y": "548787.834131",
    "longitude": "-90.11132173928746",
    "latitude": "30.003390578318896",
    "geocoded_column": {
      "latitude": "30.003390578318896",
      "longitude": "-90.11132173928746"
    }
  },
  {
    "service_request": "2026-1300057",
    "request_type": "Tree Service",
    "request_reason": "Tree Trim",
    "date_created": "2026-07-14T18:36:42.000",
    "date_modified": "2026-07-14T18:36:43.000",
    "request_status": "Pending",
    "responsible_agency": "Department of Parks & Parkways",
    "final_address": "2030 Napoleon Ave",
    "address_councildis": "B",
    "status": "Pending",
    "rowid": "1300057",
    "final_x": "3670582.94811",
    "final_y": "522607.154042",
    "longitude": "-90.10284475734016",
    "latitude": "29.931315210844545",
    "geocoded_column": {
      "latitude": "29.931315210844545",
      "longitude": "-90.10284475734016"
    }
  },
  {
    "service_request": "2026-1300056",
    "request_type": "Trash/Recycling",
    "request_reason": "Request a Large Item Pick Up",
    "date_created": "2026-07-14T18:35:53.000",
    "date_modified": "2026-07-14T18:35:54.000",
    "request_status": "Pending",
    "responsible_agency": "Department of Sanitation",
    "final_address": "1732 General Pershing St",
    "address_councildis": "B",
    "status": "Assigned to Contractor",
    "contractor": "IV Waste",
    "rowid": "1300056",
    "final_x": "3671135.36219",
    "final_y": "521516.671545",
    "longitude": "-90.10113787054026",
    "latitude": "29.928300410708925",
    "geocoded_column": {
      "latitude": "29.928300410708925",
      "longitude": "-90.10113787054026"
    }
  },
  {
    "service_request": "2026-1300055",
    "request_type": "Trash/Recycling",
    "request_reason": "Damaged Caused By Contractor",
    "date_created": "2026-07-14T18:35:15.000",
    "date_modified": "2026-07-14T18:35:18.000",
    "request_status": "Pending",
    "responsible_agency": "Department of Sanitation",
    "final_address": "5627 Paris Ave",
    "address_councildis": "D",
    "status": "Assigned to Contractor",
    "contractor": "IV Waste",
    "rowid": "1300055",
    "final_x": "3679190.78114",
    "final_y": "553178.057047",
    "longitude": "-90.0746107466686",
    "latitude": "30.0151176904352",
    "geocoded_column": {
      "latitude": "30.0151176904352",
      "longitude": "-90.0746107466686"
    }
  },
  {
    "service_request": "2026-1300054",
    "request_type": "Drainage",
    "request_reason": "Catch Basin Not Draining",
    "date_created": "2026-07-14T18:31:34.000",
    "date_modified": "2026-07-14T18:31:36.000",
    "request_status": "Pending",
    "responsible_agency": "Sewerage & Water Board",
    "final_address": "2200 Royal St",
    "address_councildis": "C",
    "status": "Pending",
    "rowid": "1300054",
    "final_x": "3685225.28021",
    "final_y": "534850.911046",
    "longitude": "-90.05619001924795",
    "latitude": "29.964540908372264",
    "geocoded_column": {
      "latitude": "29.964540908372264",
      "longitude": "-90.05619001924795"
    }
  },
  {
    "service_request": "2026-1300053",
    "request_type": "Streetlights",
    "request_reason": "Streetlight Knocked Down/Leaning",
    "date_created": "2026-07-14T18:29:30.000",
    "date_modified": "2026-07-14T18:29:33.000",
    "request_status": "Pending",
    "responsible_agency": "Department of Public Works",
    "final_address": "MOSS ST & ORLEANS AVE",
    "address_councildis": "A",
    "status": "Pending",
    "rowid": "1300053",
    "final_x": "3674424.0",
    "final_y": "538813.88",
    "longitude": "-90.09016393547608",
    "latitude": "29.975764340725075",
    "geocoded_column": {
      "latitude": "29.975764340725075",
      "longitude": "-90.09016393547608"
    }
  },
  {
    "service_request": "2026-1300052",
    "request_type": "Trash/Recycling",
    "request_reason": "Illegal Dumping",
    "date_created": "2026-07-14T18:26:28.000",
    "date_modified": "2026-07-14T18:26:30.000",
    "request_status": "Pending",
    "responsible_agency": "Department of Sanitation",
    "final_address": "434 Delery St",
    "address_councildis": "E",
    "status": "Pending",
    "rowid": "1300052",
    "final_x": "3699558.66423",
    "final_y": "530859.315458",
    "longitude": "-90.01107199446146",
    "latitude": "29.953118375004834",
    "geocoded_column": {
      "latitude": "29.953118375004834",
      "longitude": "-90.01107199446146"
    }
  },
  {
    "service_request": "2026-1300051",
    "request_type": "Traffic Signals",
    "request_reason": "Traffic Signal Malfunctioning or Damaged",
    "date_created": "2026-07-14T18:25:14.000",
    "date_modified": "2026-07-14T18:25:16.000",
    "request_status": "Pending",
    "responsible_agency": "Department of Public Works",
    "final_address": "MOSS ST & ORLEANS AVE",
    "address_councildis": "A",
    "status": "Pending",
    "rowid": "1300051",
    "final_x": "3674424.0",
    "final_y": "538813.88",
    "longitude": "-90.09016393547608",
    "latitude": "29.975764340725075",
    "geocoded_column": {
      "latitude": "29.975764340725075",
      "longitude": "-90.09016393547608"
    }
  },
  {
    "service_request": "2026-1300050",
    "request_type": "Trash/Recycling",
    "request_reason": "Missed Trash Pick-Up",
    "date_created": "2026-07-14T18:17:45.000",
    "date_modified": "2026-07-14T18:17:48.000",
    "request_status": "Pending",
    "responsible_agency": "Department of Sanitation",
    "final_address": "4646 Rosalia Dr, New Orleans, Louisiana, 70127",
    "address_councildis": "E",
    "status": "Assigned to Contractor",
    "contractor": "Waste Pro",
    "rowid": "1300050",
    "final_x": "3711174.15179",
    "final_y": "555431.182873",
    "longitude": "-89.97347492745033",
    "latitude": "30.02030806713717",
    "geocoded_column": {
      "latitude": "30.02030806713717",
      "longitude": "-89.97347492745033"
    }
  },
  {
    "service_request": "2026-1300049",
    "request_type": "Trash/Recycling",
    "request_reason": "Repair Trash Cart",
    "date_created": "2026-07-14T18:09:41.000",
    "date_modified": "2026-07-14T18:09:43.000",
    "request_status": "Pending",
    "responsible_agency": "Department of Sanitation",
    "final_address": "3867 N Teak Ave",
    "address_councildis": "C",
    "status": "Assigned to Contractor",
    "contractor": "Richards Disposal",
    "rowid": "1300049",
    "final_x": "3703066.3555",
    "final_y": "514551.067379",
    "longitude": "-90.00059524830543",
    "latitude": "29.90816460879285",
    "geocoded_column": {
      "latitude": "29.90816460879285",
      "longitude": "-90.00059524830543"
    }
  },
  {
    "service_request": "2026-1300048",
    "request_type": "Tree Service",
    "request_reason": "Dead or Dying Tree",
    "date_created": "2026-07-14T17:54:12.000",
    "date_modified": "2026-07-14T17:54:15.000",
    "request_status": "Pending",
    "responsible_agency": "Department of Parks & Parkways",
    "final_address": "1490 Riviera Ave",
    "address_councildis": "D",
    "status": "Pending",
    "rowid": "1300048",
    "final_x": "3678502.09685",
    "final_y": "550831.283157",
    "longitude": "-90.07686796961055",
    "latitude": "30.008685689856566",
    "geocoded_column": {
      "latitude": "30.008685689856566",
      "longitude": "-90.07686796961055"
    }
  },
  {
    "service_request": "2026-1300046",
    "request_type": "Health Related Request",
    "request_reason": "Noise Ordinance Complaint",
    "date_created": "2026-07-14T17:43:26.000",
    "date_modified": "2026-07-14T17:43:27.000",
    "request_status": "Pending",
    "responsible_agency": "Health Department",
    "final_address": "4118 LaSalle St",
    "address_councildis": "B",
    "status": "Pending",
    "rowid": "1300046",
    "final_x": "3671521.37467",
    "final_y": "523759.333883",
    "longitude": "-90.09984309998647",
    "latitude": "29.934455590707238",
    "geocoded_column": {
      "latitude": "29.934455590707238",
      "longitude": "-90.09984309998647"
    }
  },
  {
    "service_request": "2026-1300044",
    "request_type": "Parks & Grass Service",
    "request_reason": "Request Grass Cutting Service (City Owned Property)",
    "date_created": "2026-07-14T17:41:22.000",
    "date_modified": "2026-07-14T17:41:25.000",
    "request_status": "Pending",
    "responsible_agency": "Department of Parks & Parkways",
    "final_address": "7920 Pompano St",
    "address_councildis": "E",
    "status": "Pending",
    "rowid": "1300044",
    "final_x": "3700124.51837",
    "final_y": "561565.625183",
    "longitude": "-90.0081639740403",
    "latitude": "30.037531361232844",
    "geocoded_column": {
      "latitude": "30.037531361232844",
      "longitude": "-90.0081639740403"
    }
  },
  {
    "service_request": "2026-1300043",
    "request_type": "Trash/Recycling",
    "request_reason": "Missed Trash Pick-Up",
    "date_created": "2026-07-14T17:30:50.000",
    "date_modified": "2026-07-14T17:30:53.000",
    "request_status": "Pending",
    "responsible_agency": "Department of Sanitation",
    "final_address": "9816 Morrison Rd",
    "address_councildis": "E",
    "status": "Assigned to Contractor",
    "contractor": "Waste Pro",
    "rowid": "1300043",
    "final_x": "3707794.95083",
    "final_y": "562861.758176",
    "longitude": "-89.98387556176284",
    "latitude": "30.040849065917822",
    "geocoded_column": {
      "latitude": "30.040849065917822",
      "longitude": "-89.98387556176284"
    }
  },
  {
    "service_request": "2026-1300042",
    "request_type": "Trash/Recycling",
    "request_reason": "Replace Trash Cart",
    "date_created": "2026-07-14T17:25:07.000",
    "date_modified": "2026-07-14T17:25:09.000",
    "request_status": "Pending",
    "responsible_agency": "Department of Sanitation",
    "final_address": "1627 Frankfort St",
    "address_councildis": "D",
    "status": "Assigned to Contractor",
    "contractor": "IV Waste",
    "rowid": "1300042",
    "final_x": "3679204.67298",
    "final_y": "556561.271386",
    "longitude": "-90.07444941578507",
    "latitude": "30.02441988033004",
    "geocoded_column": {
      "latitude": "30.02441988033004",
      "longitude": "-90.07444941578507"
    }
  },
  {
    "service_request": "2026-1300041",
    "request_type": "Trash/Recycling",
    "request_reason": "Request a Large Item Pick Up",
    "date_created": "2026-07-14T17:22:11.000",
    "date_modified": "2026-07-14T17:22:14.000",
    "request_status": "Pending",
    "responsible_agency": "Department of Sanitation",
    "final_address": "1623 Egania St",
    "address_councildis": "E",
    "status": "Assigned to Contractor",
    "contractor": "Waste Pro",
    "rowid": "1300041",
    "final_x": "3697431.2264",
    "final_y": "536124.192327",
    "longitude": "-90.01759858870959",
    "latitude": "29.96766225195929",
    "geocoded_column": {
      "latitude": "29.96766225195929",
      "longitude": "-90.01759858870959"
    }
  },
  {
    "service_request": "2026-1300040",
    "request_type": "Abandoned Vehicles",
    "request_reason": "Abandoned/Junk Vehicles",
    "date_created": "2026-07-14T17:18:18.000",
    "date_modified": "2026-07-14T17:18:20.000",
    "request_status": "Pending",
    "responsible_agency": "Department of Public Works",
    "final_address": "223 S Dupre St",
    "address_councildis": "B",
    "status": "Pending",
    "rowid": "1300040",
    "final_x": "3674125.43201",
    "final_y": "535166.92551",
    "longitude": "-90.09123175606108",
    "latitude": "29.965745355438234",
    "geocoded_column": {
      "latitude": "29.965745355438234",
      "longitude": "-90.09123175606108"
    }
  },
  {
    "service_request": "2026-1300039",
    "request_type": "Mosquito, Termite & Rodent Control",
    "request_reason": "Rodent Complaint (Mice & Rats)",
    "date_created": "2026-07-14T17:17:48.000",
    "date_modified": "2026-07-14T17:17:50.000",
    "request_status": "Pending",
    "responsible_agency": "Mosquito, Termite & Rodent Control Board",
    "final_address": "2338 Lapeyrouse St",
    "address_councildis": "D",
    "status": "Pending",
    "rowid": "1300039",
    "final_x": "3679939.29173",
    "final_y": "539451.62497",
    "longitude": "-90.07272293705104",
    "latitude": "29.977352233073915",
    "geocoded_column": {
      "latitude": "29.977352233073915",
      "longitude": "-90.07272293705104"
    }
  },
  {
    "service_request": "2026-1300038",
    "request_type": "Trash/Recycling",
    "request_reason": "Request a Large Item Pick Up",
    "date_created": "2026-07-14T17:00:57.000",
    "date_modified": "2026-07-14T17:00:59.000",
    "request_status": "Pending",
    "responsible_agency": "Department of Sanitation",
    "final_address": "290 Fairway Dr",
    "address_councildis": "A",
    "status": "Assigned to Contractor",
    "contractor": "IV Waste",
    "rowid": "1300038",
    "final_x": "3664119.58708",
    "final_y": "541434.020492",
    "longitude": "-90.12262088010951",
    "latitude": "29.983272230276413",
    "geocoded_column": {
      "latitude": "29.983272230276413",
      "longitude": "-90.12262088010951"
    }
  },
  {
    "service_request": "2026-1300037",
    "request_type": "Property Maintenance",
    "request_reason": "Property Maintenance",
    "date_created": "2026-07-14T17:00:46.000",
    "date_modified": "2026-07-14T17:00:48.000",
    "request_status": "Pending",
    "responsible_agency": "Department of Code Enforcement",
    "final_address": "2625 N Miro St",
    "address_councildis": "D",
    "status": "Pending",
    "rowid": "1300037",
    "final_x": "3687861.02838",
    "final_y": "540643.272651",
    "longitude": "-90.04766130282688",
    "latitude": "29.980386827156924",
    "geocoded_column": {
      "latitude": "29.980386827156924",
      "longitude": "-90.04766130282688"
    }
  },
  {
    "service_request": "2026-1300036",
    "request_type": "Mosquito, Termite & Rodent Control",
    "request_reason": "Rodent Complaint (Mice & Rats)",
    "date_created": "2026-07-14T16:59:55.000",
    "date_modified": "2026-07-14T16:59:57.000",
    "request_status": "Pending",
    "responsible_agency": "Mosquito, Termite & Rodent Control Board",
    "final_address": "2400 Lapeyrouse St",
    "address_councildis": "D",
    "status": "Pending",
    "rowid": "1300036",
    "final_x": "3679897.77403",
    "final_y": "539500.033674",
    "longitude": "-90.07285238181483",
    "latitude": "29.977486596116034",
    "geocoded_column": {
      "latitude": "29.977486596116034",
      "longitude": "-90.07285238181483"
    }
  },
  {
    "service_request": "2026-1300035",
    "request_type": "Trash/Recycling",
    "request_reason": "Request a Large Item Pick Up",
    "date_created": "2026-07-14T16:58:55.000",
    "date_modified": "2026-07-14T16:58:57.000",
    "request_status": "Pending",
    "responsible_agency": "Department of Sanitation",
    "final_address": "2619 Erato St",
    "address_councildis": "B",
    "status": "Assigned to Contractor",
    "contractor": "IV Waste",
    "rowid": "1300035",
    "final_x": "3676341.06081",
    "final_y": "528093.724095",
    "longitude": "-90.08447832413147",
    "latitude": "29.946230194645313",
    "geocoded_column": {
      "latitude": "29.946230194645313",
      "longitude": "-90.08447832413147"
    }
  },
  {
    "service_request": "2026-1300034",
    "request_type": "Property Maintenance",
    "request_reason": "Property Maintenance",
    "date_created": "2026-07-14T16:57:51.000",
    "date_modified": "2026-07-14T16:57:54.000",
    "request_status": "Pending",
    "responsible_agency": "Department of Code Enforcement",
    "final_address": "2400 Lapeyrouse St",
    "address_councildis": "D",
    "status": "Pending",
    "rowid": "1300034",
    "final_x": "3679897.77403",
    "final_y": "539500.033674",
    "longitude": "-90.07285238181483",
    "latitude": "29.977486596116034",
    "geocoded_column": {
      "latitude": "29.977486596116034",
      "longitude": "-90.07285238181483"
    }
  },
  {
    "service_request": "2026-1300033",
    "request_type": "Property Maintenance",
    "request_reason": "Property Maintenance",
    "date_created": "2026-07-14T16:54:16.000",
    "date_modified": "2026-07-14T16:54:18.000",
    "request_status": "Pending",
    "responsible_agency": "Department of Code Enforcement",
    "final_address": "4958 Tulip St",
    "address_councildis": "E",
    "status": "Pending",
    "rowid": "1300033",
    "final_x": "3701922.75421",
    "final_y": "555509.814681",
    "longitude": "-90.00270340235697",
    "latitude": "30.02082292125486",
    "geocoded_column": {
      "latitude": "30.02082292125486",
      "longitude": "-90.00270340235697"
    }
  },
  {
    "service_request": "2026-1300032",
    "request_type": "Trash/Recycling",
    "request_reason": "Request a Large Item Pick Up",
    "date_created": "2026-07-14T16:52:52.000",
    "date_modified": "2026-07-14T16:52:54.000",
    "request_status": "Pending",
    "responsible_agency": "Department of Sanitation",
    "final_address": "7131 E Renaissance Ct",
    "address_councildis": "E",
    "status": "Assigned to Contractor",
    "contractor": "Waste Pro",
    "rowid": "1300032",
    "final_x": "3717338.06866",
    "final_y": "567917.446437",
    "longitude": "-89.95352400137058",
    "latitude": "30.05443765820045",
    "geocoded_column": {
      "latitude": "30.05443765820045",
      "longitude": "-89.95352400137058"
    }
  },
  {
    "service_request": "2026-1300031",
    "request_type": "Property Maintenance",
    "request_reason": "Property Maintenance",
    "date_created": "2026-07-14T16:51:39.000",
    "date_modified": "2026-07-14T16:51:40.000",
    "request_status": "Pending",
    "responsible_agency": "Department of Code Enforcement",
    "final_address": "2033 Evergreen Ave",
    "address_councildis": "C",
    "status": "Pending",
    "rowid": "1300031",
    "final_x": "3688091.86031",
    "final_y": "524328.56998",
    "longitude": "-90.0475104769165",
    "latitude": "29.935519910445137",
    "geocoded_column": {
      "latitude": "29.935519910445137",
      "longitude": "-90.0475104769165"
    }
  },
  {
    "service_request": "2026-1300029",
    "request_type": "Roads and Streets",
    "request_reason": "Street Subsidence (Sinking)",
    "date_created": "2026-07-14T16:49:50.000",
    "date_modified": "2026-07-14T16:49:52.000",
    "request_status": "Pending",
    "responsible_agency": "Sewerage & Water Board",
    "final_address": "5338 Perrier St",
    "address_councildis": "B",
    "status": "Pending",
    "rowid": "1300029",
    "final_x": "3667290.01729",
    "final_y": "519974.201592",
    "longitude": "-90.11332866426602",
    "latitude": "29.924172249649782",
    "geocoded_column": {
      "latitude": "29.924172249649782",
      "longitude": "-90.11332866426602"
    }
  },
  {
    "service_request": "2026-1300028",
    "request_type": "Property Maintenance",
    "request_reason": "Property Maintenance",
    "date_created": "2026-07-14T16:49:29.000",
    "date_modified": "2026-07-14T16:50:16.000",
    "request_status": "Pending",
    "responsible_agency": "Department of Code Enforcement",
    "final_address": "8230 Curran Rd",
    "address_councildis": "E",
    "status": "Pending",
    "rowid": "1300028",
    "final_x": "3702904.64977",
    "final_y": "561880.810335",
    "longitude": "-89.99936656689381",
    "latitude": "30.038309297017125",
    "geocoded_column": {
      "latitude": "30.038309297017125",
      "longitude": "-89.99936656689381"
    }
  },
  {
    "service_request": "2026-1300027",
    "request_type": "Trash/Recycling",
    "request_reason": "Replace Recycling Cart",
    "date_created": "2026-07-14T16:45:03.000",
    "date_modified": "2026-07-14T16:45:06.000",
    "request_status": "Pending",
    "responsible_agency": "Department of Sanitation",
    "final_address": "201 Alix St",
    "address_councildis": "C",
    "status": "Pending",
    "rowid": "1300027",
    "final_x": "3686171.33679",
    "final_y": "529736.450433",
    "longitude": "-90.05338286286938",
    "latitude": "29.95044887183086",
    "geocoded_column": {
      "latitude": "29.95044887183086",
      "longitude": "-90.05338286286938"
    }
  },
  {
    "service_request": "2026-1300026",
    "request_type": "Trash/Recycling",
    "request_reason": "Order Recycling Cart",
    "date_created": "2026-07-14T16:45:00.000",
    "date_modified": "2026-07-14T16:45:03.000",
    "request_status": "Pending",
    "responsible_agency": "Department of Sanitation",
    "final_address": "4882 Lurline St",
    "address_councildis": "E",
    "status": "Pending",
    "rowid": "1300026",
    "final_x": "3711811.63614",
    "final_y": "556980.955482",
    "longitude": "-89.97140249141752",
    "latitude": "30.02454851501541",
    "geocoded_column": {
      "latitude": "30.02454851501541",
      "longitude": "-89.97140249141752"
    }
  },
  {
    "service_request": "2026-1300025",
    "request_type": "Abandoned Vehicles",
    "request_reason": "Abandoned/Junk Vehicles",
    "date_created": "2026-07-14T16:40:44.000",
    "date_modified": "2026-07-14T16:40:47.000",
    "request_status": "Pending",
    "responsible_agency": "Department of Public Works",
    "final_address": "3141 N Claiborne Ave",
    "address_councildis": "D",
    "status": "Pending",
    "rowid": "1300025",
    "final_x": "3689826.03798",
    "final_y": "537813.632905",
    "longitude": "-90.04155573694194",
    "latitude": "29.97254554966741",
    "geocoded_column": {
      "latitude": "29.97254554966741",
      "longitude": "-90.04155573694194"
    }
  },
  {
    "service_request": "2026-1300024",
    "request_type": "Trash/Recycling",
    "request_reason": "Request a Large Item Pick Up",
    "date_created": "2026-07-14T16:37:47.000",
    "date_modified": "2026-07-14T17:04:54.000",
    "request_status": "Pending",
    "responsible_agency": "Department of Sanitation",
    "final_address": "6033 Vermillion Blvd",
    "address_councildis": "D",
    "status": "Assigned to Contractor",
    "contractor": "IV Waste",
    "rowid": "1300024",
    "final_x": "3683162.53122",
    "final_y": "555197.271769",
    "longitude": "-90.06199112281462",
    "latitude": "30.020549226505516",
    "geocoded_column": {
      "latitude": "30.020549226505516",
      "longitude": "-90.06199112281462"
    }
  },
  {
    "service_request": "2026-1300023",
    "request_type": "Property Maintenance",
    "request_reason": "Property Maintenance",
    "date_created": "2026-07-14T16:35:53.000",
    "date_modified": "2026-07-14T16:35:54.000",
    "request_status": "Pending",
    "responsible_agency": "Department of Code Enforcement",
    "final_address": "5938 Lafaye St",
    "address_councildis": "D",
    "status": "Pending",
    "rowid": "1300023",
    "final_x": "3687087.64444",
    "final_y": "555181.385241",
    "longitude": "-90.04958953632658",
    "latitude": "30.020385213128435",
    "geocoded_column": {
      "latitude": "30.020385213128435",
      "longitude": "-90.04958953632658"
    }
  },
  {
    "service_request": "2026-1300022",
    "request_type": "Trash/Recycling",
    "request_reason": "Return Trash Cart",
    "date_created": "2026-07-14T16:35:33.000",
    "date_modified": "2026-07-14T16:35:35.000",
    "request_status": "Pending",
    "responsible_agency": "Department of Sanitation",
    "final_address": "1122 Joliet St",
    "address_councildis": "A",
    "status": "Assigned to Contractor",
    "contractor": "IV Waste",
    "rowid": "1300022",
    "final_x": "3660762.37062",
    "final_y": "529242.997057",
    "longitude": "-90.1336279280939",
    "latitude": "29.949848007533173",
    "geocoded_column": {
      "latitude": "29.949848007533173",
      "longitude": "-90.1336279280939"
    }
  },
  {
    "service_request": "2026-1300021",
    "request_type": "Abandoned Vehicles",
    "request_reason": "Abandoned/Junk Vehicles",
    "date_created": "2026-07-14T16:30:51.000",
    "date_modified": "2026-07-14T16:30:54.000",
    "request_status": "Pending",
    "responsible_agency": "Department of Public Works",
    "final_address": "6025 Lafaye St",
    "address_councildis": "D",
    "status": "Pending",
    "rowid": "1300021",
    "final_x": "3687163.06857",
    "final_y": "555451.075033",
    "longitude": "-90.04934167093687",
    "latitude": "30.021124436394565",
    "geocoded_column": {
      "latitude": "30.021124436394565",
      "longitude": "-90.04934167093687"
    }
  },
  {
    "service_request": "2026-1300020",
    "request_type": "Trash/Recycling",
    "request_reason": "Request a Large Item Pick Up",
    "date_created": "2026-07-14T16:30:39.000",
    "date_modified": "2026-07-14T17:04:25.000",
    "request_status": "Pending",
    "responsible_agency": "Department of Sanitation",
    "final_address": "5618 Pratt Dr",
    "address_councildis": "D",
    "status": "Assigned to Contractor",
    "contractor": "IV Waste",
    "rowid": "1300020",
    "final_x": "3680226.52091",
    "final_y": "553203.080407",
    "longitude": "-90.0713374285842",
    "latitude": "30.01515517023146",
    "geocoded_column": {
      "latitude": "30.01515517023146",
      "longitude": "-90.0713374285842"
    }
  },
  {
    "service_request": "2026-1300019",
    "request_type": "Trash/Recycling",
    "request_reason": "Replace Recycling Cart",
    "date_created": "2026-07-14T16:29:48.000",
    "date_modified": "2026-07-14T16:29:50.000",
    "request_status": "Pending",
    "responsible_agency": "Department of Sanitation",
    "final_address": "217 Broadway St",
    "address_councildis": "A",
    "status": "Pending",
    "rowid": "1300019",
    "final_x": "3661214.5417",
    "final_y": "522003.855866",
    "longitude": "-90.1324397633527",
    "latitude": "29.92992963627772",
    "geocoded_column": {
      "latitude": "29.92992963627772",
      "longitude": "-90.1324397633527"
    }
  },
  {
    "service_request": "2026-1300018",
    "request_type": "Tree Service",
    "request_reason": "Blocking Stop Sign or Traffic Signal",
    "date_created": "2026-07-14T16:29:10.000",
    "date_modified": "2026-07-14T16:29:12.000",
    "request_status": "Pending",
    "responsible_agency": "Department of Parks & Parkways",
    "final_address": "5677 Marcia Ave",
    "address_councildis": "A",
    "status": "Pending",
    "rowid": "1300018",
    "final_x": "3664973.49658",
    "final_y": "545465.426896",
    "longitude": "-90.11978892272198",
    "latitude": "29.99433239570484",
    "geocoded_column": {
      "latitude": "29.99433239570484",
      "longitude": "-90.11978892272198"
    }
  },
  {
    "service_request": "2026-1300017",
    "request_type": "Trash/Recycling",
    "request_reason": "Replace Trash Cart",
    "date_created": "2026-07-14T16:28:52.000",
    "date_modified": "2026-07-14T16:28:54.000",
    "request_status": "Pending",
    "responsible_agency": "Department of Sanitation",
    "final_address": "4804 Bienville Ave",
    "address_councildis": "A",
    "status": "Assigned to Contractor",
    "contractor": "IV Waste",
    "rowid": "1300017",
    "final_x": "3669227.44026",
    "final_y": "540691.061835",
    "longitude": "-90.10651270539435",
    "latitude": "29.981079957553476",
    "geocoded_column": {
      "latitude": "29.981079957553476",
      "longitude": "-90.10651270539435"
    }
  },
  {
    "service_request": "2026-1300016",
    "request_type": "Trash/Recycling",
    "request_reason": "Request a Large Item Pick Up",
    "date_created": "2026-07-14T16:28:28.000",
    "date_modified": "2026-07-14T16:28:30.000",
    "request_status": "Pending",
    "responsible_agency": "Department of Sanitation",
    "final_address": "5813 Oxford Pl",
    "address_councildis": "C",
    "status": "Assigned to Contractor",
    "contractor": "Richards Disposal",
    "rowid": "1300016",
    "final_x": "3704924.21841",
    "final_y": "519819.880696",
    "longitude": "-89.99453732081759",
    "latitude": "29.922592481763278",
    "geocoded_column": {
      "latitude": "29.922592481763278",
      "longitude": "-89.99453732081759"
    }
  },
  {
    "service_request": "2026-1300015",
    "request_type": "Trash/Recycling",
    "request_reason": "Request a Large Item Pick Up",
    "date_created": "2026-07-14T16:27:37.000",
    "date_modified": "2026-07-14T17:03:40.000",
    "request_status": "Pending",
    "responsible_agency": "Department of Sanitation",
    "final_address": "3706 Franklin Ave",
    "address_councildis": "D",
    "status": "Assigned to Contractor",
    "contractor": "IV Waste",
    "rowid": "1300015",
    "final_x": "3687032.99734",
    "final_y": "546749.222993",
    "longitude": "-90.050060590116",
    "latitude": "29.997201531284045",
    "geocoded_column": {
      "latitude": "29.997201531284045",
      "longitude": "-90.050060590116"
    }
  },
  {
    "service_request": "2026-1300014",
    "request_type": "Property Maintenance",
    "request_reason": "Property Maintenance",
    "date_created": "2026-07-14T16:27:06.000",
    "date_modified": "2026-07-14T16:27:09.000",
    "request_status": "Pending",
    "responsible_agency": "Department of Code Enforcement",
    "final_address": "5930 Lafaye St",
    "address_councildis": "D",
    "status": "Pending",
    "rowid": "1300014",
    "final_x": "3687102.63375",
    "final_y": "555146.636249",
    "longitude": "-90.04954340494811",
    "latitude": "30.020289204509808",
    "geocoded_column": {
      "latitude": "30.020289204509808",
      "longitude": "-90.04954340494811"
    }
  },
  {
    "service_request": "2026-1300013",
    "request_type": "Drainage",
    "request_reason": "Catch Basin Not Draining",
    "date_created": "2026-07-14T16:26:01.000",
    "date_modified": "2026-07-14T16:26:03.000",
    "request_status": "Pending",
    "responsible_agency": "Sewerage & Water Board",
    "final_address": "5226 Conti St",
    "address_councildis": "A",
    "status": "Pending",
    "rowid": "1300013",
    "final_x": "3668428.6955",
    "final_y": "541800.77422",
    "longitude": "-90.10899805779543",
    "latitude": "29.9841547811201",
    "geocoded_column": {
      "latitude": "29.9841547811201",
      "longitude": "-90.10899805779543"
    }
  },
  {
    "service_request": "2026-1300012",
    "request_type": "Trash/Recycling",
    "request_reason": "Request a Large Item Pick Up",
    "date_created": "2026-07-14T16:23:21.000",
    "date_modified": "2026-07-14T17:03:18.000",
    "request_status": "Pending",
    "responsible_agency": "Department of Sanitation",
    "final_address": "5901 Pratt Dr",
    "address_councildis": "D",
    "status": "Assigned to Contractor",
    "contractor": "IV Waste",
    "rowid": "1300012",
    "final_x": "3680333.30959",
    "final_y": "554250.036952",
    "longitude": "-90.07096358386228",
    "latitude": "30.01803068619812",
    "geocoded_column": {
      "latitude": "30.01803068619812",
      "longitude": "-90.07096358386228"
    }
  },
  {
    "service_request": "2026-1300011",
    "request_type": "Streetlights",
    "request_reason": "Streetlight Outage/Malfunction",
    "date_created": "2026-07-14T16:23:13.000",
    "date_modified": "2026-07-14T16:23:14.000",
    "request_status": "Pending",
    "responsible_agency": "Department of Public Works",
    "final_address": "5642 Evelyn Ct",
    "address_councildis": "A",
    "status": "Pending",
    "rowid": "1300011",
    "final_x": "3664415.95296",
    "final_y": "545074.114959",
    "longitude": "-90.12156321012914",
    "latitude": "29.99327264562637",
    "geocoded_column": {
      "latitude": "29.99327264562637",
      "longitude": "-90.12156321012914"
    }
  },
  {
    "service_request": "2026-1300010",
    "request_type": "Property Maintenance",
    "request_reason": "Property Maintenance",
    "date_created": "2026-07-14T16:23:06.000",
    "date_modified": "2026-07-14T16:23:08.000",
    "request_status": "Pending",
    "responsible_agency": "Department of Code Enforcement",
    "final_address": "6131 Franklin Ave",
    "address_councildis": "D",
    "status": "Pending",
    "rowid": "1300010",
    "final_x": "3686476.74038",
    "final_y": "555824.490969",
    "longitude": "-90.05149707029233",
    "latitude": "30.02217232082365",
    "geocoded_column": {
      "latitude": "30.02217232082365",
      "longitude": "-90.05149707029233"
    }
  },
  {
    "service_request": "2026-1300009",
    "request_type": "Trash/Recycling",
    "request_reason": "Request a Large Item Pick Up",
    "date_created": "2026-07-14T16:22:48.000",
    "date_modified": "2026-07-14T16:22:50.000",
    "request_status": "Pending",
    "responsible_agency": "Department of Sanitation",
    "final_address": "1724 Desire St",
    "address_councildis": "D",
    "status": "Assigned to Contractor",
    "contractor": "IV Waste",
    "rowid": "1300009",
    "final_x": "3690739.71721",
    "final_y": "538146.543241",
    "longitude": "-90.03865830462227",
    "latitude": "29.97343258095788",
    "geocoded_column": {
      "latitude": "29.97343258095788",
      "longitude": "-90.03865830462227"
    }
  },
  {
    "service_request": "2026-1300008",
    "request_type": "Streetlights",
    "request_reason": "Streetlight Outage/Malfunction",
    "date_created": "2026-07-14T16:21:40.000",
    "date_modified": "2026-07-14T16:21:41.000",
    "request_status": "Pending",
    "responsible_agency": "Department of Public Works",
    "final_address": "1000 BLK N Derbigny St",
    "address_councildis": "C",
    "status": "Pending",
    "rowid": "1300008",
    "final_x": "3680257.37961",
    "final_y": "535859.110156",
    "longitude": "-90.07184322574095",
    "latitude": "29.96746442928129",
    "geocoded_column": {
      "latitude": "29.96746442928129",
      "longitude": "-90.07184322574095"
    }
  },
  {
    "service_request": "2026-1300007",
    "request_type": "Trash/Recycling",
    "request_reason": "Replace Trash Cart",
    "date_created": "2026-07-14T16:21:26.000",
    "date_modified": "2026-07-14T16:21:28.000",
    "request_status": "Pending",
    "responsible_agency": "Department of Sanitation",
    "final_address": "1815 Piety St",
    "address_councildis": "D",
    "status": "Assigned to Contractor",
    "contractor": "IV Waste",
    "rowid": "1300007",
    "final_x": "3690560.84374",
    "final_y": "538537.394121",
    "longitude": "-90.03920928090339",
    "latitude": "29.974512838568657",
    "geocoded_column": {
      "latitude": "29.974512838568657",
      "longitude": "-90.03920928090339"
    }
  },
  {
    "service_request": "2026-1300006",
    "request_type": "Trash/Recycling",
    "request_reason": "Request a Large Item Pick Up",
    "date_created": "2026-07-14T16:19:38.000",
    "date_modified": "2026-07-14T16:19:40.000",
    "request_status": "Pending",
    "responsible_agency": "Department of Sanitation",
    "final_address": "2316 Joseph St",
    "address_councildis": "A",
    "status": "Assigned to Contractor",
    "contractor": "IV Waste",
    "rowid": "1300006",
    "final_x": "3667316.05255",
    "final_y": "524608.501756",
    "longitude": "-90.11309069215268",
    "latitude": "29.936914338529405",
    "geocoded_column": {
      "latitude": "29.936914338529405",
      "longitude": "-90.11309069215268"
    }
  },
  {
    "service_request": "2026-1300005",
    "request_type": "Streetlights",
    "request_reason": "Streetlight Outage/Malfunction",
    "date_created": "2026-07-14T16:18:58.000",
    "date_modified": "2026-07-14T16:19:00.000",
    "request_status": "Pending",
    "responsible_agency": "Department of Public Works",
    "final_address": "5642 Evelyn Ct",
    "address_councildis": "A",
    "status": "Pending",
    "rowid": "1300005",
    "final_x": "3664415.95296",
    "final_y": "545074.114959",
    "longitude": "-90.12156321012914",
    "latitude": "29.99327264562637",
    "geocoded_column": {
      "latitude": "29.99327264562637",
      "longitude": "-90.12156321012914"
    }
  },
  {
    "service_request": "2026-1300004",
    "request_type": "Trash/Recycling",
    "request_reason": "Request a Large Item Pick Up",
    "date_created": "2026-07-14T16:18:37.000",
    "date_modified": "2026-07-14T16:18:38.000",
    "request_status": "Pending",
    "responsible_agency": "Department of Sanitation",
    "final_address": "1023 Richard St",
    "address_councildis": "B",
    "status": "Assigned to Contractor",
    "contractor": "IV Waste",
    "rowid": "1300004",
    "final_x": "3680213.45237",
    "final_y": "523110.398075",
    "longitude": "-90.07242498608905",
    "latitude": "29.932411083454486",
    "geocoded_column": {
      "latitude": "29.932411083454486",
      "longitude": "-90.07242498608905"
    }
  },
  {
    "service_request": "2026-1300003",
    "request_type": "Alley Ways",
    "request_reason": "Alley Way Issues",
    "date_created": "2026-07-14T16:15:55.000",
    "date_modified": "2026-07-14T16:15:57.000",
    "request_status": "Pending",
    "responsible_agency": "Department of Public Works",
    "final_address": "6406 Vicksburg St",
    "address_councildis": "A",
    "status": "Pending",
    "rowid": "1300003",
    "final_x": "3669088.43022",
    "final_y": "550125.222804",
    "longitude": "-90.10663276188474",
    "latitude": "30.00702474396962",
    "geocoded_column": {
      "latitude": "30.00702474396962",
      "longitude": "-90.10663276188474"
    }
  },
  {
    "service_request": "2026-1300002",
    "request_type": "Trash/Recycling",
    "request_reason": "Request a Large Item Pick Up",
    "date_created": "2026-07-14T16:15:34.000",
    "date_modified": "2026-07-14T16:15:36.000",
    "request_status": "Pending",
    "responsible_agency": "Department of Sanitation",
    "final_address": "6040 Oxford Pl",
    "address_councildis": "C",
    "status": "Assigned to Contractor",
    "contractor": "Richards Disposal",
    "rowid": "1300002",
    "final_x": "3706346.87179",
    "final_y": "519858.208568",
    "longitude": "-89.99004519414213",
    "latitude": "29.92265208779472",
    "geocoded_column": {
      "latitude": "29.92265208779472",
      "longitude": "-89.99004519414213"
    }
  },
  {
    "service_request": "2026-1300001",
    "request_type": "Street and Traffic Signs",
    "request_reason": "One Way Sign Missing or Damaged",
    "date_created": "2026-07-14T16:14:46.000",
    "date_modified": "2026-07-14T16:14:48.000",
    "request_status": "Pending",
    "responsible_agency": "Department of Public Works",
    "final_address": "1020 Pauline St",
    "address_councildis": "C",
    "status": "Pending",
    "rowid": "1300001",
    "final_x": "3691117.51459",
    "final_y": "535195.48679",
    "longitude": "-90.03757054119713",
    "latitude": "29.965306473488177",
    "geocoded_column": {
      "latitude": "29.965306473488177",
      "longitude": "-90.03757054119713"
    }
  },
  {
    "service_request": "2026-1300000",
    "request_type": "Trash/Recycling",
    "request_reason": "Order Second Trash Cart",
    "date_created": "2026-07-14T16:14:19.000",
    "date_modified": "2026-07-14T16:14:21.000",
    "request_status": "Pending",
    "responsible_agency": "Department of Sanitation",
    "final_address": "6060 Pratt Dr",
    "address_councildis": "D",
    "status": "Assigned to Contractor",
    "contractor": "IV Waste",
    "rowid": "1300000",
    "final_x": "3680085.33435",
    "final_y": "554955.04988",
    "longitude": "-90.07172256477504",
    "latitude": "30.019976724675566",
    "geocoded_column": {
      "latitude": "30.019976724675566",
      "longitude": "-90.07172256477504"
    }
  },
  {
    "service_request": "2026-1299999",
    "request_type": "Streetlights",
    "request_reason": "Streetlight Outage/Malfunction",
    "date_created": "2026-07-14T16:13:56.000",
    "date_modified": "2026-07-14T16:13:58.000",
    "request_status": "Pending",
    "responsible_agency": "Department of Public Works",
    "final_address": "5642 Evelyn Ct",
    "address_councildis": "A",
    "status": "Pending",
    "rowid": "1299999",
    "final_x": "3664415.95296",
    "final_y": "545074.114959",
    "longitude": "-90.12156321012914",
    "latitude": "29.99327264562637",
    "geocoded_column": {
      "latitude": "29.99327264562637",
      "longitude": "-90.12156321012914"
    }
  },
  {
    "service_request": "2026-1299998",
    "request_type": "Trash/Recycling",
    "request_reason": "Request a Large Item Pick Up",
    "date_created": "2026-07-14T16:12:26.000",
    "date_modified": "2026-07-14T17:02:53.000",
    "request_status": "Pending",
    "responsible_agency": "Department of Sanitation",
    "final_address": "6060 Pratt Dr",
    "address_councildis": "D",
    "status": "Assigned to Contractor",
    "contractor": "IV Waste",
    "rowid": "1299998",
    "final_x": "3680085.33435",
    "final_y": "554955.04988",
    "longitude": "-90.07172256477504",
    "latitude": "30.019976724675566",
    "geocoded_column": {
      "latitude": "30.019976724675566",
      "longitude": "-90.07172256477504"
    }
  },
  {
    "service_request": "2026-1299997",
    "request_type": "Property Maintenance",
    "request_reason": "Property Maintenance",
    "date_created": "2026-07-14T16:12:15.000",
    "date_modified": "2026-07-14T16:12:16.000",
    "request_status": "Pending",
    "responsible_agency": "Department of Code Enforcement",
    "final_address": "3600 Alvar St",
    "address_councildis": "D",
    "status": "Pending",
    "rowid": "1299997",
    "final_x": "3693206.39734",
    "final_y": "546382.720848",
    "longitude": "-90.03057231316927",
    "latitude": "29.99600223394941",
    "geocoded_column": {
      "latitude": "29.99600223394941",
      "longitude": "-90.03057231316927"
    }
  },
  {
    "service_request": "2026-1299996",
    "request_type": "Street and Traffic Signs",
    "request_reason": "One Way Sign Missing or Damaged",
    "date_created": "2026-07-14T16:12:06.000",
    "date_modified": "2026-07-14T16:12:08.000",
    "request_status": "Pending",
    "responsible_agency": "Department of Public Works",
    "final_address": "1020 Pauline St",
    "address_councildis": "C",
    "status": "Pending",
    "rowid": "1299996",
    "final_x": "3691117.51459",
    "final_y": "535195.48679",
    "longitude": "-90.03757054119713",
    "latitude": "29.965306473488177",
    "geocoded_column": {
      "latitude": "29.965306473488177",
      "longitude": "-90.03757054119713"
    }
  },
  {
    "service_request": "2026-1299995",
    "request_type": "Roads and Streets",
    "request_reason": "Debris in Driving Lanes",
    "date_created": "2026-07-14T16:10:26.000",
    "date_modified": "2026-07-14T16:10:27.000",
    "request_status": "Pending",
    "responsible_agency": "Department of Public Works",
    "final_address": "2200 Reynes St",
    "address_councildis": "E",
    "status": "Pending",
    "rowid": "1299995",
    "final_x": "3697094.48093",
    "final_y": "538432.965961",
    "longitude": "-90.01857837360748",
    "latitude": "29.974021179972706",
    "geocoded_column": {
      "latitude": "29.974021179972706",
      "longitude": "-90.01857837360748"
    }
  },
  {
    "service_request": "2026-1299994",
    "request_type": "Trash/Recycling",
    "request_reason": "Request a Large Item Pick Up",
    "date_created": "2026-07-14T16:08:40.000",
    "date_modified": "2026-07-14T16:08:42.000",
    "request_status": "Pending",
    "responsible_agency": "Department of Sanitation",
    "final_address": "2258 Urquhart St",
    "address_councildis": "C",
    "status": "Assigned to Contractor",
    "contractor": "IV Waste",
    "rowid": "1299994",
    "final_x": "3685570.81718",
    "final_y": "536986.82836",
    "longitude": "-90.05502359261119",
    "latitude": "29.970403345146195",
    "geocoded_column": {
      "latitude": "29.970403345146195",
      "longitude": "-90.05502359261119"
    }
  },
  {
    "service_request": "2026-1299993",
    "request_type": "Trash/Recycling",
    "request_reason": "Request a Large Item Pick Up",
    "date_created": "2026-07-14T16:07:46.000",
    "date_modified": "2026-07-14T16:07:48.000",
    "request_status": "Pending",
    "responsible_agency": "Department of Sanitation",
    "final_address": "6030 Boeing St",
    "address_councildis": "D",
    "status": "Assigned to Contractor",
    "contractor": "Waste Pro",
    "rowid": "1299993",
    "final_x": "3696647.78775",
    "final_y": "553037.560023",
    "longitude": "-90.01946023907841",
    "latitude": "30.01419253216462",
    "geocoded_column": {
      "latitude": "30.01419253216462",
      "longitude": "-90.01946023907841"
    }
  },
  {
    "service_request": "2026-1299992",
    "request_type": "Trash/Recycling",
    "request_reason": "Repair Trash Cart",
    "date_created": "2026-07-14T16:07:23.000",
    "date_modified": "2026-07-14T16:07:25.000",
    "request_status": "Pending",
    "responsible_agency": "Department of Sanitation",
    "final_address": "1018 S Carrollton Ave",
    "address_councildis": "A",
    "status": "Assigned to Contractor",
    "contractor": "IV Waste",
    "rowid": "1299992",
    "final_x": "3661578.41107",
    "final_y": "527979.905343",
    "longitude": "-90.13109314330612",
    "latitude": "29.94635139106853",
    "geocoded_column": {
      "latitude": "29.94635139106853",
      "longitude": "-90.13109314330612"
    }
  },
  {
    "service_request": "2026-1299991",
    "request_type": "Traffic Signals",
    "request_reason": "Traffic Signal Completely Dark (Blacked Out)",
    "date_created": "2026-07-14T16:07:00.000",
    "date_modified": "2026-07-14T16:07:02.000",
    "request_status": "Pending",
    "responsible_agency": "Department of Public Works",
    "final_address": "3900 BLK Alvar St",
    "address_councildis": "D",
    "rowid": "1299991",
    "final_x": "3693253.42546",
    "final_y": "548375.932891",
    "longitude": "-90.03035215683843",
    "latitude": "30.00148136641642",
    "geocoded_column": {
      "latitude": "30.00148136641642",
      "longitude": "-90.03035215683843"
    }
  },
  {
    "service_request": "2026-1299990",
    "request_type": "Trash/Recycling",
    "request_reason": "Missed Trash Pick-Up",
    "date_created": "2026-07-14T16:04:30.000",
    "date_modified": "2026-07-14T16:04:32.000",
    "request_status": "Pending",
    "responsible_agency": "Department of Sanitation",
    "final_address": "529 Bouny St",
    "address_councildis": "C",
    "status": "Assigned to Contractor",
    "contractor": "Richards Disposal",
    "rowid": "1299990",
    "final_x": "3686238.53807",
    "final_y": "529524.712385",
    "longitude": "-90.0531781458742",
    "latitude": "29.949864600160417",
    "geocoded_column": {
      "latitude": "29.949864600160417",
      "longitude": "-90.0531781458742"
    }
  },
  {
    "service_request": "2026-1299989",
    "request_type": "Abandoned Vehicles",
    "request_reason": "Abandoned/Junk Vehicles",
    "date_created": "2026-07-14T16:01:14.000",
    "date_modified": "2026-07-14T16:01:16.000",
    "request_status": "Pending",
    "responsible_agency": "Department of Public Works",
    "final_address": "7340 Dalewood Rd",
    "address_councildis": "E",
    "status": "Pending",
    "rowid": "1299989",
    "final_x": "3700159.73725",
    "final_y": "559630.707805",
    "longitude": "-90.00812339465638",
    "latitude": "30.032209969503874",
    "geocoded_column": {
      "latitude": "30.032209969503874",
      "longitude": "-90.00812339465638"
    }
  },
  {
    "service_request": "2026-1299988",
    "request_type": "Trash/Recycling",
    "request_reason": "Request a Large Item Pick Up",
    "date_created": "2026-07-14T16:00:54.000",
    "date_modified": "2026-07-14T16:00:56.000",
    "request_status": "Pending",
    "responsible_agency": "Department of Sanitation",
    "final_address": "827 Tupelo St",
    "address_councildis": "E",
    "status": "Assigned to Contractor",
    "contractor": "Waste Pro",
    "rowid": "1299988",
    "final_x": "3699205.93053",
    "final_y": "532389.597571",
    "longitude": "-90.01213005250573",
    "latitude": "29.95733729647651",
    "geocoded_column": {
      "latitude": "29.95733729647651",
      "longitude": "-90.01213005250573"
    }
  },
  {
    "service_request": "2026-1299987",
    "request_type": "Property Maintenance",
    "request_reason": "Property Maintenance",
    "date_created": "2026-07-14T15:58:11.000",
    "date_modified": "2026-07-14T15:58:13.000",
    "request_status": "Pending",
    "responsible_agency": "Department of Code Enforcement",
    "final_address": "2414 Marengo St",
    "address_councildis": "B",
    "status": "Pending",
    "rowid": "1299987",
    "final_x": "3671609.54183",
    "final_y": "523930.510524",
    "longitude": "-90.09955893917405",
    "latitude": "29.934923661112066",
    "geocoded_column": {
      "latitude": "29.934923661112066",
      "longitude": "-90.09955893917405"
    }
  },
  {
    "service_request": "2026-1299986",
    "request_type": "Trash/Recycling",
    "request_reason": "Repair Trash Cart",
    "date_created": "2026-07-14T15:53:10.000",
    "date_modified": "2026-07-14T15:53:11.000",
    "request_status": "Pending",
    "responsible_agency": "Department of Sanitation",
    "final_address": "304 S Telemachus St",
    "address_councildis": "B",
    "status": "Assigned to Contractor",
    "contractor": "IV Waste",
    "rowid": "1299986",
    "final_x": "3671852.39726",
    "final_y": "536679.329799",
    "longitude": "-90.09835845778069",
    "latitude": "29.969971514792704",
    "geocoded_column": {
      "latitude": "29.969971514792704",
      "longitude": "-90.09835845778069"
    }
  },
  {
    "service_request": "2026-1299985",
    "request_type": "Trash/Recycling",
    "request_reason": "Illegal Dumping",
    "date_created": "2026-07-14T15:51:36.000",
    "date_modified": "2026-07-14T15:51:39.000",
    "request_status": "Pending",
    "responsible_agency": "Department of Sanitation",
    "final_address": "IBERVILLE ST & N TONTI ST",
    "address_councildis": "B",
    "status": "Pending",
    "rowid": "1299985",
    "final_x": "3676681.9",
    "final_y": "534643.28",
    "longitude": "-90.08317655740049",
    "latitude": "29.96422906049463",
    "geocoded_column": {
      "latitude": "29.96422906049463",
      "longitude": "-90.08317655740049"
    }
  },
  {
    "service_request": "2026-1299984",
    "request_type": "Trash/Recycling",
    "request_reason": "Request a Large Item Pick Up",
    "date_created": "2026-07-14T15:51:15.000",
    "date_modified": "2026-07-14T15:51:17.000",
    "request_status": "Pending",
    "responsible_agency": "Department of Sanitation",
    "final_address": "4858 Lurline St",
    "address_councildis": "E",
    "status": "Assigned to Contractor",
    "contractor": "Waste Pro",
    "rowid": "1299984",
    "final_x": "3711830.14827",
    "final_y": "556797.055706",
    "longitude": "-89.9713509039169",
    "latitude": "30.024042258033674",
    "geocoded_column": {
      "latitude": "30.024042258033674",
      "longitude": "-89.9713509039169"
    }
  },
  {
    "service_request": "2026-1299983",
    "request_type": "Trash/Recycling",
    "request_reason": "Request a Large Item Pick Up",
    "date_created": "2026-07-14T15:45:56.000",
    "date_modified": "2026-07-14T15:45:58.000",
    "request_status": "Pending",
    "responsible_agency": "Department of Sanitation",
    "final_address": "6200 Eastover Dr",
    "address_councildis": "E",
    "status": "Assigned to Contractor",
    "contractor": "Waste Pro",
    "rowid": "1299983",
    "final_x": "3717498.93983",
    "final_y": "564868.848546",
    "longitude": "-89.95313159758682",
    "latitude": "30.046049938574868",
    "geocoded_column": {
      "latitude": "30.046049938574868",
      "longitude": "-89.95313159758682"
    }
  },
  {
    "service_request": "2026-1299982",
    "request_type": "Trash/Recycling",
    "request_reason": "Request a Large Item Pick Up",
    "date_created": "2026-07-14T15:45:07.000",
    "date_modified": "2026-07-14T16:58:46.000",
    "request_status": "Pending",
    "responsible_agency": "Department of Sanitation",
    "final_address": "5510 St Anthony Ave",
    "address_councildis": "D",
    "status": "Assigned to Contractor",
    "contractor": "IV Waste",
    "rowid": "1299982",
    "final_x": "3682040.39932",
    "final_y": "553169.683159",
    "longitude": "-90.06560760000761",
    "latitude": "30.015008284225814",
    "geocoded_column": {
      "latitude": "30.015008284225814",
      "longitude": "-90.06560760000761"
    }
  },
  {
    "service_request": "2026-1299981",
    "request_type": "Roads and Streets",
    "request_reason": "Debris in Driving Lanes",
    "date_created": "2026-07-14T15:43:51.000",
    "date_modified": "2026-07-14T15:43:52.000",
    "request_status": "Pending",
    "responsible_agency": "Department of Public Works",
    "final_address": "GRAVIER ST & S BROAD AVE & S BROAD ST",
    "address_councildis": "B",
    "status": "Pending",
    "rowid": "1299981",
    "final_x": "3673996.8",
    "final_y": "533346.68",
    "longitude": "-90.09170026029452",
    "latitude": "29.96074412508049",
    "geocoded_column": {
      "latitude": "29.96074412508049",
      "longitude": "-90.09170026029452"
    }
  },
  {
    "service_request": "2026-1299980",
    "request_type": "Roads and Streets",
    "request_reason": "Road Shoulder Damage",
    "date_created": "2026-07-14T15:41:19.000",
    "date_modified": "2026-07-14T15:41:21.000",
    "request_status": "Pending",
    "responsible_agency": "Department of Public Works",
    "final_address": "530 S Broad St",
    "address_councildis": "B",
    "status": "Pending",
    "rowid": "1299980",
    "final_x": "3674225.96411",
    "final_y": "533472.432516",
    "longitude": "-90.0909722978911",
    "latitude": "29.96108307234102",
    "geocoded_column": {
      "latitude": "29.96108307234102",
      "longitude": "-90.0909722978911"
    }
  },
  {
    "service_request": "2026-1299979",
    "request_type": "Trash/Recycling",
    "request_reason": "Request a Large Item Pick Up",
    "date_created": "2026-07-14T15:40:47.000",
    "date_modified": "2026-07-14T15:40:49.000",
    "request_status": "Pending",
    "responsible_agency": "Department of Sanitation",
    "final_address": "121 Chalfant Pl",
    "address_councildis": "D",
    "status": "Assigned to Contractor",
    "contractor": "IV Waste",
    "rowid": "1299979",
    "final_x": "3677780.81058",
    "final_y": "544610.520463",
    "longitude": "-90.07936182817922",
    "latitude": "29.991602522078868",
    "geocoded_column": {
      "latitude": "29.991602522078868",
      "longitude": "-90.07936182817922"
    }
  },
  {
    "service_request": "2026-1299978",
    "request_type": "Trash/Recycling",
    "request_reason": "Request a Large Item Pick Up",
    "date_created": "2026-07-14T15:40:23.000",
    "date_modified": "2026-07-14T15:40:25.000",
    "request_status": "Pending",
    "responsible_agency": "Department of Sanitation",
    "final_address": "2524 Dublin St",
    "address_councildis": "A",
    "status": "Assigned to Contractor",
    "contractor": "IV Waste",
    "rowid": "1299978",
    "final_x": "3664964.35943",
    "final_y": "532241.994947",
    "longitude": "-90.1202600069042",
    "latitude": "29.957972636151865",
    "geocoded_column": {
      "latitude": "29.957972636151865",
      "longitude": "-90.1202600069042"
    }
  },
  {
    "service_request": "2026-1299977",
    "request_type": "Abandoned Vehicles",
    "request_reason": "Abandoned/Junk Vehicles",
    "date_created": "2026-07-14T15:39:34.000",
    "date_modified": "2026-07-14T15:39:35.000",
    "request_status": "Pending",
    "responsible_agency": "Department of Public Works",
    "final_address": "3320 Magnolia St",
    "address_councildis": "B",
    "status": "Pending",
    "rowid": "1299977",
    "final_x": "3672891.81486",
    "final_y": "525230.906173",
    "longitude": "-90.09546645901115",
    "latitude": "29.938461300278107",
    "geocoded_column": {
      "latitude": "29.938461300278107",
      "longitude": "-90.09546645901115"
    }
  },
  {
    "service_request": "2026-1299976",
    "request_type": "Trash/Recycling",
    "request_reason": "Request a Large Item Pick Up",
    "date_created": "2026-07-14T15:39:26.000",
    "date_modified": "2026-07-14T15:39:28.000",
    "request_status": "Pending",
    "responsible_agency": "Department of Sanitation",
    "final_address": "2473 N Galvez St",
    "address_councildis": "D",
    "status": "Assigned to Contractor",
    "contractor": "IV Waste",
    "rowid": "1299976",
    "final_x": "3686865.91049",
    "final_y": "540191.005771",
    "longitude": "-90.05082029169151",
    "latitude": "29.979173916830273",
    "geocoded_column": {
      "latitude": "29.979173916830273",
      "longitude": "-90.05082029169151"
    }
  },
  {
    "service_request": "2026-1299975",
    "request_type": "Trash/Recycling",
    "request_reason": "Replace Trash Cart",
    "date_created": "2026-07-14T15:37:49.000",
    "date_modified": "2026-07-14T15:37:50.000",
    "request_status": "Pending",
    "responsible_agency": "Department of Sanitation",
    "final_address": "132 Roselyn Park Pl",
    "address_councildis": "C",
    "status": "Assigned to Contractor",
    "contractor": "Richards Disposal",
    "rowid": "1299975",
    "final_x": "3702708.91281",
    "final_y": "523872.721532",
    "longitude": "-90.00138139059996",
    "latitude": "29.93380737239089",
    "geocoded_column": {
      "latitude": "29.93380737239089",
      "longitude": "-90.00138139059996"
    }
  },
  {
    "service_request": "2026-1299974",
    "request_type": "Abandoned Vehicles",
    "request_reason": "Abandoned/Junk Vehicles",
    "date_created": "2026-07-14T15:37:33.000",
    "date_modified": "2026-07-14T15:37:35.000",
    "request_status": "Pending",
    "responsible_agency": "Department of Public Works",
    "final_address": "1726 Third St",
    "address_councildis": "B",
    "status": "Pending",
    "rowid": "1299974",
    "final_x": "3676079.22075",
    "final_y": "523362.865723",
    "longitude": "-90.08546771424773",
    "latitude": "29.93322973331668",
    "geocoded_column": {
      "latitude": "29.93322973331668",
      "longitude": "-90.08546771424773"
    }
  },
  {
    "service_request": "2026-1299973",
    "request_type": "City-Owned Cemeteries",
    "request_reason": "Property Maintenance",
    "date_created": "2026-07-14T15:36:37.000",
    "date_modified": "2026-07-14T15:36:39.000",
    "request_status": "Pending",
    "responsible_agency": "Department of Parks & Parkways",
    "final_address": "2000 BLK Valence St",
    "address_councildis": "B",
    "status": "Pending",
    "rowid": "1299973",
    "final_x": "3669581.49774",
    "final_y": "522357.491818",
    "longitude": "-90.10601466203087",
    "latitude": "29.930658252535014",
    "geocoded_column": {
      "latitude": "29.930658252535014",
      "longitude": "-90.10601466203087"
    }
  },
  {
    "service_request": "2026-1299972",
    "request_type": "Roads and Streets",
    "request_reason": "Abandoned Service Cut",
    "date_created": "2026-07-14T15:35:34.000",
    "date_modified": "2026-07-14T15:35:36.000",
    "request_status": "Pending",
    "responsible_agency": "Department of Public Works",
    "final_address": "2525 N Rampart St",
    "address_councildis": "C",
    "status": "Pending",
    "rowid": "1299972",
    "final_x": "3686713.50946",
    "final_y": "536110.083911",
    "longitude": "-90.05144582709907",
    "latitude": "29.967957501696223",
    "geocoded_column": {
      "latitude": "29.967957501696223",
      "longitude": "-90.05144582709907"
    }
  },
  {
    "service_request": "2026-1299971",
    "request_type": "Streetlights",
    "request_reason": "Streetlight Outage/Malfunction",
    "date_created": "2026-07-14T15:34:21.000",
    "date_modified": "2026-07-14T15:34:23.000",
    "request_status": "Pending",
    "responsible_agency": "Department of Public Works",
    "final_address": "1241 Tennessee St",
    "address_councildis": "E",
    "status": "Pending",
    "rowid": "1299971",
    "final_x": "3695917.30275",
    "final_y": "534830.230022",
    "longitude": "-90.02242632292017",
    "latitude": "29.96415202846309",
    "geocoded_column": {
      "latitude": "29.96415202846309",
      "longitude": "-90.02242632292017"
    }
  },
  {
    "service_request": "2026-1299970",
    "request_type": "Streetlights",
    "request_reason": "Streetlight Outage/Malfunction",
    "date_created": "2026-07-14T15:34:15.000",
    "date_modified": "2026-07-14T15:34:16.000",
    "request_status": "Pending",
    "responsible_agency": "Department of Public Works",
    "final_address": "PRESSBURG ST & WRIGHT RD",
    "address_councildis": "E",
    "status": "Pending",
    "rowid": "1299970",
    "final_x": "3716653.2",
    "final_y": "557524.58",
    "longitude": "-89.95608352553835",
    "latitude": "30.025884146682564",
    "geocoded_column": {
      "latitude": "30.025884146682564",
      "longitude": "-89.95608352553835"
    }
  },
  {
    "service_request": "2026-1299969",
    "request_type": "Abandoned Vehicles",
    "request_reason": "Abandoned/Junk Vehicles",
    "date_created": "2026-07-14T15:33:27.000",
    "date_modified": "2026-07-14T15:33:35.000",
    "request_status": "Pending",
    "responsible_agency": "Department of Public Works",
    "final_address": "2917 Clara St",
    "address_councildis": "B",
    "status": "Pending",
    "rowid": "1299969",
    "final_x": "3672949.29384",
    "final_y": "525726.509245",
    "longitude": "-90.09526808567671",
    "latitude": "29.939822339691997",
    "geocoded_column": {
      "latitude": "29.939822339691997",
      "longitude": "-90.09526808567671"
    }
  },
  {
    "service_request": "2026-1299968",
    "request_type": "Streetlights",
    "request_reason": "Streetlight Outage/Malfunction",
    "date_created": "2026-07-14T15:31:52.000",
    "date_modified": "2026-07-14T15:32:23.000",
    "request_status": "Pending",
    "responsible_agency": "Department of Public Works",
    "final_address": "3000 Pine St",
    "address_councildis": "B",
    "status": "Pending",
    "rowid": "1299968",
    "final_x": "3667490.22541",
    "final_y": "532156.639107",
    "longitude": "-90.11228687807036",
    "latitude": "29.957664165850247",
    "geocoded_column": {
      "latitude": "29.957664165850247",
      "longitude": "-90.11228687807036"
    }
  },
  {
    "service_request": "2026-1299967",
    "request_type": "Trash/Recycling",
    "request_reason": "Illegal Dumping",
    "date_created": "2026-07-14T15:30:14.000",
    "date_modified": "2026-07-14T15:30:50.000",
    "request_status": "Pending",
    "responsible_agency": "Department of Sanitation",
    "final_address": "HAYNE BLVD & DANUBE RD",
    "address_councildis": "E",
    "status": "Assigned to Contractor",
    "contractor": "Waste Pro",
    "rowid": "1299967",
    "final_x": "3698876.1",
    "final_y": "561551.78",
    "longitude": "-90.01210975331352",
    "latitude": "30.03753293234653",
    "geocoded_column": {
      "latitude": "30.03753293234653",
      "longitude": "-90.01210975331352"
    }
  },
  {
    "service_request": "2026-1299966",
    "request_type": "Trash/Recycling",
    "request_reason": "Request a Large Item Pick Up",
    "date_created": "2026-07-14T15:29:47.000",
    "date_modified": "2026-07-14T15:29:49.000",
    "request_status": "Pending",
    "responsible_agency": "Department of Sanitation",
    "final_address": "4849 Lafon Dr",
    "address_councildis": "E",
    "status": "Assigned to Contractor",
    "contractor": "Waste Pro",
    "rowid": "1299966",
    "final_x": "3701171.69636",
    "final_y": "554858.0902",
    "longitude": "-90.00510038027478",
    "latitude": "30.019054888521197",
    "geocoded_column": {
      "latitude": "30.019054888521197",
      "longitude": "-90.00510038027478"
    }
  },
  {
    "service_request": "2026-1299965",
    "request_type": "Property Maintenance",
    "request_reason": "Property Maintenance",
    "date_created": "2026-07-14T15:29:03.000",
    "date_modified": "2026-07-14T15:29:04.000",
    "request_status": "Pending",
    "responsible_agency": "Department of Code Enforcement",
    "final_address": "2321 St Andrew St",
    "address_councildis": "B",
    "status": "Pending",
    "rowid": "1299965",
    "final_x": "3676442.68616",
    "final_y": "526395.935806",
    "longitude": "-90.08421589400756",
    "latitude": "29.94155879197764",
    "geocoded_column": {
      "latitude": "29.94155879197764",
      "longitude": "-90.08421589400756"
    }
  },
  {
    "service_request": "2026-1299964",
    "request_type": "Trash/Recycling",
    "request_reason": "Order Trash Cart",
    "date_created": "2026-07-14T15:29:03.000",
    "date_modified": "2026-07-14T15:29:05.000",
    "request_status": "Pending",
    "responsible_agency": "Department of Sanitation",
    "final_address": "1312 France St Apt B",
    "address_councildis": "D",
    "status": "Assigned to Contractor",
    "contractor": "IV Waste",
    "rowid": "1299964",
    "final_x": "3692554.68131",
    "final_y": "536037.584391",
    "longitude": "-90.03300188023839",
    "latitude": "29.967577179049584",
    "geocoded_column": {
      "latitude": "29.967577179049584",
      "longitude": "-90.03300188023839"
    }
  },