[
  {
    "service_request": "2025-1246765",
    "request_type": "Trash/Recycling",
    "request_reason": "Damaged Caused By Contractor",
    "date_created": "2025-12-21T22:35:48.000",
    "date_modified": "2025-12-21T22:35:50.000",
    "request_status": "Pending",
    "responsible_agency": "Department of Sanitation",
    "final_address": "2218 Barracks St",
    "address_councildis": "D",
    "status": "Assigned to Contractor",
    "contractor": "IV Waste",
    "rowid": "1246765",
    "final_x": "3679515.56674",
    "final_y": "537521.337608",
    "longitude": "-90.07412819745302",
    "latitude": "29.972057419826257",
    "geocoded_column": {
      "latitude": "29.972057419826257",
      "longitude": "-90.07412819745302"
    }
  },
  {
    "service_request": "2025-1246764",
    "request_type": "Trash/Recycling",
    "request_reason": "Return Trash Cart",
    "date_created": "2025-12-21T21:31:17.000",
    "date_modified": "2025-12-21T21:31:26.000",
    "request_status": "Pending",
    "responsible_agency": "Department of Sanitation",
    "final_address": "2401 Chippewa St",
    "address_councildis": "B",
    "status": "Assigned to Contractor",
    "contractor": "IV Waste",
    "rowid": "1246764",
    "final_x": "3678833.26542",
    "final_y": "520287.600376",
    "longitude": "-90.076879827783",
    "latitude": "29.924691001940822",
    "geocoded_column": {
      "latitude": "29.924691001940822",
      "longitude": "-90.076879827783"
    }
  },
  {
    "service_request": "2025-1246763",
    "request_type": "Trash/Recycling",
    "request_reason": "Replace Trash Cart",
    "date_created": "2025-12-21T21:04:59.000",
    "date_modified": "2025-12-21T21:05:01.000",
    "request_status": "Pending",
    "responsible_agency": "Department of Sanitation",
    "final_address": "6551 Vicksburg St",
    "address_councildis": "A",
    "status": "Assigned to Contractor",
    "contractor": "IV Waste",
    "rowid": "1246763",
    "final_x": "3669305.99444",
    "final_y": "551064.319509",
    "longitude": "-90.10591363455002",
    "latitude": "30.009600524619493",
    "geocoded_column": {
      "latitude": "30.009600524619493",
      "longitude": "-90.10591363455002"
    }
  },
  {
    "service_request": "2025-1246762",
    "request_type": "Streetlights",
    "request_reason": "Streetlight Outage/Malfunction",
    "date_created": "2025-12-21T20:42:13.000",
    "date_modified": "2025-12-21T20:42:15.000",
    "request_status": "Pending",
    "responsible_agency": "Department of Public Works",
    "final_address": "1315 Lark St",
    "address_councildis": "D",
    "status": "Pending",
    "rowid": "1246762",
    "final_x": "3677498.8804",
    "final_y": "556748.031898",
    "longitude": "-90.07983296415483",
    "latitude": "30.024984823697828",
    "geocoded_column": {
      "latitude": "30.024984823697828",
      "longitude": "-90.07983296415483"
    }
  },
  {
    "service_request": "2025-1246761",
    "request_type": "Trash/Recycling",
    "request_reason": "Start Trash Service",
    "date_created": "2025-12-21T20:33:14.000",
    "date_modified": "2025-12-21T20:33:17.000",
    "request_status": "Pending",
    "responsible_agency": "Department of Sanitation",
    "final_address": "2127 Robin St",
    "address_councildis": "D",
    "status": "Assigned to Contractor",
    "contractor": "IV Waste",
    "rowid": "1246761",
    "final_x": "3683210.62255",
    "final_y": "551851.534422",
    "longitude": "-90.06195646603909",
    "latitude": "30.011348203495608",
    "geocoded_column": {
      "latitude": "30.011348203495608",
      "longitude": "-90.06195646603909"
    }
  },
  {
    "service_request": "2025-1246760",
    "request_type": "Drainage",
    "request_reason": "Catch Basin Not Draining",
    "date_created": "2025-12-21T20:30:53.000",
    "date_modified": "2025-12-21T20:30:56.000",
    "request_status": "Pending",
    "responsible_agency": "Sewerage & Water Board",
    "final_address": "8136 Spruce St",
    "address_councildis": "A",
    "status": "Pending",
    "rowid": "1246760",
    "final_x": "3663593.024",
    "final_y": "530638.206722",
    "longitude": "-90.12464373889462",
    "latitude": "29.95360258742733",
    "geocoded_column": {
      "latitude": "29.95360258742733",
      "longitude": "-90.12464373889462"
    }
  },
  {
    "service_request": "2025-1246759",
    "request_type": "Trash/Recycling",
    "request_reason": "Request a Large Item Pick Up",
    "date_created": "2025-12-21T19:58:46.000",
    "date_modified": "2025-12-21T19:58:49.000",
    "request_status": "Pending",
    "responsible_agency": "Department of Sanitation",
    "final_address": "7231 Queensway Dr",
    "address_councildis": "E",
    "status": "Assigned to Contractor",
    "contractor": "Waste Pro",
    "rowid": "1246759",
    "final_x": "3718634.65765",
    "final_y": "570269.282663",
    "longitude": "-89.9493360422512",
    "latitude": "30.06086123686576",
    "geocoded_column": {
      "latitude": "30.06086123686576",
      "longitude": "-89.9493360422512"
    }
  },
  {
    "service_request": "2025-1246758",
    "request_type": "Drainage",
    "request_reason": "Drainage Manhole Cover Missing or Damaged",
    "date_created": "2025-12-21T19:37:40.000",
    "date_modified": "2025-12-21T19:37:41.000",
    "request_status": "Pending",
    "responsible_agency": "Sewerage & Water Board",
    "final_address": "3504 Palmyra St",
    "address_councildis": "B",
    "status": "Pending",
    "rowid": "1246758",
    "final_x": "3672295.27719",
    "final_y": "536379.491335",
    "longitude": "-90.09697001393641",
    "latitude": "29.969133927624423",
    "geocoded_column": {
      "latitude": "29.969133927624423",
      "longitude": "-90.09697001393641"
    }
  },
  {
    "service_request": "2025-1246757",
    "request_type": "Trash/Recycling",
    "request_reason": "Request a Large Item Pick Up",
    "date_created": "2025-12-21T19:37:14.000",
    "date_modified": "2025-12-21T19:37:16.000",
    "request_status": "Pending",
    "responsible_agency": "Department of Sanitation",
    "final_address": "4648 Crowder Blvd",
    "address_councildis": "E",
    "status": "Assigned to Contractor",
    "contractor": "Waste Pro",
    "rowid": "1246757",
    "final_x": "3706370.96907",
    "final_y": "555199.976025",
    "longitude": "-89.98865994933384",
    "latitude": "30.019828200556795",
    "geocoded_column": {
      "latitude": "30.019828200556795",
      "longitude": "-89.98865994933384"
    }
  },
  {
    "service_request": "2025-1246756",
    "request_type": "General Services",
    "request_reason": "General Service Request",
    "date_created": "2025-12-21T19:23:52.000",
    "date_modified": "2025-12-21T19:23:54.000",
    "request_status": "Pending",
    "responsible_agency": "Orleans Parish Communication District",
    "final_address": "4648 Crowder Blvd",
    "address_councildis": "E",
    "status": "Pending",
    "rowid": "1246756",
    "final_x": "3706370.96907",
    "final_y": "555199.976025",
    "longitude": "-89.98865994933384",
    "latitude": "30.019828200556795",
    "geocoded_column": {
      "latitude": "30.019828200556795",
      "longitude": "-89.98865994933384"
    }
  },
  {
    "service_request": "2025-1246755",
    "request_type": "Trash/Recycling",
    "request_reason": "Repair Trash Cart",
    "date_created": "2025-12-21T18:42:06.000",
    "date_modified": "2025-12-21T18:42:07.000",
    "request_status": "Pending",
    "responsible_agency": "Department of Sanitation",
    "final_address": "3201 Toulouse St",
    "address_councildis": "A",
    "status": "Assigned to Contractor",
    "contractor": "IV Waste",
    "rowid": "1246755",
    "final_x": "3674678.71515",
    "final_y": "537933.424521",
    "longitude": "-90.08938966031297",
    "latitude": "29.973335787122885",
    "geocoded_column": {
      "latitude": "29.973335787122885",
      "longitude": "-90.08938966031297"
    }
  },
  {
    "service_request": "2025-1246754",
    "request_type": "Safety & Permits",
    "request_reason": "Zoning Enforcement",
    "date_created": "2025-12-21T18:40:06.000",
    "date_modified": "2025-12-21T18:40:07.000",
    "request_status": "Pending",
    "responsible_agency": "Safety and Permits",
    "final_address": "6930 Ridgefield Dr",
    "address_councildis": "E",
    "status": "Pending",
    "rowid": "1246754",
    "final_x": "3719729.69202",
    "final_y": "569017.83959",
    "longitude": "-89.94592260546054",
    "latitude": "30.057383877497983",
    "geocoded_column": {
      "latitude": "30.057383877497983",
      "longitude": "-89.94592260546054"
    }
  },
  {
    "service_request": "2025-1246753",
    "request_type": "Trash/Recycling",
    "request_reason": "Start Trash Service",
    "date_created": "2025-12-21T18:36:35.000",
    "date_modified": "2025-12-21T18:36:36.000",
    "request_status": "Pending",
    "responsible_agency": "Department of Sanitation",
    "final_address": "6607 Foch Rd",
    "address_councildis": "D",
    "status": "Assigned to Contractor",
    "contractor": "Waste Pro",
    "rowid": "1246753",
    "final_x": "3696996.74205",
    "final_y": "555574.834201",
    "longitude": "-90.01826572025419",
    "latitude": "30.021158070999803",
    "geocoded_column": {
      "latitude": "30.021158070999803",
      "longitude": "-90.01826572025419"
    }
  },
  {
    "service_request": "2025-1246752",
    "request_type": "Trash/Recycling",
    "request_reason": "Request a Large Item Pick Up",
    "date_created": "2025-12-21T18:33:27.000",
    "date_modified": "2025-12-21T18:33:29.000",
    "request_status": "Pending",
    "responsible_agency": "Department of Sanitation",
    "final_address": "11273 Notaway Ln",
    "address_councildis": "E",
    "status": "Assigned to Contractor",
    "contractor": "Waste Pro",
    "rowid": "1246752",
    "final_x": "3718013.21861",
    "final_y": "559662.132829",
    "longitude": "-89.95170465585512",
    "latitude": "30.031716541177786",
    "geocoded_column": {
      "latitude": "30.031716541177786",
      "longitude": "-89.95170465585512"
    }
  },
  {
    "service_request": "2025-1246751",
    "request_type": "Trash/Recycling",
    "request_reason": "Request a Large Item Pick Up",
    "date_created": "2025-12-21T17:57:25.000",
    "date_modified": "2025-12-21T17:57:27.000",
    "request_status": "Pending",
    "responsible_agency": "Department of Sanitation",
    "final_address": "11417 N Easterlyn Cir",
    "address_councildis": "E",
    "status": "Assigned to Contractor",
    "contractor": "Waste Pro",
    "rowid": "1246751",
    "final_x": "3718357.21605",
    "final_y": "560936.743582",
    "longitude": "-89.95056901259981",
    "latitude": "30.035209796544144",
    "geocoded_column": {
      "latitude": "30.035209796544144",
      "longitude": "-89.95056901259981"
    }
  },
  {
    "service_request": "2025-1246750",
    "request_type": "Streetlights",
    "request_reason": "Streetlight Outage/Malfunction",
    "date_created": "2025-12-21T17:24:21.000",
    "date_modified": "2025-12-21T17:24:22.000",
    "request_status": "Pending",
    "responsible_agency": "Department of Public Works",
    "final_address": "3331 Esplanade Ave",
    "address_councildis": "A",
    "status": "Pending",
    "rowid": "1246750",
    "final_x": "3675875.01781",
    "final_y": "540832.142795",
    "longitude": "-90.0855117928213",
    "latitude": "29.98127050348854",
    "geocoded_column": {
      "latitude": "29.98127050348854",
      "longitude": "-90.0855117928213"
    }
  },
  {
    "service_request": "2025-1246749",
    "request_type": "Abandoned Vehicles",
    "request_reason": "Abandoned/Junk Vehicles",
    "date_created": "2025-12-21T17:05:56.000",
    "date_modified": "2025-12-21T17:06:07.000",
    "request_status": "Pending",
    "responsible_agency": "Department of Public Works",
    "final_address": "3716 Willow St",
    "address_councildis": "B",
    "status": "Pending",
    "rowid": "1246749",
    "final_x": "3671870.9074",
    "final_y": "525586.734845",
    "longitude": "-90.09867746943293",
    "latitude": "29.939470000157094",
    "geocoded_column": {
      "latitude": "29.939470000157094",
      "longitude": "-90.09867746943293"
    }
  },
  {
    "service_request": "2025-1246748",
    "request_type": "General Services",
    "request_reason": "General Service Request",
    "date_created": "2025-12-21T17:01:11.000",
    "date_modified": "2025-12-21T17:01:12.000",
    "request_status": "Pending",
    "responsible_agency": "Orleans Parish Communication District",
    "final_address": "8126 Apricot St",
    "address_councildis": "A",
    "status": "Pending",
    "rowid": "1246748",
    "final_x": "3665594.31264",
    "final_y": "532718.98298",
    "longitude": "-90.11825481200363",
    "latitude": "29.95926584415831",
    "geocoded_column": {
      "latitude": "29.95926584415831",
      "longitude": "-90.11825481200363"
    }
  },
  {
    "service_request": "2025-1246747",
    "request_type": "General Services",
    "request_reason": "General Service Request",
    "date_created": "2025-12-21T16:58:15.000",
    "date_modified": "2025-12-21T16:58:17.000",
    "request_status": "Pending",
    "responsible_agency": "Orleans Parish Communication District",
    "final_address": "8126 Apricot St",
    "address_councildis": "A",
    "status": "Pending",
    "rowid": "1246747",
    "final_x": "3665594.31264",
    "final_y": "532718.98298",
    "longitude": "-90.11825481200363",
    "latitude": "29.95926584415831",
    "geocoded_column": {
      "latitude": "29.95926584415831",
      "longitude": "-90.11825481200363"
    }
  },
  {
    "service_request": "2025-1246746",
    "request_type": "Trash/Recycling",
    "request_reason": "Request a Large Item Pick Up",
    "date_created": "2025-12-21T15:39:51.000",
    "date_modified": "2025-12-21T15:39:53.000",
    "request_status": "Pending",
    "responsible_agency": "Department of Sanitation",
    "final_address": "7500 Scottwood Dr",
    "address_councildis": "E",
    "status": "Assigned to Contractor",
    "contractor": "Waste Pro",
    "rowid": "1246746",
    "final_x": "3717688.27673",
    "final_y": "570038.038503",
    "longitude": "-89.95233630395649",
    "latitude": "30.060256807824853",
    "geocoded_column": {
      "latitude": "30.060256807824853",
      "longitude": "-89.95233630395649"
    }
  },
  {
    "service_request": "2025-1246745",
    "request_type": "Roads and Streets",
    "request_reason": "Pothole",
    "date_created": "2025-12-21T15:20:47.000",
    "date_modified": "2025-12-21T15:20:49.000",
    "request_status": "Pending",
    "responsible_agency": "Department of Public Works",
    "final_address": "7031 Argonne Blvd",
    "address_councildis": "A",
    "status": "Pending",
    "rowid": "1246745",
    "final_x": "3670857.39713",
    "final_y": "554077.49372",
    "longitude": "-90.10090980369738",
    "latitude": "30.01783990062325",
    "geocoded_column": {
      "latitude": "30.01783990062325",
      "longitude": "-90.10090980369738"
    }
  },
  {
    "service_request": "2025-1246744",
    "request_type": "Abandoned Vehicles",
    "request_reason": "Abandoned/Junk Vehicles",
    "date_created": "2025-12-21T15:13:34.000",
    "date_modified": "2025-12-21T15:13:35.000",
    "request_status": "Pending",
    "responsible_agency": "Department of Public Works",
    "final_address": "2778 Lavender St",
    "address_councildis": "D",
    "status": "Pending",
    "rowid": "1246744",
    "final_x": "3688441.67062",
    "final_y": "547000.781969",
    "longitude": "-90.04560172937256",
    "latitude": "29.997849773046255",
    "geocoded_column": {
      "latitude": "29.997849773046255",
      "longitude": "-90.04560172937256"
    }
  },
  {
    "service_request": "2025-1246743",
    "request_type": "Trash/Recycling",
    "request_reason": "Order Recycling Cart",
    "date_created": "2025-12-21T15:12:07.000",
    "date_modified": "2025-12-21T15:12:09.000",
    "request_status": "Pending",
    "responsible_agency": "Department of Sanitation",
    "final_address": "1308 S Saratoga St",
    "address_councildis": "B",
    "status": "Pending",
    "rowid": "1246743",
    "final_x": "3677846.47771",
    "final_y": "527000.211198",
    "longitude": "-90.07976297106492",
    "latitude": "29.943178195916754",
    "geocoded_column": {
      "latitude": "29.943178195916754",
      "longitude": "-90.07976297106492"
    }
  },
  {
    "service_request": "2025-1246742",
    "request_type": "Trash/Recycling",
    "request_reason": "Replace Recycling Cart",
    "date_created": "2025-12-21T14:57:28.000",
    "date_modified": "2025-12-21T14:57:29.000",
    "request_status": "Pending",
    "responsible_agency": "Department of Sanitation",
    "final_address": "4601 Bienville Ave",
    "address_councildis": "A",
    "status": "Pending",
    "rowid": "1246742",
    "final_x": "3669901.76346",
    "final_y": "540332.944523",
    "longitude": "-90.10439501485652",
    "latitude": "29.98007538729768",
    "geocoded_column": {
      "latitude": "29.98007538729768",
      "longitude": "-90.10439501485652"
    }
  },
  {
    "service_request": "2025-1246741",
    "request_type": "Health Related Request",
    "request_reason": "Noise Ordinance Complaint",
    "date_created": "2025-12-21T14:55:41.000",
    "date_modified": "2025-12-21T14:55:43.000",
    "request_status": "Pending",
    "responsible_agency": "Health Department",
    "final_address": "7400 Lakeshore Dr",
    "address_councildis": "D",
    "status": "Pending",
    "rowid": "1246741",
    "final_x": "3666808.79802",
    "final_y": "556202.373082",
    "longitude": "-90.11363039460369",
    "latitude": "30.023801679293893",
    "geocoded_column": {
      "latitude": "30.023801679293893",
      "longitude": "-90.11363039460369"
    }
  },
  {
    "service_request": "2025-1246740",
    "request_type": "Trash/Recycling",
    "request_reason": "Replace Trash Cart",
    "date_created": "2025-12-21T14:36:39.000",
    "date_modified": "2025-12-21T14:36:40.000",
    "request_status": "Pending",
    "responsible_agency": "Department of Sanitation",
    "final_address": "4410 Dreux Ave",
    "address_councildis": "D",
    "status": "Assigned to Contractor",
    "contractor": "IV Waste",
    "rowid": "1246740",
    "final_x": "3690085.17942",
    "final_y": "552750.227798",
    "longitude": "-90.04020496455405",
    "latitude": "30.013607751951806",
    "geocoded_column": {
      "latitude": "30.013607751951806",
      "longitude": "-90.04020496455405"
    }
  },
  {
    "service_request": "2025-1246739",
    "request_type": "Roads and Streets",
    "request_reason": "Street Subsidence (Sinking)",
    "date_created": "2025-12-21T14:36:35.000",
    "date_modified": "2025-12-21T14:36:37.000",
    "request_status": "Pending",
    "responsible_agency": "Sewerage & Water Board",
    "final_address": "5707 Magazine St",
    "address_councildis": "A",
    "status": "Pending",
    "rowid": "1246739",
    "final_x": "3665746.71021",
    "final_y": "518998.832823",
    "longitude": "-90.11823301272621",
    "latitude": "29.92153538432904",
    "geocoded_column": {
      "latitude": "29.92153538432904",
      "longitude": "-90.11823301272621"
    }
  },
  {
    "service_request": "2025-1246738",
    "request_type": "New Orleans Recreation Development Commission (NORDC)",
    "request_reason": "Facilities and Parks Maintenance/Clean Up",
    "date_created": "2025-12-21T14:16:51.000",
    "date_modified": "2025-12-21T14:16:54.000",
    "request_status": "Pending",
    "responsible_agency": "New Orleans Recreation Development Commission",
    "final_address": "501 Moss St",
    "address_councildis": "A",
    "status": "Pending",
    "rowid": "1246738",
    "final_x": "3673919.37851",
    "final_y": "538106.515273",
    "longitude": "-90.09178188132455",
    "latitude": "29.973834372774853",
    "geocoded_column": {
      "latitude": "29.973834372774853",
      "longitude": "-90.09178188132455"
    }
  },
  {
    "service_request": "2025-1246737",
    "request_type": "Abandoned Vehicles",
    "request_reason": "Abandoned/Junk Vehicles",
    "date_created": "2025-12-21T14:01:45.000",
    "date_modified": "2025-12-21T14:01:48.000",
    "request_status": "Pending",
    "responsible_agency": "Department of Public Works",
    "final_address": "3818 Palmyra St",
    "address_councildis": "A",
    "status": "Pending",
    "rowid": "1246737",
    "final_x": "3671438.98887",
    "final_y": "537019.243848",
    "longitude": "-90.09965248726637",
    "latitude": "29.97091840912033",
    "geocoded_column": {
      "latitude": "29.97091840912033",
      "longitude": "-90.09965248726637"
    }
  },
  {
    "service_request": "2025-1246736",
    "request_type": "Streetlights",
    "request_reason": "Streetlight Outage/Malfunction",
    "date_created": "2025-12-21T13:57:11.000",
    "date_modified": "2025-12-21T13:57:12.000",
    "request_status": "Pending",
    "responsible_agency": "Department of Public Works",
    "final_address": "6153 West End Blvd",
    "address_councildis": "A",
    "status": "Pending",
    "rowid": "1246736",
    "final_x": "3666584.02573",
    "final_y": "548780.770067",
    "longitude": "-90.11459006202028",
    "latitude": "30.003401449358083",
    "geocoded_column": {
      "latitude": "30.003401449358083",
      "longitude": "-90.11459006202028"
    }
  },
  {
    "service_request": "2025-1246735",
    "request_type": "Trash/Recycling",
    "request_reason": "Request a Large Item Pick Up",
    "date_created": "2025-12-21T13:56:29.000",
    "date_modified": "2025-12-21T13:56:31.000",
    "request_status": "Pending",
    "responsible_agency": "Department of Sanitation",
    "final_address": "3113 Cambronne St",
    "address_councildis": "A",
    "status": "Assigned to Contractor",
    "contractor": "IV Waste",
    "rowid": "1246735",
    "final_x": "3665850.83853",
    "final_y": "534179.462341",
    "longitude": "-90.11739582200936",
    "latitude": "29.963274200368076",
    "geocoded_column": {
      "latitude": "29.963274200368076",
      "longitude": "-90.11739582200936"
    }
  },
  {
    "service_request": "2025-1246734",
    "request_type": "Trash/Recycling",
    "request_reason": "Request a Large Item Pick Up",
    "date_created": "2025-12-21T13:45:57.000",
    "date_modified": "2025-12-21T13:46:05.000",
    "request_status": "Pending",
    "responsible_agency": "Department of Sanitation",
    "final_address": "2515 Pine St",
    "address_councildis": "A",
    "status": "Assigned to Contractor",
    "contractor": "IV Waste",
    "rowid": "1246734",
    "final_x": "3666716.92685",
    "final_y": "530677.205954",
    "longitude": "-90.11477841944621",
    "latitude": "29.953618844501833",
    "geocoded_column": {
      "latitude": "29.953618844501833",
      "longitude": "-90.11477841944621"
    }
  },
  {
    "service_request": "2025-1246733",
    "request_type": "Trash/Recycling",
    "request_reason": "Request a Large Item Pick Up",
    "date_created": "2025-12-21T12:24:39.000",
    "date_modified": "2025-12-21T12:24:41.000",
    "request_status": "Pending",
    "responsible_agency": "Department of Sanitation",
    "final_address": "1526 Ursulines Ave",
    "address_councildis": "C",
    "status": "Assigned to Contractor",
    "contractor": "IV Waste",
    "rowid": "1246733",
    "final_x": "3681020.07919",
    "final_y": "535465.905158",
    "longitude": "-90.06944830429948",
    "latitude": "29.96636014011149",
    "geocoded_column": {
      "latitude": "29.96636014011149",
      "longitude": "-90.06944830429948"
    }
  },
  {
    "service_request": "2025-1246732",
    "request_type": "Trash/Recycling",
    "request_reason": "Repair Trash Cart",
    "date_created": "2025-12-21T12:22:19.000",
    "date_modified": "2025-12-21T12:22:21.000",
    "request_status": "Pending",
    "responsible_agency": "Department of Sanitation",
    "final_address": "1526 Ursulines Ave",
    "address_councildis": "C",
    "status": "Assigned to Contractor",
    "contractor": "IV Waste",
    "rowid": "1246732",
    "final_x": "3681020.07919",
    "final_y": "535465.905158",
    "longitude": "-90.06944830429948",
    "latitude": "29.96636014011149",
    "geocoded_column": {
      "latitude": "29.96636014011149",
      "longitude": "-90.06944830429948"
    }
  },
  {
    "service_request": "2025-1246731",
    "request_type": "Traffic Signals",
    "request_reason": "Traffic Signal Malfunctioning or Damaged",
    "date_created": "2025-12-21T12:21:11.000",
    "date_modified": "2025-12-21T12:21:13.000",
    "request_status": "Pending",
    "responsible_agency": "Department of Public Works",
    "final_address": "1801 Magnolia St",
    "address_councildis": "B",
    "status": "Pending",
    "rowid": "1246731",
    "final_x": "3675656.05557",
    "final_y": "527301.180927",
    "longitude": "-90.08666835071566",
    "latitude": "29.94407147366492",
    "geocoded_column": {
      "latitude": "29.94407147366492",
      "longitude": "-90.08666835071566"
    }
  },
  {
    "service_request": "2025-1246730",
    "request_type": "Trash/Recycling",
    "request_reason": "Start Trash Service",
    "date_created": "2025-12-21T12:01:23.000",
    "date_modified": "2025-12-21T12:01:25.000",
    "request_status": "Pending",
    "responsible_agency": "Department of Sanitation",
    "final_address": "3440 Annunciation St",
    "address_councildis": "B",
    "status": "Assigned to Contractor",
    "contractor": "IV Waste",
    "rowid": "1246730",
    "final_x": "3675151.69825",
    "final_y": "518442.889206",
    "longitude": "-90.08856457704992",
    "latitude": "29.919729129431687",
    "geocoded_column": {
      "latitude": "29.919729129431687",
      "longitude": "-90.08856457704992"
    }
  },
  {
    "service_request": "2025-1246729",
    "request_type": "Trash/Recycling",
    "request_reason": "Order Recycling Cart",
    "date_created": "2025-12-21T11:54:59.000",
    "date_modified": "2025-12-21T11:55:01.000",
    "request_status": "Pending",
    "responsible_agency": "Department of Sanitation",
    "final_address": "349 Lowerline St",
    "address_councildis": "A",
    "status": "Pending",
    "rowid": "1246729",
    "final_x": "3661625.45101",
    "final_y": "523695.897787",
    "longitude": "-90.13108654083676",
    "latitude": "29.934570372009595",
    "geocoded_column": {
      "latitude": "29.934570372009595",
      "longitude": "-90.13108654083676"
    }
  },
  {
    "service_request": "2025-1246728",
    "request_type": "Trash/Recycling",
    "request_reason": "Request a Large Item Pick Up",
    "date_created": "2025-12-21T11:44:17.000",
    "date_modified": "2025-12-21T11:44:19.000",
    "request_status": "Pending",
    "responsible_agency": "Department of Sanitation",
    "final_address": "5703 Canal Blvd",
    "address_councildis": "A",
    "status": "Assigned to Contractor",
    "contractor": "IV Waste",
    "rowid": "1246728",
    "final_x": "3668434.51354",
    "final_y": "545480.889552",
    "longitude": "-90.1088554656172",
    "latitude": "29.994273669763807",
    "geocoded_column": {
      "latitude": "29.994273669763807",
      "longitude": "-90.1088554656172"
    }
  },
  {
    "service_request": "2025-1246727",
    "request_type": "Trash/Recycling",
    "request_reason": "Request a Large Item Pick Up",
    "date_created": "2025-12-21T11:35:51.000",
    "date_modified": "2025-12-21T11:44:56.000",
    "request_status": "Pending",
    "responsible_agency": "Department of Sanitation",
    "final_address": "5703 Canal Blvd, New Orleans, Louisiana, 70124",
    "address_councildis": "A",
    "status": "Assigned to Contractor",
    "contractor": "IV Waste",
    "rowid": "1246727",
    "final_x": "3668434.51354",
    "final_y": "545480.889552",
    "longitude": "-90.1088554656172",
    "latitude": "29.994273669763807",
    "geocoded_column": {
      "latitude": "29.994273669763807",
      "longitude": "-90.1088554656172"
    }
  },
  {
    "service_request": "2025-1246726",
    "request_type": "Trash/Recycling",
    "request_reason": "Order Recycling Cart",
    "date_created": "2025-12-21T11:31:23.000",
    "date_modified": "2025-12-21T11:31:26.000",
    "request_status": "Pending",
    "responsible_agency": "Department of Sanitation",
    "final_address": "2630 Dumaine St",
    "address_councildis": "D",
    "status": "Pending",
    "rowid": "1246726",
    "final_x": "3677360.72149",
    "final_y": "537323.793608",
    "longitude": "-90.08094037490204",
    "latitude": "29.971579178314073",
    "geocoded_column": {
      "latitude": "29.971579178314073",
      "longitude": "-90.08094037490204"
    }
  },
  {
    "service_request": "2025-1246725",
    "request_type": "Trash/Recycling",
    "request_reason": "Missed Trash Pick-Up",
    "date_created": "2025-12-21T11:13:12.000",
    "date_modified": "2025-12-21T11:43:49.000",
    "case_close_date": "2025-12-21T05:43:47.000",
    "request_status": "Closed",
    "responsible_agency": "Department of Sanitation",
    "final_address": "1120 St Roch Ave",
    "address_councildis": "C",
    "status": "Invalid Request",
    "contractor": "IV Waste",
    "contractor_action": "Invalid Request",
    "rowid": "1246725",
    "final_x": "3686403.39318",
    "final_y": "536671.181191",
    "longitude": "-90.05240537411393",
    "latitude": "29.969509859675913",
    "geocoded_column": {
      "latitude": "29.969509859675913",
      "longitude": "-90.05240537411393"
    }
  },
  {
    "service_request": "2025-1246724",
    "request_type": "Trash/Recycling",
    "request_reason": "Request a Large Item Pick Up",
    "date_created": "2025-12-21T11:06:44.000",
    "date_modified": "2025-12-21T11:06:46.000",
    "request_status": "Pending",
    "responsible_agency": "Department of Sanitation",
    "final_address": "5458 General Diaz St",
    "address_councildis": "A",
    "status": "Assigned to Contractor",
    "contractor": "IV Waste",
    "rowid": "1246724",
    "final_x": "3669019.55642",
    "final_y": "543404.091086",
    "longitude": "-90.1070775945529",
    "latitude": "29.98854598291778",
    "geocoded_column": {
      "latitude": "29.98854598291778",
      "longitude": "-90.1070775945529"
    }
  },
  {
    "service_request": "2025-1246723",
    "request_type": "Trash/Recycling",
    "request_reason": "Request a Large Item Pick Up",
    "date_created": "2025-12-21T11:02:49.000",
    "date_modified": "2025-12-21T11:02:50.000",
    "request_status": "Pending",
    "responsible_agency": "Department of Sanitation",
    "final_address": "1711 Milan St",
    "address_councildis": "B",
    "status": "Assigned to Contractor",
    "contractor": "IV Waste",
    "rowid": "1246723",
    "final_x": "3671586.28251",
    "final_y": "521441.770361",
    "longitude": "-90.09971695679681",
    "latitude": "29.92808111550677",
    "geocoded_column": {
      "latitude": "29.92808111550677",
      "longitude": "-90.09971695679681"
    }
  },
  {
    "service_request": "2025-1246722",
    "request_type": "Trash/Recycling",
    "request_reason": "Replace Trash Cart",
    "date_created": "2025-12-21T10:57:24.000",
    "date_modified": "2025-12-21T10:57:27.000",
    "request_status": "Pending",
    "responsible_agency": "Department of Sanitation",
    "final_address": "3300 State Street Dr",
    "address_councildis": "A",
    "status": "Assigned to Contractor",
    "contractor": "IV Waste",
    "rowid": "1246722",
    "final_x": "3667609.92993",
    "final_y": "528355.730944",
    "longitude": "-90.11203681020542",
    "latitude": "29.947209401332415",
    "geocoded_column": {
      "latitude": "29.947209401332415",
      "longitude": "-90.11203681020542"
    }
  },
  {
    "service_request": "2025-1246721",
    "request_type": "Parks & Parkways",
    "request_reason": "Request Tree Service (Right of Way/Public Property)",
    "date_created": "2025-12-21T10:27:27.000",
    "date_modified": "2025-12-21T10:27:28.000",
    "request_status": "Pending",
    "responsible_agency": "Department of Parks & Parkway",
    "final_address": "10310 Chevy Chase Dr",
    "address_councildis": "E",
    "status": "Pending",
    "rowid": "1246721",
    "final_x": "3710345.83525",
    "final_y": "563311.570656",
    "longitude": "-89.97579712943346",
    "latitude": "30.04200302002155",
    "geocoded_column": {
      "latitude": "30.04200302002155",
      "longitude": "-89.97579712943346"
    }
  },
  {
    "service_request": "2025-1246720",
    "request_type": "Streetlights",
    "request_reason": "Streetlight Outage/Malfunction",
    "date_created": "2025-12-21T10:21:11.000",
    "date_modified": "2025-12-21T10:21:13.000",
    "request_status": "Pending",
    "responsible_agency": "Department of Public Works",
    "final_address": "3000 BLK Lafitte Ave",
    "address_councildis": "A",
    "status": "Pending",
    "rowid": "1246720",
    "final_x": "3675150.17296",
    "final_y": "537200.871908",
    "longitude": "-90.0879258441859",
    "latitude": "29.97130743499138",
    "geocoded_column": {
      "latitude": "29.97130743499138",
      "longitude": "-90.0879258441859"
    }
  },
  {
    "service_request": "2025-1246719",
    "request_type": "Trash/Recycling",
    "request_reason": "Request a Large Item Pick Up",
    "date_created": "2025-12-21T10:20:17.000",
    "date_modified": "2025-12-21T10:20:19.000",
    "request_status": "Pending",
    "responsible_agency": "Department of Sanitation",
    "final_address": "5231 Chamberlain Dr",
    "address_councildis": "D",
    "status": "Assigned to Contractor",
    "contractor": "IV Waste",
    "rowid": "1246719",
    "final_x": "3679619.33627",
    "final_y": "551597.927765",
    "longitude": "-90.07331161462626",
    "latitude": "30.010759953646385",
    "geocoded_column": {
      "latitude": "30.010759953646385",
      "longitude": "-90.07331161462626"
    }
  },
  {
    "service_request": "2025-1246718",
    "request_type": "General Services",
    "request_reason": "General Service Request",
    "date_created": "2025-12-21T10:19:12.000",
    "date_modified": "2025-12-21T10:19:13.000",
    "request_status": "Pending",
    "responsible_agency": "Orleans Parish Communication District",
    "final_address": "1827 Short St",
    "address_councildis": "A",
    "status": "Pending",
    "rowid": "1246718",
    "final_x": "3663893.25472",
    "final_y": "529762.444417",
    "longitude": "-90.12372492393628",
    "latitude": "29.95118581281979",
    "geocoded_column": {
      "latitude": "29.95118581281979",
      "longitude": "-90.12372492393628"
    }
  },
  {
    "service_request": "2025-1246717",
    "request_type": "Trash/Recycling",
    "request_reason": "Request a Large Item Pick Up",
    "date_created": "2025-12-21T10:13:28.000",
    "date_modified": "2025-12-21T10:13:30.000",
    "request_status": "Pending",
    "responsible_agency": "Department of Sanitation",
    "final_address": "842 Louque Pl",
    "address_councildis": "A",
    "status": "Assigned to Contractor",
    "contractor": "IV Waste",
    "rowid": "1246717",
    "final_x": "3669024.85377",
    "final_y": "543428.738958",
    "longitude": "-90.10706002863635",
    "latitude": "29.988613600255594",
    "geocoded_column": {
      "latitude": "29.988613600255594",
      "longitude": "-90.10706002863635"
    }
  },
  {
    "service_request": "2025-1246716",
    "request_type": "Trash/Recycling",
    "request_reason": "Replace Recycling Cart",
    "date_created": "2025-12-21T10:13:10.000",
    "date_modified": "2025-12-21T10:13:11.000",
    "request_status": "Pending",
    "responsible_agency": "Department of Sanitation",
    "final_address": "1517 S White St",
    "address_councildis": "B",
    "status": "Pending",
    "rowid": "1246716",
    "final_x": "3671246.59585",
    "final_y": "530317.868354",
    "longitude": "-90.10048779863762",
    "latitude": "29.95249755249957",
    "geocoded_column": {
      "latitude": "29.95249755249957",
      "longitude": "-90.10048779863762"
    }
  },
  {
    "service_request": "2025-1246715",
    "request_type": "Trash/Recycling",
    "request_reason": "Replace Recycling Cart",
    "date_created": "2025-12-21T10:12:01.000",
    "date_modified": "2025-12-21T10:12:03.000",
    "request_status": "Pending",
    "responsible_agency": "Department of Sanitation",
    "final_address": "3427 Dauphine St",
    "address_councildis": "C",
    "status": "Pending",
    "rowid": "1246715",
    "final_x": "3690127.33526",
    "final_y": "534537.125509",
    "longitude": "-90.0407209216976",
    "latitude": "29.963526961990777",
    "geocoded_column": {
      "latitude": "29.963526961990777",
      "longitude": "-90.0407209216976"
    }
  },
  {
    "service_request": "2025-1246714",
    "request_type": "Trash/Recycling",
    "request_reason": "Replace Trash Cart",
    "date_created": "2025-12-21T10:10:51.000",
    "date_modified": "2025-12-21T10:10:53.000",
    "request_status": "Pending",
    "responsible_agency": "Department of Sanitation",
    "final_address": "3427 Dauphine St",
    "address_councildis": "C",
    "status": "Assigned to Contractor",
    "contractor": "IV Waste",
    "rowid": "1246714",
    "final_x": "3690127.33526",
    "final_y": "534537.125509",
    "longitude": "-90.0407209216976",
    "latitude": "29.963526961990777",
    "geocoded_column": {
      "latitude": "29.963526961990777",
      "longitude": "-90.0407209216976"
    }
  },
  {
    "service_request": "2025-1246713",
    "request_type": "Trash/Recycling",
    "request_reason": "Request a Large Item Pick Up",
    "date_created": "2025-12-21T10:00:39.000",
    "date_modified": "2025-12-21T10:00:41.000",
    "request_status": "Pending",
    "responsible_agency": "Department of Sanitation",
    "final_address": "4952 Gilbert St",
    "address_councildis": "E",
    "status": "Assigned to Contractor",
    "contractor": "Waste Pro",
    "rowid": "1246713",
    "final_x": "3729277.01709",
    "final_y": "562813.59568",
    "longitude": "-89.91598783984074",
    "latitude": "30.04000350285586",
    "geocoded_column": {
      "latitude": "30.04000350285586",
      "longitude": "-89.91598783984074"
    }
  },
  {
    "service_request": "2025-1246712",
    "request_type": "Trash/Recycling",
    "request_reason": "Missed Trash Pick-Up",
    "date_created": "2025-12-21T09:38:17.000",
    "date_modified": "2025-12-21T11:38:25.000",
    "case_close_date": "2025-12-21T05:38:24.000",
    "request_status": "Closed",
    "responsible_agency": "Department of Sanitation",
    "final_address": "546 Joseph St",
    "address_councildis": "A",
    "status": "Invalid Request",
    "contractor": "IV Waste",
    "contractor_action": "Invalid Request",
    "rowid": "1246712",
    "final_x": "3665935.91828",
    "final_y": "518255.073782",
    "longitude": "-90.11766067073333",
    "latitude": "29.919484761639342",
    "geocoded_column": {
      "latitude": "29.919484761639342",
      "longitude": "-90.11766067073333"
    }
  },
  {
    "service_request": "2025-1246711",
    "request_type": "Streetlights",
    "request_reason": "Streetlight Outage/Malfunction",
    "date_created": "2025-12-21T09:34:38.000",
    "date_modified": "2025-12-21T09:34:40.000",
    "request_status": "Pending",
    "responsible_agency": "Department of Public Works",
    "final_address": "436 S Norman C Francis Prkwy",
    "address_councildis": "B",
    "status": "Pending",
    "rowid": "1246711",
    "final_x": "3672386.35284",
    "final_y": "535411.189702",
    "longitude": "-90.09671539224095",
    "latitude": "29.96646872136742",
    "geocoded_column": {
      "latitude": "29.96646872136742",
      "longitude": "-90.09671539224095"
    }
  },
  {
    "service_request": "2025-1246710",
    "request_type": "Trash/Recycling",
    "request_reason": "Damaged Caused By Contractor",
    "date_created": "2025-12-21T08:35:25.000",
    "date_modified": "2025-12-21T08:35:28.000",
    "request_status": "Pending",
    "responsible_agency": "Department of Sanitation",
    "final_address": "1864 N Salcedo St",
    "address_councildis": "A",
    "status": "Assigned to Contractor",
    "contractor": "IV Waste",
    "rowid": "1246710",
    "final_x": "3677434.4251",
    "final_y": "543038.886861",
    "longitude": "-90.08051026487212",
    "latitude": "29.98729149711546",
    "geocoded_column": {
      "latitude": "29.98729149711546",
      "longitude": "-90.08051026487212"
    }
  },
  {
    "service_request": "2025-1246709",
    "request_type": "Trash/Recycling",
    "request_reason": "Request a Large Item Pick Up",
    "date_created": "2025-12-21T06:37:23.000",
    "date_modified": "2025-12-21T06:37:25.000",
    "request_status": "Pending",
    "responsible_agency": "Department of Sanitation",
    "final_address": "305 Wallace Dr",
    "address_councildis": "D",
    "status": "Assigned to Contractor",
    "contractor": "IV Waste",
    "rowid": "1246709",
    "final_x": "3682386.9718",
    "final_y": "547829.29685",
    "longitude": "-90.0646994096488",
    "latitude": "30.000313601870353",
    "geocoded_column": {
      "latitude": "30.000313601870353",
      "longitude": "-90.0646994096488"
    }
  },
  {
    "service_request": "2025-1246708",
    "request_type": "Streetlights",
    "request_reason": "Streetlight Outage/Malfunction",
    "date_created": "2025-12-21T06:28:42.000",
    "date_modified": "2025-12-21T06:28:44.000",
    "request_status": "Pending",
    "responsible_agency": "Department of Public Works",
    "final_address": "100 BLK N Norman C Francis Pkwy",
    "address_councildis": "B",
    "status": "Pending",
    "rowid": "1246708",
    "final_x": "3673261.26827",
    "final_y": "536948.177532",
    "longitude": "-90.09389991313233",
    "latitude": "29.970668927318798",
    "geocoded_column": {
      "latitude": "29.970668927318798",
      "longitude": "-90.09389991313233"
    }
  },
  {
    "service_request": "2025-1246707",
    "request_type": "Trash/Recycling",
    "request_reason": "Request a Large Item Pick Up",
    "date_created": "2025-12-21T05:37:54.000",
    "date_modified": "2025-12-21T05:37:56.000",
    "request_status": "Pending",
    "responsible_agency": "Department of Sanitation",
    "final_address": "222 Bermuda St",
    "address_councildis": "C",
    "status": "Assigned to Contractor",
    "contractor": "Richards Disposal",
    "rowid": "1246707",
    "final_x": "3686189.28252",
    "final_y": "530959.197314",
    "longitude": "-90.05328306967309",
    "latitude": "29.953810456675818",
    "geocoded_column": {
      "latitude": "29.953810456675818",
      "longitude": "-90.05328306967309"
    }
  },
  {
    "service_request": "2025-1246706",
    "request_type": "Streetlights",
    "request_reason": "Streetlight Outage/Malfunction",
    "date_created": "2025-12-21T02:34:36.000",
    "date_modified": "2025-12-21T02:34:37.000",
    "request_status": "Pending",
    "responsible_agency": "Department of Public Works",
    "final_address": "310 Warrington Dr",
    "address_councildis": "D",
    "status": "Pending",
    "rowid": "1246706",
    "final_x": "3681967.28597",
    "final_y": "547635.156434",
    "longitude": "-90.06603200379716",
    "latitude": "29.999792554964422",
    "geocoded_column": {
      "latitude": "29.999792554964422",
      "longitude": "-90.06603200379716"
    }
  },
  {
    "service_request": "2025-1246705",
    "request_type": "Health Related Request",
    "request_reason": "Noise Ordinance Complaint",
    "date_created": "2025-12-20T23:38:52.000",
    "date_modified": "2025-12-20T23:38:54.000",
    "request_status": "Pending",
    "responsible_agency": "Health Department",
    "final_address": "530 Lyons St",
    "address_councildis": "B",
    "status": "Pending",
    "rowid": "1246705",
    "final_x": "3669312.65748",
    "final_y": "517527.298038",
    "longitude": "-90.10702654441026",
    "latitude": "29.91738466791682",
    "geocoded_column": {
      "latitude": "29.91738466791682",
      "longitude": "-90.10702654441026"
    }
  },
  {
    "service_request": "2025-1246704",
    "request_type": "Health Related Request",
    "request_reason": "Noise Ordinance Complaint",
    "date_created": "2025-12-20T23:32:17.000",
    "date_modified": "2025-12-20T23:32:19.000",
    "request_status": "Pending",
    "responsible_agency": "Health Department",
    "final_address": "1125 Saint Mary St, New Orleans, Louisiana, 70130",
    "address_councildis": "B",
    "status": "Pending",
    "rowid": "1246704",
    "final_x": "3679638.07797",
    "final_y": "522995.941243",
    "longitude": "-90.07424536126065",
    "latitude": "29.932113761941242",
    "geocoded_column": {
      "latitude": "29.932113761941242",
      "longitude": "-90.07424536126065"
    }
  },
  {
    "service_request": "2025-1246702",
    "request_type": "Property Maintenance",
    "request_reason": "Property Maintenance",
    "date_created": "2025-12-20T22:57:32.000",
    "date_modified": "2025-12-20T22:57:34.000",
    "request_status": "Pending",
    "responsible_agency": "Department of Code Enforcement",
    "final_address": "1601 Appleby Ln, Harvey, Louisiana, 70058",
    "status": "Pending",
    "rowid": "1246702",
    "longitude": "0.0",
    "latitude": "0.0",
    "geocoded_column": {
      "latitude": "0.0",
      "longitude": "0.0"
    }
  },
  {
    "service_request": "2025-1246701",
    "request_type": "Streetlights",
    "request_reason": "Streetlight Outage/Malfunction",
    "date_created": "2025-12-20T22:08:01.000",
    "date_modified": "2025-12-20T22:08:02.000",
    "request_status": "Pending",
    "responsible_agency": "Department of Public Works",
    "final_address": "2301 General Pershing St",
    "address_councildis": "B",
    "status": "Pending",
    "rowid": "1246701",
    "final_x": "3671035.28846",
    "final_y": "523430.635835",
    "longitude": "-90.10138882211245",
    "latitude": "29.933566156279962",
    "geocoded_column": {
      "latitude": "29.933566156279962",
      "longitude": "-90.10138882211245"
    }
  },
  {
    "service_request": "2025-1246700",
    "request_type": "Trash/Recycling",
    "request_reason": "Request a Large Item Pick Up",
    "date_created": "2025-12-20T21:06:33.000",
    "date_modified": "2025-12-20T21:06:35.000",
    "request_status": "Pending",
    "responsible_agency": "Department of Sanitation",
    "final_address": "4256 Vendome Pl",
    "address_councildis": "B",
    "status": "Assigned to Contractor",
    "contractor": "IV Waste",
    "rowid": "1246700",
    "final_x": "3669057.08378",
    "final_y": "531486.060611",
    "longitude": "-90.1073618367837",
    "latitude": "29.955774291700784",
    "geocoded_column": {
      "latitude": "29.955774291700784",
      "longitude": "-90.1073618367837"
    }
  },
  {
    "service_request": "2025-1246699",
    "request_type": "General Services",
    "request_reason": "General Service Request",
    "date_created": "2025-12-20T20:43:55.000",
    "date_modified": "2025-12-20T20:43:57.000",
    "request_status": "Pending",
    "responsible_agency": "Orleans Parish Communication District",
    "final_address": "5129 Chartres St",
    "address_councildis": "E",
    "status": "Pending",
    "rowid": "1246699",
    "final_x": "3695974.55088",
    "final_y": "532336.277443",
    "longitude": "-90.0223356476377",
    "latitude": "29.957292739292367",
    "geocoded_column": {
      "latitude": "29.957292739292367",
      "longitude": "-90.0223356476377"
    }
  },
  {
    "service_request": "2025-1246698",
    "request_type": "Roads and Streets",
    "request_reason": "Debris in Driving Lanes",
    "date_created": "2025-12-20T20:40:02.000",
    "date_modified": "2025-12-20T20:40:04.000",
    "request_status": "Pending",
    "responsible_agency": "Department of Public Works",
    "final_address": "2936 Esplanade Ave",
    "address_councildis": "A",
    "status": "Pending",
    "rowid": "1246698",
    "final_x": "3676897.06152",
    "final_y": "539847.711754",
    "longitude": "-90.0823176576189",
    "latitude": "29.97853301419052",
    "geocoded_column": {
      "latitude": "29.97853301419052",
      "longitude": "-90.0823176576189"
    }
  },
  {
    "service_request": "2025-1246697",
    "request_type": "Trash/Recycling",
    "request_reason": "Request a Large Item Pick Up",
    "date_created": "2025-12-20T19:24:43.000",
    "date_modified": "2025-12-20T19:24:46.000",
    "request_status": "Pending",
    "responsible_agency": "Department of Sanitation",
    "final_address": "1436 Burbank Dr",
    "address_councildis": "D",
    "status": "Assigned to Contractor",
    "contractor": "IV Waste",
    "rowid": "1246697",
    "final_x": "3677820.67042",
    "final_y": "554242.290776",
    "longitude": "-90.07890283967943",
    "latitude": "30.018085262275118",
    "geocoded_column": {
      "latitude": "30.018085262275118",
      "longitude": "-90.07890283967943"
    }
  },
  {
    "service_request": "2025-1246696",
    "request_type": "Trash/Recycling",
    "request_reason": "Replace Trash Cart",
    "date_created": "2025-12-20T19:01:22.000",
    "date_modified": "2025-12-20T19:01:45.000",
    "request_status": "Pending",
    "responsible_agency": "Department of Sanitation",
    "final_address": "1407 Tupelo St",
    "address_councildis": "E",
    "status": "Assigned to Contractor",
    "contractor": "Waste Pro",
    "rowid": "1246696",
    "final_x": "3699987.43069",
    "final_y": "534440.178757",
    "longitude": "-90.0095875224287",
    "latitude": "29.96295086292104",
    "geocoded_column": {
      "latitude": "29.96295086292104",
      "longitude": "-90.0095875224287"
    }
  },
  {
    "service_request": "2025-1246695",
    "request_type": "Trash/Recycling",
    "request_reason": "Order Recycling Cart",
    "date_created": "2025-12-20T18:32:33.000",
    "date_modified": "2025-12-20T18:32:35.000",
    "request_status": "Pending",
    "responsible_agency": "Department of Sanitation",
    "final_address": "1001 Southlawn Blvd",
    "address_councildis": "C",
    "status": "Pending",
    "rowid": "1246695",
    "final_x": "3695170.4559",
    "final_y": "528410.108352",
    "longitude": "-90.02501627904087",
    "latitude": "29.946522418109517",
    "geocoded_column": {
      "latitude": "29.946522418109517",
      "longitude": "-90.02501627904087"
    }
  },
  {
    "service_request": "2025-1246694",
    "request_type": "Trash/Recycling",
    "request_reason": "Request a Large Item Pick Up",
    "date_created": "2025-12-20T18:00:15.000",
    "date_modified": "2025-12-20T18:00:17.000",
    "request_status": "Pending",
    "responsible_agency": "Department of Sanitation",
    "final_address": "6425 Milne Blvd",
    "address_councildis": "A",
    "status": "Assigned to Contractor",
    "contractor": "IV Waste",
    "rowid": "1246694",
    "final_x": "3667435.06849",
    "final_y": "550378.088916",
    "longitude": "-90.11184768217352",
    "latitude": "30.007768603751675",
    "geocoded_column": {
      "latitude": "30.007768603751675",
      "longitude": "-90.11184768217352"
    }
  },
  {
    "service_request": "2025-1246693",
    "request_type": "Utility Poles",
    "request_reason": "Utility Pole Leaning",
    "date_created": "2025-12-20T17:33:15.000",
    "date_modified": "2025-12-20T17:33:19.000",
    "request_status": "Pending",
    "responsible_agency": "Utility Company Collective",
    "final_address": "4700 BLK Saint Claude Ave",
    "address_councildis": "E",
    "status": "Pending",
    "rowid": "1246693",
    "final_x": "3694849.01184",
    "final_y": "534627.994836",
    "longitude": "-90.02580716483466",
    "latitude": "29.96362951588334",
    "geocoded_column": {
      "latitude": "29.96362951588334",
      "longitude": "-90.02580716483466"
    }
  },
  {
    "service_request": "2025-1246692",
    "request_type": "Trash/Recycling",
    "request_reason": "Request a Large Item Pick Up",
    "date_created": "2025-12-20T17:26:11.000",
    "date_modified": "2025-12-20T17:26:13.000",
    "request_status": "Pending",
    "responsible_agency": "Department of Sanitation",
    "final_address": "1822 Robert St",
    "address_councildis": "B",
    "status": "Assigned to Contractor",
    "contractor": "IV Waste",
    "rowid": "1246692",
    "final_x": "3668705.13774",
    "final_y": "522326.204794",
    "longitude": "-90.10878226699315",
    "latitude": "29.930598004656478",
    "geocoded_column": {
      "latitude": "29.930598004656478",
      "longitude": "-90.10878226699315"
    }
  },
  {
    "service_request": "2025-1246691",
    "request_type": "Trash/Recycling",
    "request_reason": "Replace Trash Cart",
    "date_created": "2025-12-20T17:11:13.000",
    "date_modified": "2025-12-20T17:11:15.000",
    "request_status": "Pending",
    "responsible_agency": "Department of Sanitation",
    "final_address": "4938 Lafaye St",
    "address_councildis": "D",
    "status": "Assigned to Contractor",
    "contractor": "IV Waste",
    "rowid": "1246691",
    "final_x": "3687332.19823",
    "final_y": "551292.876757",
    "longitude": "-90.04895454291322",
    "latitude": "30.00968571111071",
    "geocoded_column": {
      "latitude": "30.00968571111071",
      "longitude": "-90.04895454291322"
    }
  },
  {
    "service_request": "2025-1246690",
    "request_type": "Trash/Recycling",
    "request_reason": "Order Second Trash Cart",
    "date_created": "2025-12-20T17:03:26.000",
    "date_modified": "2025-12-20T17:03:28.000",
    "request_status": "Pending",
    "responsible_agency": "Department of Sanitation",
    "final_address": "2316 Choctaw Ct",
    "address_councildis": "E",
    "status": "Assigned to Contractor",
    "contractor": "Waste Pro",
    "rowid": "1246690",
    "final_x": "3698659.9192",
    "final_y": "538592.876681",
    "longitude": "-90.01362857866349",
    "latitude": "29.97441139441578",
    "geocoded_column": {
      "latitude": "29.97441139441578",
      "longitude": "-90.01362857866349"
    }
  },
  {
    "service_request": "2025-1246689",
    "request_type": "Trash/Recycling",
    "request_reason": "Request a Large Item Pick Up",
    "date_created": "2025-12-20T16:25:27.000",
    "date_modified": "2025-12-20T16:25:29.000",
    "request_status": "Pending",
    "responsible_agency": "Department of Sanitation",
    "final_address": "627 Seguin St",
    "address_councildis": "C",
    "status": "Assigned to Contractor",
    "contractor": "Richards Disposal",
    "rowid": "1246689",
    "final_x": "3686755.43542",
    "final_y": "529442.464385",
    "longitude": "-90.05154897108422",
    "latitude": "29.94962255714438",
    "geocoded_column": {
      "latitude": "29.94962255714438",
      "longitude": "-90.05154897108422"
    }
  },
  {
    "service_request": "2025-1246688",
    "request_type": "Roads and Streets",
    "request_reason": "Street Subsidence (Sinking)",
    "date_created": "2025-12-20T15:57:57.000",
    "date_modified": "2025-12-20T15:57:59.000",
    "request_status": "Pending",
    "responsible_agency": "Sewerage & Water Board",
    "final_address": "2900 BLK Frenchmen St",
    "address_councildis": "D",
    "status": "Pending",
    "rowid": "1246688",
    "final_x": "3684013.55549",
    "final_y": "543452.653368",
    "longitude": "-90.05971462264297",
    "latitude": "29.988229774856908",
    "geocoded_column": {
      "latitude": "29.988229774856908",
      "longitude": "-90.05971462264297"
    }
  },
  {
    "service_request": "2025-1246687",
    "request_type": "Trash/Recycling",
    "request_reason": "Return Recycling Cart",
    "date_created": "2025-12-20T15:46:04.000",
    "date_modified": "2025-12-20T15:46:05.000",
    "request_status": "Pending",
    "responsible_agency": "Department of Sanitation",
    "final_address": "3432 Chestnut St",
    "address_councildis": "B",
    "status": "Pending",
    "rowid": "1246687",
    "final_x": "3674494.25588",
    "final_y": "520150.10476",
    "longitude": "-90.09058135634213",
    "latitude": "29.924443046215313",
    "geocoded_column": {
      "latitude": "29.924443046215313",
      "longitude": "-90.09058135634213"
    }
  },
  {
    "service_request": "2025-1246686",
    "request_type": "Trash/Recycling",
    "request_reason": "Request a Large Item Pick Up",
    "date_created": "2025-12-20T15:33:21.000",
    "date_modified": "2025-12-20T15:33:22.000",
    "request_status": "Pending",
    "responsible_agency": "Department of Sanitation",
    "final_address": "6611 Dwyer Rd",
    "address_councildis": "E",
    "status": "Assigned to Contractor",
    "contractor": "Waste Pro",
    "rowid": "1246686",
    "final_x": "3699120.39101",
    "final_y": "555568.978713",
    "longitude": "-90.01155584139642",
    "latitude": "30.021074783277033",
    "geocoded_column": {
      "latitude": "30.021074783277033",
      "longitude": "-90.01155584139642"
    }
  },
  {
    "service_request": "2025-1246685",
    "request_type": "Trash/Recycling",
    "request_reason": "Request a Large Item Pick Up",
    "date_created": "2025-12-20T15:33:19.000",
    "date_modified": "2025-12-20T15:33:20.000",
    "request_status": "Pending",
    "responsible_agency": "Department of Sanitation",
    "final_address": "6611 Dwyer Rd",
    "address_councildis": "E",
    "status": "Assigned to Contractor",
    "contractor": "Waste Pro",
    "rowid": "1246685",
    "final_x": "3699120.39101",
    "final_y": "555568.978713",
    "longitude": "-90.01155584139642",
    "latitude": "30.021074783277033",
    "geocoded_column": {
      "latitude": "30.021074783277033",
      "longitude": "-90.01155584139642"
    }
  },
  {
    "service_request": "2025-1246684",
    "request_type": "Roads and Streets",
    "request_reason": "Debris in Driving Lanes",
    "date_created": "2025-12-20T15:32:58.000",
    "date_modified": "2025-12-20T15:33:00.000",
    "request_status": "Pending",
    "responsible_agency": "Department of Public Works",
    "final_address": "7220 Spruce St",
    "address_councildis": "A",
    "status": "Pending",
    "rowid": "1246684",
    "final_x": "3665592.58202",
    "final_y": "528916.824448",
    "longitude": "-90.11838758105323",
    "latitude": "29.948811196188355",
    "geocoded_column": {
      "latitude": "29.948811196188355",
      "longitude": "-90.11838758105323"
    }
  },
  {
    "service_request": "2025-1246683",
    "request_type": "Trash/Recycling",
    "request_reason": "Replace Trash Cart",
    "date_created": "2025-12-20T15:13:42.000",
    "date_modified": "2025-12-20T15:13:43.000",
    "request_status": "Pending",
    "responsible_agency": "Department of Sanitation",
    "final_address": "1522 Simon Bolivar Ave",
    "address_councildis": "B",
    "status": "Assigned to Contractor",
    "contractor": "IV Waste",
    "rowid": "1246683",
    "final_x": "3677250.9261",
    "final_y": "526494.983358",
    "longitude": "-90.08166070222862",
    "latitude": "29.941806888272563",
    "geocoded_column": {
      "latitude": "29.941806888272563",
      "longitude": "-90.08166070222862"
    }
  },
  {
    "service_request": "2025-1246682",
    "request_type": "Trash/Recycling",
    "request_reason": "Request a Large Item Pick Up",
    "date_created": "2025-12-20T15:11:18.000",
    "date_modified": "2025-12-20T15:11:20.000",
    "request_status": "Pending",
    "responsible_agency": "Department of Sanitation",
    "final_address": "844 Bungalow Ct",
    "address_councildis": "A",
    "status": "Assigned to Contractor",
    "contractor": "IV Waste",
    "rowid": "1246682",
    "final_x": "3672662.50555",
    "final_y": "540620.799563",
    "longitude": "-90.09566560042911",
    "latitude": "29.980785185452348",
    "geocoded_column": {
      "latitude": "29.980785185452348",
      "longitude": "-90.09566560042911"
    }
  },
  {
    "service_request": "2025-1246681",
    "request_type": "Trash/Recycling",
    "request_reason": "Request a Large Item Pick Up",
    "date_created": "2025-12-20T15:01:40.000",
    "date_modified": "2025-12-20T15:01:42.000",
    "request_status": "Pending",
    "responsible_agency": "Department of Sanitation",
    "final_address": "410 N Tonti St",
    "address_councildis": "B",
    "status": "Assigned to Contractor",
    "contractor": "IV Waste",
    "rowid": "1246681",
    "final_x": "3677257.98683",
    "final_y": "535283.551366",
    "longitude": "-90.08133522989658",
    "latitude": "29.965972294425352",
    "geocoded_column": {
      "latitude": "29.965972294425352",
      "longitude": "-90.08133522989658"
    }
  },
  {
    "service_request": "2025-1246680",
    "request_type": "Abandoned Vehicles",
    "request_reason": "Abandoned/Junk Vehicles",
    "date_created": "2025-12-20T14:34:09.000",
    "date_modified": "2025-12-20T14:34:11.000",
    "request_status": "Pending",
    "responsible_agency": "Department of Public Works",
    "final_address": "632 N White St",
    "address_councildis": "A",
    "status": "Pending",
    "rowid": "1246680",
    "final_x": "3676121.34664",
    "final_y": "537022.715528",
    "longitude": "-90.08486486897698",
    "latitude": "29.970788505525178",
    "geocoded_column": {
      "latitude": "29.970788505525178",
      "longitude": "-90.08486486897698"
    }
  },
  {
    "service_request": "2025-1246679",
    "request_type": "Drainage",
    "request_reason": "Illegal Dumping (Sewer Odor)",
    "date_created": "2025-12-20T14:21:38.000",
    "date_modified": "2025-12-20T14:21:40.000",
    "request_status": "Pending",
    "responsible_agency": "Sewerage & Water Board",
    "final_address": "932 Dante St",
    "address_councildis": "A",
    "status": "Pending",
    "rowid": "1246679",
    "final_x": "3660876.23277",
    "final_y": "528316.97696",
    "longitude": "-90.13329903248231",
    "latitude": "29.947298469754706",
    "geocoded_column": {
      "latitude": "29.947298469754706",
      "longitude": "-90.13329903248231"
    }
  },
  {
    "service_request": "2025-1246678",
    "request_type": "Trash/Recycling",
    "request_reason": "Damaged Caused By Contractor",
    "date_created": "2025-12-20T13:33:21.000",
    "date_modified": "2025-12-20T13:33:23.000",
    "request_status": "Pending",
    "responsible_agency": "Department of Sanitation",
    "final_address": "2354 St Thomas St",
    "address_councildis": "B",
    "status": "Assigned to Contractor",
    "contractor": "IV Waste",
    "rowid": "1246678",
    "final_x": "3679307.83592",
    "final_y": "520085.819768",
    "longitude": "-90.07538876020611",
    "latitude": "29.924121853633277",
    "geocoded_column": {
      "latitude": "29.924121853633277",
      "longitude": "-90.07538876020611"
    }
  },
  {
    "service_request": "2025-1246677",
    "request_type": "Trash/Recycling",
    "request_reason": "Repair Trash Cart",
    "date_created": "2025-12-20T13:04:51.000",
    "date_modified": "2025-12-20T13:04:53.000",
    "request_status": "Pending",
    "responsible_agency": "Department of Sanitation",
    "final_address": "9520 Palm St",
    "address_councildis": "A",
    "status": "Assigned to Contractor",
    "contractor": "IV Waste",
    "rowid": "1246677",
    "final_x": "3663923.19763",
    "final_y": "538052.263433",
    "longitude": "-90.12335397528518",
    "latitude": "29.973979231434488",
    "geocoded_column": {
      "latitude": "29.973979231434488",
      "longitude": "-90.12335397528518"
    }
  },
  {
    "service_request": "2025-1246676",
    "request_type": "Trash/Recycling",
    "request_reason": "Request a Large Item Pick Up",
    "date_created": "2025-12-20T13:04:25.000",
    "date_modified": "2025-12-20T13:04:27.000",
    "request_status": "Pending",
    "responsible_agency": "Department of Sanitation",
    "final_address": "4349 Genoa St",
    "address_councildis": "E",
    "status": "Assigned to Contractor",
    "contractor": "Waste Pro",
    "rowid": "1246676",
    "final_x": "3760920.35273",
    "final_y": "573749.858602",
    "longitude": "-89.81552980788732",
    "latitude": "30.068959064356086",
    "geocoded_column": {
      "latitude": "30.068959064356086",
      "longitude": "-89.81552980788732"
    }
  },
  {
    "service_request": "2025-1246675",
    "request_type": "Trash/Recycling",
    "request_reason": "Repair Recycling Cart",
    "date_created": "2025-12-20T12:45:33.000",
    "date_modified": "2025-12-20T12:45:35.000",
    "request_status": "Pending",
    "responsible_agency": "Department of Sanitation",
    "final_address": "4635 Mendez St",
    "address_councildis": "D",
    "status": "Pending",
    "rowid": "1246675",
    "final_x": "3690908.89539",
    "final_y": "554084.468056",
    "longitude": "-90.03755478887165",
    "latitude": "30.017250830677483",
    "geocoded_column": {
      "latitude": "30.017250830677483",
      "longitude": "-90.03755478887165"
    }
  },
  {
    "service_request": "2025-1246674",
    "request_type": "General Services",
    "request_reason": "General Service Request",
    "date_created": "2025-12-20T12:35:37.000",
    "date_modified": "2025-12-20T12:35:40.000",
    "request_status": "Pending",
    "responsible_agency": "Orleans Parish Communication District",
    "final_address": "6011 Charlotte Dr",
    "address_councildis": "D",
    "status": "Pending",
    "rowid": "1246674",
    "final_x": "3679974.20597",
    "final_y": "554581.9318",
    "longitude": "-90.07208667171373",
    "latitude": "30.018954149671103",
    "geocoded_column": {
      "latitude": "30.018954149671103",
      "longitude": "-90.07208667171373"
    }
  },
  {
    "service_request": "2025-1246673",
    "request_type": "Abandoned Vehicles",
    "request_reason": "Abandoned/Junk Vehicles",
    "date_created": "2025-12-20T12:19:33.000",
    "date_modified": "2025-12-20T12:19:34.000",
    "request_status": "Pending",
    "responsible_agency": "Department of Public Works",
    "final_address": "911 Delachaise St",
    "address_councildis": "B",
    "status": "Pending",
    "rowid": "1246673",
    "final_x": "3674950.97537",
    "final_y": "518922.500151",
    "longitude": "-90.08918172349557",
    "latitude": "29.921053899929753",
    "geocoded_column": {
      "latitude": "29.921053899929753",
      "longitude": "-90.08918172349557"
    }
  },
  {
    "service_request": "2025-1246672",
    "request_type": "Roads and Streets",
    "request_reason": "Curb Damage",
    "date_created": "2025-12-20T12:17:42.000",
    "date_modified": "2025-12-20T12:17:44.000",
    "request_status": "Pending",
    "responsible_agency": "Department of Public Works",
    "final_address": "4701 Banks St",
    "address_councildis": "A",
    "status": "Pending",
    "rowid": "1246672",
    "final_x": "3668403.6697",
    "final_y": "538955.277514",
    "longitude": "-90.10917312284118",
    "latitude": "29.976331362310688",
    "geocoded_column": {
      "latitude": "29.976331362310688",
      "longitude": "-90.10917312284118"
    }
  },
  {
    "service_request": "2025-1246671",
    "request_type": "Streetlights",
    "request_reason": "Streetlight Outage/Malfunction",
    "date_created": "2025-12-20T12:12:31.000",
    "date_modified": "2025-12-20T12:12:34.000",
    "request_status": "Pending",
    "responsible_agency": "Department of Public Works",
    "final_address": "7433 Maple St",
    "address_councildis": "A",
    "status": "Pending",
    "rowid": "1246671",
    "final_x": "3662707.60826",
    "final_y": "525857.775421",
    "longitude": "-90.12759835997058",
    "latitude": "29.94048358528151",
    "geocoded_column": {
      "latitude": "29.94048358528151",
      "longitude": "-90.12759835997058"
    }
  },
  {
    "service_request": "2025-1246670",
    "request_type": "Trash/Recycling",
    "request_reason": "Request a Large Item Pick Up",
    "date_created": "2025-12-20T11:57:46.000",
    "date_modified": "2025-12-20T11:57:48.000",
    "request_status": "Pending",
    "responsible_agency": "Department of Sanitation",
    "final_address": "7734 Walmsley Ave",
    "address_councildis": "A",
    "status": "Assigned to Contractor",
    "contractor": "IV Waste",
    "rowid": "1246670",
    "final_x": "3666645.74548",
    "final_y": "531769.727171",
    "longitude": "-90.11496650039612",
    "latitude": "29.95662500214332",
    "geocoded_column": {
      "latitude": "29.95662500214332",
      "longitude": "-90.11496650039612"
    }
  },
  {
    "service_request": "2025-1246669",
    "request_type": "Trash/Recycling",
    "request_reason": "Request a Large Item Pick Up",
    "date_created": "2025-12-20T11:41:04.000",
    "date_modified": "2025-12-20T11:41:06.000",
    "request_status": "Pending",
    "responsible_agency": "Department of Sanitation",
    "final_address": "1934 Valentine Ct",
    "address_councildis": "C",
    "status": "Assigned to Contractor",
    "contractor": "Richards Disposal",
    "rowid": "1246669",
    "final_x": "3699809.35703",
    "final_y": "524056.6951",
    "longitude": "-90.01052839081646",
    "latitude": "29.934405595222206",
    "geocoded_column": {
      "latitude": "29.934405595222206",
      "longitude": "-90.01052839081646"
    }
  },
  {
    "service_request": "2025-1246668",
    "request_type": "Trash/Recycling",
    "request_reason": "Request a Large Item Pick Up",
    "date_created": "2025-12-20T11:16:26.000",
    "date_modified": "2025-12-20T11:16:27.000",
    "request_status": "Pending",
    "responsible_agency": "Department of Sanitation",
    "final_address": "1934 Valentine Ct",
    "address_councildis": "C",
    "status": "Assigned to Contractor",
    "contractor": "Richards Disposal",
    "rowid": "1246668",
    "final_x": "3699809.35703",
    "final_y": "524056.6951",
    "longitude": "-90.01052839081646",
    "latitude": "29.934405595222206",
    "geocoded_column": {
      "latitude": "29.934405595222206",
      "longitude": "-90.01052839081646"
    }
  },
  {
    "service_request": "2025-1246667",
    "request_type": "Trash/Recycling",
    "request_reason": "Request a Large Item Pick Up",
    "date_created": "2025-12-20T11:03:21.000",
    "date_modified": "2025-12-20T11:03:22.000",
    "request_status": "Pending",
    "responsible_agency": "Department of Sanitation",
    "final_address": "2600 Chippewa St",
    "address_councildis": "B",
    "status": "Assigned to Contractor",
    "contractor": "IV Waste",
    "rowid": "1246667",
    "final_x": "3678387.65525",
    "final_y": "519869.685752",
    "longitude": "-90.07830091969123",
    "latitude": "29.923555300624994",
    "geocoded_column": {
      "latitude": "29.923555300624994",
      "longitude": "-90.07830091969123"
    }
  },
  {
    "service_request": "2025-1246666",
    "request_type": "Streetlights",
    "request_reason": "Streetlight Outage/Malfunction",
    "date_created": "2025-12-20T10:41:39.000",
    "date_modified": "2025-12-20T10:41:41.000",
    "request_status": "Pending",
    "responsible_agency": "Department of Public Works",
    "final_address": "846 Howard Ave",
    "address_councildis": "B",
    "status": "Pending",
    "rowid": "1246666",
    "final_x": "3679453.33045",
    "final_y": "527486.561855",
    "longitude": "-90.0746728681028",
    "latitude": "29.94446706335573",
    "geocoded_column": {
      "latitude": "29.94446706335573",
      "longitude": "-90.0746728681028"
    }
  },
  {
    "service_request": "2025-1246665",
    "request_type": "General Services",
    "request_reason": "General Service Request",
    "date_created": "2025-12-20T10:12:40.000",
    "date_modified": "2025-12-20T10:12:41.000",
    "request_status": "Pending",
    "responsible_agency": "Orleans Parish Communication District",
    "final_address": "2801 Bruxelles St",
    "address_councildis": "D",
    "status": "Pending",
    "rowid": "1246665",
    "final_x": "3680354.40072",
    "final_y": "542633.796493",
    "longitude": "-90.07130119079459",
    "latitude": "29.986089532042193",
    "geocoded_column": {
      "latitude": "29.986089532042193",
      "longitude": "-90.07130119079459"
    }
  },
  {
    "service_request": "2025-1246664",
    "request_type": "Streetlights",
    "request_reason": "Streetlight Outage/Malfunction",
    "date_created": "2025-12-20T10:10:43.000",
    "date_modified": "2025-12-20T10:10:45.000",
    "request_status": "Pending",
    "responsible_agency": "Department of Public Works",
    "final_address": "8200 Palmetto St",
    "address_councildis": "A",
    "status": "Pending",
    "rowid": "1246664",
    "final_x": "3667690.19386",
    "final_y": "535456.130566",
    "longitude": "-90.11154433957769",
    "latitude": "29.96673081663645",
    "geocoded_column": {
      "latitude": "29.96673081663645",
      "longitude": "-90.11154433957769"
    }
  },
  {
    "service_request": "2025-1246663",
    "request_type": "Trash/Recycling",
    "request_reason": "Missed Trash Pick-Up",
    "date_created": "2025-12-20T09:27:39.000",
    "date_modified": "2025-12-20T09:27:41.000",
    "request_status": "Pending",
    "responsible_agency": "Department of Sanitation",
    "final_address": "50 Martin Dr",
    "address_councildis": "E",
    "status": "Assigned to Contractor",
    "contractor": "Waste Pro",
    "rowid": "1246663",
    "final_x": "3697911.66007",
    "final_y": "561049.822942",
    "longitude": "-90.01517584372164",
    "latitude": "30.036183286871285",
    "geocoded_column": {
      "latitude": "30.036183286871285",
      "longitude": "-90.01517584372164"
    }
  },
  {
    "service_request": "2025-1246662",
    "request_type": "Abandoned Vehicles",
    "request_reason": "Abandoned/Junk Vehicles",
    "date_created": "2025-12-20T09:19:10.000",
    "date_modified": "2025-12-20T09:19:11.000",
    "request_status": "Pending",
    "responsible_agency": "Department of Public Works",
    "final_address": "3749 Kent Dr",
    "address_councildis": "C",
    "status": "Pending",
    "rowid": "1246662",
    "final_x": "3708493.55307",
    "final_y": "517128.782069",
    "longitude": "-89.98337054492036",
    "latitude": "29.9150777449051",
    "geocoded_column": {
      "latitude": "29.9150777449051",
      "longitude": "-89.98337054492036"
    }
  },
  {
    "service_request": "2025-1246661",
    "request_type": "Roads and Streets",
    "request_reason": "Push-up/Pavement Expansion",
    "date_created": "2025-12-20T08:34:46.000",
    "date_modified": "2025-12-20T08:34:48.000",
    "request_status": "Pending",
    "responsible_agency": "Department of Public Works",
    "final_address": "3221 Jena St",
    "address_councildis": "B",
    "status": "Pending",
    "rowid": "1246661",
    "final_x": "3669911.90778",
    "final_y": "526697.77171",
    "longitude": "-90.10482470115856",
    "latitude": "29.94258288735907",
    "geocoded_column": {
      "latitude": "29.94258288735907",
      "longitude": "-90.10482470115856"
    }
  },
  {
    "service_request": "2025-1246660",
    "request_type": "Roads and Streets",
    "request_reason": "Pothole",
    "date_created": "2025-12-20T08:30:33.000",
    "date_modified": "2025-12-20T08:30:35.000",
    "request_status": "Pending",
    "responsible_agency": "Department of Public Works",
    "final_address": "3221 Jena St",
    "address_councildis": "B",
    "status": "Pending",
    "rowid": "1246660",
    "final_x": "3669911.90778",
    "final_y": "526697.77171",
    "longitude": "-90.10482470115856",
    "latitude": "29.94258288735907",
    "geocoded_column": {
      "latitude": "29.94258288735907",
      "longitude": "-90.10482470115856"
    }
  },
  {
    "service_request": "2025-1246659",
    "request_type": "Trash/Recycling",
    "request_reason": "Request a Large Item Pick Up",
    "date_created": "2025-12-20T05:52:02.000",
    "date_modified": "2025-12-20T05:52:04.000",
    "request_status": "Pending",
    "responsible_agency": "Department of Sanitation",
    "final_address": "7121 Boston Dr",
    "address_councildis": "E",
    "status": "Assigned to Contractor",
    "contractor": "Waste Pro",
    "rowid": "1246659",
    "final_x": "3706252.52663",
    "final_y": "561095.672734",
    "longitude": "-89.98881560168338",
    "latitude": "30.036042885884324",
    "geocoded_column": {
      "latitude": "30.036042885884324",
      "longitude": "-89.98881560168338"
    }
  },
  {
    "service_request": "2025-1246658",
    "request_type": "Drainage",
    "request_reason": "Catch Basin Not Draining",
    "date_created": "2025-12-20T04:41:31.000",
    "date_modified": "2025-12-20T04:41:33.000",
    "request_status": "Pending",
    "responsible_agency": "Sewerage & Water Board",
    "final_address": "4118 LaSalle St",
    "address_councildis": "B",
    "status": "Pending",
    "rowid": "1246658",
    "final_x": "3671521.37467",
    "final_y": "523759.333883",
    "longitude": "-90.09984309998647",
    "latitude": "29.934455590707238",
    "geocoded_column": {
      "latitude": "29.934455590707238",
      "longitude": "-90.09984309998647"
    }
  },
  {
    "service_request": "2025-1246657",
    "request_type": "Abandoned Vehicles",
    "request_reason": "Abandoned/Junk Vehicles",
    "date_created": "2025-12-20T03:36:12.000",
    "date_modified": "2025-12-20T03:36:14.000",
    "request_status": "Pending",
    "responsible_agency": "Department of Public Works",
    "final_address": "4648 Virgilian St",
    "address_councildis": "D",
    "status": "Pending",
    "rowid": "1246657",
    "final_x": "3697433.55466",
    "final_y": "553373.666071",
    "longitude": "-90.01696542430453",
    "latitude": "30.015091899636385",
    "geocoded_column": {
      "latitude": "30.015091899636385",
      "longitude": "-90.01696542430453"
    }
  },
  {
    "service_request": "2025-1246656",
    "request_type": "Health Related Request",
    "request_reason": "Noise Ordinance Complaint",
    "date_created": "2025-12-20T00:50:11.000",
    "date_modified": "2025-12-20T00:50:13.000",
    "request_status": "Pending",
    "responsible_agency": "Health Department",
    "final_address": "530 Lyons St",
    "address_councildis": "B",
    "status": "Pending",
    "rowid": "1246656",
    "final_x": "3669312.65748",
    "final_y": "517527.298038",
    "longitude": "-90.10702654441026",
    "latitude": "29.91738466791682",
    "geocoded_column": {
      "latitude": "29.91738466791682",
      "longitude": "-90.10702654441026"
    }
  },
  {
    "service_request": "2025-1246655",
    "request_type": "Abandoned Vehicles",
    "request_reason": "Abandoned/Junk Vehicles",
    "date_created": "2025-12-19T23:24:04.000",
    "date_modified": "2025-12-19T23:24:07.000",
    "request_status": "Pending",
    "responsible_agency": "Department of Public Works",
    "final_address": "1424 Monroe St",
    "address_councildis": "A",
    "status": "Pending",
    "rowid": "1246655",
    "final_x": "3660957.95014",
    "final_y": "530497.596738",
    "longitude": "-90.1329688914651",
    "latitude": "29.953292122090144",
    "geocoded_column": {
      "latitude": "29.953292122090144",
      "longitude": "-90.1329688914651"
    }
  },
  {
    "service_request": "2025-1246654",
    "request_type": "Health Related Request",
    "request_reason": "Noise Ordinance Complaint",
    "date_created": "2025-12-19T22:52:02.000",
    "date_modified": "2025-12-19T22:52:04.000",
    "request_status": "Pending",
    "responsible_agency": "Health Department",
    "final_address": "706 Louisa St, New Orleans, Louisiana, 70117",
    "address_councildis": "C",
    "status": "Pending",
    "rowid": "1246654",
    "final_x": "3689172.81583",
    "final_y": "534446.579973",
    "longitude": "-90.04373840176612",
    "latitude": "29.963307566700323",
    "geocoded_column": {
      "latitude": "29.963307566700323",
      "longitude": "-90.04373840176612"
    }
  },
  {
    "service_request": "2025-1246653",
    "request_type": "Streetlights",
    "request_reason": "Streetlight Knocked Down/Leaning",
    "date_created": "2025-12-19T22:20:28.000",
    "date_modified": "2025-12-19T22:20:30.000",
    "request_status": "Pending",
    "responsible_agency": "Department of Public Works",
    "final_address": "2231 N Broad St",
    "address_councildis": "D",
    "status": "Pending",
    "rowid": "1246653",
    "final_x": "3681323.7005",
    "final_y": "543286.529102",
    "longitude": "-90.06821679110101",
    "latitude": "29.987854926750984",
    "geocoded_column": {
      "latitude": "29.987854926750984",
      "longitude": "-90.06821679110101"
    }
  },
  {
    "service_request": "2025-1246652",
    "request_type": "Trash/Recycling",
    "request_reason": "Repair Recycling Cart",
    "date_created": "2025-12-19T21:24:38.000",
    "date_modified": "2025-12-19T21:24:40.000",
    "request_status": "Pending",
    "responsible_agency": "Department of Sanitation",
    "final_address": "3600 Palmyra St",
    "address_councildis": "B",
    "status": "Pending",
    "rowid": "1246652",
    "final_x": "3672052.04295",
    "final_y": "536558.964615",
    "longitude": "-90.09773205480246",
    "latitude": "29.969634632961814",
    "geocoded_column": {
      "latitude": "29.969634632961814",
      "longitude": "-90.09773205480246"
    }
  },
  {
    "service_request": "2025-1246651",
    "request_type": "General Services",
    "request_reason": "General Service Request",
    "date_created": "2025-12-19T20:07:47.000",
    "date_modified": "2025-12-19T20:07:49.000",
    "request_status": "Pending",
    "responsible_agency": "Orleans Parish Communication District",
    "final_address": "3709 Preston Pl",
    "address_councildis": "C",
    "status": "Pending",
    "rowid": "1246651",
    "final_x": "3708380.21745",
    "final_y": "517423.447606",
    "longitude": "-89.98371731513437",
    "latitude": "29.915891643713003",
    "geocoded_column": {
      "latitude": "29.915891643713003",
      "longitude": "-89.98371731513437"
    }
  },
  {
    "service_request": "2025-1246650",
    "request_type": "Health Related Request",
    "request_reason": "Noise Ordinance Complaint",
    "date_created": "2025-12-19T19:55:37.000",
    "date_modified": "2025-12-19T19:55:39.000",
    "request_status": "Pending",
    "responsible_agency": "Health Department",
    "final_address": "2938 Saint Claude Ave, New Orleans, Louisiana, 70117",
    "status": "Pending",
    "rowid": "1246650",
    "longitude": "0.0",
    "latitude": "0.0",
    "geocoded_column": {
      "latitude": "0.0",
      "longitude": "0.0"
    }
  },
  {
    "service_request": "2025-1246649",
    "request_type": "Trash/Recycling",
    "request_reason": "Request a Large Item Pick Up",
    "date_created": "2025-12-19T19:13:56.000",
    "date_modified": "2025-12-19T19:13:58.000",
    "request_status": "Pending",
    "responsible_agency": "Department of Sanitation",
    "final_address": "10900 S Hardy St",
    "address_councildis": "E",
    "status": "Assigned to Contractor",
    "contractor": "Waste Pro",
    "rowid": "1246649",
    "final_x": "3712779.49144",
    "final_y": "561363.507422",
    "longitude": "-89.96817928353758",
    "latitude": "30.036567124337886",
    "geocoded_column": {
      "latitude": "30.036567124337886",
      "longitude": "-89.96817928353758"
    }
  },
  {
    "service_request": "2025-1246648",
    "request_type": "Trash/Recycling",
    "request_reason": "Request a Large Item Pick Up",
    "date_created": "2025-12-19T18:58:06.000",
    "date_modified": "2025-12-19T18:58:07.000",
    "request_status": "Pending",
    "responsible_agency": "Department of Sanitation",
    "final_address": "1600 Holiday Pl",
    "address_councildis": "C",
    "status": "Assigned to Contractor",
    "contractor": "Richards Disposal",
    "rowid": "1246648",
    "final_x": "3699009.20727",
    "final_y": "525239.677053",
    "longitude": "-90.01301139306163",
    "latitude": "29.937683760490604",
    "geocoded_column": {
      "latitude": "29.937683760490604",
      "longitude": "-90.01301139306163"
    }
  },
  {
    "service_request": "2025-1246647",
    "request_type": "Mosquito, Termite & Rodent Control",
    "request_reason": "Non-Rodent Complaint (Possums & Snakes)",
    "date_created": "2025-12-19T18:55:55.000",
    "date_modified": "2025-12-19T18:55:57.000",
    "request_status": "Pending",
    "responsible_agency": "Mosquito, Termite & Rodent Control Board",
    "final_address": "2815 DAbadie St",
    "address_councildis": "D",
    "status": "Pending",
    "rowid": "1246647",
    "final_x": "3678864.80853",
    "final_y": "541319.096972",
    "longitude": "-90.07605179436885",
    "latitude": "29.982519594058523",
    "geocoded_column": {
      "latitude": "29.982519594058523",
      "longitude": "-90.07605179436885"
    }
  },
  {
    "service_request": "2025-1246646",
    "request_type": "Streetlights",
    "request_reason": "Streetlight Outage/Malfunction",
    "date_created": "2025-12-19T18:42:48.000",
    "date_modified": "2025-12-19T18:42:49.000",
    "request_status": "Pending",
    "responsible_agency": "Department of Public Works",
    "final_address": "215 Polk St",
    "address_councildis": "A",
    "status": "Pending",
    "rowid": "1246646",
    "final_x": "3666975.87284",
    "final_y": "547617.264146",
    "longitude": "-90.11339128528232",
    "latitude": "30.00019074465191",
    "geocoded_column": {
      "latitude": "30.00019074465191",
      "longitude": "-90.11339128528232"
    }
  },
  {
    "service_request": "2025-1246645",
    "request_type": "Streetlights",
    "request_reason": "Streetlight Outage/Malfunction",
    "date_created": "2025-12-19T18:41:28.000",
    "date_modified": "2025-12-19T18:41:29.000",
    "request_status": "Pending",
    "responsible_agency": "Department of Public Works",
    "final_address": "215 Polk St",
    "address_councildis": "A",
    "status": "Pending",
    "rowid": "1246645",
    "final_x": "3666975.87284",
    "final_y": "547617.264146",
    "longitude": "-90.11339128528232",
    "latitude": "30.00019074465191",
    "geocoded_column": {
      "latitude": "30.00019074465191",
      "longitude": "-90.11339128528232"
    }
  },
  {
    "service_request": "2025-1246644",
    "request_type": "Roads and Streets",
    "request_reason": "Pothole",
    "date_created": "2025-12-19T18:22:49.000",
    "date_modified": "2025-12-19T18:22:51.000",
    "request_status": "Pending",
    "responsible_agency": "Department of Public Works",
    "final_address": "6641 Dorchester St",
    "address_councildis": "E",
    "status": "Pending",
    "rowid": "1246644",
    "final_x": "3697891.64963",
    "final_y": "559043.934876",
    "longitude": "-90.01531199544567",
    "latitude": "30.03066850094605",
    "geocoded_column": {
      "latitude": "30.03066850094605",
      "longitude": "-90.01531199544567"
    }
  },
  {
    "service_request": "2025-1246643",
    "request_type": "Healthy Homes",
    "request_reason": "Healthy Homes",
    "date_created": "2025-12-19T18:10:03.000",
    "date_modified": "2025-12-19T18:10:05.000",
    "request_status": "Pending",
    "responsible_agency": "Department of Code Enforcement",
    "final_address": "1201 Canal St Unit 226",
    "address_councildis": "C",
    "status": "Pending",
    "rowid": "1246643",
    "final_x": "3679849.8148",
    "final_y": "531940.169795",
    "longitude": "-90.07326642110094",
    "latitude": "29.95670100814675",
    "geocoded_column": {
      "latitude": "29.95670100814675",
      "longitude": "-90.07326642110094"
    }
  },
  {
    "service_request": "2025-1246642",
    "request_type": "Roads and Streets",
    "request_reason": "Street Subsidence (Sinking)",
    "date_created": "2025-12-19T18:04:00.000",
    "date_modified": "2025-12-19T18:04:01.000",
    "request_status": "Pending",
    "responsible_agency": "Sewerage & Water Board",
    "final_address": "1808 Independence St",
    "address_councildis": "D",
    "status": "Pending",
    "rowid": "1246642",
    "final_x": "3691587.75862",
    "final_y": "538238.221961",
    "longitude": "-90.03597674577188",
    "latitude": "29.973658290650224",
    "geocoded_column": {
      "latitude": "29.973658290650224",
      "longitude": "-90.03597674577188"
    }
  },
  {
    "service_request": "2025-1246641",
    "request_type": "Property Maintenance",
    "request_reason": "Property Maintenance",
    "date_created": "2025-12-19T18:03:34.000",
    "date_modified": "2025-12-19T18:03:36.000",
    "request_status": "Pending",
    "responsible_agency": "Department of Code Enforcement",
    "final_address": "3109 St Thomas St",
    "address_councildis": "B",
    "status": "Pending",
    "rowid": "1246641",
    "final_x": "3677011.96616",
    "final_y": "518646.622263",
    "longitude": "-90.08268560241478",
    "latitude": "29.920233631015588",
    "geocoded_column": {
      "latitude": "29.920233631015588",
      "longitude": "-90.08268560241478"
    }
  },
  {
    "service_request": "2025-1246640",
    "request_type": "Trash/Recycling",
    "request_reason": "Order Second Trash Cart",
    "date_created": "2025-12-19T18:02:49.000",
    "date_modified": "2025-12-19T18:02:51.000",
    "request_status": "Pending",
    "responsible_agency": "Department of Sanitation",
    "final_address": "3324 Third St",
    "address_councildis": "B",
    "status": "Assigned to Contractor",
    "contractor": "IV Waste",
    "rowid": "1246640",
    "final_x": "3672946.44852",
    "final_y": "528095.334527",
    "longitude": "-90.0951962574467",
    "latitude": "29.946335918411176",
    "geocoded_column": {
      "latitude": "29.946335918411176",
      "longitude": "-90.0951962574467"
    }
  },
  {
    "service_request": "2025-1246639",
    "request_type": "Trash/Recycling",
    "request_reason": "Request a Large Item Pick Up",
    "date_created": "2025-12-19T18:01:34.000",
    "date_modified": "2025-12-19T18:01:35.000",
    "request_status": "Pending",
    "responsible_agency": "Department of Sanitation",
    "final_address": "3324 Third St",
    "address_councildis": "B",
    "status": "Assigned to Contractor",
    "contractor": "IV Waste",
    "rowid": "1246639",
    "final_x": "3672946.44852",
    "final_y": "528095.334527",
    "longitude": "-90.0951962574467",
    "latitude": "29.946335918411176",
    "geocoded_column": {
      "latitude": "29.946335918411176",
      "longitude": "-90.0951962574467"
    }
  },
  {
    "service_request": "2025-1246638",
    "request_type": "Trash/Recycling",
    "request_reason": "Repair Recycling Cart",
    "date_created": "2025-12-19T17:59:56.000",
    "date_modified": "2025-12-19T17:59:58.000",
    "request_status": "Pending",
    "responsible_agency": "Department of Sanitation",
    "final_address": "1808 Independence St",
    "address_councildis": "D",
    "status": "Pending",
    "rowid": "1246638",
    "final_x": "3691587.75862",
    "final_y": "538238.221961",
    "longitude": "-90.03597674577188",
    "latitude": "29.973658290650224",
    "geocoded_column": {
      "latitude": "29.973658290650224",
      "longitude": "-90.03597674577188"
    }
  },
  {
    "service_request": "2025-1246637",
    "request_type": "Roads and Streets",
    "request_reason": "Pothole",
    "date_created": "2025-12-19T17:56:58.000",
    "date_modified": "2025-12-19T17:57:02.000",
    "request_status": "Pending",
    "responsible_agency": "Department of Public Works",
    "final_address": "6641 Dorchester St",
    "address_councildis": "E",
    "status": "Pending",
    "rowid": "1246637",
    "final_x": "3697891.64963",
    "final_y": "559043.934876",
    "longitude": "-90.01531199544567",
    "latitude": "30.03066850094605",
    "geocoded_column": {
      "latitude": "30.03066850094605",
      "longitude": "-90.01531199544567"
    }
  },
  {
    "service_request": "2025-1246636",
    "request_type": "Roads and Streets",
    "request_reason": "Road Shoulder Damage",
    "date_created": "2025-12-19T17:51:21.000",
    "date_modified": "2025-12-19T17:51:23.000",
    "request_status": "Pending",
    "responsible_agency": "Department of Public Works",
    "final_address": "6641 Dorchester St",
    "address_councildis": "E",
    "status": "Pending",
    "rowid": "1246636",
    "final_x": "3697891.64963",
    "final_y": "559043.934876",
    "longitude": "-90.01531199544567",
    "latitude": "30.03066850094605",
    "geocoded_column": {
      "latitude": "30.03066850094605",
      "longitude": "-90.01531199544567"
    }
  },
  {
    "service_request": "2025-1246635",
    "request_type": "Roads and Streets",
    "request_reason": "Abandoned Service Cut",
    "date_created": "2025-12-19T17:45:23.000",
    "date_modified": "2025-12-19T17:45:24.000",
    "request_status": "Pending",
    "responsible_agency": "Department of Public Works",
    "final_address": "3800 BLK Saint Bernard Ave",
    "address_councildis": "D",
    "status": "Pending",
    "rowid": "1246635",
    "final_x": "3677812.28804",
    "final_y": "546270.984017",
    "longitude": "-90.0792049903944",
    "latitude": "29.9961672662296",
    "geocoded_column": {
      "latitude": "29.9961672662296",
      "longitude": "-90.0792049903944"
    }
  },
  {
    "service_request": "2025-1246634",
    "request_type": "Trash/Recycling",
    "request_reason": "Request a Large Item Pick Up",
    "date_created": "2025-12-19T17:44:11.000",
    "date_modified": "2025-12-19T17:44:13.000",
    "request_status": "Pending",
    "responsible_agency": "Department of Sanitation",
    "final_address": "24 Marywood Ct",
    "address_councildis": "E",
    "status": "Assigned to Contractor",
    "contractor": "Waste Pro",
    "rowid": "1246634",
    "final_x": "3712499.54757",
    "final_y": "566760.130275",
    "longitude": "-89.96886087036509",
    "latitude": "30.051414828461617",
    "geocoded_column": {
      "latitude": "30.051414828461617",
      "longitude": "-89.96886087036509"
    }
  },
  {
    "service_request": "2025-1246633",
    "request_type": "Trash/Recycling",
    "request_reason": "Request a Large Item Pick Up",
    "date_created": "2025-12-19T16:36:28.000",
    "date_modified": "2025-12-19T16:36:29.000",
    "request_status": "Pending",
    "responsible_agency": "Department of Sanitation",
    "final_address": "4738 Friar Tuck Dr",
    "address_councildis": "E",
    "status": "Assigned to Contractor",
    "contractor": "Waste Pro",
    "rowid": "1246633",
    "final_x": "3717680.59378",
    "final_y": "556944.231066",
    "longitude": "-89.95285922910445",
    "latitude": "30.024254424321505",
    "geocoded_column": {
      "latitude": "30.024254424321505",
      "longitude": "-89.95285922910445"
    }
  },
  {
    "service_request": "2025-1246632",
    "request_type": "Parks & Parkways",
    "request_reason": "Park Maintenance/Clean Up",
    "date_created": "2025-12-19T16:34:52.000",
    "date_modified": "2025-12-19T16:34:54.000",
    "request_status": "Pending",
    "responsible_agency": "Department of Parks & Parkway",
    "final_address": "8134 Sycamore St",
    "address_councildis": "A",
    "status": "Pending",
    "rowid": "1246632",
    "final_x": "3664083.22234",
    "final_y": "531143.491138",
    "longitude": "-90.12307903978638",
    "latitude": "29.954977728436642",
    "geocoded_column": {
      "latitude": "29.954977728436642",
      "longitude": "-90.12307903978638"
    }
  },
  {
    "service_request": "2025-1246631",
    "request_type": "Trash/Recycling",
    "request_reason": "Request a Large Item Pick Up",
    "date_created": "2025-12-19T16:28:21.000",
    "date_modified": "2025-12-19T16:28:23.000",
    "request_status": "Pending",
    "responsible_agency": "Department of Sanitation",
    "final_address": "814 N Miro St",
    "address_councildis": "D",
    "status": "Assigned to Contractor",
    "contractor": "IV Waste",
    "rowid": "1246631",
    "final_x": "3678400.66741",
    "final_y": "536263.687239",
    "longitude": "-90.07769275797976",
    "latitude": "29.968632953557318",
    "geocoded_column": {
      "latitude": "29.968632953557318",
      "longitude": "-90.07769275797976"
    }
  },
  {
    "service_request": "2025-1246630",
    "request_type": "Trash/Recycling",
    "request_reason": "Request a Large Item Pick Up",
    "date_created": "2025-12-19T16:23:06.000",
    "date_modified": "2025-12-19T16:23:07.000",
    "request_status": "Pending",
    "responsible_agency": "Department of Sanitation",
    "final_address": "7911 Hickman St",
    "address_councildis": "E",
    "status": "Assigned to Contractor",
    "contractor": "Waste Pro",
    "rowid": "1246630",
    "final_x": "3705771.51492",
    "final_y": "564143.806113",
    "longitude": "-89.99022276736444",
    "latitude": "30.044439557478462",
    "geocoded_column": {
      "latitude": "30.044439557478462",
      "longitude": "-89.99022276736444"
    }
  },
  {
    "service_request": "2025-1246629",
    "request_type": "Trash/Recycling",
    "request_reason": "Repair Trash Cart",
    "date_created": "2025-12-19T16:19:06.000",
    "date_modified": "2025-12-19T16:19:09.000",
    "request_status": "Pending",
    "responsible_agency": "Department of Sanitation",
    "final_address": "2301 Carondelet St",
    "address_councildis": "B",
    "status": "Assigned to Contractor",
    "contractor": "IV Waste",
    "rowid": "1246629",
    "final_x": "3676886.60514",
    "final_y": "523675.080891",
    "longitude": "-90.08290809592863",
    "latitude": "29.934064021083767",
    "geocoded_column": {
      "latitude": "29.934064021083767",
      "longitude": "-90.08290809592863"
    }
  },
  {
    "service_request": "2025-1246628",
    "request_type": "Trash/Recycling",
    "request_reason": "Request a Large Item Pick Up",
    "date_created": "2025-12-19T15:56:36.000",
    "date_modified": "2025-12-19T15:56:38.000",
    "request_status": "Pending",
    "responsible_agency": "Department of Sanitation",
    "final_address": "7820 Wave Dr",
    "address_councildis": "E",
    "status": "Assigned to Contractor",
    "contractor": "Waste Pro",
    "rowid": "1246628",
    "final_x": "3714386.88197",
    "final_y": "569428.201318",
    "longitude": "-89.96279481524695",
    "latitude": "30.058688998488748",
    "geocoded_column": {
      "latitude": "30.058688998488748",
      "longitude": "-89.96279481524695"
    }
  },
  {
    "service_request": "2025-1246627",
    "request_type": "Trash/Recycling",
    "request_reason": "Request a Large Item Pick Up",
    "date_created": "2025-12-19T15:55:28.000",
    "date_modified": "2025-12-19T15:55:29.000",
    "request_status": "Pending",
    "responsible_agency": "Department of Sanitation",
    "final_address": "7900 Vanderkloot Ave",
    "address_councildis": "E",
    "status": "Assigned to Contractor",
    "contractor": "Waste Pro",
    "rowid": "1246627",
    "final_x": "3705408.94718",
    "final_y": "563870.539809",
    "longitude": "-89.99137875220627",
    "latitude": "30.04369986418594",
    "geocoded_column": {
      "latitude": "30.04369986418594",
      "longitude": "-89.99137875220627"
    }
  },
  {
    "service_request": "2025-1246626",
    "request_type": "Trash/Recycling",
    "request_reason": "Repair Trash Cart",
    "date_created": "2025-12-19T15:55:03.000",
    "date_modified": "2025-12-19T15:55:05.000",
    "request_status": "Pending",
    "responsible_agency": "Department of Sanitation",
    "final_address": "3126 Somerset Dr",
    "address_councildis": "C",
    "status": "Assigned to Contractor",
    "contractor": "Richards Disposal",
    "rowid": "1246626",
    "final_x": "3702618.18999",
    "final_y": "519570.315896",
    "longitude": "-90.00182562935466",
    "latitude": "29.9219801490763",
    "geocoded_column": {
      "latitude": "29.9219801490763",
      "longitude": "-90.00182562935466"
    }
  },