[
  {
    "service_request": "2025-1221800",
    "request_type": "Trash/Recycling",
    "request_reason": "Request a Large Item Pick Up",
    "date_created": "2025-08-26T23:25:39.000",
    "date_modified": "2025-08-26T23:25:41.000",
    "request_status": "Pending",
    "responsible_agency": "Department of Sanitation",
    "final_address": "4610 Babylon St",
    "address_councildis": "D",
    "status": "Assigned to Contractor",
    "contractor": "Waste Pro",
    "rowid": "1221800",
    "final_x": "3696652.11811",
    "final_y": "553658.276439",
    "longitude": "-90.01942406933725",
    "latitude": "30.015899132183748",
    "geocoded_column": {
      "latitude": "30.015899132183748",
      "longitude": "-90.01942406933725"
    }
  },
  {
    "service_request": "2025-1221799",
    "request_type": "Abandoned Vehicles",
    "request_reason": "Abandoned/Junk Vehicles",
    "date_created": "2025-08-26T23:10:17.000",
    "date_modified": "2025-08-26T23:10:19.000",
    "request_status": "Pending",
    "responsible_agency": "Department of Public Works",
    "final_address": "6033 Louisville St",
    "address_councildis": "A",
    "status": "Pending",
    "rowid": "1221799",
    "final_x": "3667863.83034",
    "final_y": "547583.103954",
    "longitude": "-90.11058732100307",
    "latitude": "30.00007079137769",
    "geocoded_column": {
      "latitude": "30.00007079137769",
      "longitude": "-90.11058732100307"
    }
  },
  {
    "service_request": "2025-1221798",
    "request_type": "Property Maintenance",
    "request_reason": "Property Maintenance",
    "date_created": "2025-08-26T22:54:43.000",
    "date_modified": "2025-08-26T22:54:45.000",
    "request_status": "Pending",
    "responsible_agency": "Department of Code Enforcement",
    "final_address": "4778 Donna Dr",
    "address_councildis": "E",
    "status": "Pending",
    "rowid": "1221798",
    "final_x": "3710925.95633",
    "final_y": "556079.702746",
    "longitude": "-89.97423483594117",
    "latitude": "30.022099339572133",
    "geocoded_column": {
      "latitude": "30.022099339572133",
      "longitude": "-89.97423483594117"
    }
  },
  {
    "service_request": "2025-1221797",
    "request_type": "Trash/Recycling",
    "request_reason": "Request a Large Item Pick Up",
    "date_created": "2025-08-26T22:47:52.000",
    "date_modified": "2025-08-26T22:47:55.000",
    "request_status": "Pending",
    "responsible_agency": "Department of Sanitation",
    "final_address": "2369 St Thomas St",
    "address_councildis": "B",
    "status": "Assigned to Contractor",
    "contractor": "IV Waste",
    "rowid": "1221797",
    "final_x": "3679160.25544",
    "final_y": "520065.857464",
    "longitude": "-90.07585531130066",
    "latitude": "29.92407141796851",
    "geocoded_column": {
      "latitude": "29.92407141796851",
      "longitude": "-90.07585531130066"
    }
  },
  {
    "service_request": "2025-1221796",
    "request_type": "General Services",
    "request_reason": "General Service Request",
    "date_created": "2025-08-26T22:35:39.000",
    "date_modified": "2025-08-26T22:35:42.000",
    "request_status": "Pending",
    "responsible_agency": "Orleans Parish Communication District",
    "final_address": "0 BLK Alice Ct",
    "address_councildis": "E",
    "status": "Pending",
    "rowid": "1221796",
    "final_x": "3696830.85368",
    "final_y": "533835.980016",
    "longitude": "-90.01957742212986",
    "latitude": "29.961389424106756",
    "geocoded_column": {
      "latitude": "29.961389424106756",
      "longitude": "-90.01957742212986"
    }
  },
  {
    "service_request": "2025-1221795",
    "request_type": "Drainage",
    "request_reason": "Drainage Manhole Cover Missing or Damaged",
    "date_created": "2025-08-26T22:30:48.000",
    "date_modified": "2025-08-26T22:30:50.000",
    "request_status": "Pending",
    "responsible_agency": "Sewerage & Water Board",
    "final_address": "505 S Genois St",
    "address_councildis": "B",
    "status": "Pending",
    "rowid": "1221795",
    "final_x": "3671554.21876",
    "final_y": "535881.310663",
    "longitude": "-90.09932727827552",
    "latitude": "29.96778606366794",
    "geocoded_column": {
      "latitude": "29.96778606366794",
      "longitude": "-90.09932727827552"
    }
  },
  {
    "service_request": "2025-1221794",
    "request_type": "Drainage",
    "request_reason": "Catch Basin Not Draining",
    "date_created": "2025-08-26T22:25:01.000",
    "date_modified": "2025-08-26T22:25:03.000",
    "request_status": "Pending",
    "responsible_agency": "Sewerage & Water Board",
    "final_address": "300 French St",
    "address_councildis": "A",
    "status": "Pending",
    "rowid": "1221794",
    "final_x": "3667212.78708",
    "final_y": "548645.100243",
    "longitude": "-90.1126082655875",
    "latitude": "30.0030100006828",
    "geocoded_column": {
      "latitude": "30.0030100006828",
      "longitude": "-90.1126082655875"
    }
  },
  {
    "service_request": "2025-1221793",
    "request_type": "Trash/Recycling",
    "request_reason": "Repair Recycling Cart",
    "date_created": "2025-08-26T22:17:57.000",
    "date_modified": "2025-08-26T22:17:59.000",
    "request_status": "Pending",
    "responsible_agency": "Department of Sanitation",
    "final_address": "5308 Wingate Dr",
    "address_councildis": "D",
    "status": "Pending",
    "rowid": "1221793",
    "final_x": "3681391.15586",
    "final_y": "552318.821014",
    "longitude": "-90.06768859297902",
    "latitude": "30.012688456812494",
    "geocoded_column": {
      "latitude": "30.012688456812494",
      "longitude": "-90.06768859297902"
    }
  },
  {
    "service_request": "2025-1221792",
    "request_type": "Streetlights",
    "request_reason": "Streetlight Outage/Malfunction",
    "date_created": "2025-08-26T22:11:54.000",
    "date_modified": "2025-08-26T22:11:56.000",
    "request_status": "Pending",
    "responsible_agency": "Department of Public Works",
    "final_address": "300 French St",
    "address_councildis": "A",
    "status": "Pending",
    "contractor": "Legacy Professional Services",
    "rowid": "1221792",
    "final_x": "3667212.78708",
    "final_y": "548645.100243",
    "longitude": "-90.1126082655875",
    "latitude": "30.0030100006828",
    "geocoded_column": {
      "latitude": "30.0030100006828",
      "longitude": "-90.1126082655875"
    }
  },
  {
    "service_request": "2025-1221791",
    "request_type": "Property Maintenance",
    "request_reason": "Property Maintenance",
    "date_created": "2025-08-26T21:52:06.000",
    "date_modified": "2025-08-26T21:52:08.000",
    "request_status": "Pending",
    "responsible_agency": "Department of Code Enforcement",
    "final_address": "7096 W Tamaron Blvd",
    "address_councildis": "E",
    "status": "Pending",
    "rowid": "1221791",
    "final_x": "3718385.59852",
    "final_y": "568615.327333",
    "longitude": "-89.95018641116356",
    "latitude": "30.056321815939263",
    "geocoded_column": {
      "latitude": "30.056321815939263",
      "longitude": "-89.95018641116356"
    }
  },
  {
    "service_request": "2025-1221790",
    "request_type": "Mosquito, Termite & Rodent Control",
    "request_reason": "Mosquito Complaint",
    "date_created": "2025-08-26T21:47:31.000",
    "date_modified": "2025-08-26T21:47:33.000",
    "request_status": "Pending",
    "responsible_agency": "Mosquito, Termite & Rodent Control Board",
    "final_address": "7096 W Tamaron Blvd",
    "address_councildis": "E",
    "status": "Pending",
    "rowid": "1221790",
    "final_x": "3718385.59852",
    "final_y": "568615.327333",
    "longitude": "-89.95018641116356",
    "latitude": "30.056321815939263",
    "geocoded_column": {
      "latitude": "30.056321815939263",
      "longitude": "-89.95018641116356"
    }
  },
  {
    "service_request": "2025-1221789",
    "request_type": "Abandoned Vehicles",
    "request_reason": "Abandoned/Junk Vehicles",
    "date_created": "2025-08-26T21:46:11.000",
    "date_modified": "2025-08-26T21:46:13.000",
    "request_status": "Pending",
    "responsible_agency": "Department of Public Works",
    "final_address": "5200 Chestnut St",
    "address_councildis": "B",
    "status": "Pending",
    "rowid": "1221789",
    "final_x": "3668026.57281",
    "final_y": "519257.804151",
    "longitude": "-90.111027732473",
    "latitude": "29.922180798794326",
    "geocoded_column": {
      "latitude": "29.922180798794326",
      "longitude": "-90.111027732473"
    }
  },
  {
    "service_request": "2025-1221788",
    "request_type": "Streetlights",
    "request_reason": "Streetlight Outage/Malfunction",
    "date_created": "2025-08-26T21:45:05.000",
    "date_modified": "2025-08-26T21:45:07.000",
    "request_status": "Pending",
    "responsible_agency": "Department of Public Works",
    "final_address": "5564 Woodlawn Pl",
    "address_councildis": "A",
    "status": "Pending",
    "contractor": "Legacy Professional Services",
    "rowid": "1221788",
    "final_x": "3667384.57901",
    "final_y": "544336.210831",
    "longitude": "-90.11221061582651",
    "latitude": "29.99115700415472",
    "geocoded_column": {
      "latitude": "29.99115700415472",
      "longitude": "-90.11221061582651"
    }
  },
  {
    "service_request": "2025-1221787",
    "request_type": "Trash/Recycling",
    "request_reason": "Replace Recycling Cart",
    "date_created": "2025-08-26T21:33:53.000",
    "date_modified": "2025-08-26T21:33:55.000",
    "request_status": "Pending",
    "responsible_agency": "Department of Sanitation",
    "final_address": "7307 Hurst St",
    "address_councildis": "A",
    "status": "Pending",
    "rowid": "1221787",
    "final_x": "3661934.79987",
    "final_y": "523848.139195",
    "longitude": "-90.13010488136943",
    "latitude": "29.934980059427854",
    "geocoded_column": {
      "latitude": "29.934980059427854",
      "longitude": "-90.13010488136943"
    }
  },
  {
    "service_request": "2025-1221786",
    "request_type": "Trash/Recycling",
    "request_reason": "Request a Large Item Pick Up",
    "date_created": "2025-08-26T21:31:14.000",
    "date_modified": "2025-08-26T21:31:15.000",
    "request_status": "Pending",
    "responsible_agency": "Department of Sanitation",
    "final_address": "5910 Kensington Blvd",
    "address_councildis": "E",
    "status": "Assigned to Contractor",
    "contractor": "Waste Pro",
    "rowid": "1221786",
    "final_x": "3712999.69438",
    "final_y": "561356.262878",
    "longitude": "-89.9674836769525",
    "latitude": "30.036539989284595",
    "geocoded_column": {
      "latitude": "30.036539989284595",
      "longitude": "-89.9674836769525"
    }
  },
  {
    "service_request": "2025-1221785",
    "request_type": "Trash/Recycling",
    "request_reason": "Request a Large Item Pick Up",
    "date_created": "2025-08-26T21:02:12.000",
    "date_modified": "2025-08-26T21:02:15.000",
    "request_status": "Pending",
    "responsible_agency": "Department of Sanitation",
    "final_address": "420 Delery St",
    "address_councildis": "E",
    "status": "Assigned to Contractor",
    "contractor": "Waste Pro",
    "rowid": "1221785",
    "final_x": "3699517.16925",
    "final_y": "530761.234626",
    "longitude": "-90.01120659014201",
    "latitude": "29.952850003967722",
    "geocoded_column": {
      "latitude": "29.952850003967722",
      "longitude": "-90.01120659014201"
    }
  },
  {
    "service_request": "2025-1221784",
    "request_type": "Property Maintenance",
    "request_reason": "Property Maintenance",
    "date_created": "2025-08-26T20:47:52.000",
    "date_modified": "2025-08-26T20:47:54.000",
    "request_status": "Pending",
    "responsible_agency": "Department of Code Enforcement",
    "final_address": "1419 Melpomene St",
    "address_councildis": "B",
    "status": "Pending",
    "rowid": "1221784",
    "final_x": "3679868.62632",
    "final_y": "525166.223293",
    "longitude": "-90.07344221016609",
    "latitude": "29.938074353347858",
    "geocoded_column": {
      "latitude": "29.938074353347858",
      "longitude": "-90.07344221016609"
    }
  },
  {
    "service_request": "2025-1221783",
    "request_type": "Streetlights",
    "request_reason": "Streetlight Outage/Malfunction",
    "date_created": "2025-08-26T20:40:55.000",
    "date_modified": "2025-08-26T20:40:57.000",
    "request_status": "Pending",
    "responsible_agency": "Department of Public Works",
    "final_address": "7141 Restgate Rd",
    "address_councildis": "E",
    "status": "Pending",
    "contractor": "Legacy Professional Services",
    "rowid": "1221783",
    "final_x": "3710800.37054",
    "final_y": "563324.393376",
    "longitude": "-89.97436015910823",
    "latitude": "30.042023462523982",
    "geocoded_column": {
      "latitude": "30.042023462523982",
      "longitude": "-89.97436015910823"
    }
  },
  {
    "service_request": "2025-1221782",
    "request_type": "Streetlights",
    "request_reason": "Streetlight Outage/Malfunction",
    "date_created": "2025-08-26T20:36:29.000",
    "date_modified": "2025-08-26T20:36:30.000",
    "request_status": "Pending",
    "responsible_agency": "Department of Public Works",
    "final_address": "893 Hidalgo St",
    "address_councildis": "A",
    "status": "Pending",
    "contractor": "Legacy Professional Services",
    "rowid": "1221782",
    "final_x": "3669471.62036",
    "final_y": "544099.978126",
    "longitude": "-90.1056261109852",
    "latitude": "29.990446123529615",
    "geocoded_column": {
      "latitude": "29.990446123529615",
      "longitude": "-90.1056261109852"
    }
  },
  {
    "service_request": "2025-1221781",
    "request_type": "Trash/Recycling",
    "request_reason": "Request a Large Item Pick Up",
    "date_created": "2025-08-26T20:33:19.000",
    "date_modified": "2025-08-26T20:33:21.000",
    "request_status": "Pending",
    "responsible_agency": "Department of Sanitation",
    "final_address": "6377 Catina St",
    "address_councildis": "A",
    "status": "Assigned to Contractor",
    "contractor": "IV Waste",
    "rowid": "1221781",
    "final_x": "3667028.44199",
    "final_y": "550207.913748",
    "longitude": "-90.1131380650241",
    "latitude": "30.007312593947862",
    "geocoded_column": {
      "latitude": "30.007312593947862",
      "longitude": "-90.1131380650241"
    }
  },
  {
    "service_request": "2025-1221780",
    "request_type": "Property Maintenance",
    "request_reason": "Property Maintenance",
    "date_created": "2025-08-26T20:30:21.000",
    "date_modified": "2025-08-26T20:30:23.000",
    "request_status": "Pending",
    "responsible_agency": "Department of Code Enforcement",
    "final_address": "5811 Abbey Dr",
    "address_councildis": "C",
    "status": "Pending",
    "rowid": "1221780",
    "final_x": "3705147.92164",
    "final_y": "520904.567609",
    "longitude": "-89.99379115794387",
    "latitude": "29.925567804690065",
    "geocoded_column": {
      "latitude": "29.925567804690065",
      "longitude": "-89.99379115794387"
    }
  },
  {
    "service_request": "2025-1221779",
    "request_type": "Streetlights",
    "request_reason": "Streetlight Outage/Malfunction",
    "date_created": "2025-08-26T20:20:44.000",
    "date_modified": "2025-08-26T20:20:46.000",
    "request_status": "Pending",
    "responsible_agency": "Department of Public Works",
    "final_address": "3400 BLK Almonaster Ave",
    "address_councildis": "D",
    "status": "Pending",
    "contractor": "Legacy Professional Services",
    "rowid": "1221779",
    "final_x": "3689527.66126",
    "final_y": "545885.604211",
    "longitude": "-90.04221081167968",
    "latitude": "29.994749834847937",
    "geocoded_column": {
      "latitude": "29.994749834847937",
      "longitude": "-90.04221081167968"
    }
  },
  {
    "service_request": "2025-1221778",
    "request_type": "Streetlights",
    "request_reason": "Streetlight Outage/Malfunction",
    "date_created": "2025-08-26T20:20:31.000",
    "date_modified": "2025-08-26T20:20:33.000",
    "request_status": "Pending",
    "responsible_agency": "Department of Public Works",
    "final_address": "7651 Wave Dr",
    "address_councildis": "E",
    "status": "Pending",
    "contractor": "Legacy Professional Services",
    "rowid": "1221778",
    "final_x": "3714943.1596",
    "final_y": "568925.320485",
    "longitude": "-89.96105552925653",
    "latitude": "30.05728797676343",
    "geocoded_column": {
      "latitude": "30.05728797676343",
      "longitude": "-89.96105552925653"
    }
  },
  {
    "service_request": "2025-1221777",
    "request_type": "Property Maintenance",
    "request_reason": "Property Maintenance",
    "date_created": "2025-08-26T20:14:54.000",
    "date_modified": "2025-08-26T20:14:57.000",
    "request_status": "Pending",
    "responsible_agency": "Department of Code Enforcement",
    "final_address": "5000 Frankfort St",
    "address_councildis": "D",
    "status": "Pending",
    "rowid": "1221777",
    "final_x": "3690939.60931",
    "final_y": "557461.406875",
    "longitude": "-90.03733706611108",
    "latitude": "30.026535193078487",
    "geocoded_column": {
      "latitude": "30.026535193078487",
      "longitude": "-90.03733706611108"
    }
  },
  {
    "service_request": "2025-1221776",
    "request_type": "Property Maintenance",
    "request_reason": "Property Maintenance",
    "date_created": "2025-08-26T20:12:46.000",
    "date_modified": "2025-08-26T20:12:47.000",
    "request_status": "Pending",
    "responsible_agency": "Department of Code Enforcement",
    "final_address": "6351 Congress Dr",
    "address_councildis": "D",
    "status": "Pending",
    "rowid": "1221776",
    "final_x": "3690624.43689",
    "final_y": "556932.379866",
    "longitude": "-90.03835186503488",
    "latitude": "30.0250903655863",
    "geocoded_column": {
      "latitude": "30.0250903655863",
      "longitude": "-90.03835186503488"
    }
  },
  {
    "service_request": "2025-1221775",
    "request_type": "Trash/Recycling",
    "request_reason": "Illegal Dumping",
    "date_created": "2025-08-26T20:12:04.000",
    "date_modified": "2025-08-26T20:12:05.000",
    "request_status": "Pending",
    "responsible_agency": "Department of Sanitation",
    "final_address": "4200 BLK Almonaster Ave",
    "address_councildis": "D",
    "status": "Pending",
    "rowid": "1221775",
    "final_x": "3691176.47883",
    "final_y": "548349.501186",
    "longitude": "-90.03691435042022",
    "latitude": "30.00147346583787",
    "geocoded_column": {
      "latitude": "30.00147346583787",
      "longitude": "-90.03691435042022"
    }
  },
  {
    "service_request": "2025-1221774",
    "request_type": "Trash/Recycling",
    "request_reason": "Request a Large Item Pick Up",
    "date_created": "2025-08-26T20:10:33.000",
    "date_modified": "2025-08-26T20:10:35.000",
    "request_status": "Pending",
    "responsible_agency": "Department of Sanitation",
    "final_address": "5000 Mexico St",
    "address_councildis": "D",
    "status": "Assigned to Contractor",
    "contractor": "IV Waste",
    "rowid": "1221774",
    "final_x": "3690940.74819",
    "final_y": "556509.45129",
    "longitude": "-90.03736748920235",
    "latitude": "30.02391763759887",
    "geocoded_column": {
      "latitude": "30.02391763759887",
      "longitude": "-90.03736748920235"
    }
  },
  {
    "service_request": "2025-1221773",
    "request_type": "Trash/Recycling",
    "request_reason": "Illegal Dumping",
    "date_created": "2025-08-26T19:59:56.000",
    "date_modified": "2025-08-26T19:59:58.000",
    "request_status": "Pending",
    "responsible_agency": "Department of Sanitation",
    "final_address": "3900 Almonaster Ave",
    "address_councildis": "D",
    "status": "Pending",
    "rowid": "1221773",
    "final_x": "3690050.05948",
    "final_y": "547393.929745",
    "longitude": "-90.04050686448787",
    "latitude": "29.998880987070567",
    "geocoded_column": {
      "latitude": "29.998880987070567",
      "longitude": "-90.04050686448787"
    }
  },
  {
    "service_request": "2025-1221772",
    "request_type": "Trash/Recycling",
    "request_reason": "Illegal Dumping",
    "date_created": "2025-08-26T19:52:31.000",
    "date_modified": "2025-08-26T19:52:33.000",
    "request_status": "Pending",
    "responsible_agency": "Department of Sanitation",
    "final_address": "4205 Almonaster Ave",
    "address_councildis": "D",
    "status": "Pending",
    "rowid": "1221772",
    "final_x": "3690128.08988",
    "final_y": "547913.816658",
    "longitude": "-90.04024183242547",
    "latitude": "30.000308065773275",
    "geocoded_column": {
      "latitude": "30.000308065773275",
      "longitude": "-90.04024183242547"
    }
  },
  {
    "service_request": "2025-1221771",
    "request_type": "Trash/Recycling",
    "request_reason": "Illegal Dumping",
    "date_created": "2025-08-26T19:52:19.000",
    "date_modified": "2025-08-26T19:52:20.000",
    "request_status": "Pending",
    "responsible_agency": "Department of Sanitation",
    "final_address": "4205 Almonaster Ave",
    "address_councildis": "D",
    "status": "Pending",
    "rowid": "1221771",
    "final_x": "3690128.08988",
    "final_y": "547913.816658",
    "longitude": "-90.04024183242547",
    "latitude": "30.000308065773275",
    "geocoded_column": {
      "latitude": "30.000308065773275",
      "longitude": "-90.04024183242547"
    }
  },
  {
    "service_request": "2025-1221770",
    "request_type": "Trash/Recycling",
    "request_reason": "Request a Large Item Pick Up",
    "date_created": "2025-08-26T19:52:15.000",
    "date_modified": "2025-08-26T19:52:17.000",
    "request_status": "Pending",
    "responsible_agency": "Department of Sanitation",
    "final_address": "6119 Marshal Foch St",
    "address_councildis": "A",
    "status": "Assigned to Contractor",
    "contractor": "IV Waste",
    "rowid": "1221770",
    "final_x": "3669990.69044",
    "final_y": "548033.198994",
    "longitude": "-90.103853186442",
    "latitude": "30.00124581851448",
    "geocoded_column": {
      "latitude": "30.00124581851448",
      "longitude": "-90.103853186442"
    }
  },
  {
    "service_request": "2025-1221769",
    "request_type": "Property Maintenance",
    "request_reason": "Property Maintenance",
    "date_created": "2025-08-26T19:42:14.000",
    "date_modified": "2025-08-26T19:42:16.000",
    "request_status": "Pending",
    "responsible_agency": "Department of Code Enforcement",
    "final_address": "2062 Mercedes Blvd",
    "address_councildis": "C",
    "status": "Pending",
    "rowid": "1221769",
    "final_x": "3698185.60535",
    "final_y": "523169.686523",
    "longitude": "-90.01568670171878",
    "latitude": "29.932018070951546",
    "geocoded_column": {
      "latitude": "29.932018070951546",
      "longitude": "-90.01568670171878"
    }
  },
  {
    "service_request": "2025-1221768",
    "request_type": "Trash/Recycling",
    "request_reason": "Request a Large Item Pick Up",
    "date_created": "2025-08-26T19:34:56.000",
    "date_modified": "2025-08-26T19:34:58.000",
    "request_status": "Pending",
    "responsible_agency": "Department of Sanitation",
    "final_address": "4532 Marais St",
    "address_councildis": "D",
    "status": "Assigned to Contractor",
    "contractor": "IV Waste",
    "rowid": "1221768",
    "final_x": "3693664.95325",
    "final_y": "535127.238086",
    "longitude": "-90.02952834458507",
    "latitude": "29.96503935715986",
    "geocoded_column": {
      "latitude": "29.96503935715986",
      "longitude": "-90.02952834458507"
    }
  },
  {
    "service_request": "2025-1221767",
    "request_type": "Trash/Recycling",
    "request_reason": "Illegal Dumping",
    "date_created": "2025-08-26T19:28:54.000",
    "date_modified": "2025-08-26T19:28:56.000",
    "request_status": "Pending",
    "responsible_agency": "Department of Sanitation",
    "final_address": "519 St Maurice Ave",
    "address_councildis": "E",
    "status": "Pending",
    "rowid": "1221767",
    "final_x": "3699093.19312",
    "final_y": "531221.062914",
    "longitude": "-90.01252857400289",
    "latitude": "29.954127813912343",
    "geocoded_column": {
      "latitude": "29.954127813912343",
      "longitude": "-90.01252857400289"
    }
  },
  {
    "service_request": "2025-1221766",
    "request_type": "Trash/Recycling",
    "request_reason": "Request a Large Item Pick Up",
    "date_created": "2025-08-26T19:23:49.000",
    "date_modified": "2025-08-26T19:23:51.000",
    "request_status": "Pending",
    "responsible_agency": "Department of Sanitation",
    "final_address": "7600 Malvern Dr",
    "address_councildis": "E",
    "status": "Assigned to Contractor",
    "contractor": "Waste Pro",
    "rowid": "1221766",
    "final_x": "3702375.83805",
    "final_y": "561523.909407",
    "longitude": "-90.00105085282357",
    "latitude": "30.03734487614827",
    "geocoded_column": {
      "latitude": "30.03734487614827",
      "longitude": "-90.00105085282357"
    }
  },
  {
    "service_request": "2025-1221765",
    "request_type": "Trash/Recycling",
    "request_reason": "Repair Trash Cart",
    "date_created": "2025-08-26T19:20:10.000",
    "date_modified": "2025-08-26T19:20:12.000",
    "request_status": "Pending",
    "responsible_agency": "Department of Sanitation",
    "final_address": "1401 State St",
    "address_councildis": "A",
    "status": "Assigned to Contractor",
    "contractor": "IV Waste",
    "rowid": "1221765",
    "final_x": "3665428.29716",
    "final_y": "521162.099129",
    "longitude": "-90.11916575166714",
    "latitude": "29.92749296715368",
    "geocoded_column": {
      "latitude": "29.92749296715368",
      "longitude": "-90.11916575166714"
    }
  },
  {
    "service_request": "2025-1221764",
    "request_type": "Trash/Recycling",
    "request_reason": "Repair Trash Cart",
    "date_created": "2025-08-26T19:12:50.000",
    "date_modified": "2025-08-26T19:12:52.000",
    "request_status": "Pending",
    "responsible_agency": "Department of Sanitation",
    "final_address": "1401 State St",
    "address_councildis": "A",
    "status": "Assigned to Contractor",
    "contractor": "IV Waste",
    "rowid": "1221764",
    "final_x": "3665428.29716",
    "final_y": "521162.099129",
    "longitude": "-90.11916575166714",
    "latitude": "29.92749296715368",
    "geocoded_column": {
      "latitude": "29.92749296715368",
      "longitude": "-90.11916575166714"
    }
  },
  {
    "service_request": "2025-1221763",
    "request_type": "Abandoned Vehicles",
    "request_reason": "Abandoned/Junk Vehicles",
    "date_created": "2025-08-26T19:11:55.000",
    "date_modified": "2025-08-26T19:11:56.000",
    "request_status": "Pending",
    "responsible_agency": "Department of Public Works",
    "final_address": "2457 Royal St",
    "address_councildis": "C",
    "status": "Pending",
    "rowid": "1221763",
    "final_x": "3686374.99247",
    "final_y": "534994.20391",
    "longitude": "-90.05255426284135",
    "latitude": "29.964899628249356",
    "geocoded_column": {
      "latitude": "29.964899628249356",
      "longitude": "-90.05255426284135"
    }
  },
  {
    "service_request": "2025-1221762",
    "request_type": "Trash/Recycling",
    "request_reason": "Request a Large Item Pick Up",
    "date_created": "2025-08-26T19:11:39.000",
    "date_modified": "2025-08-26T19:11:41.000",
    "request_status": "Pending",
    "responsible_agency": "Department of Sanitation",
    "final_address": "7721 Alabama St",
    "address_councildis": "D",
    "status": "Assigned to Contractor",
    "contractor": "Waste Pro",
    "rowid": "1221762",
    "final_x": "3694833.8689",
    "final_y": "558921.358492",
    "longitude": "-90.02497902065419",
    "latitude": "30.030427819723226",
    "geocoded_column": {
      "latitude": "30.030427819723226",
      "longitude": "-90.02497902065419"
    }
  },
  {
    "service_request": "2025-1221761",
    "request_type": "Trash/Recycling",
    "request_reason": "Request a Large Item Pick Up",
    "date_created": "2025-08-26T19:01:36.000",
    "date_modified": "2025-08-26T19:01:43.000",
    "request_status": "Pending",
    "responsible_agency": "Department of Sanitation",
    "final_address": "7734 Alabama St",
    "address_councildis": "D",
    "status": "Assigned to Contractor",
    "contractor": "Waste Pro",
    "rowid": "1221761",
    "final_x": "3694721.26378",
    "final_y": "558994.888412",
    "longitude": "-90.02533220016726",
    "latitude": "30.030633533829487",
    "geocoded_column": {
      "latitude": "30.030633533829487",
      "longitude": "-90.02533220016726"
    }
  },
  {
    "service_request": "2025-1221760",
    "request_type": "Trash/Recycling",
    "request_reason": "MIssed Recycling Pick-Up",
    "date_created": "2025-08-26T18:53:09.000",
    "date_modified": "2025-08-26T18:53:10.000",
    "request_status": "Pending",
    "responsible_agency": "Department of Sanitation",
    "final_address": "222 Bermuda St",
    "address_councildis": "C",
    "status": "Assigned to Contractor",
    "contractor": "Richards Disposal",
    "rowid": "1221760",
    "final_x": "3686189.28252",
    "final_y": "530959.197314",
    "longitude": "-90.05328306967309",
    "latitude": "29.953810456675818",
    "geocoded_column": {
      "latitude": "29.953810456675818",
      "longitude": "-90.05328306967309"
    }
  },
  {
    "service_request": "2025-1221759",
    "request_type": "Trash/Recycling",
    "request_reason": "Replace Recycling Cart",
    "date_created": "2025-08-26T18:51:16.000",
    "date_modified": "2025-08-26T18:51:18.000",
    "request_status": "Pending",
    "responsible_agency": "Department of Sanitation",
    "final_address": "5824 Vicksburg St",
    "address_councildis": "A",
    "status": "Pending",
    "rowid": "1221759",
    "final_x": "3668675.821",
    "final_y": "546143.894224",
    "longitude": "-90.10807080983886",
    "latitude": "29.996089611606706",
    "geocoded_column": {
      "latitude": "29.996089611606706",
      "longitude": "-90.10807080983886"
    }
  },
  {
    "service_request": "2025-1221758",
    "request_type": "Trash/Recycling",
    "request_reason": "Request a Large Item Pick Up",
    "date_created": "2025-08-26T18:41:45.000",
    "date_modified": "2025-08-26T18:41:47.000",
    "request_status": "Pending",
    "responsible_agency": "Department of Sanitation",
    "final_address": "1026 Brooklyn Ave",
    "address_councildis": "C",
    "status": "Assigned to Contractor",
    "contractor": "Richards Disposal",
    "rowid": "1221758",
    "final_x": "3686245.9663",
    "final_y": "527641.660863",
    "longitude": "-90.0532211153962",
    "latitude": "29.944686620431273",
    "geocoded_column": {
      "latitude": "29.944686620431273",
      "longitude": "-90.0532211153962"
    }
  },
  {
    "service_request": "2025-1221757",
    "request_type": "Trash/Recycling",
    "request_reason": "Replace Recycling Cart",
    "date_created": "2025-08-26T18:38:48.000",
    "date_modified": "2025-08-26T18:38:51.000",
    "request_status": "Pending",
    "responsible_agency": "Department of Sanitation",
    "final_address": "7630 Jeannette Street",
    "address_councildis": "A",
    "status": "Pending",
    "rowid": "1221757",
    "final_x": "3663814.45562",
    "final_y": "527996.165183",
    "longitude": "-90.12403259266694",
    "latitude": "29.94633140081577",
    "geocoded_column": {
      "latitude": "29.94633140081577",
      "longitude": "-90.12403259266694"
    }
  },
  {
    "service_request": "2025-1221756",
    "request_type": "Property Maintenance",
    "request_reason": "Property Maintenance",
    "date_created": "2025-08-26T18:25:38.000",
    "date_modified": "2025-08-26T18:25:40.000",
    "request_status": "Pending",
    "responsible_agency": "Department of Code Enforcement",
    "final_address": "11041 Yardley Rd",
    "address_councildis": "E",
    "status": "Pending",
    "rowid": "1221756",
    "final_x": "3712110.29182",
    "final_y": "563868.387425",
    "longitude": "-89.97019990043422",
    "latitude": "30.04347644487705",
    "geocoded_column": {
      "latitude": "30.04347644487705",
      "longitude": "-89.97019990043422"
    }
  },
  {
    "service_request": "2025-1221755",
    "request_type": "Traffic Signals",
    "request_reason": "Traffic Signal Malfunctioning or Damaged",
    "date_created": "2025-08-26T18:22:30.000",
    "date_modified": "2025-08-26T18:22:32.000",
    "request_status": "Pending",
    "responsible_agency": "Department of Public Works",
    "final_address": "5635 Pratt Dr",
    "address_councildis": "D",
    "status": "Pending",
    "rowid": "1221755",
    "final_x": "3680406.9684",
    "final_y": "553350.517335",
    "longitude": "-90.07076216689326",
    "latitude": "30.01555510246341",
    "geocoded_column": {
      "latitude": "30.01555510246341",
      "longitude": "-90.07076216689326"
    }
  },
  {
    "service_request": "2025-1221754",
    "request_type": "Safety & Permits",
    "request_reason": "Licenses & Permits",
    "date_created": "2025-08-26T18:22:28.000",
    "date_modified": "2025-08-26T18:22:31.000",
    "request_status": "Pending",
    "responsible_agency": "Safety and Permits",
    "final_address": "2017 Marais St A",
    "address_councildis": "C",
    "status": "Pending",
    "rowid": "1221754",
    "final_x": "3684308.51119",
    "final_y": "536640.726215",
    "longitude": "-90.05902224547503",
    "latitude": "29.969490345732055",
    "geocoded_column": {
      "latitude": "29.969490345732055",
      "longitude": "-90.05902224547503"
    }
  },
  {
    "service_request": "2025-1221753",
    "request_type": "Trash/Recycling",
    "request_reason": "Order Trash Cart",
    "date_created": "2025-08-26T18:11:58.000",
    "date_modified": "2025-08-26T18:12:00.000",
    "request_status": "Pending",
    "responsible_agency": "Department of Sanitation",
    "final_address": "5648 Elysian Fields Ave",
    "address_councildis": "D",
    "status": "Assigned to Contractor",
    "contractor": "IV Waste",
    "rowid": "1221753",
    "final_x": "3683440.14108",
    "final_y": "553709.972439",
    "longitude": "-90.06116613536402",
    "latitude": "30.016451226245632",
    "geocoded_column": {
      "latitude": "30.016451226245632",
      "longitude": "-90.06116613536402"
    }
  },
  {
    "service_request": "2025-1221752",
    "request_type": "Trash/Recycling",
    "request_reason": "Missed Trash Pick-Up",
    "date_created": "2025-08-26T18:08:21.000",
    "date_modified": "2025-08-26T18:08:23.000",
    "request_status": "Pending",
    "responsible_agency": "Department of Sanitation",
    "final_address": "13021 Ashland Dr",
    "address_councildis": "E",
    "status": "Assigned to Contractor",
    "contractor": "Waste Pro",
    "rowid": "1221752",
    "final_x": "3717660.91538",
    "final_y": "567453.531684",
    "longitude": "-89.95252123858113",
    "latitude": "30.053151390421018",
    "geocoded_column": {
      "latitude": "30.053151390421018",
      "longitude": "-89.95252123858113"
    }
  },
  {
    "service_request": "2025-1221751",
    "request_type": "Trash/Recycling",
    "request_reason": "Request a Large Item Pick Up",
    "date_created": "2025-08-26T18:03:15.000",
    "date_modified": "2025-08-26T18:03:16.000",
    "request_status": "Pending",
    "responsible_agency": "Department of Sanitation",
    "final_address": "920 Hagan St",
    "address_councildis": "A",
    "status": "Assigned to Contractor",
    "contractor": "IV Waste",
    "rowid": "1221751",
    "final_x": "3675261.80865",
    "final_y": "539200.83489",
    "longitude": "-90.087504609329",
    "latitude": "29.9768033140856",
    "geocoded_column": {
      "latitude": "29.9768033140856",
      "longitude": "-90.087504609329"
    }
  },
  {
    "service_request": "2025-1221750",
    "request_type": "Drainage",
    "request_reason": "Ditch and Culvert Maintenance",
    "date_created": "2025-08-26T17:59:44.000",
    "date_modified": "2025-08-26T17:59:46.000",
    "request_status": "Pending",
    "responsible_agency": "Department of Public Works",
    "final_address": "2525 Lavender St",
    "address_councildis": "D",
    "status": "Pending",
    "rowid": "1221750",
    "final_x": "3686568.75324",
    "final_y": "546925.716753",
    "longitude": "-90.05152087842443",
    "latitude": "29.997701113490052",
    "geocoded_column": {
      "latitude": "29.997701113490052",
      "longitude": "-90.05152087842443"
    }
  },
  {
    "service_request": "2025-1221749",
    "request_type": "Property Maintenance",
    "request_reason": "Property Maintenance",
    "date_created": "2025-08-26T17:52:29.000",
    "date_modified": "2025-08-26T17:52:30.000",
    "request_status": "Pending",
    "responsible_agency": "Department of Code Enforcement",
    "final_address": "1717 Jourdan Ave",
    "address_councildis": "E",
    "status": "Pending",
    "rowid": "1221749",
    "final_x": "3695763.31715",
    "final_y": "536915.977224",
    "longitude": "-90.02283726285056",
    "latitude": "29.969891934475903",
    "geocoded_column": {
      "latitude": "29.969891934475903",
      "longitude": "-90.02283726285056"
    }
  },
  {
    "service_request": "2025-1221748",
    "request_type": "Trash/Recycling",
    "request_reason": "Repair Recycling Cart",
    "date_created": "2025-08-26T17:51:34.000",
    "date_modified": "2025-08-26T17:51:36.000",
    "request_status": "Pending",
    "responsible_agency": "Department of Sanitation",
    "final_address": "1207 State St",
    "address_councildis": "A",
    "status": "Pending",
    "rowid": "1221748",
    "final_x": "3665229.24973",
    "final_y": "520579.258232",
    "longitude": "-90.11981358368317",
    "latitude": "29.92589613634673",
    "geocoded_column": {
      "latitude": "29.92589613634673",
      "longitude": "-90.11981358368317"
    }
  },
  {
    "service_request": "2025-1221747",
    "request_type": "Trash/Recycling",
    "request_reason": "Illegal Dumping",
    "date_created": "2025-08-26T17:43:16.000",
    "date_modified": "2025-08-26T17:43:17.000",
    "request_status": "Pending",
    "responsible_agency": "Department of Sanitation",
    "final_address": "3203 Kabel Dr",
    "address_councildis": "C",
    "status": "Pending",
    "rowid": "1221747",
    "final_x": "3700521.0858",
    "final_y": "519461.245815",
    "longitude": "-90.00844924310202",
    "latitude": "29.921747084156443",
    "geocoded_column": {
      "latitude": "29.921747084156443",
      "longitude": "-90.00844924310202"
    }
  },
  {
    "service_request": "2025-1221746",
    "request_type": "Trash/Recycling",
    "request_reason": "Request a Large Item Pick Up",
    "date_created": "2025-08-26T17:42:12.000",
    "date_modified": "2025-08-26T17:42:14.000",
    "request_status": "Pending",
    "responsible_agency": "Department of Sanitation",
    "final_address": "1235 Elysian Fields Ave",
    "address_councildis": "C",
    "status": "Assigned to Contractor",
    "contractor": "IV Waste",
    "rowid": "1221746",
    "final_x": "3685067.56636",
    "final_y": "536961.939144",
    "longitude": "-90.05661378786662",
    "latitude": "29.97035033628305",
    "geocoded_column": {
      "latitude": "29.97035033628305",
      "longitude": "-90.05661378786662"
    }
  },
  {
    "service_request": "2025-1221745",
    "request_type": "Trash/Recycling",
    "request_reason": "Request a Large Item Pick Up",
    "date_created": "2025-08-26T17:41:22.000",
    "date_modified": "2025-08-26T17:41:24.000",
    "request_status": "Pending",
    "responsible_agency": "Department of Sanitation",
    "final_address": "512 S Norman C Francis Prkwy",
    "address_councildis": "B",
    "status": "Assigned to Contractor",
    "contractor": "IV Waste",
    "rowid": "1221745",
    "final_x": "3672268.83463",
    "final_y": "535259.591814",
    "longitude": "-90.09709167916026",
    "latitude": "29.966055364882106",
    "geocoded_column": {
      "latitude": "29.966055364882106",
      "longitude": "-90.09709167916026"
    }
  },
  {
    "service_request": "2025-1221744",
    "request_type": "Drainage",
    "request_reason": "Ditch and Culvert Maintenance",
    "date_created": "2025-08-26T17:38:37.000",
    "date_modified": "2025-08-26T17:38:39.000",
    "request_status": "Pending",
    "responsible_agency": "Department of Public Works",
    "final_address": "4616 Conti St",
    "address_councildis": "A",
    "status": "Pending",
    "rowid": "1221744",
    "final_x": "3669959.36052",
    "final_y": "540599.272779",
    "longitude": "-90.10420407557146",
    "latitude": "29.98080600091503",
    "geocoded_column": {
      "latitude": "29.98080600091503",
      "longitude": "-90.10420407557146"
    }
  },
  {
    "service_request": "2025-1221743",
    "request_type": "Trash/Recycling",
    "request_reason": "Request a Large Item Pick Up",
    "date_created": "2025-08-26T17:15:46.000",
    "date_modified": "2025-08-26T17:15:47.000",
    "request_status": "Pending",
    "responsible_agency": "Department of Sanitation",
    "final_address": "6951 Louisville St",
    "address_councildis": "A",
    "status": "Assigned to Contractor",
    "contractor": "IV Waste",
    "rowid": "1221743",
    "final_x": "3668428.18452",
    "final_y": "553796.663127",
    "longitude": "-90.10859468622132",
    "latitude": "30.017139333909427",
    "geocoded_column": {
      "latitude": "30.017139333909427",
      "longitude": "-90.10859468622132"
    }
  },
  {
    "service_request": "2025-1221742",
    "request_type": "Roads and Streets",
    "request_reason": "Pothole",
    "date_created": "2025-08-26T17:12:43.000",
    "date_modified": "2025-08-26T17:12:45.000",
    "request_status": "Pending",
    "responsible_agency": "Department of Public Works",
    "final_address": "2010 Chippewa St",
    "address_councildis": "B",
    "status": "Pending",
    "rowid": "1221742",
    "final_x": "3680378.26312",
    "final_y": "521342.119673",
    "longitude": "-90.0719661447872",
    "latitude": "29.927543911102457",
    "geocoded_column": {
      "latitude": "29.927543911102457",
      "longitude": "-90.0719661447872"
    }
  },
  {
    "service_request": "2025-1221741",
    "request_type": "Property Maintenance",
    "request_reason": "Property Maintenance",
    "date_created": "2025-08-26T17:00:52.000",
    "date_modified": "2025-08-26T17:00:53.000",
    "request_status": "Pending",
    "responsible_agency": "Department of Code Enforcement",
    "final_address": "4126 Fiesta St",
    "address_councildis": "C",
    "status": "Pending",
    "rowid": "1221741",
    "final_x": "3699122.45341",
    "final_y": "522362.713082",
    "longitude": "-90.01275854704109",
    "latitude": "29.929769516471875",
    "geocoded_column": {
      "latitude": "29.929769516471875",
      "longitude": "-90.01275854704109"
    }
  },
  {
    "service_request": "2025-1221740",
    "request_type": "Property Maintenance",
    "request_reason": "Property Maintenance",
    "date_created": "2025-08-26T16:58:46.000",
    "date_modified": "2025-08-26T16:58:48.000",
    "request_status": "Pending",
    "responsible_agency": "Department of Code Enforcement",
    "final_address": "136 S Norman C Francis Prkwy",
    "address_councildis": "B",
    "status": "Pending",
    "rowid": "1221740",
    "final_x": "3673083.91707",
    "final_y": "536341.220231",
    "longitude": "-90.09448073497471",
    "latitude": "29.969005273387875",
    "geocoded_column": {
      "latitude": "29.969005273387875",
      "longitude": "-90.09448073497471"
    }
  },
  {
    "service_request": "2025-1221739",
    "request_type": "Trash/Recycling",
    "request_reason": "Request a Large Item Pick Up",
    "date_created": "2025-08-26T16:55:02.000",
    "date_modified": "2025-08-26T16:55:04.000",
    "request_status": "Pending",
    "responsible_agency": "Department of Sanitation",
    "final_address": "6127 N Galvez St",
    "address_councildis": "E",
    "status": "Assigned to Contractor",
    "contractor": "Waste Pro",
    "rowid": "1221739",
    "final_x": "3701141.90397",
    "final_y": "536833.2402",
    "longitude": "-90.0058543150392",
    "latitude": "29.9694941970473",
    "geocoded_column": {
      "latitude": "29.9694941970473",
      "longitude": "-90.0058543150392"
    }
  },
  {
    "service_request": "2025-1221738",
    "request_type": "Trash/Recycling",
    "request_reason": "Request a Large Item Pick Up",
    "date_created": "2025-08-26T16:52:25.000",
    "date_modified": "2025-08-26T16:52:27.000",
    "request_status": "Pending",
    "responsible_agency": "Department of Sanitation",
    "final_address": "3709 Lang St",
    "address_councildis": "C",
    "status": "Assigned to Contractor",
    "contractor": "Richards Disposal",
    "rowid": "1221738",
    "final_x": "3701889.56074",
    "final_y": "517440.46655",
    "longitude": "-90.00420357393388",
    "latitude": "29.916147055418573",
    "geocoded_column": {
      "latitude": "29.916147055418573",
      "longitude": "-90.00420357393388"
    }
  },
  {
    "service_request": "2025-1221737",
    "request_type": "Roads and Streets",
    "request_reason": "Sidewalk Damaged or Missing",
    "date_created": "2025-08-26T16:48:10.000",
    "date_modified": "2025-08-26T16:48:12.000",
    "request_status": "Pending",
    "responsible_agency": "Department of Public Works",
    "final_address": "425 Burgundy St",
    "address_councildis": "C",
    "status": "Pending",
    "rowid": "1221737",
    "final_x": "3681127.74869",
    "final_y": "532413.001603",
    "longitude": "-90.06921464798965",
    "latitude": "29.95796243145082",
    "geocoded_column": {
      "latitude": "29.95796243145082",
      "longitude": "-90.06921464798965"
    }
  },
  {
    "service_request": "2025-1221736",
    "request_type": "Streetlights",
    "request_reason": "Streetlight Knocked Down/Leaning",
    "date_created": "2025-08-26T16:47:08.000",
    "date_modified": "2025-08-26T16:47:10.000",
    "request_status": "Pending",
    "responsible_agency": "Department of Public Works",
    "final_address": "6115 Milne Blvd",
    "address_councildis": "A",
    "status": "Pending",
    "contractor": "Legacy Professional Services",
    "rowid": "1221736",
    "final_x": "3667229.19002",
    "final_y": "548230.833938",
    "longitude": "-90.11257038916918",
    "latitude": "30.001870431278846",
    "geocoded_column": {
      "latitude": "30.001870431278846",
      "longitude": "-90.11257038916918"
    }
  },
  {
    "service_request": "2025-1221735",
    "request_type": "Roads and Streets",
    "request_reason": "Pothole",
    "date_created": "2025-08-26T16:44:12.000",
    "date_modified": "2025-08-26T16:44:14.000",
    "request_status": "Pending",
    "responsible_agency": "Department of Public Works",
    "final_address": "3301 Kansas St",
    "address_councildis": "C",
    "status": "Pending",
    "rowid": "1221735",
    "final_x": "3694400.69738",
    "final_y": "520423.87468",
    "longitude": "-90.02773397935317",
    "latitude": "29.924587156080204",
    "geocoded_column": {
      "latitude": "29.924587156080204",
      "longitude": "-90.02773397935317"
    }
  },
  {
    "service_request": "2025-1221734",
    "request_type": "Trash/Recycling",
    "request_reason": "Request a Large Item Pick Up",
    "date_created": "2025-08-26T16:41:39.000",
    "date_modified": "2025-08-26T16:41:45.000",
    "request_status": "Pending",
    "responsible_agency": "Department of Sanitation",
    "final_address": "5025 Royal St",
    "address_councildis": "E",
    "status": "Assigned to Contractor",
    "contractor": "Waste Pro",
    "rowid": "1221734",
    "final_x": "3695759.75677",
    "final_y": "532766.21466",
    "longitude": "-90.0229983737885",
    "latitude": "29.958481670876097",
    "geocoded_column": {
      "latitude": "29.958481670876097",
      "longitude": "-90.0229983737885"
    }
  },
  {
    "service_request": "2025-1221733",
    "request_type": "Trash/Recycling",
    "request_reason": "Illegal Dumping",
    "date_created": "2025-08-26T16:39:09.000",
    "date_modified": "2025-08-26T16:39:11.000",
    "request_status": "Pending",
    "responsible_agency": "Department of Sanitation",
    "final_address": "N GALVEZ ST & A P TUREAUD AVE",
    "address_councildis": "D",
    "status": "Pending",
    "rowid": "1221733",
    "final_x": "3681673.2",
    "final_y": "539739.08",
    "longitude": "-90.06723665224224",
    "latitude": "29.978090068602576",
    "geocoded_column": {
      "latitude": "29.978090068602576",
      "longitude": "-90.06723665224224"
    }
  },
  {
    "service_request": "2025-1221732",
    "request_type": "Mosquito, Termite & Rodent Control",
    "request_reason": "Rodent Complaint (Mice & Rats)",
    "date_created": "2025-08-26T16:37:39.000",
    "date_modified": "2025-08-26T16:37:41.000",
    "request_status": "Pending",
    "responsible_agency": "Mosquito, Termite & Rodent Control Board",
    "final_address": "4616 Conti St Apt 1A",
    "address_councildis": "A",
    "status": "Pending",
    "rowid": "1221732",
    "final_x": "3669967.13409",
    "final_y": "540607.895755",
    "longitude": "-90.10417923098728",
    "latitude": "29.980829481885753",
    "geocoded_column": {
      "latitude": "29.980829481885753",
      "longitude": "-90.10417923098728"
    }
  },
  {
    "service_request": "2025-1221731",
    "request_type": "Trash/Recycling",
    "request_reason": "Order Trash Cart",
    "date_created": "2025-08-26T16:35:55.000",
    "date_modified": "2025-08-26T16:35:57.000",
    "request_status": "Pending",
    "responsible_agency": "Department of Sanitation",
    "final_address": "1014 Gordon St",
    "address_councildis": "E",
    "status": "Assigned to Contractor",
    "contractor": "Waste Pro",
    "rowid": "1221731",
    "final_x": "3699013.61424",
    "final_y": "533181.231108",
    "longitude": "-90.01270851517644",
    "latitude": "29.959520103458587",
    "geocoded_column": {
      "latitude": "29.959520103458587",
      "longitude": "-90.01270851517644"
    }
  },
  {
    "service_request": "2025-1221730",
    "request_type": "Safety & Permits",
    "request_reason": "Zoning Enforcement",
    "date_created": "2025-08-26T16:31:13.000",
    "date_modified": "2025-08-26T16:31:14.000",
    "request_status": "Pending",
    "responsible_agency": "Safety and Permits",
    "final_address": "1918 Iberville St",
    "address_councildis": "B",
    "status": "Pending",
    "rowid": "1221730",
    "final_x": "3677915.75419",
    "final_y": "533634.674501",
    "longitude": "-90.0793150056009",
    "latitude": "29.961418664063704",
    "geocoded_column": {
      "latitude": "29.961418664063704",
      "longitude": "-90.0793150056009"
    }
  },
  {
    "service_request": "2025-1221729",
    "request_type": "Trash/Recycling",
    "request_reason": "Illegal Dumping",
    "date_created": "2025-08-26T16:30:49.000",
    "date_modified": "2025-08-26T16:30:51.000",
    "request_status": "Pending",
    "responsible_agency": "Department of Sanitation",
    "final_address": "13801 Old Gentilly Rd",
    "address_councildis": "E",
    "status": "Pending",
    "rowid": "1221729",
    "final_x": "3728092.41152",
    "final_y": "558025.520283",
    "longitude": "-89.91991816205002",
    "latitude": "30.02687850899999",
    "geocoded_column": {
      "latitude": "30.02687850899999",
      "longitude": "-89.91991816205002"
    }
  },
  {
    "service_request": "2025-1221728",
    "request_type": "Trash/Recycling",
    "request_reason": "Replace Trash Cart",
    "date_created": "2025-08-26T16:24:00.000",
    "date_modified": "2025-08-26T16:24:02.000",
    "request_status": "Pending",
    "responsible_agency": "Department of Sanitation",
    "final_address": "828 Baronne St",
    "address_councildis": "B",
    "status": "Assigned to Contractor",
    "contractor": "IV Waste",
    "rowid": "1221728",
    "final_x": "3679580.80898",
    "final_y": "527970.005695",
    "longitude": "-90.07425360914912",
    "latitude": "29.94579252168469",
    "geocoded_column": {
      "latitude": "29.94579252168469",
      "longitude": "-90.07425360914912"
    }
  },
  {
    "service_request": "2025-1221727",
    "request_type": "Trash/Recycling",
    "request_reason": "Request a Large Item Pick Up",
    "date_created": "2025-08-26T16:17:54.000",
    "date_modified": "2025-08-26T16:50:47.000",
    "request_status": "Pending",
    "responsible_agency": "Department of Sanitation",
    "final_address": "2524 Elder St",
    "address_councildis": "D",
    "status": "Assigned to Contractor",
    "contractor": "IV Waste",
    "rowid": "1221727",
    "final_x": "3686799.83695",
    "final_y": "545710.16648",
    "longitude": "-90.0508338708151",
    "latitude": "29.994351677557937",
    "geocoded_column": {
      "latitude": "29.994351677557937",
      "longitude": "-90.0508338708151"
    }
  },
  {
    "service_request": "2025-1221726",
    "request_type": "Trash/Recycling",
    "request_reason": "Request a Large Item Pick Up",
    "date_created": "2025-08-26T16:17:27.000",
    "date_modified": "2025-08-26T16:17:28.000",
    "request_status": "Pending",
    "responsible_agency": "Department of Sanitation",
    "final_address": "8637 Belfast St",
    "address_councildis": "A",
    "status": "Assigned to Contractor",
    "contractor": "IV Waste",
    "rowid": "1221726",
    "final_x": "3664067.7906",
    "final_y": "533799.280517",
    "longitude": "-90.12303919054165",
    "latitude": "29.962280731559844",
    "geocoded_column": {
      "latitude": "29.962280731559844",
      "longitude": "-90.12303919054165"
    }
  },
  {
    "service_request": "2025-1221725",
    "request_type": "Safety & Permits",
    "request_reason": "Zoning Enforcement",
    "date_created": "2025-08-26T16:14:11.000",
    "date_modified": "2025-08-26T16:14:12.000",
    "request_status": "Pending",
    "responsible_agency": "Safety and Permits",
    "final_address": "708 Ursulines Ave",
    "address_councildis": "C",
    "status": "Pending",
    "rowid": "1221725",
    "final_x": "3683316.36706",
    "final_y": "533682.225413",
    "longitude": "-90.06225915829738",
    "latitude": "29.96138578955111",
    "geocoded_column": {
      "latitude": "29.96138578955111",
      "longitude": "-90.06225915829738"
    }
  },
  {
    "service_request": "2025-1221724",
    "request_type": "Trash/Recycling",
    "request_reason": "Repair Trash Cart",
    "date_created": "2025-08-26T16:12:35.000",
    "date_modified": "2025-08-26T16:12:38.000",
    "request_status": "Pending",
    "responsible_agency": "Department of Sanitation",
    "final_address": "4721 Touro St",
    "address_councildis": "D",
    "status": "Assigned to Contractor",
    "contractor": "IV Waste",
    "rowid": "1221724",
    "final_x": "3683162.7357",
    "final_y": "550078.838228",
    "longitude": "-90.06216989221768",
    "latitude": "30.00647539183016",
    "geocoded_column": {
      "latitude": "30.00647539183016",
      "longitude": "-90.06216989221768"
    }
  },
  {
    "service_request": "2025-1221723",
    "request_type": "Trash/Recycling",
    "request_reason": "Request a Large Item Pick Up",
    "date_created": "2025-08-26T16:05:49.000",
    "date_modified": "2025-08-26T16:05:52.000",
    "request_status": "Pending",
    "responsible_agency": "Department of Sanitation",
    "final_address": "8830 Dinkins St",
    "address_councildis": "E",
    "status": "Assigned to Contractor",
    "contractor": "Waste Pro",
    "rowid": "1221723",
    "final_x": "3704605.3283",
    "final_y": "563304.969248",
    "longitude": "-89.99393940963023",
    "latitude": "30.042170622804253",
    "geocoded_column": {
      "latitude": "30.042170622804253",
      "longitude": "-89.99393940963023"
    }
  },
  {
    "service_request": "2025-1221722",
    "request_type": "Trash/Recycling",
    "request_reason": "Request a Large Item Pick Up",
    "date_created": "2025-08-26T16:05:47.000",
    "date_modified": "2025-08-26T16:05:49.000",
    "request_status": "Pending",
    "responsible_agency": "Department of Sanitation",
    "final_address": "433 Bouny St",
    "address_councildis": "C",
    "status": "Assigned to Contractor",
    "contractor": "Richards Disposal",
    "rowid": "1221722",
    "final_x": "3686034.59894",
    "final_y": "529797.584513",
    "longitude": "-90.05381245353205",
    "latitude": "29.950621168878417",
    "geocoded_column": {
      "latitude": "29.950621168878417",
      "longitude": "-90.05381245353205"
    }
  },
  {
    "service_request": "2025-1221721",
    "request_type": "Trash/Recycling",
    "request_reason": "Request a Large Item Pick Up",
    "date_created": "2025-08-26T16:04:57.000",
    "date_modified": "2025-08-26T16:04:59.000",
    "request_status": "Pending",
    "responsible_agency": "Department of Sanitation",
    "final_address": "4758 Charlmark Dr",
    "address_councildis": "E",
    "status": "Assigned to Contractor",
    "contractor": "Waste Pro",
    "rowid": "1221721",
    "final_x": "3711336.68178",
    "final_y": "556142.57129",
    "longitude": "-89.97293470141582",
    "latitude": "30.022258801712216",
    "geocoded_column": {
      "latitude": "30.022258801712216",
      "longitude": "-89.97293470141582"
    }
  },
  {
    "service_request": "2025-1221720",
    "request_type": "General Services",
    "request_reason": "General Service Request",
    "date_created": "2025-08-26T15:59:54.000",
    "date_modified": "2025-08-26T15:59:55.000",
    "request_status": "Pending",
    "responsible_agency": "Orleans Parish Communication District",
    "final_address": "1738 Louisiana Ave",
    "address_councildis": "B",
    "status": "Pending",
    "rowid": "1221720",
    "final_x": "3673823.76513",
    "final_y": "522127.897722",
    "longitude": "-90.09263026865555",
    "latitude": "29.92990131817358",
    "geocoded_column": {
      "latitude": "29.92990131817358",
      "longitude": "-90.09263026865555"
    }
  },
  {
    "service_request": "2025-1221719",
    "request_type": "Trash/Recycling",
    "request_reason": "Return Trash Cart",
    "date_created": "2025-08-26T15:59:45.000",
    "date_modified": "2025-08-26T15:59:47.000",
    "request_status": "Pending",
    "responsible_agency": "Department of Sanitation",
    "final_address": "4948 Chrysler St",
    "address_councildis": "E",
    "status": "Assigned to Contractor",
    "contractor": "Waste Pro",
    "rowid": "1221719",
    "final_x": "3715130.14245",
    "final_y": "557801.687899",
    "longitude": "-89.96088564470875",
    "latitude": "30.026696331180947",
    "geocoded_column": {
      "latitude": "30.026696331180947",
      "longitude": "-89.96088564470875"
    }
  },
  {
    "service_request": "2025-1221718",
    "request_type": "Trash/Recycling",
    "request_reason": "Request a Large Item Pick Up",
    "date_created": "2025-08-26T15:56:57.000",
    "date_modified": "2025-08-26T15:56:59.000",
    "request_status": "Pending",
    "responsible_agency": "Department of Sanitation",
    "final_address": "3620 Rue Mignon",
    "address_councildis": "C",
    "status": "Assigned to Contractor",
    "contractor": "Richards Disposal",
    "rowid": "1221718",
    "final_x": "3703378.41111",
    "final_y": "517270.811381",
    "longitude": "-89.99951044240807",
    "latitude": "29.915632990983504",
    "geocoded_column": {
      "latitude": "29.915632990983504",
      "longitude": "-89.99951044240807"
    }
  },
  {
    "service_request": "2025-1221717",
    "request_type": "Trash/Recycling",
    "request_reason": "Request a Large Item Pick Up",
    "date_created": "2025-08-26T15:55:06.000",
    "date_modified": "2025-08-26T15:55:10.000",
    "request_status": "Pending",
    "responsible_agency": "Department of Sanitation",
    "final_address": "7610 Rochon Ave",
    "address_councildis": "E",
    "status": "Assigned to Contractor",
    "contractor": "Waste Pro",
    "rowid": "1221717",
    "final_x": "3718614.62655",
    "final_y": "571641.614696",
    "longitude": "-89.9493469647184",
    "latitude": "30.06463524211883",
    "geocoded_column": {
      "latitude": "30.06463524211883",
      "longitude": "-89.9493469647184"
    }
  },
  {
    "service_request": "2025-1221716",
    "request_type": "Trash/Recycling",
    "request_reason": "Return Recycling Cart",
    "date_created": "2025-08-26T15:52:34.000",
    "date_modified": "2025-08-26T15:52:36.000",
    "request_status": "Pending",
    "responsible_agency": "Department of Sanitation",
    "final_address": "1735 Delachaise St Apt 2A",
    "address_councildis": "B",
    "status": "Pending",
    "rowid": "1221716",
    "final_x": "3673607.49684",
    "final_y": "522027.253818",
    "longitude": "-90.09331643037814",
    "latitude": "29.92963101715997",
    "geocoded_column": {
      "latitude": "29.92963101715997",
      "longitude": "-90.09331643037814"
    }
  },
  {
    "service_request": "2025-1221715",
    "request_type": "Property Maintenance",
    "request_reason": "Property Maintenance",
    "date_created": "2025-08-26T15:52:10.000",
    "date_modified": "2025-08-26T15:52:12.000",
    "request_status": "Pending",
    "responsible_agency": "Department of Code Enforcement",
    "final_address": "1425 Jourdan Ave",
    "address_councildis": "E",
    "status": "Pending",
    "rowid": "1221715",
    "final_x": "3695462.00829",
    "final_y": "535812.608327",
    "longitude": "-90.02382864269406",
    "latitude": "29.966867534828893",
    "geocoded_column": {
      "latitude": "29.966867534828893",
      "longitude": "-90.02382864269406"
    }
  },
  {
    "service_request": "2025-1221714",
    "request_type": "Property Maintenance",
    "request_reason": "Property Maintenance",
    "date_created": "2025-08-26T15:51:04.000",
    "date_modified": "2025-08-26T15:51:06.000",
    "request_status": "Pending",
    "responsible_agency": "Department of Code Enforcement",
    "final_address": "1421 Jourdan Ave",
    "address_councildis": "E",
    "status": "Pending",
    "rowid": "1221714",
    "final_x": "3695444.82499",
    "final_y": "535781.308359",
    "longitude": "-90.02388403686648",
    "latitude": "29.966782010995537",
    "geocoded_column": {
      "latitude": "29.966782010995537",
      "longitude": "-90.02388403686648"
    }
  },
  {
    "service_request": "2025-1221713",
    "request_type": "Trash/Recycling",
    "request_reason": "Request a Large Item Pick Up",
    "date_created": "2025-08-26T15:49:26.000",
    "date_modified": "2025-08-26T15:51:33.000",
    "request_status": "Pending",
    "responsible_agency": "Department of Sanitation",
    "final_address": "3518 Franklin Ave",
    "address_councildis": "D",
    "status": "Assigned to Contractor",
    "contractor": "IV Waste",
    "rowid": "1221713",
    "final_x": "3687085.21961",
    "final_y": "545948.944784",
    "longitude": "-90.04992393805249",
    "latitude": "29.99499944609146",
    "geocoded_column": {
      "latitude": "29.99499944609146",
      "longitude": "-90.04992393805249"
    }
  },
  {
    "service_request": "2025-1221712",
    "request_type": "Trash/Recycling",
    "request_reason": "Request a Large Item Pick Up",
    "date_created": "2025-08-26T15:48:26.000",
    "date_modified": "2025-08-26T15:48:28.000",
    "request_status": "Pending",
    "responsible_agency": "Department of Sanitation",
    "final_address": "8 Yosemite Dr",
    "address_councildis": "C",
    "status": "Assigned to Contractor",
    "contractor": "Richards Disposal",
    "rowid": "1221712",
    "final_x": "3699487.83287",
    "final_y": "517836.860918",
    "longitude": "-90.01176989844953",
    "latitude": "29.917313389952753",
    "geocoded_column": {
      "latitude": "29.917313389952753",
      "longitude": "-90.01176989844953"
    }
  },
  {
    "service_request": "2025-1221711",
    "request_type": "Trash/Recycling",
    "request_reason": "Replace Trash Cart",
    "date_created": "2025-08-26T15:46:14.000",
    "date_modified": "2025-08-26T15:46:17.000",
    "request_status": "Pending",
    "responsible_agency": "Department of Sanitation",
    "final_address": "2405 Pauger St",
    "address_councildis": "D",
    "status": "Assigned to Contractor",
    "contractor": "IV Waste",
    "rowid": "1221711",
    "final_x": "3683725.29877",
    "final_y": "538497.560265",
    "longitude": "-90.06079895191895",
    "latitude": "29.974613815706302",
    "geocoded_column": {
      "latitude": "29.974613815706302",
      "longitude": "-90.06079895191895"
    }
  },
  {
    "service_request": "2025-1221710",
    "request_type": "Abandoned Vehicles",
    "request_reason": "Abandoned/Junk Vehicles",
    "date_created": "2025-08-26T15:45:43.000",
    "date_modified": "2025-08-26T15:49:13.000",
    "request_status": "Pending",
    "responsible_agency": "Department of Public Works",
    "final_address": "4015 Cleveland Ave",
    "address_councildis": "A",
    "status": "Pending",
    "rowid": "1221710",
    "final_x": "3671152.55054",
    "final_y": "537813.683336",
    "longitude": "-90.10053010476683",
    "latitude": "29.973111326752825",
    "geocoded_column": {
      "latitude": "29.973111326752825",
      "longitude": "-90.10053010476683"
    }
  },
  {
    "service_request": "2025-1221709",
    "request_type": "Trash/Recycling",
    "request_reason": "Repair Trash Cart",
    "date_created": "2025-08-26T15:40:11.000",
    "date_modified": "2025-08-26T15:42:55.000",
    "request_status": "Pending",
    "responsible_agency": "Department of Sanitation",
    "final_address": "839 Arabella St",
    "address_councildis": "A",
    "status": "Assigned to Contractor",
    "contractor": "IV Waste",
    "rowid": "1221709",
    "final_x": "3665931.68352",
    "final_y": "519232.506935",
    "longitude": "-90.1176413042715",
    "latitude": "29.92217251988764",
    "geocoded_column": {
      "latitude": "29.92217251988764",
      "longitude": "-90.1176413042715"
    }
  },
  {
    "service_request": "2025-1221708",
    "request_type": "Trash/Recycling",
    "request_reason": "Order Trash Cart",
    "date_created": "2025-08-26T15:37:47.000",
    "date_modified": "2025-08-26T15:37:49.000",
    "request_status": "Pending",
    "responsible_agency": "Department of Sanitation",
    "final_address": "2410 Freret St",
    "address_councildis": "B",
    "status": "Assigned to Contractor",
    "contractor": "IV Waste",
    "rowid": "1221708",
    "final_x": "3675077.71477",
    "final_y": "525880.728125",
    "longitude": "-90.08854305646594",
    "latitude": "29.940182984439563",
    "geocoded_column": {
      "latitude": "29.940182984439563",
      "longitude": "-90.08854305646594"
    }
  },
  {
    "service_request": "2025-1221707",
    "request_type": "Safety & Permits",
    "request_reason": "Zoning Enforcement",
    "date_created": "2025-08-26T15:36:25.000",
    "date_modified": "2025-08-26T15:36:27.000",
    "request_status": "Pending",
    "responsible_agency": "Safety and Permits",
    "final_address": "6600 Plaza Dr",
    "address_councildis": "E",
    "status": "Pending",
    "rowid": "1221707",
    "final_x": "3708850.27352",
    "final_y": "559325.824029",
    "longitude": "-89.98067232855801",
    "latitude": "30.03109243247626",
    "geocoded_column": {
      "latitude": "30.03109243247626",
      "longitude": "-89.98067232855801"
    }
  },
  {
    "service_request": "2025-1221706",
    "request_type": "Abandoned Vehicles",
    "request_reason": "Abandoned/Junk Vehicles",
    "date_created": "2025-08-26T15:35:12.000",
    "date_modified": "2025-08-26T15:35:15.000",
    "request_status": "Pending",
    "responsible_agency": "Department of Public Works",
    "final_address": "2651 Ursulines Ave",
    "address_councildis": "D",
    "status": "Pending",
    "rowid": "1221706",
    "final_x": "3677778.1531",
    "final_y": "538127.505225",
    "longitude": "-90.07959429060442",
    "latitude": "29.97377655795738",
    "geocoded_column": {
      "latitude": "29.97377655795738",
      "longitude": "-90.07959429060442"
    }
  },
  {
    "service_request": "2025-1221705",
    "request_type": "Parks & Parkways",
    "request_reason": "Request Grass Cutting Service (City Owned Property)",
    "date_created": "2025-08-26T15:34:17.000",
    "date_modified": "2025-08-26T15:34:18.000",
    "request_status": "Pending",
    "responsible_agency": "Department of Parks & Parkway",
    "final_address": "500 BLK Moss St",
    "address_councildis": "A",
    "status": "Pending",
    "rowid": "1221705",
    "final_x": "3673989.96662",
    "final_y": "538178.151122",
    "longitude": "-90.09155649633361",
    "latitude": "29.974029243754984",
    "geocoded_column": {
      "latitude": "29.974029243754984",
      "longitude": "-90.09155649633361"
    }
  },
  {
    "service_request": "2025-1221704",
    "request_type": "Trash/Recycling",
    "request_reason": "Request a Large Item Pick Up",
    "date_created": "2025-08-26T15:33:44.000",
    "date_modified": "2025-08-26T15:33:46.000",
    "request_status": "Pending",
    "responsible_agency": "Department of Sanitation",
    "final_address": "7425 Burke Ave",
    "address_councildis": "E",
    "status": "Assigned to Contractor",
    "contractor": "Waste Pro",
    "rowid": "1221704",
    "final_x": "3705755.10775",
    "final_y": "562463.595871",
    "longitude": "-89.99033686014303",
    "latitude": "30.039820174123054",
    "geocoded_column": {
      "latitude": "30.039820174123054",
      "longitude": "-89.99033686014303"
    }
  },
  {
    "service_request": "2025-1221703",
    "request_type": "Trash/Recycling",
    "request_reason": "Repair Recycling Cart",
    "date_created": "2025-08-26T15:28:06.000",
    "date_modified": "2025-08-26T15:28:08.000",
    "request_status": "Pending",
    "responsible_agency": "Department of Sanitation",
    "final_address": "6228 Music St",
    "address_councildis": "D",
    "status": "Pending",
    "rowid": "1221703",
    "final_x": "3685182.96073",
    "final_y": "556118.738522",
    "longitude": "-90.05557471654629",
    "latitude": "30.023021125700893",
    "geocoded_column": {
      "latitude": "30.023021125700893",
      "longitude": "-90.05557471654629"
    }
  },
  {
    "service_request": "2025-1221702",
    "request_type": "Abandoned Vehicles",
    "request_reason": "Abandoned/Junk Vehicles",
    "date_created": "2025-08-26T15:27:54.000",
    "date_modified": "2025-08-26T15:27:55.000",
    "request_status": "Pending",
    "responsible_agency": "Department of Public Works",
    "final_address": "2651 Ursulines Ave",
    "address_councildis": "D",
    "status": "Pending",
    "rowid": "1221702",
    "final_x": "3677778.1531",
    "final_y": "538127.505225",
    "longitude": "-90.07959429060442",
    "latitude": "29.97377655795738",
    "geocoded_column": {
      "latitude": "29.97377655795738",
      "longitude": "-90.07959429060442"
    }
  },
  {
    "service_request": "2025-1221701",
    "request_type": "Trash/Recycling",
    "request_reason": "Repair Trash Cart",
    "date_created": "2025-08-26T15:27:39.000",
    "date_modified": "2025-08-26T15:27:42.000",
    "request_status": "Pending",
    "responsible_agency": "Department of Sanitation",
    "final_address": "1006 State St",
    "address_councildis": "A",
    "status": "Assigned to Contractor",
    "contractor": "IV Waste",
    "rowid": "1221701",
    "final_x": "3664885.22253",
    "final_y": "519966.687416",
    "longitude": "-90.12092004075774",
    "latitude": "29.924221772965083",
    "geocoded_column": {
      "latitude": "29.924221772965083",
      "longitude": "-90.12092004075774"
    }
  },
  {
    "service_request": "2025-1221700",
    "request_type": "Abandoned Vehicles",
    "request_reason": "Abandoned/Junk Vehicles",
    "date_created": "2025-08-26T15:15:50.000",
    "date_modified": "2025-08-26T15:15:52.000",
    "request_status": "Pending",
    "responsible_agency": "Department of Public Works",
    "final_address": "8120 Breakwater Dr",
    "address_councildis": "A",
    "status": "Pending",
    "rowid": "1221700",
    "final_x": "3666034.03149",
    "final_y": "557877.811803",
    "longitude": "-90.11602227080414",
    "latitude": "30.028431193848046",
    "geocoded_column": {
      "latitude": "30.028431193848046",
      "longitude": "-90.11602227080414"
    }
  },
  {
    "service_request": "2025-1221698",
    "request_type": "Abandoned Vehicles",
    "request_reason": "Abandoned/Junk Vehicles",
    "date_created": "2025-08-26T15:14:57.000",
    "date_modified": "2025-08-26T15:14:59.000",
    "request_status": "Pending",
    "responsible_agency": "Department of Public Works",
    "final_address": "7311 Voyageur Dr",
    "address_councildis": "E",
    "status": "Pending",
    "rowid": "1221698",
    "final_x": "3726367.72947",
    "final_y": "569284.367142",
    "longitude": "-89.9249306141525",
    "latitude": "30.05789404519078",
    "geocoded_column": {
      "latitude": "30.05789404519078",
      "longitude": "-89.9249306141525"
    }
  },
  {
    "service_request": "2025-1221699",
    "request_type": "Abandoned Vehicles",
    "request_reason": "Abandoned/Junk Vehicles",
    "date_created": "2025-08-26T15:14:57.000",
    "date_modified": "2025-08-26T15:14:59.000",
    "request_status": "Pending",
    "responsible_agency": "Department of Public Works",
    "final_address": "7311 Voyageur Dr",
    "address_councildis": "E",
    "status": "Pending",
    "rowid": "1221699",
    "final_x": "3726367.72947",
    "final_y": "569284.367142",
    "longitude": "-89.9249306141525",
    "latitude": "30.05789404519078",
    "geocoded_column": {
      "latitude": "30.05789404519078",
      "longitude": "-89.9249306141525"
    }
  },
  {
    "service_request": "2025-1221697",
    "request_type": "Mosquito, Termite & Rodent Control",
    "request_reason": "Rodent Complaint (Mice & Rats)",
    "date_created": "2025-08-26T15:07:55.000",
    "date_modified": "2025-08-26T15:07:57.000",
    "request_status": "Pending",
    "responsible_agency": "Mosquito, Termite & Rodent Control Board",
    "final_address": "3801 Laurel St",
    "address_councildis": "B",
    "status": "Pending",
    "rowid": "1221697",
    "final_x": "3673511.2596",
    "final_y": "518358.668342",
    "longitude": "-90.0937455205776",
    "latitude": "29.91954644817221",
    "geocoded_column": {
      "latitude": "29.91954644817221",
      "longitude": "-90.0937455205776"
    }
  },
  {
    "service_request": "2025-1221696",
    "request_type": "Trash/Recycling",
    "request_reason": "Request a Large Item Pick Up",
    "date_created": "2025-08-26T15:04:59.000",
    "date_modified": "2025-08-26T15:05:01.000",
    "request_status": "Pending",
    "responsible_agency": "Department of Sanitation",
    "final_address": "6931 Manchester St",
    "address_councildis": "E",
    "status": "Assigned to Contractor",
    "contractor": "Waste Pro",
    "rowid": "1221696",
    "final_x": "3698813.1336",
    "final_y": "560154.053213",
    "longitude": "-90.01235966357486",
    "latitude": "30.033691721226297",
    "geocoded_column": {
      "latitude": "30.033691721226297",
      "longitude": "-90.01235966357486"
    }
  },
  {
    "service_request": "2025-1221695",
    "request_type": "Trash/Recycling",
    "request_reason": "Request a Large Item Pick Up",
    "date_created": "2025-08-26T15:04:58.000",
    "date_modified": "2025-08-26T15:05:00.000",
    "request_status": "Pending",
    "responsible_agency": "Department of Sanitation",
    "final_address": "723 Lyons St",
    "address_councildis": "B",
    "status": "Assigned to Contractor",
    "contractor": "IV Waste",
    "rowid": "1221695",
    "final_x": "3669342.19975",
    "final_y": "518063.66527",
    "longitude": "-90.1069151752428",
    "latitude": "29.918858639274376",
    "geocoded_column": {
      "latitude": "29.918858639274376",
      "longitude": "-90.1069151752428"
    }
  },
  {
    "service_request": "2025-1221694",
    "request_type": "Trash/Recycling",
    "request_reason": "Replace Trash Cart",
    "date_created": "2025-08-26T15:03:55.000",
    "date_modified": "2025-08-26T15:03:56.000",
    "request_status": "Pending",
    "responsible_agency": "Department of Sanitation",
    "final_address": "323 S Pierce St",
    "address_councildis": "A",
    "status": "Assigned to Contractor",
    "contractor": "IV Waste",
    "rowid": "1221694",
    "final_x": "3670842.57403",
    "final_y": "537283.850632",
    "longitude": "-90.10152706279241",
    "latitude": "29.97166363182714",
    "geocoded_column": {
      "latitude": "29.97166363182714",
      "longitude": "-90.10152706279241"
    }
  },
  {
    "service_request": "2025-1221693",
    "request_type": "Drainage",
    "request_reason": "Ditch and Culvert Maintenance",
    "date_created": "2025-08-26T15:01:45.000",
    "date_modified": "2025-08-26T15:01:48.000",
    "request_status": "Pending",
    "responsible_agency": "Department of Public Works",
    "final_address": "3539 St Ferdinand St",
    "address_councildis": "D",
    "status": "Pending",
    "rowid": "1221693",
    "final_x": "3690071.41673",
    "final_y": "546151.746448",
    "longitude": "-90.04048367207706",
    "latitude": "29.995464771369882",
    "geocoded_column": {
      "latitude": "29.995464771369882",
      "longitude": "-90.04048367207706"
    }
  },
  {
    "service_request": "2025-1221692",
    "request_type": "Trash/Recycling",
    "request_reason": "Request a Large Item Pick Up",
    "date_created": "2025-08-26T15:00:06.000",
    "date_modified": "2025-08-26T15:00:07.000",
    "request_status": "Pending",
    "responsible_agency": "Department of Sanitation",
    "final_address": "7817 Ebbtide Dr",
    "address_councildis": "E",
    "status": "Assigned to Contractor",
    "contractor": "Waste Pro",
    "rowid": "1221692",
    "final_x": "3702068.33418",
    "final_y": "562015.759583",
    "longitude": "-90.00200456965834",
    "latitude": "30.038707099061597",
    "geocoded_column": {
      "latitude": "30.038707099061597",
      "longitude": "-90.00200456965834"
    }
  },
  {
    "service_request": "2025-1221691",
    "request_type": "Trash/Recycling",
    "request_reason": "Request a Large Item Pick Up",
    "date_created": "2025-08-26T14:58:51.000",
    "date_modified": "2025-08-26T14:58:52.000",
    "request_status": "Pending",
    "responsible_agency": "Department of Sanitation",
    "final_address": "4740 Sherwood Dr",
    "address_councildis": "E",
    "status": "Assigned to Contractor",
    "contractor": "Waste Pro",
    "rowid": "1221691",
    "final_x": "3717936.25932",
    "final_y": "556904.797082",
    "longitude": "-89.95205288478644",
    "latitude": "30.024137524794895",
    "geocoded_column": {
      "latitude": "30.024137524794895",
      "longitude": "-89.95205288478644"
    }
  },
  {
    "service_request": "2025-1221690",
    "request_type": "Mosquito, Termite & Rodent Control",
    "request_reason": "Rodent Complaint (Mice & Rats)",
    "date_created": "2025-08-26T14:58:28.000",
    "date_modified": "2025-08-26T14:58:30.000",
    "request_status": "Pending",
    "responsible_agency": "Mosquito, Termite & Rodent Control Board",
    "final_address": "5330 Marais St",
    "address_councildis": "E",
    "status": "Pending",
    "rowid": "1221690",
    "final_x": "3697062.65315",
    "final_y": "534277.649477",
    "longitude": "-90.01882944359576",
    "latitude": "29.962596548646538",
    "geocoded_column": {
      "latitude": "29.962596548646538",
      "longitude": "-90.01882944359576"
    }
  },
  {
    "service_request": "2025-1221689",
    "request_type": "Street and Traffic Signs",
    "request_reason": "Additional Signage Request",
    "date_created": "2025-08-26T14:55:59.000",
    "date_modified": "2025-08-26T14:56:00.000",
    "request_status": "Pending",
    "responsible_agency": "Department of Public Works",
    "final_address": "200 BLK N Saint Patrick St",
    "address_councildis": "A",
    "status": "Pending",
    "rowid": "1221689",
    "final_x": "3669483.60358",
    "final_y": "540324.496895",
    "longitude": "-90.10571602816766",
    "latitude": "29.98006448436108",
    "geocoded_column": {
      "latitude": "29.98006448436108",
      "longitude": "-90.10571602816766"
    }
  },
  {
    "service_request": "2025-1221688",
    "request_type": "Parks & Parkways",
    "request_reason": "Request Grass Cutting Service (City Owned Property)",
    "date_created": "2025-08-26T14:52:41.000",
    "date_modified": "2025-08-26T15:49:10.000",
    "case_close_date": "2025-08-26T10:49:08.000",
    "request_status": "Closed",
    "responsible_agency": "Department of Parks & Parkway",
    "final_address": "9100 BLK Interstate 10 Service Rd S",
    "address_councildis": "E",
    "status": "Referred to External Agency",
    "rowid": "1221688",
    "final_x": "3707231.71312",
    "final_y": "559916.092226",
    "longitude": "-89.98576505252244",
    "latitude": "30.032767875856393",
    "geocoded_column": {
      "latitude": "30.032767875856393",
      "longitude": "-89.98576505252244"
    }
  },
  {
    "service_request": "2025-1221687",
    "request_type": "Drainage",
    "request_reason": "Catch Basin Not Draining",
    "date_created": "2025-08-26T14:52:30.000",
    "date_modified": "2025-08-26T14:52:33.000",
    "request_status": "Pending",
    "responsible_agency": "Sewerage & Water Board",
    "final_address": "2100 Benefit St",
    "address_councildis": "D",
    "status": "Pending",
    "rowid": "1221687",
    "final_x": "3683618.10569",
    "final_y": "544316.536399",
    "longitude": "-90.06093341758428",
    "latitude": "29.990617227183805",
    "geocoded_column": {
      "latitude": "29.990617227183805",
      "longitude": "-90.06093341758428"
    }
  },
  {
    "service_request": "2025-1221686",
    "request_type": "Trash/Recycling",
    "request_reason": "Illegal Dumping",
    "date_created": "2025-08-26T14:50:58.000",
    "date_modified": "2025-08-26T14:51:00.000",
    "request_status": "Pending",
    "responsible_agency": "Department of Sanitation",
    "final_address": "9100 BLK Interstate 10 Service Rd S",
    "address_councildis": "E",
    "status": "Pending",
    "rowid": "1221686",
    "final_x": "3707231.71312",
    "final_y": "559916.092226",
    "longitude": "-89.98576505252244",
    "latitude": "30.032767875856393",
    "geocoded_column": {
      "latitude": "30.032767875856393",
      "longitude": "-89.98576505252244"
    }
  },
  {
    "service_request": "2025-1221685",
    "request_type": "Roads and Streets",
    "request_reason": "Sidewalk Damaged or Missing",
    "date_created": "2025-08-26T14:50:32.000",
    "date_modified": "2025-08-26T14:50:34.000",
    "request_status": "Pending",
    "responsible_agency": "Department of Public Works",
    "final_address": "5720 Warrington Dr",
    "address_councildis": "D",
    "status": "Pending",
    "rowid": "1221685",
    "final_x": "3680742.70427",
    "final_y": "553860.462615",
    "longitude": "-90.06968362753535",
    "latitude": "30.016947090488085",
    "geocoded_column": {
      "latitude": "30.016947090488085",
      "longitude": "-90.06968362753535"
    }
  },
  {
    "service_request": "2025-1221684",
    "request_type": "Trash/Recycling",
    "request_reason": "Dead Animal Pick Up",
    "date_created": "2025-08-26T14:47:31.000",
    "date_modified": "2025-08-26T14:47:33.000",
    "request_status": "Pending",
    "responsible_agency": "Department of Sanitation",
    "final_address": "N ROBERTSON ST & INDEPENDENCE ST",
    "address_councildis": "D",
    "status": "Assigned to Contractor",
    "contractor": "IV Waste",
    "rowid": "1221684",
    "final_x": "3691325.1",
    "final_y": "537010.68",
    "longitude": "-90.0368501402071",
    "latitude": "29.970291159194712",
    "geocoded_column": {
      "latitude": "29.970291159194712",
      "longitude": "-90.0368501402071"
    }
  },
  {
    "service_request": "2025-1221683",
    "request_type": "Roads and Streets",
    "request_reason": "Debris in Driving Lanes",
    "date_created": "2025-08-26T14:47:21.000",
    "date_modified": "2025-08-26T14:47:22.000",
    "request_status": "Pending",
    "responsible_agency": "Department of Public Works",
    "final_address": "200 BLK S Saint Patrick St",
    "address_councildis": "A",
    "status": "Pending",
    "rowid": "1221683",
    "final_x": "3668751.37736",
    "final_y": "539359.724546",
    "longitude": "-90.10806129539976",
    "latitude": "29.9774332365208",
    "geocoded_column": {
      "latitude": "29.9774332365208",
      "longitude": "-90.10806129539976"
    }
  },
  {
    "service_request": "2025-1221682",
    "request_type": "Trash/Recycling",
    "request_reason": "Request a Large Item Pick Up",
    "date_created": "2025-08-26T14:41:33.000",
    "date_modified": "2025-08-26T14:41:35.000",
    "request_status": "Pending",
    "responsible_agency": "Department of Sanitation",
    "final_address": "541 Atlantic Ave",
    "address_councildis": "C",
    "status": "Assigned to Contractor",
    "contractor": "Richards Disposal",
    "rowid": "1221682",
    "final_x": "3688742.24412",
    "final_y": "529556.869889",
    "longitude": "-90.04527167150971",
    "latitude": "29.949875871524508",
    "geocoded_column": {
      "latitude": "29.949875871524508",
      "longitude": "-90.04527167150971"
    }
  },
  {
    "service_request": "2025-1221681",
    "request_type": "Streetlights",
    "request_reason": "Streetlight Outage/Malfunction",
    "date_created": "2025-08-26T14:37:35.000",
    "date_modified": "2025-08-26T14:37:36.000",
    "request_status": "Pending",
    "responsible_agency": "Department of Public Works",
    "final_address": "9706 W Rockton Cir",
    "address_councildis": "E",
    "status": "Pending",
    "contractor": "Legacy Professional Services",
    "rowid": "1221681",
    "final_x": "3708306.08497",
    "final_y": "562532.708192",
    "longitude": "-89.98227247893043",
    "latitude": "30.03992774777537",
    "geocoded_column": {
      "latitude": "30.03992774777537",
      "longitude": "-89.98227247893043"
    }
  },
  {
    "service_request": "2025-1221680",
    "request_type": "Roads and Streets",
    "request_reason": "Sidewalk Damaged or Missing",
    "date_created": "2025-08-26T14:36:50.000",
    "date_modified": "2025-08-26T14:36:52.000",
    "request_status": "Pending",
    "responsible_agency": "Department of Public Works",
    "final_address": "7350 Crestmont Rd",
    "address_councildis": "E",
    "status": "Pending",
    "rowid": "1221680",
    "final_x": "3699853.97348",
    "final_y": "559562.498013",
    "longitude": "-90.00909211416426",
    "latitude": "30.032032138847264",
    "geocoded_column": {
      "latitude": "30.032032138847264",
      "longitude": "-90.00909211416426"
    }
  },
  {
    "service_request": "2025-1221679",
    "request_type": "Streetlights",
    "request_reason": "Streetlight Outage/Malfunction",
    "date_created": "2025-08-26T14:34:31.000",
    "date_modified": "2025-08-26T14:34:34.000",
    "request_status": "Pending",
    "responsible_agency": "Department of Public Works",
    "final_address": "9706 W Rockton Cir",
    "address_councildis": "E",
    "status": "Pending",
    "contractor": "Legacy Professional Services",
    "rowid": "1221679",
    "final_x": "3708306.08497",
    "final_y": "562532.708192",
    "longitude": "-89.98227247893043",
    "latitude": "30.03992774777537",
    "geocoded_column": {
      "latitude": "30.03992774777537",
      "longitude": "-89.98227247893043"
    }
  },
  {
    "service_request": "2025-1221678",
    "request_type": "Trash/Recycling",
    "request_reason": "Request a Large Item Pick Up",
    "date_created": "2025-08-26T14:33:29.000",
    "date_modified": "2025-08-26T14:33:30.000",
    "request_status": "Pending",
    "responsible_agency": "Department of Sanitation",
    "final_address": "7150 W Renaissance Ct",
    "address_councildis": "E",
    "status": "Assigned to Contractor",
    "contractor": "Waste Pro",
    "rowid": "1221678",
    "final_x": "3716555.71071",
    "final_y": "567742.617764",
    "longitude": "-89.95600347075815",
    "latitude": "30.053982832393928",
    "geocoded_column": {
      "latitude": "30.053982832393928",
      "longitude": "-89.95600347075815"
    }
  },
  {
    "service_request": "2025-1221677",
    "request_type": "Streetlights",
    "request_reason": "Streetlight Outage/Malfunction",
    "date_created": "2025-08-26T14:32:52.000",
    "date_modified": "2025-08-26T14:32:54.000",
    "request_status": "Pending",
    "responsible_agency": "Department of Public Works",
    "final_address": "9706 W Wheaton Cir",
    "address_councildis": "E",
    "status": "Pending",
    "contractor": "Legacy Professional Services",
    "rowid": "1221677",
    "final_x": "3708555.56824",
    "final_y": "562082.603807",
    "longitude": "-89.98150082269372",
    "latitude": "30.038682048877615",
    "geocoded_column": {
      "latitude": "30.038682048877615",
      "longitude": "-89.98150082269372"
    }
  },
  {
    "service_request": "2025-1221676",
    "request_type": "Roads and Streets",
    "request_reason": "Curb Damage",
    "date_created": "2025-08-26T14:25:53.000",
    "date_modified": "2025-08-26T14:26:31.000",
    "request_status": "Pending",
    "responsible_agency": "Department of Public Works",
    "final_address": "5721 Kensington Blvd",
    "address_councildis": "E",
    "status": "Pending",
    "rowid": "1221676",
    "final_x": "3713756.56747",
    "final_y": "560589.773726",
    "longitude": "-89.96512075134395",
    "latitude": "30.034407622399563",
    "geocoded_column": {
      "latitude": "30.034407622399563",
      "longitude": "-89.96512075134395"
    }
  },
  {
    "service_request": "2025-1221675",
    "request_type": "Drainage",
    "request_reason": "Catch Basin Not Draining",
    "date_created": "2025-08-26T14:25:06.000",
    "date_modified": "2025-08-26T14:25:08.000",
    "request_status": "Pending",
    "responsible_agency": "Sewerage & Water Board",
    "final_address": "0 BLK Maryland Dr",
    "address_councildis": "A",
    "status": "Pending",
    "rowid": "1221675",
    "final_x": "3663649.89051",
    "final_y": "541207.182793",
    "longitude": "-90.12411199354628",
    "latitude": "29.982662140534117",
    "geocoded_column": {
      "latitude": "29.982662140534117",
      "longitude": "-90.12411199354628"
    }
  },
  {
    "service_request": "2025-1221674",
    "request_type": "Streetlights",
    "request_reason": "Streetlight Outage/Malfunction",
    "date_created": "2025-08-26T14:24:42.000",
    "date_modified": "2025-08-26T14:24:59.000",
    "request_status": "Pending",
    "responsible_agency": "Department of Public Works",
    "final_address": "5721 Kensington Blvd",
    "address_councildis": "E",
    "status": "Pending",
    "contractor": "Legacy Professional Services",
    "rowid": "1221674",
    "final_x": "3713756.56747",
    "final_y": "560589.773726",
    "longitude": "-89.96512075134395",
    "latitude": "30.034407622399563",
    "geocoded_column": {
      "latitude": "30.034407622399563",
      "longitude": "-89.96512075134395"
    }
  },
  {
    "service_request": "2025-1221673",
    "request_type": "Trash/Recycling",
    "request_reason": "Order Trash Cart",
    "date_created": "2025-08-26T14:22:59.000",
    "date_modified": "2025-08-26T14:23:02.000",
    "request_status": "Pending",
    "responsible_agency": "Department of Sanitation",
    "final_address": "3905 Franklin Ave A",
    "address_councildis": "D",
    "status": "Assigned to Contractor",
    "contractor": "IV Waste",
    "rowid": "1221673",
    "final_x": "3687120.1741",
    "final_y": "547283.302225",
    "longitude": "-90.0497663036584",
    "latitude": "29.998667371612193",
    "geocoded_column": {
      "latitude": "29.998667371612193",
      "longitude": "-90.0497663036584"
    }
  },
  {
    "service_request": "2025-1221672",
    "request_type": "Trash/Recycling",
    "request_reason": "Repair Trash Cart",
    "date_created": "2025-08-26T14:22:54.000",
    "date_modified": "2025-08-26T14:22:56.000",
    "request_status": "Pending",
    "responsible_agency": "Department of Sanitation",
    "final_address": "3005 De Soto St",
    "address_councildis": "A",
    "status": "Assigned to Contractor",
    "contractor": "IV Waste",
    "rowid": "1221672",
    "final_x": "3676715.96283",
    "final_y": "539763.655498",
    "longitude": "-90.08289253169356",
    "latitude": "29.978307323826307",
    "geocoded_column": {
      "latitude": "29.978307323826307",
      "longitude": "-90.08289253169356"
    }
  },
  {
    "service_request": "2025-1221671",
    "request_type": "Roads and Streets",
    "request_reason": "Sidewalk Damaged or Missing",
    "date_created": "2025-08-26T14:22:35.000",
    "date_modified": "2025-08-26T14:22:39.000",
    "request_status": "Pending",
    "responsible_agency": "Department of Public Works",
    "final_address": "925 St Maurice Ave",
    "address_councildis": "E",
    "status": "Pending",
    "rowid": "1221671",
    "final_x": "3699636.10141",
    "final_y": "532573.269508",
    "longitude": "-90.01076501699767",
    "latitude": "29.957828683568305",
    "geocoded_column": {
      "latitude": "29.957828683568305",
      "longitude": "-90.01076501699767"
    }
  },
  {
    "service_request": "2025-1221670",
    "request_type": "Trash/Recycling",
    "request_reason": "Request a Large Item Pick Up",
    "date_created": "2025-08-26T14:18:23.000",
    "date_modified": "2025-08-26T15:24:15.000",
    "request_status": "Pending",
    "responsible_agency": "Department of Sanitation",
    "final_address": "7336 Prytania St",
    "address_councildis": "A",
    "status": "Assigned to Contractor",
    "contractor": "IV Waste",
    "rowid": "1221670",
    "final_x": "3661271.52544",
    "final_y": "522984.157883",
    "longitude": "-90.13222743522626",
    "latitude": "29.932623517172274",
    "geocoded_column": {
      "latitude": "29.932623517172274",
      "longitude": "-90.13222743522626"
    }
  },
  {
    "service_request": "2025-1221669",
    "request_type": "Drainage",
    "request_reason": "Catch Basin Frame and Cover Missing or Damaged",
    "date_created": "2025-08-26T14:18:21.000",
    "date_modified": "2025-08-26T14:18:23.000",
    "request_status": "Pending",
    "responsible_agency": "Sewerage & Water Board",
    "final_address": "14350 Peltier Dr",
    "address_councildis": "E",
    "status": "Pending",
    "rowid": "1221669",
    "final_x": "3730180.15949",
    "final_y": "562241.236959",
    "longitude": "-89.91315609020965",
    "latitude": "30.038399007300868",
    "geocoded_column": {
      "latitude": "30.038399007300868",
      "longitude": "-89.91315609020965"
    }
  },
  {
    "service_request": "2025-1221668",
    "request_type": "General Services",
    "request_reason": "General Service Request",
    "date_created": "2025-08-26T14:17:35.000",
    "date_modified": "2025-08-26T14:41:51.000",
    "case_close_date": "2025-08-26T09:41:49.000",
    "request_status": "Closed",
    "responsible_agency": "Orleans Parish Communication District",
    "final_address": "1016 Deslonde St",
    "address_councildis": "E",
    "status": "Question Answered.",
    "rowid": "1221668",
    "final_x": "3695251.44163",
    "final_y": "534141.830789",
    "longitude": "-90.02455387485918",
    "latitude": "29.962280103720474",
    "geocoded_column": {
      "latitude": "29.962280103720474",
      "longitude": "-90.02455387485918"
    }
  },
  {
    "service_request": "2025-1221667",
    "request_type": "Trash/Recycling",
    "request_reason": "Request a Large Item Pick Up",
    "date_created": "2025-08-26T14:15:08.000",
    "date_modified": "2025-08-26T14:15:10.000",
    "request_status": "Pending",
    "responsible_agency": "Department of Sanitation",
    "final_address": "2016 Deslonde St",
    "address_councildis": "E",
    "status": "Assigned to Contractor",
    "contractor": "Waste Pro",
    "rowid": "1221667",
    "final_x": "3696335.86634",
    "final_y": "537945.464329",
    "longitude": "-90.02099187098898",
    "latitude": "29.972704637777277",
    "geocoded_column": {
      "latitude": "29.972704637777277",
      "longitude": "-90.02099187098898"
    }
  },
  {
    "service_request": "2025-1221666",
    "request_type": "Trash/Recycling",
    "request_reason": "Replace Trash Cart",
    "date_created": "2025-08-26T14:12:59.000",
    "date_modified": "2025-08-26T14:13:01.000",
    "request_status": "Pending",
    "responsible_agency": "Department of Sanitation",
    "final_address": "1432 St Mary St",
    "address_councildis": "B",
    "status": "Assigned to Contractor",
    "contractor": "IV Waste",
    "rowid": "1221666",
    "final_x": "3678860.17442",
    "final_y": "523750.415355",
    "longitude": "-90.07667500390971",
    "latitude": "29.934211798777675",
    "geocoded_column": {
      "latitude": "29.934211798777675",
      "longitude": "-90.07667500390971"
    }
  },
  {
    "service_request": "2025-1221665",
    "request_type": "Trash/Recycling",
    "request_reason": "Request a Large Item Pick Up",
    "date_created": "2025-08-26T14:12:26.000",
    "date_modified": "2025-08-26T14:12:28.000",
    "request_status": "Pending",
    "responsible_agency": "Department of Sanitation",
    "final_address": "3129 Derby Pl",
    "address_councildis": "A",
    "status": "Assigned to Contractor",
    "contractor": "IV Waste",
    "rowid": "1221665",
    "final_x": "3678227.59586",
    "final_y": "542929.755277",
    "longitude": "-90.07800869470748",
    "latitude": "29.986967553806714",
    "geocoded_column": {
      "latitude": "29.986967553806714",
      "longitude": "-90.07800869470748"
    }
  },
  {
    "service_request": "2025-1221664",
    "request_type": "Parks & Parkways",
    "request_reason": "Request Tree Service (Right of Way/Public Property)",
    "date_created": "2025-08-26T14:12:22.000",
    "date_modified": "2025-08-26T14:12:24.000",
    "request_status": "Pending",
    "responsible_agency": "Department of Parks & Parkway",
    "final_address": "3009 St Peter St",
    "address_councildis": "A",
    "status": "Pending",
    "rowid": "1221664",
    "final_x": "3675612.19605",
    "final_y": "537697.766728",
    "longitude": "-90.08644963241674",
    "latitude": "29.972659910441664",
    "geocoded_column": {
      "latitude": "29.972659910441664",
      "longitude": "-90.08644963241674"
    }
  },
  {
    "service_request": "2025-1221663",
    "request_type": "Streetlights",
    "request_reason": "Streetlight Outage/Malfunction",
    "date_created": "2025-08-26T14:10:44.000",
    "date_modified": "2025-08-26T14:10:46.000",
    "request_status": "Pending",
    "responsible_agency": "Department of Public Works",
    "final_address": "2917 Philip St",
    "address_councildis": "B",
    "status": "Pending",
    "contractor": "Legacy Professional Services",
    "rowid": "1221663",
    "final_x": "3674561.54702",
    "final_y": "527328.242879",
    "longitude": "-90.09012309679245",
    "latitude": "29.944178583244444",
    "geocoded_column": {
      "latitude": "29.944178583244444",
      "longitude": "-90.09012309679245"
    }
  },
  {
    "service_request": "2025-1221662",
    "request_type": "Trash/Recycling",
    "request_reason": "Replace Trash Cart",
    "date_created": "2025-08-26T14:08:32.000",
    "date_modified": "2025-08-26T14:08:34.000",
    "request_status": "Pending",
    "responsible_agency": "Department of Sanitation",
    "final_address": "3827 Coliseum St",
    "address_councildis": "B",
    "status": "Assigned to Contractor",
    "contractor": "IV Waste",
    "rowid": "1221662",
    "final_x": "3672897.10625",
    "final_y": "520056.90316",
    "longitude": "-90.09562619844755",
    "latitude": "29.92423430581282",
    "geocoded_column": {
      "latitude": "29.92423430581282",
      "longitude": "-90.09562619844755"
    }
  },