[
  {
    "service_request": "2024-1106583",
    "request_type": "Roads/Drainage",
    "request_reason": "Pothole",
    "date_created": "2024-06-24T23:51:10.000",
    "date_modified": "2024-06-24T23:51:10.000",
    "request_status": "Pending",
    "responsible_agency": "Department of Public Works",
    "final_address": "1025 Austerlitz St",
    "address_councildis": "B",
    "status": "Pending",
    "rowid": "1106583",
    "final_x": "3672845.10222",
    "final_y": "519577.24268",
    "longitude": "-90.09580671010205",
    "latitude": "29.922916937524878",
    "geocoded_column": {
      "latitude": "29.922916937524878",
      "longitude": "-90.09580671010205"
    }
  },
  {
    "service_request": "2024-1106582",
    "request_type": "Roads/Drainage",
    "request_reason": "Pothole",
    "date_created": "2024-06-24T23:07:12.000",
    "date_modified": "2024-06-24T23:07:12.000",
    "request_status": "Pending",
    "responsible_agency": "Department of Public Works",
    "final_address": "1104 Constantinople St",
    "address_councildis": "B",
    "status": "Pending",
    "rowid": "1106582",
    "final_x": "3672372.92731",
    "final_y": "519713.019832",
    "longitude": "-90.09729256157254",
    "latitude": "29.923304295018706",
    "geocoded_column": {
      "latitude": "29.923304295018706",
      "longitude": "-90.09729256157254"
    }
  },
  {
    "service_request": "2024-1106581",
    "request_type": "Abandoned Vehicles",
    "request_reason": "Abandoned/Junk Vehicles",
    "date_created": "2024-06-24T21:37:01.000",
    "date_modified": "2024-06-24T21:37:01.000",
    "request_status": "Pending",
    "responsible_agency": "Department of Public Works",
    "final_address": "4127 Paris Ave",
    "address_councildis": "D",
    "status": "Pending",
    "rowid": "1106581",
    "final_x": "3679628.15599",
    "final_y": "547319.835537",
    "longitude": "-90.07343236569878",
    "latitude": "29.998996462644975",
    "geocoded_column": {
      "latitude": "29.998996462644975",
      "longitude": "-90.07343236569878"
    }
  },
  {
    "service_request": "2024-1106579",
    "request_type": "Traffic Signals/Signs/Striping/Streetlights",
    "request_reason": "Street Light Outage/Malfunction",
    "date_created": "2024-06-24T21:30:14.000",
    "date_modified": "2024-06-24T21:30:15.000",
    "request_status": "Pending",
    "responsible_agency": "Department of Public Works",
    "final_address": "5860 W Louis Prima Dr",
    "address_councildis": "E",
    "status": "Assigned to Contractor",
    "contractor": "Legacy Professional Services",
    "rowid": "1106579",
    "final_x": "3715168.22885",
    "final_y": "562951.864224",
    "longitude": "-89.96057032858108",
    "latitude": "30.040855996101165",
    "geocoded_column": {
      "latitude": "30.040855996101165",
      "longitude": "-89.96057032858108"
    }
  },
  {
    "service_request": "2024-1106578",
    "request_type": "Traffic Signals/Signs/Striping/Streetlights",
    "request_reason": "Street Light Outage/Malfunction",
    "date_created": "2024-06-24T21:28:39.000",
    "date_modified": "2024-06-24T21:28:40.000",
    "request_status": "Pending",
    "responsible_agency": "Department of Public Works",
    "final_address": "1200 BLK N Lopez St",
    "address_councildis": "A",
    "status": "Assigned to Contractor",
    "contractor": "Legacy Professional Services",
    "rowid": "1106578",
    "final_x": "3676338.10562",
    "final_y": "539611.078046",
    "longitude": "-90.08409119634008",
    "latitude": "29.97789912107805",
    "geocoded_column": {
      "latitude": "29.97789912107805",
      "longitude": "-90.08409119634008"
    }
  },
  {
    "service_request": "2024-1106577",
    "request_type": "Traffic Signals/Signs/Striping/Streetlights",
    "request_reason": "Street Light Outage/Malfunction",
    "date_created": "2024-06-24T21:26:34.000",
    "date_modified": "2024-06-24T21:26:34.000",
    "request_status": "Pending",
    "responsible_agency": "Department of Public Works",
    "final_address": "1100 N Lopez St",
    "address_councildis": "A",
    "status": "Assigned to Contractor",
    "contractor": "Legacy Professional Services",
    "rowid": "1106577",
    "final_x": "3676283.83598",
    "final_y": "539327.85569",
    "longitude": "-90.0842723499082",
    "latitude": "29.977121983629342",
    "geocoded_column": {
      "latitude": "29.977121983629342",
      "longitude": "-90.0842723499082"
    }
  },
  {
    "service_request": "2024-1106576",
    "request_type": "Traffic Signals/Signs/Striping/Streetlights",
    "request_reason": "Street Light Outage/Malfunction",
    "date_created": "2024-06-24T21:24:33.000",
    "date_modified": "2024-06-24T21:24:34.000",
    "request_status": "Pending",
    "responsible_agency": "Department of Public Works",
    "final_address": "8421 Apricot St",
    "address_councildis": "A",
    "status": "Assigned to Contractor",
    "contractor": "Legacy Professional Services",
    "rowid": "1106576",
    "final_x": "3664906.2329",
    "final_y": "533515.472132",
    "longitude": "-90.12040098744437",
    "latitude": "29.961475973779407",
    "geocoded_column": {
      "latitude": "29.961475973779407",
      "longitude": "-90.12040098744437"
    }
  },
  {
    "service_request": "2024-1106575",
    "request_type": "Abandoned Vehicles",
    "request_reason": "Abandoned/Junk Vehicles",
    "date_created": "2024-06-24T21:22:59.000",
    "date_modified": "2024-06-24T21:22:59.000",
    "request_status": "Pending",
    "responsible_agency": "Department of Public Works",
    "final_address": "615 Hendee St",
    "address_councildis": "C",
    "status": "Pending",
    "rowid": "1106575",
    "final_x": "3690821.25532",
    "final_y": "529227.422144",
    "longitude": "-90.03871904862088",
    "latitude": "29.948905578845725",
    "geocoded_column": {
      "latitude": "29.948905578845725",
      "longitude": "-90.03871904862088"
    }
  },
  {
    "service_request": "2024-1106574",
    "request_type": "Trash/Recycling",
    "request_reason": "Order Recycling Cart",
    "date_created": "2024-06-24T21:20:18.000",
    "date_modified": "2024-06-24T21:20:18.000",
    "request_status": "Pending",
    "responsible_agency": "Department of Sanitation",
    "final_address": "2021 St Charles Ave Apt 2A",
    "address_councildis": "B",
    "status": "Pending",
    "rowid": "1106574",
    "final_x": "3677993.95112",
    "final_y": "524115.722108",
    "longitude": "-90.0793970223607",
    "latitude": "29.935242365796572",
    "geocoded_column": {
      "latitude": "29.935242365796572",
      "longitude": "-90.0793970223607"
    }
  },
  {
    "service_request": "2024-1106573",
    "request_type": "Trash/Recycling",
    "request_reason": "Order Trash Cart",
    "date_created": "2024-06-24T21:17:59.000",
    "date_modified": "2024-06-24T21:18:00.000",
    "request_status": "Pending",
    "responsible_agency": "Department of Sanitation",
    "final_address": "2021 St Charles Ave Apt 2A",
    "address_councildis": "B",
    "status": "Assigned to Contractor",
    "contractor": "IV Waste",
    "rowid": "1106573",
    "final_x": "3677993.95112",
    "final_y": "524115.722108",
    "longitude": "-90.0793970223607",
    "latitude": "29.935242365796572",
    "geocoded_column": {
      "latitude": "29.935242365796572",
      "longitude": "-90.0793970223607"
    }
  },
  {
    "service_request": "2024-1106572",
    "request_type": "Trash/Recycling",
    "request_reason": "Request a Large Item Pick Up",
    "date_created": "2024-06-24T21:15:08.000",
    "date_modified": "2024-06-24T21:15:09.000",
    "request_status": "Pending",
    "responsible_agency": "Department of Sanitation",
    "final_address": "8901 Gervais St",
    "address_councildis": "E",
    "status": "Assigned to Contractor",
    "contractor": "Waste Pro",
    "rowid": "1106572",
    "final_x": "3704845.20241",
    "final_y": "563257.14224",
    "longitude": "-89.99318308905501",
    "latitude": "30.042031405522316",
    "geocoded_column": {
      "latitude": "30.042031405522316",
      "longitude": "-89.99318308905501"
    }
  },
  {
    "service_request": "2024-1106571",
    "request_type": "Trash/Recycling",
    "request_reason": "Replace Recycling Cart",
    "date_created": "2024-06-24T21:12:49.000",
    "date_modified": "2024-06-24T21:12:49.000",
    "request_status": "Pending",
    "responsible_agency": "Department of Sanitation",
    "final_address": "1416 Killdeer St",
    "address_councildis": "D",
    "status": "Pending",
    "rowid": "1106571",
    "final_x": "3677875.18869",
    "final_y": "556358.914394",
    "longitude": "-90.0786573529861",
    "latitude": "30.023903567730745",
    "geocoded_column": {
      "latitude": "30.023903567730745",
      "longitude": "-90.0786573529861"
    }
  },
  {
    "service_request": "2024-1106570",
    "request_type": "Property Maintenance",
    "request_reason": "Property Maintenance",
    "date_created": "2024-06-24T21:03:47.000",
    "date_modified": "2024-06-24T21:03:47.000",
    "request_status": "Pending",
    "responsible_agency": "Department of Code Enforcement",
    "final_address": "2100 Mirabeau Ave",
    "address_councildis": "D",
    "status": "Pending",
    "rowid": "1106570",
    "final_x": "3683132.25295",
    "final_y": "550564.339092",
    "longitude": "-90.06224918013726",
    "latitude": "30.007811273564865",
    "geocoded_column": {
      "latitude": "30.007811273564865",
      "longitude": "-90.06224918013726"
    }
  },
  {
    "service_request": "2024-1106569",
    "request_type": "Property Maintenance",
    "request_reason": "Property Maintenance",
    "date_created": "2024-06-24T21:00:46.000",
    "date_modified": "2024-06-24T21:00:46.000",
    "request_status": "Pending",
    "responsible_agency": "Department of Code Enforcement",
    "final_address": "1301 Bartholomew St",
    "address_councildis": "D",
    "status": "Pending",
    "rowid": "1106569",
    "final_x": "3692045.21731",
    "final_y": "536064.657479",
    "longitude": "-90.03460980347025",
    "latitude": "29.96766750788997",
    "geocoded_column": {
      "latitude": "29.96766750788997",
      "longitude": "-90.03460980347025"
    }
  },
  {
    "service_request": "2024-1106568",
    "request_type": "Health Related Request",
    "request_reason": "Noise Ordinance Complaint",
    "date_created": "2024-06-24T20:50:12.000",
    "date_modified": "2024-06-24T20:50:12.000",
    "request_status": "Pending",
    "responsible_agency": "Health Department",
    "final_address": "600 BLK N Broad St",
    "address_councildis": "A",
    "status": "Pending",
    "rowid": "1106568",
    "final_x": "3676359.9435",
    "final_y": "536531.150807",
    "longitude": "-90.08412827453832",
    "latitude": "29.969429719559482",
    "geocoded_column": {
      "latitude": "29.969429719559482",
      "longitude": "-90.08412827453832"
    }
  },
  {
    "service_request": "2024-1106567",
    "request_type": "Abandoned Vehicles",
    "request_reason": "Abandoned/Junk Vehicles",
    "date_created": "2024-06-24T20:41:52.000",
    "date_modified": "2024-06-24T20:41:52.000",
    "request_status": "Pending",
    "responsible_agency": "Department of Public Works",
    "final_address": "1307 Coliseum St",
    "address_councildis": "B",
    "status": "Pending",
    "rowid": "1106567",
    "final_x": "3680025.58626",
    "final_y": "525277.575229",
    "longitude": "-90.07294280690304",
    "latitude": "29.938375787883604",
    "geocoded_column": {
      "latitude": "29.938375787883604",
      "longitude": "-90.07294280690304"
    }
  },
  {
    "service_request": "2024-1106566",
    "request_type": "Abandoned Vehicles",
    "request_reason": "Abandoned/Junk Vehicles",
    "date_created": "2024-06-24T20:40:36.000",
    "date_modified": "2024-06-24T20:40:36.000",
    "request_status": "Pending",
    "responsible_agency": "Department of Public Works",
    "final_address": "1307 Coliseum St",
    "address_councildis": "B",
    "status": "Pending",
    "rowid": "1106566",
    "final_x": "3680025.58626",
    "final_y": "525277.575229",
    "longitude": "-90.07294280690304",
    "latitude": "29.938375787883604",
    "geocoded_column": {
      "latitude": "29.938375787883604",
      "longitude": "-90.07294280690304"
    }
  },
  {
    "service_request": "2024-1106564",
    "request_type": "Parks & Parkways",
    "request_reason": "Request Tree Service (Right of Way/Public Property)",
    "date_created": "2024-06-24T20:06:22.000",
    "date_modified": "2024-06-24T20:06:22.000",
    "request_status": "Pending",
    "responsible_agency": "Department of Parks & Parkway",
    "final_address": "3501 Rue Michelle",
    "address_councildis": "C",
    "status": "Pending",
    "rowid": "1106564",
    "final_x": "3703555.40798",
    "final_y": "517833.765494",
    "longitude": "-89.99893108441589",
    "latitude": "29.91717525486069",
    "geocoded_column": {
      "latitude": "29.91717525486069",
      "longitude": "-89.99893108441589"
    }
  },
  {
    "service_request": "2024-1106563",
    "request_type": "Trash/Recycling",
    "request_reason": "Request a Large Item Pick Up",
    "date_created": "2024-06-24T19:54:13.000",
    "date_modified": "2024-06-24T19:54:14.000",
    "request_status": "Pending",
    "responsible_agency": "Department of Sanitation",
    "final_address": "2516 N Roman St",
    "address_councildis": "D",
    "status": "Assigned to Contractor",
    "contractor": "IV Waste",
    "rowid": "1106563",
    "final_x": "3687155.84578",
    "final_y": "539031.988426",
    "longitude": "-90.04994556588466",
    "latitude": "29.975978101405186",
    "geocoded_column": {
      "latitude": "29.975978101405186",
      "longitude": "-90.04994556588466"
    }
  },
  {
    "service_request": "2024-1106561",
    "request_type": "EMS",
    "request_reason": "EMS Lost & Found",
    "date_created": "2024-06-24T19:32:01.000",
    "date_modified": "2024-06-24T19:32:01.000",
    "request_status": "Pending",
    "responsible_agency": "Emergency Medical Services",
    "final_address": "N DERBIGNY ST & MANDEVILLE ST",
    "address_councildis": "D",
    "status": "Pending",
    "rowid": "1106561",
    "final_x": "3685603.2",
    "final_y": "538573.88",
    "longitude": "-90.05486540208896",
    "latitude": "29.974766189552444",
    "geocoded_column": {
      "latitude": "29.974766189552444",
      "longitude": "-90.05486540208896"
    }
  },
  {
    "service_request": "2024-1106560",
    "request_type": "Abandoned Vehicles",
    "request_reason": "Abandoned/Junk Vehicles",
    "date_created": "2024-06-24T19:31:25.000",
    "date_modified": "2024-06-24T19:31:25.000",
    "request_status": "Pending",
    "responsible_agency": "Department of Public Works",
    "final_address": "1240 St Roch Ave",
    "address_councildis": "C",
    "status": "Pending",
    "rowid": "1106560",
    "final_x": "3686356.18223",
    "final_y": "537111.507848",
    "longitude": "-90.05253892623658",
    "latitude": "29.970722055464954",
    "geocoded_column": {
      "latitude": "29.970722055464954",
      "longitude": "-90.05253892623658"
    }
  },
  {
    "service_request": "2024-1106557",
    "request_type": "Trash/Recycling",
    "request_reason": "Order Recycling Cart",
    "date_created": "2024-06-24T19:22:23.000",
    "date_modified": "2024-06-24T19:22:23.000",
    "request_status": "Pending",
    "responsible_agency": "Department of Sanitation",
    "final_address": "609 Vallette St",
    "address_councildis": "C",
    "status": "Pending",
    "rowid": "1106557",
    "final_x": "3687474.15081",
    "final_y": "529408.955969",
    "longitude": "-90.04928085160925",
    "latitude": "29.949508294018955",
    "geocoded_column": {
      "latitude": "29.949508294018955",
      "longitude": "-90.04928085160925"
    }
  },
  {
    "service_request": "2024-1106556",
    "request_type": "Trash/Recycling",
    "request_reason": "Replace Trash Cart",
    "date_created": "2024-06-24T19:16:51.000",
    "date_modified": "2024-06-24T19:16:52.000",
    "request_status": "Pending",
    "responsible_agency": "Department of Sanitation",
    "final_address": "7519 Zimple St",
    "address_councildis": "A",
    "status": "Assigned to Contractor",
    "contractor": "IV Waste",
    "rowid": "1106556",
    "final_x": "3663198.59322",
    "final_y": "526825.734846",
    "longitude": "-90.12601603236136",
    "latitude": "29.94313094966912",
    "geocoded_column": {
      "latitude": "29.94313094966912",
      "longitude": "-90.12601603236136"
    }
  },
  {
    "service_request": "2024-1106555",
    "request_type": "Trash/Recycling",
    "request_reason": "Request a Large Item Pick Up",
    "date_created": "2024-06-24T18:36:32.000",
    "date_modified": "2024-06-24T18:36:32.000",
    "request_status": "Pending",
    "responsible_agency": "Department of Sanitation",
    "final_address": "5201 S Liberty St, New Orleans, Louisiana, 70115",
    "address_councildis": "B",
    "status": "Assigned to Contractor",
    "contractor": "IV Waste",
    "rowid": "1106555",
    "final_x": "3668145.45095",
    "final_y": "523260.734587",
    "longitude": "-90.11051763772585",
    "latitude": "29.93318409805167",
    "geocoded_column": {
      "latitude": "29.93318409805167",
      "longitude": "-90.11051763772585"
    }
  },
  {
    "service_request": "2024-1106551",
    "request_type": "Property Maintenance",
    "request_reason": "Property Maintenance",
    "date_created": "2024-06-24T18:12:57.000",
    "date_modified": "2024-06-24T18:12:57.000",
    "request_status": "Pending",
    "responsible_agency": "Department of Code Enforcement",
    "final_address": "472 josephine st.",
    "address_councildis": "B",
    "status": "Pending",
    "rowid": "1106551",
    "final_x": "3680542.10632",
    "final_y": "520450.847224",
    "longitude": "-90.07147991593968",
    "latitude": "29.925088243329913",
    "geocoded_column": {
      "latitude": "29.925088243329913",
      "longitude": "-90.07147991593968"
    }
  },
  {
    "service_request": "2024-1106550",
    "request_type": "Roads/Drainage",
    "request_reason": "Catch Basin - Clogged",
    "date_created": "2024-06-24T18:09:59.000",
    "date_modified": "2024-06-24T18:09:59.000",
    "request_status": "Pending",
    "responsible_agency": "Department of Public Works",
    "final_address": "2801 Banks St",
    "address_councildis": "B",
    "status": "Pending",
    "rowid": "1106550",
    "final_x": "3674160.12059",
    "final_y": "534574.613253",
    "longitude": "-90.09114248846855",
    "latitude": "29.964115662138898",
    "geocoded_column": {
      "latitude": "29.964115662138898",
      "longitude": "-90.09114248846855"
    }
  },
  {
    "service_request": "2024-1106549",
    "request_type": "Trash/Recycling",
    "request_reason": "Request a Large Item Pick Up",
    "date_created": "2024-06-24T18:08:47.000",
    "date_modified": "2024-06-24T18:08:48.000",
    "request_status": "Pending",
    "responsible_agency": "Department of Sanitation",
    "final_address": "3851 Peach Tree Ct",
    "address_councildis": "C",
    "status": "Assigned to Contractor",
    "contractor": "Richards Disposal",
    "rowid": "1106549",
    "final_x": "3704189.72593",
    "final_y": "512346.045169",
    "longitude": "-89.99713091341043",
    "latitude": "29.902065573077007",
    "geocoded_column": {
      "latitude": "29.902065573077007",
      "longitude": "-89.99713091341043"
    }
  },
  {
    "service_request": "2024-1106548",
    "request_type": "Traffic Signals/Signs/Striping/Streetlights",
    "request_reason": "Street Light Outage/Malfunction",
    "date_created": "2024-06-24T17:53:12.000",
    "date_modified": "2024-06-24T17:53:13.000",
    "request_status": "Pending",
    "responsible_agency": "Department of Public Works",
    "final_address": "19 Charlotte Dr",
    "address_councildis": "D",
    "status": "Assigned to Contractor",
    "contractor": "Legacy Professional Services",
    "rowid": "1106548",
    "final_x": "3680217.32559",
    "final_y": "551607.782549",
    "longitude": "-90.07142199113714",
    "latitude": "30.010768956163854",
    "geocoded_column": {
      "latitude": "30.010768956163854",
      "longitude": "-90.07142199113714"
    }
  },
  {
    "service_request": "2024-1106547",
    "request_type": "Trash/Recycling",
    "request_reason": "Order Recycling Cart",
    "date_created": "2024-06-24T17:51:52.000",
    "date_modified": "2024-06-24T17:51:52.000",
    "request_status": "Pending",
    "responsible_agency": "Department of Sanitation",
    "final_address": "5354 Camp St",
    "address_councildis": "B",
    "status": "Pending",
    "rowid": "1106547",
    "final_x": "3667043.52308",
    "final_y": "519061.800183",
    "longitude": "-90.11413740798926",
    "latitude": "29.921670647526554",
    "geocoded_column": {
      "latitude": "29.921670647526554",
      "longitude": "-90.11413740798926"
    }
  },
  {
    "service_request": "2024-1106546",
    "request_type": "Property Maintenance",
    "request_reason": "Property Maintenance",
    "date_created": "2024-06-24T17:51:44.000",
    "date_modified": "2024-06-24T17:51:44.000",
    "request_status": "Pending",
    "responsible_agency": "Department of Code Enforcement",
    "final_address": "1450 Josephine St",
    "address_councildis": "B",
    "status": "Pending",
    "rowid": "1106546",
    "final_x": "3678247.27253",
    "final_y": "523444.999739",
    "longitude": "-90.07862047326248",
    "latitude": "29.933390474531205",
    "geocoded_column": {
      "latitude": "29.933390474531205",
      "longitude": "-90.07862047326248"
    }
  },
  {
    "service_request": "2024-1106545",
    "request_type": "Trash/Recycling",
    "request_reason": "Request a Large Item Pick Up",
    "date_created": "2024-06-24T17:50:02.000",
    "date_modified": "2024-06-24T17:50:03.000",
    "request_status": "Pending",
    "responsible_agency": "Department of Sanitation",
    "final_address": "2706 Soniat St",
    "address_councildis": "B",
    "status": "Assigned to Contractor",
    "contractor": "IV Waste",
    "rowid": "1106545",
    "final_x": "3668517.98388",
    "final_y": "525397.311677",
    "longitude": "-90.10926951702203",
    "latitude": "29.939048062101445",
    "geocoded_column": {
      "latitude": "29.939048062101445",
      "longitude": "-90.10926951702203"
    }
  },
  {
    "service_request": "2024-1106544",
    "request_type": "Traffic Signals/Signs/Striping/Streetlights",
    "request_reason": "Street Light Outage/Malfunction",
    "date_created": "2024-06-24T17:49:39.000",
    "date_modified": "2024-06-24T17:49:39.000",
    "request_status": "Pending",
    "responsible_agency": "Department of Public Works",
    "final_address": "9 Charlotte Dr",
    "address_councildis": "D",
    "status": "Assigned to Contractor",
    "contractor": "Legacy Professional Services",
    "rowid": "1106544",
    "final_x": "3680231.32034",
    "final_y": "551443.982421",
    "longitude": "-90.07138347576236",
    "latitude": "30.01031814105157",
    "geocoded_column": {
      "latitude": "30.01031814105157",
      "longitude": "-90.07138347576236"
    }
  },
  {
    "service_request": "2024-1106543",
    "request_type": "Trash/Recycling",
    "request_reason": "Request a Large Item Pick Up",
    "date_created": "2024-06-24T17:48:50.000",
    "date_modified": "2024-06-24T17:48:51.000",
    "request_status": "Pending",
    "responsible_agency": "Department of Sanitation",
    "final_address": "329 Eliza St",
    "address_councildis": "C",
    "status": "Assigned to Contractor",
    "contractor": "Richards Disposal",
    "rowid": "1106543",
    "final_x": "3686551.3503",
    "final_y": "529544.547457",
    "longitude": "-90.05218975520512",
    "latitude": "29.949909526614697",
    "geocoded_column": {
      "latitude": "29.949909526614697",
      "longitude": "-90.05218975520512"
    }
  },
  {
    "service_request": "2024-1106542",
    "request_type": "Traffic Signals/Signs/Striping/Streetlights",
    "request_reason": "Street Light Outage/Malfunction",
    "date_created": "2024-06-24T17:42:52.000",
    "date_modified": "2024-06-24T17:42:53.000",
    "request_status": "Pending",
    "responsible_agency": "Department of Public Works",
    "final_address": "8 Charlotte Dr",
    "address_councildis": "D",
    "status": "Assigned to Contractor",
    "contractor": "Legacy Professional Services",
    "rowid": "1106542",
    "final_x": "3680213.14005",
    "final_y": "551290.050645",
    "longitude": "-90.071446269926",
    "latitude": "30.009895434646964",
    "geocoded_column": {
      "latitude": "30.009895434646964",
      "longitude": "-90.071446269926"
    }
  },
  {
    "service_request": "2024-1106541",
    "request_type": "Trash/Recycling",
    "request_reason": "Request a Large Item Pick Up",
    "date_created": "2024-06-24T17:41:32.000",
    "date_modified": "2024-06-24T17:41:33.000",
    "request_status": "Pending",
    "responsible_agency": "Department of Sanitation",
    "final_address": "1917 Audubon St",
    "address_councildis": "A",
    "status": "Assigned to Contractor",
    "contractor": "IV Waste",
    "rowid": "1106541",
    "final_x": "3665893.88397",
    "final_y": "528467.527232",
    "longitude": "-90.1174512913647",
    "latitude": "29.947566986291942",
    "geocoded_column": {
      "latitude": "29.947566986291942",
      "longitude": "-90.1174512913647"
    }
  },
  {
    "service_request": "2024-1106540",
    "request_type": "Trash/Recycling",
    "request_reason": "Request a Large Item Pick Up",
    "date_created": "2024-06-24T17:36:18.000",
    "date_modified": "2024-06-24T17:36:19.000",
    "request_status": "Pending",
    "responsible_agency": "Department of Sanitation",
    "final_address": "4837 Nottingham Dr",
    "address_councildis": "E",
    "status": "Assigned to Contractor",
    "contractor": "Waste Pro",
    "rowid": "1106540",
    "final_x": "3716424.3324",
    "final_y": "557384.970011",
    "longitude": "-89.95681200815142",
    "latitude": "30.025507836780207",
    "geocoded_column": {
      "latitude": "30.025507836780207",
      "longitude": "-89.95681200815142"
    }
  },
  {
    "service_request": "2024-1106538",
    "request_type": "Property Maintenance",
    "request_reason": "Property Maintenance",
    "date_created": "2024-06-24T17:13:23.000",
    "date_modified": "2024-06-24T17:13:23.000",
    "request_status": "Pending",
    "responsible_agency": "Department of Code Enforcement",
    "final_address": "1818 Lamanche St",
    "address_councildis": "E",
    "status": "Pending",
    "rowid": "1106538",
    "final_x": "3699029.07108",
    "final_y": "536473.090055",
    "longitude": "-90.0125398858565",
    "latitude": "29.968571049259648",
    "geocoded_column": {
      "latitude": "29.968571049259648",
      "longitude": "-90.0125398858565"
    }
  },
  {
    "service_request": "2024-1106537",
    "request_type": "Trash/Recycling",
    "request_reason": "Request a Large Item Pick Up",
    "date_created": "2024-06-24T17:03:36.000",
    "date_modified": "2024-06-24T17:03:37.000",
    "request_status": "Pending",
    "responsible_agency": "Department of Sanitation",
    "final_address": "8406 Hickory St",
    "address_councildis": "A",
    "status": "Assigned to Contractor",
    "contractor": "IV Waste",
    "rowid": "1106537",
    "final_x": "3662501.90247",
    "final_y": "530681.657666",
    "longitude": "-90.12808761633433",
    "latitude": "29.95375366622341",
    "geocoded_column": {
      "latitude": "29.95375366622341",
      "longitude": "-90.12808761633433"
    }
  },
  {
    "service_request": "2024-1106536",
    "request_type": "Property Maintenance",
    "request_reason": "Property Maintenance",
    "date_created": "2024-06-24T17:00:48.000",
    "date_modified": "2024-06-24T17:00:48.000",
    "request_status": "Pending",
    "responsible_agency": "Department of Code Enforcement",
    "final_address": "1824 Lamanche St",
    "address_councildis": "E",
    "status": "Pending",
    "rowid": "1106536",
    "final_x": "3699037.44132",
    "final_y": "536503.324551",
    "longitude": "-90.0125123517224",
    "latitude": "29.968653917967963",
    "geocoded_column": {
      "latitude": "29.968653917967963",
      "longitude": "-90.0125123517224"
    }
  },
  {
    "service_request": "2024-1106535",
    "request_type": "Traffic Signals/Signs/Striping/Streetlights",
    "request_reason": "Traffic Sign Missing/Damaged",
    "date_created": "2024-06-24T16:59:53.000",
    "date_modified": "2024-06-24T16:59:53.000",
    "request_status": "Pending",
    "responsible_agency": "Department of Public Works",
    "final_address": "4202 Magazine St",
    "address_councildis": "B",
    "status": "Pending",
    "rowid": "1106535",
    "final_x": "3671770.36788",
    "final_y": "518782.579127",
    "longitude": "-90.09922625095213",
    "latitude": "29.920763738554083",
    "geocoded_column": {
      "latitude": "29.920763738554083",
      "longitude": "-90.09922625095213"
    }
  },
  {
    "service_request": "2024-1106534",
    "request_type": "Parks & Parkways",
    "request_reason": "Request Tree Service (Right of Way/Public Property)",
    "date_created": "2024-06-24T16:57:52.000",
    "date_modified": "2024-06-24T16:57:52.000",
    "request_status": "Pending",
    "responsible_agency": "Department of Parks & Parkway",
    "final_address": "CAFFIN AVE & N CLAIBORNE AVE",
    "address_councildis": "E",
    "status": "Pending",
    "rowid": "1106534",
    "final_x": "3698509.13",
    "final_y": "535619.05",
    "longitude": "-90.01421292755714",
    "latitude": "29.966239214269713",
    "geocoded_column": {
      "latitude": "29.966239214269713",
      "longitude": "-90.01421292755714"
    }
  },
  {
    "service_request": "2024-1106533",
    "request_type": "Mosquito, Termite & Rodent Control",
    "request_reason": "Non-Rodent Complaint (Mice, Possums, Snakes)",
    "date_created": "2024-06-24T16:56:55.000",
    "date_modified": "2024-06-24T16:56:55.000",
    "request_status": "Pending",
    "responsible_agency": "Mosquito, Termite & Rodent Control Board",
    "final_address": "901 Pleasant St",
    "address_councildis": "B",
    "status": "Pending",
    "rowid": "1106533",
    "final_x": "3675894.07061",
    "final_y": "519254.167799",
    "longitude": "-90.08619339796773",
    "latitude": "29.921937688524196",
    "geocoded_column": {
      "latitude": "29.921937688524196",
      "longitude": "-90.08619339796773"
    }
  },
  {
    "service_request": "2024-1106532",
    "request_type": "Trash/Recycling",
    "request_reason": "Request a Large Item Pick Up",
    "date_created": "2024-06-24T16:52:41.000",
    "date_modified": "2024-06-24T16:52:56.000",
    "request_status": "Pending",
    "responsible_agency": "Department of Sanitation",
    "final_address": "705 Forstall St",
    "address_councildis": "E",
    "status": "Assigned to Contractor",
    "contractor": "Waste Pro",
    "rowid": "1106532",
    "final_x": "3695915.56637",
    "final_y": "532761.686724",
    "longitude": "-90.02250653456441",
    "latitude": "29.958464320463772",
    "geocoded_column": {
      "latitude": "29.958464320463772",
      "longitude": "-90.02250653456441"
    }
  },
  {
    "service_request": "2024-1106531",
    "request_type": "Roads/Drainage",
    "request_reason": "Pothole",
    "date_created": "2024-06-24T16:48:46.000",
    "date_modified": "2024-06-24T16:48:46.000",
    "request_status": "Pending",
    "responsible_agency": "Department of Public Works",
    "final_address": "419 Jewel St",
    "address_councildis": "D",
    "status": "Pending",
    "rowid": "1106531",
    "final_x": "3667946.10253",
    "final_y": "555947.783321",
    "longitude": "-90.11004531296189",
    "latitude": "30.02306831143944",
    "geocoded_column": {
      "latitude": "30.02306831143944",
      "longitude": "-90.11004531296189"
    }
  },
  {
    "service_request": "2024-1106530",
    "request_type": "Traffic Signals/Signs/Striping/Streetlights",
    "request_reason": "Traffic Signal Malfunctioning/Damaged",
    "date_created": "2024-06-24T16:46:25.000",
    "date_modified": "2024-06-24T16:46:25.000",
    "request_status": "Pending",
    "responsible_agency": "Department of Public Works",
    "final_address": "14401 Chef Menteur Hwy",
    "address_councildis": "E",
    "status": "Pending",
    "rowid": "1106530",
    "final_x": "3730862.58887",
    "final_y": "561723.310623",
    "longitude": "-89.91101978533842",
    "latitude": "30.036951651687797",
    "geocoded_column": {
      "latitude": "30.036951651687797",
      "longitude": "-89.91101978533842"
    }
  },
  {
    "service_request": "2024-1106529",
    "request_type": "Trash/Recycling",
    "request_reason": "Missed Trash Pick-Up",
    "date_created": "2024-06-24T16:40:17.000",
    "date_modified": "2024-06-24T16:40:18.000",
    "request_status": "Pending",
    "responsible_agency": "Department of Sanitation",
    "final_address": "7064 Dreux Ave",
    "address_councildis": "E",
    "status": "Assigned to Contractor",
    "contractor": "Waste Pro",
    "rowid": "1106529",
    "final_x": "3701254.537",
    "final_y": "554360.47516",
    "longitude": "-90.00485686339911",
    "latitude": "30.01768399650114",
    "geocoded_column": {
      "latitude": "30.01768399650114",
      "longitude": "-90.00485686339911"
    }
  },
  {
    "service_request": "2024-1106528",
    "request_type": "Trash/Recycling",
    "request_reason": "Replace Trash Cart",
    "date_created": "2024-06-24T16:39:21.000",
    "date_modified": "2024-06-24T16:39:22.000",
    "request_status": "Pending",
    "responsible_agency": "Department of Sanitation",
    "final_address": "Palmyra Street & South Cortez Street",
    "address_councildis": "A",
    "status": "Assigned to Contractor",
    "contractor": "Richards Disposal",
    "rowid": "1106528",
    "final_x": "3671589.85838",
    "final_y": "536965.395528",
    "longitude": "-90.09917785263224",
    "latitude": "29.970765877103617",
    "geocoded_column": {
      "latitude": "29.970765877103617",
      "longitude": "-90.09917785263224"
    }
  },
  {
    "service_request": "2024-1106527",
    "request_type": "Abandoned Vehicles",
    "request_reason": "Abandoned/Junk Vehicles",
    "date_created": "2024-06-24T16:39:17.000",
    "date_modified": "2024-06-24T16:39:17.000",
    "request_status": "Pending",
    "responsible_agency": "Department of Public Works",
    "final_address": "300 N Broad St",
    "address_councildis": "B",
    "status": "Pending",
    "rowid": "1106527",
    "final_x": "3676178.53237",
    "final_y": "535718.605831",
    "longitude": "-90.08472914828391",
    "latitude": "29.96720093376451",
    "geocoded_column": {
      "latitude": "29.96720093376451",
      "longitude": "-90.08472914828391"
    }
  },
  {
    "service_request": "2024-1106526",
    "request_type": "Property Maintenance",
    "request_reason": "Property Maintenance",
    "date_created": "2024-06-24T16:39:13.000",
    "date_modified": "2024-06-24T16:39:13.000",
    "request_status": "Pending",
    "responsible_agency": "Department of Code Enforcement",
    "final_address": "2126 St Andrew St",
    "address_councildis": "B",
    "status": "Pending",
    "rowid": "1106526",
    "final_x": "3676861.71425",
    "final_y": "525800.089725",
    "longitude": "-90.0829134670121",
    "latitude": "29.939907844651696",
    "geocoded_column": {
      "latitude": "29.939907844651696",
      "longitude": "-90.0829134670121"
    }
  },
  {
    "service_request": "2024-1106525",
    "request_type": "Trash/Recycling",
    "request_reason": "Request a Large Item Pick Up",
    "date_created": "2024-06-24T16:36:25.000",
    "date_modified": "2024-06-24T16:36:25.000",
    "request_status": "Pending",
    "responsible_agency": "Department of Sanitation",
    "final_address": "2453 Lark St",
    "address_councildis": "D",
    "status": "Assigned to Contractor",
    "contractor": "IV Waste",
    "rowid": "1106525",
    "final_x": "3685014.03881",
    "final_y": "558030.430491",
    "longitude": "-90.05604113643311",
    "latitude": "30.028282747769833",
    "geocoded_column": {
      "latitude": "30.028282747769833",
      "longitude": "-90.05604113643311"
    }
  },
  {
    "service_request": "2024-1106524",
    "request_type": "Trash/Recycling",
    "request_reason": "Request a Large Item Pick Up",
    "date_created": "2024-06-24T16:35:45.000",
    "date_modified": "2024-06-24T16:35:46.000",
    "request_status": "Pending",
    "responsible_agency": "Department of Sanitation",
    "final_address": "2311 Holiday Dr",
    "address_councildis": "C",
    "status": "Assigned to Contractor",
    "contractor": "Richards Disposal",
    "rowid": "1106524",
    "final_x": "3698793.88944",
    "final_y": "522869.502587",
    "longitude": "-90.01377733618406",
    "latitude": "29.931173421028447",
    "geocoded_column": {
      "latitude": "29.931173421028447",
      "longitude": "-90.01377733618406"
    }
  },
  {
    "service_request": "2024-1106523",
    "request_type": "Mosquito, Termite & Rodent Control",
    "request_reason": "Non-Rodent Complaint (Mice, Possums, Snakes)",
    "date_created": "2024-06-24T16:34:20.000",
    "date_modified": "2024-06-24T16:34:20.000",
    "request_status": "Pending",
    "responsible_agency": "Mosquito, Termite & Rodent Control Board",
    "final_address": "PLEASANT ST & LAUREL ST",
    "address_councildis": "B",
    "status": "Pending",
    "rowid": "1106523",
    "final_x": "3675887.5",
    "final_y": "519210.68",
    "longitude": "-90.0862156326923",
    "latitude": "29.921818307721793",
    "geocoded_column": {
      "latitude": "29.921818307721793",
      "longitude": "-90.0862156326923"
    }
  },
  {
    "service_request": "2024-1106522",
    "request_type": "Trash/Recycling",
    "request_reason": "Request a Large Item Pick Up",
    "date_created": "2024-06-24T16:34:18.000",
    "date_modified": "2024-06-24T16:34:19.000",
    "request_status": "Pending",
    "responsible_agency": "Department of Sanitation",
    "final_address": "7321 Poitevent St, New Orleans, Louisiana, 70127",
    "status": "Assigned to Contractor",
    "rowid": "1106522",
    "longitude": "0.0",
    "latitude": "0.0",
    "geocoded_column": {
      "latitude": "0.0",
      "longitude": "0.0"
    }
  },
  {
    "service_request": "2024-1106521",
    "request_type": "Trash/Recycling",
    "request_reason": "Request a Large Item Pick Up",
    "date_created": "2024-06-24T16:32:53.000",
    "date_modified": "2024-06-24T16:32:53.000",
    "request_status": "Pending",
    "responsible_agency": "Department of Sanitation",
    "final_address": "920 Music St",
    "address_councildis": "C",
    "status": "Assigned to Contractor",
    "contractor": "IV Waste",
    "rowid": "1106521",
    "final_x": "3686863.08297",
    "final_y": "535912.566215",
    "longitude": "-90.050980450747",
    "latitude": "29.96740979491691",
    "geocoded_column": {
      "latitude": "29.96740979491691",
      "longitude": "-90.050980450747"
    }
  },
  {
    "service_request": "2024-1106520",
    "request_type": "Trash/Recycling",
    "request_reason": "Request a Large Item Pick Up",
    "date_created": "2024-06-24T16:31:44.000",
    "date_modified": "2024-06-24T16:31:45.000",
    "request_status": "Pending",
    "responsible_agency": "Department of Sanitation",
    "final_address": "3305 Camp St",
    "address_councildis": "B",
    "status": "Assigned to Contractor",
    "contractor": "IV Waste",
    "rowid": "1106520",
    "final_x": "3675166.31861",
    "final_y": "520138.678008",
    "longitude": "-90.08846027367184",
    "latitude": "29.924391566738844",
    "geocoded_column": {
      "latitude": "29.924391566738844",
      "longitude": "-90.08846027367184"
    }
  },
  {
    "service_request": "2024-1106519",
    "request_type": "Trash/Recycling",
    "request_reason": "Missed Trash Pick-Up",
    "date_created": "2024-06-24T16:30:08.000",
    "date_modified": "2024-06-24T16:30:08.000",
    "request_status": "Pending",
    "responsible_agency": "Department of Sanitation",
    "final_address": "47 Martin Dr",
    "address_councildis": "E",
    "status": "Assigned to Contractor",
    "contractor": "Waste Pro",
    "rowid": "1106519",
    "final_x": "3697801.07978",
    "final_y": "561004.722398",
    "longitude": "-90.01552693615257",
    "latitude": "30.036062775143797",
    "geocoded_column": {
      "latitude": "30.036062775143797",
      "longitude": "-90.01552693615257"
    }
  },
  {
    "service_request": "2024-1106518",
    "request_type": "Parks & Parkways",
    "request_reason": "Request Tree Service (Right of Way/Public Property)",
    "date_created": "2024-06-24T16:29:52.000",
    "date_modified": "2024-06-24T16:29:53.000",
    "request_status": "Pending",
    "responsible_agency": "Department of Parks & Parkway",
    "final_address": "7621 Gannon Rd",
    "address_councildis": "E",
    "status": "Pending",
    "rowid": "1106518",
    "final_x": "3716424.5157",
    "final_y": "569936.626406",
    "longitude": "-89.95633480478764",
    "latitude": "30.060019785772255",
    "geocoded_column": {
      "latitude": "30.060019785772255",
      "longitude": "-89.95633480478764"
    }
  },
  {
    "service_request": "2024-1106517",
    "request_type": "Property Maintenance",
    "request_reason": "Property Maintenance",
    "date_created": "2024-06-24T16:22:49.000",
    "date_modified": "2024-06-24T16:22:49.000",
    "request_status": "Pending",
    "responsible_agency": "Department of Code Enforcement",
    "final_address": "8400 Lomond Rd",
    "address_councildis": "E",
    "status": "Pending",
    "rowid": "1106517",
    "final_x": "3703563.94839",
    "final_y": "561914.763231",
    "longitude": "-89.99728177498447",
    "latitude": "30.03838153312315",
    "geocoded_column": {
      "latitude": "30.03838153312315",
      "longitude": "-89.99728177498447"
    }
  },
  {
    "service_request": "2024-1106516",
    "request_type": "Trash/Recycling",
    "request_reason": "Request a Large Item Pick Up",
    "date_created": "2024-06-24T16:20:25.000",
    "date_modified": "2024-06-24T16:20:25.000",
    "request_status": "Pending",
    "responsible_agency": "Department of Sanitation",
    "final_address": "3102 Frenchmen St",
    "address_councildis": "D",
    "status": "Assigned to Contractor",
    "contractor": "IV Waste",
    "rowid": "1106516",
    "final_x": "3683911.84578",
    "final_y": "544080.63547",
    "longitude": "-90.06001384747059",
    "latitude": "29.989959611179987",
    "geocoded_column": {
      "latitude": "29.989959611179987",
      "longitude": "-90.06001384747059"
    }
  },
  {
    "service_request": "2024-1106514",
    "request_type": "Traffic Signals/Signs/Striping/Streetlights",
    "request_reason": "Street Light Outage/Malfunction",
    "date_created": "2024-06-24T16:17:03.000",
    "date_modified": "2024-06-24T16:17:04.000",
    "request_status": "Pending",
    "responsible_agency": "Department of Public Works",
    "final_address": "442 Lowerline St",
    "address_councildis": "A",
    "status": "Assigned to Contractor",
    "contractor": "Legacy Professional Services",
    "rowid": "1106514",
    "final_x": "3661854.65888",
    "final_y": "524265.5751",
    "longitude": "-90.13034405133337",
    "latitude": "29.936130190172143",
    "geocoded_column": {
      "latitude": "29.936130190172143",
      "longitude": "-90.13034405133337"
    }
  },
  {
    "service_request": "2024-1106513",
    "request_type": "Trash/Recycling",
    "request_reason": "Request a Large Item Pick Up",
    "date_created": "2024-06-24T16:16:31.000",
    "date_modified": "2024-06-24T16:16:31.000",
    "request_status": "Pending",
    "responsible_agency": "Department of Sanitation",
    "final_address": "3013 Hyman Pl",
    "address_councildis": "C",
    "status": "Assigned to Contractor",
    "contractor": "Richards Disposal",
    "rowid": "1106513",
    "final_x": "3700952.24349",
    "final_y": "520050.60812",
    "longitude": "-90.00706673886198",
    "latitude": "29.92335391308665",
    "geocoded_column": {
      "latitude": "29.92335391308665",
      "longitude": "-90.00706673886198"
    }
  },
  {
    "service_request": "2024-1106512",
    "request_type": "Property Maintenance",
    "request_reason": "Property Maintenance",
    "date_created": "2024-06-24T16:14:50.000",
    "date_modified": "2024-06-24T16:14:50.000",
    "request_status": "Pending",
    "responsible_agency": "Department of Code Enforcement",
    "final_address": "2016 Simon Bolivar Ave",
    "address_councildis": "B",
    "status": "Pending",
    "rowid": "1106512",
    "final_x": "3676725.78549",
    "final_y": "525779.983357",
    "longitude": "-90.08334330686334",
    "latitude": "29.939856636776053",
    "geocoded_column": {
      "latitude": "29.939856636776053",
      "longitude": "-90.08334330686334"
    }
  },
  {
    "service_request": "2024-1106511",
    "request_type": "Property Maintenance",
    "request_reason": "Property Maintenance",
    "date_created": "2024-06-24T16:12:56.000",
    "date_modified": "2024-06-24T16:12:56.000",
    "request_status": "Pending",
    "responsible_agency": "Department of Code Enforcement",
    "final_address": "2100 BLK Saint Andrew St",
    "address_councildis": "B",
    "status": "Pending",
    "rowid": "1106511",
    "final_x": "3676928.02012",
    "final_y": "525771.499754",
    "longitude": "-90.08270511467884",
    "latitude": "29.939827241889642",
    "geocoded_column": {
      "latitude": "29.939827241889642",
      "longitude": "-90.08270511467884"
    }
  },
  {
    "service_request": "2024-1106510",
    "request_type": "Parks & Parkways",
    "request_reason": "Request Grass Cutting Service (City Owned Property)",
    "date_created": "2024-06-24T16:12:15.000",
    "date_modified": "2024-06-24T16:12:15.000",
    "request_status": "Pending",
    "responsible_agency": "Department of Parks & Parkway",
    "final_address": "BOSTON DR & I 10 W SERVICE RD",
    "address_councildis": "E",
    "status": "Pending",
    "rowid": "1106510",
    "final_x": "3706761.2",
    "final_y": "559960.48",
    "longitude": "-89.98725025415393",
    "latitude": "30.032905131376985",
    "geocoded_column": {
      "latitude": "30.032905131376985",
      "longitude": "-89.98725025415393"
    }
  },
  {
    "service_request": "2024-1106509",
    "request_type": "Trash/Recycling",
    "request_reason": "Missed Trash Pick-Up",
    "date_created": "2024-06-24T16:08:38.000",
    "date_modified": "2024-06-24T16:39:26.000",
    "case_close_date": "2024-06-24T11:39:26.000",
    "request_status": "Closed",
    "responsible_agency": "Department of Sanitation",
    "final_address": "1916 Prytania St",
    "address_councildis": "B",
    "status": "Invalid Request",
    "contractor": "IV Waste",
    "contractor_action": "Invalid Request",
    "rowid": "1106509",
    "final_x": "3678633.12104",
    "final_y": "523782.865275",
    "longitude": "-90.07739068110115",
    "latitude": "29.93430787045944",
    "geocoded_column": {
      "latitude": "29.93430787045944",
      "longitude": "-90.07739068110115"
    }
  },
  {
    "service_request": "2024-1106508",
    "request_type": "Trash/Recycling",
    "request_reason": "Replace Recycling Cart",
    "date_created": "2024-06-24T16:05:24.000",
    "date_modified": "2024-06-24T16:05:25.000",
    "request_status": "Pending",
    "responsible_agency": "Department of Sanitation",
    "final_address": "4721 Francisco Verrett Dr",
    "address_councildis": "E",
    "status": "Pending",
    "rowid": "1106508",
    "final_x": "3704263.90225",
    "final_y": "555119.974105",
    "longitude": "-89.99532049904191",
    "latitude": "30.01967604777596",
    "geocoded_column": {
      "latitude": "30.01967604777596",
      "longitude": "-89.99532049904191"
    }
  },
  {
    "service_request": "2024-1106506",
    "request_type": "Property Maintenance",
    "request_reason": "Property Maintenance",
    "date_created": "2024-06-24T16:00:46.000",
    "date_modified": "2024-06-24T16:00:46.000",
    "request_status": "Pending",
    "responsible_agency": "Department of Code Enforcement",
    "final_address": "3319 Fern St",
    "address_councildis": "B",
    "status": "Pending",
    "rowid": "1106506",
    "final_x": "3667704.04065",
    "final_y": "533481.476548",
    "longitude": "-90.11156710295667",
    "latitude": "29.96130076577488",
    "geocoded_column": {
      "latitude": "29.96130076577488",
      "longitude": "-90.11156710295667"
    }
  },
  {
    "service_request": "2024-1106505",
    "request_type": "Parks & Parkways",
    "request_reason": "Request Tree Service (Right of Way/Public Property)",
    "date_created": "2024-06-24T15:52:36.000",
    "date_modified": "2024-06-24T15:52:37.000",
    "request_status": "Pending",
    "responsible_agency": "Department of Parks & Parkway",
    "final_address": "5530 S Liberty St",
    "address_councildis": "A",
    "status": "Pending",
    "rowid": "1106505",
    "final_x": "3667200.96954",
    "final_y": "523325.183291",
    "longitude": "-90.11349714795887",
    "latitude": "29.933388992421577",
    "geocoded_column": {
      "latitude": "29.933388992421577",
      "longitude": "-90.11349714795887"
    }
  },
  {
    "service_request": "2024-1106504",
    "request_type": "Trash/Recycling",
    "request_reason": "Request a Large Item Pick Up",
    "date_created": "2024-06-24T15:50:27.000",
    "date_modified": "2024-06-24T15:50:28.000",
    "request_status": "Pending",
    "responsible_agency": "Department of Sanitation",
    "final_address": "7940 Pebble Dr",
    "address_councildis": "E",
    "status": "Assigned to Contractor",
    "contractor": "Waste Pro",
    "rowid": "1106504",
    "final_x": "3714323.18008",
    "final_y": "569929.520038",
    "longitude": "-89.96297721778893",
    "latitude": "30.06006951325848",
    "geocoded_column": {
      "latitude": "30.06006951325848",
      "longitude": "-89.96297721778893"
    }
  },
  {
    "service_request": "2024-1106503",
    "request_type": "Abandoned Vehicles",
    "request_reason": "Abandoned/Junk Vehicles",
    "date_created": "2024-06-24T15:47:47.000",
    "date_modified": "2024-06-24T15:47:47.000",
    "request_status": "Pending",
    "responsible_agency": "Department of Public Works",
    "final_address": "4201 Patterson St",
    "address_councildis": "C",
    "status": "Pending",
    "rowid": "1106503",
    "final_x": "3699616.83031",
    "final_y": "526125.073918",
    "longitude": "-90.01106083621934",
    "latitude": "29.94009902775673",
    "geocoded_column": {
      "latitude": "29.94009902775673",
      "longitude": "-90.01106083621934"
    }
  },
  {
    "service_request": "2024-1106502",
    "request_type": "Abandoned Vehicles",
    "request_reason": "Abandoned/Junk Vehicles",
    "date_created": "2024-06-24T15:44:56.000",
    "date_modified": "2024-06-24T15:44:57.000",
    "request_status": "Pending",
    "responsible_agency": "Department of Public Works",
    "final_address": "6930 Bamberry St",
    "address_councildis": "E",
    "status": "Pending",
    "rowid": "1106502",
    "final_x": "3699160.40055",
    "final_y": "559151.970268",
    "longitude": "-90.01129880279838",
    "latitude": "30.03092536752478",
    "geocoded_column": {
      "latitude": "30.03092536752478",
      "longitude": "-90.01129880279838"
    }
  },
  {
    "service_request": "2024-1106501",
    "request_type": "Trash/Recycling",
    "request_reason": "Request a Large Item Pick Up",
    "date_created": "2024-06-24T15:43:21.000",
    "date_modified": "2024-06-24T15:43:22.000",
    "request_status": "Pending",
    "responsible_agency": "Department of Sanitation",
    "final_address": "2534 Onzaga St",
    "address_councildis": "D",
    "status": "Assigned to Contractor",
    "contractor": "IV Waste",
    "rowid": "1106501",
    "final_x": "3679514.15195",
    "final_y": "540250.215051",
    "longitude": "-90.07403794985119",
    "latitude": "29.979560933035508",
    "geocoded_column": {
      "latitude": "29.979560933035508",
      "longitude": "-90.07403794985119"
    }
  },
  {
    "service_request": "2024-1106500",
    "request_type": "Traffic Signals/Signs/Striping/Streetlights",
    "request_reason": "Street Light Outage/Malfunction",
    "date_created": "2024-06-24T15:42:20.000",
    "date_modified": "2024-06-24T15:42:20.000",
    "request_status": "Pending",
    "responsible_agency": "Department of Public Works",
    "final_address": "2528 Clover St",
    "address_councildis": "D",
    "status": "Assigned to Contractor",
    "contractor": "Legacy Professional Services",
    "rowid": "1106500",
    "final_x": "3686616.5869",
    "final_y": "546554.131281",
    "longitude": "-90.05138290602025",
    "latitude": "29.99667791583359",
    "geocoded_column": {
      "latitude": "29.99667791583359",
      "longitude": "-90.05138290602025"
    }
  },
  {
    "service_request": "2024-1106499",
    "request_type": "Trash/Recycling",
    "request_reason": "Illegal Dumping",
    "date_created": "2024-06-24T15:39:00.000",
    "date_modified": "2024-06-24T15:39:00.000",
    "request_status": "Pending",
    "responsible_agency": "Department of Sanitation",
    "final_address": "4201 Patterson St",
    "address_councildis": "C",
    "status": "Pending",
    "rowid": "1106499",
    "final_x": "3699616.83031",
    "final_y": "526125.073918",
    "longitude": "-90.01106083621934",
    "latitude": "29.94009902775673",
    "geocoded_column": {
      "latitude": "29.94009902775673",
      "longitude": "-90.01106083621934"
    }
  },
  {
    "service_request": "2024-1106498",
    "request_type": "Trash/Recycling",
    "request_reason": "Request a Large Item Pick Up",
    "date_created": "2024-06-24T15:38:50.000",
    "date_modified": "2024-06-24T15:38:51.000",
    "request_status": "Pending",
    "responsible_agency": "Department of Sanitation",
    "final_address": "6565 Canal Blvd",
    "address_councildis": "A",
    "status": "Assigned to Contractor",
    "contractor": "IV Waste",
    "rowid": "1106498",
    "final_x": "3668996.79559",
    "final_y": "551193.543317",
    "longitude": "-90.10688613593328",
    "latitude": "30.009964948298855",
    "geocoded_column": {
      "latitude": "30.009964948298855",
      "longitude": "-90.10688613593328"
    }
  },
  {
    "service_request": "2024-1106497",
    "request_type": "Trash/Recycling",
    "request_reason": "Request a Large Item Pick Up",
    "date_created": "2024-06-24T15:37:30.000",
    "date_modified": "2024-06-24T15:37:30.000",
    "request_status": "Pending",
    "responsible_agency": "Department of Sanitation",
    "final_address": "7710 Keats St",
    "address_councildis": "E",
    "status": "Assigned to Contractor",
    "contractor": "Waste Pro",
    "rowid": "1106497",
    "final_x": "3696143.62371",
    "final_y": "559301.542237",
    "longitude": "-90.02082643932246",
    "latitude": "30.031431993288408",
    "geocoded_column": {
      "latitude": "30.031431993288408",
      "longitude": "-90.02082643932246"
    }
  },
  {
    "service_request": "2024-1106496",
    "request_type": "Trash/Recycling",
    "request_reason": "Repair Trash Cart",
    "date_created": "2024-06-24T15:35:19.000",
    "date_modified": "2024-06-24T15:35:20.000",
    "request_status": "Pending",
    "responsible_agency": "Department of Sanitation",
    "final_address": "2075 Mirabeau Ave",
    "address_councildis": "D",
    "status": "Assigned to Contractor",
    "contractor": "IV Waste",
    "rowid": "1106496",
    "final_x": "3683008.63042",
    "final_y": "550727.417493",
    "longitude": "-90.06263402632192",
    "latitude": "30.008263450326726",
    "geocoded_column": {
      "latitude": "30.008263450326726",
      "longitude": "-90.06263402632192"
    }
  },
  {
    "service_request": "2024-1106495",
    "request_type": "Trash/Recycling",
    "request_reason": "Request a Large Item Pick Up",
    "date_created": "2024-06-24T15:35:11.000",
    "date_modified": "2024-06-24T15:35:12.000",
    "request_status": "Pending",
    "responsible_agency": "Department of Sanitation",
    "final_address": "5373 Canal Blvd",
    "address_councildis": "A",
    "status": "Assigned to Contractor",
    "contractor": "IV Waste",
    "rowid": "1106495",
    "final_x": "3668230.51181",
    "final_y": "543230.516814",
    "longitude": "-90.10957580237759",
    "latitude": "29.98809190791012",
    "geocoded_column": {
      "latitude": "29.98809190791012",
      "longitude": "-90.10957580237759"
    }
  },
  {
    "service_request": "2024-1106494",
    "request_type": "Trash/Recycling",
    "request_reason": "Request a Large Item Pick Up",
    "date_created": "2024-06-24T15:34:59.000",
    "date_modified": "2024-06-24T15:35:00.000",
    "request_status": "Pending",
    "responsible_agency": "Department of Sanitation",
    "final_address": "7646 Lafourche St",
    "address_councildis": "E",
    "status": "Assigned to Contractor",
    "contractor": "Waste Pro",
    "rowid": "1106494",
    "final_x": "3710100.12408",
    "final_y": "565628.094306",
    "longitude": "-89.9764869699961",
    "latitude": "30.048380531597676",
    "geocoded_column": {
      "latitude": "30.048380531597676",
      "longitude": "-89.9764869699961"
    }
  },
  {
    "service_request": "2024-1106493",
    "request_type": "Trash/Recycling",
    "request_reason": "Request a Large Item Pick Up",
    "date_created": "2024-06-24T15:33:11.000",
    "date_modified": "2024-06-24T15:33:11.000",
    "request_status": "Pending",
    "responsible_agency": "Department of Sanitation",
    "final_address": "23 Swallow St",
    "address_councildis": "D",
    "status": "Assigned to Contractor",
    "contractor": "IV Waste",
    "rowid": "1106493",
    "final_x": "3673367.89371",
    "final_y": "556963.042906",
    "longitude": "-90.0928788897258",
    "latitude": "30.025699638712737",
    "geocoded_column": {
      "latitude": "30.025699638712737",
      "longitude": "-90.0928788897258"
    }
  },
  {
    "service_request": "2024-1106492",
    "request_type": "Roads/Drainage",
    "request_reason": "Street Flooding / Drainage",
    "date_created": "2024-06-24T15:32:44.000",
    "date_modified": "2024-06-24T15:32:45.000",
    "request_status": "Pending",
    "responsible_agency": "Department of Public Works",
    "final_address": "MISTLETOE ST & APPLE ST",
    "address_councildis": "A",
    "status": "Pending",
    "rowid": "1106492",
    "final_x": "3662486.1",
    "final_y": "534716.28",
    "longitude": "-90.12800350324346",
    "latitude": "29.96484802335783",
    "geocoded_column": {
      "latitude": "29.96484802335783",
      "longitude": "-90.12800350324346"
    }
  },
  {
    "service_request": "2024-1106491",
    "request_type": "Trash/Recycling",
    "request_reason": "Request a Large Item Pick Up",
    "date_created": "2024-06-24T15:30:29.000",
    "date_modified": "2024-06-24T15:30:29.000",
    "request_status": "Pending",
    "responsible_agency": "Department of Sanitation",
    "final_address": "4308 Constance St",
    "address_councildis": "B",
    "status": "Assigned to Contractor",
    "contractor": "IV Waste",
    "rowid": "1106491",
    "final_x": "3671401.20577",
    "final_y": "518408.727094",
    "longitude": "-90.10040422684627",
    "latitude": "29.919746691801887",
    "geocoded_column": {
      "latitude": "29.919746691801887",
      "longitude": "-90.10040422684627"
    }
  },
  {
    "service_request": "2024-1106490",
    "request_type": "Trash/Recycling",
    "request_reason": "Request a Large Item Pick Up",
    "date_created": "2024-06-24T15:29:44.000",
    "date_modified": "2024-06-24T15:29:44.000",
    "request_status": "Pending",
    "responsible_agency": "Department of Sanitation",
    "final_address": "1119 Mandeville St",
    "address_councildis": "C",
    "status": "Assigned to Contractor",
    "contractor": "IV Waste",
    "rowid": "1106490",
    "final_x": "3685787.49647",
    "final_y": "536609.581191",
    "longitude": "-90.0543525947963",
    "latitude": "29.969359398319988",
    "geocoded_column": {
      "latitude": "29.969359398319988",
      "longitude": "-90.0543525947963"
    }
  },
  {
    "service_request": "2024-1106489",
    "request_type": "Property Maintenance",
    "request_reason": "Property Maintenance",
    "date_created": "2024-06-24T15:27:49.000",
    "date_modified": "2024-06-24T15:27:50.000",
    "request_status": "Pending",
    "responsible_agency": "Department of Code Enforcement",
    "final_address": "1118 Thalia St",
    "address_councildis": "B",
    "status": "Pending",
    "rowid": "1106489",
    "final_x": "3680366.69455",
    "final_y": "525248.421757",
    "longitude": "-90.07186690815948",
    "latitude": "29.93828530409222",
    "geocoded_column": {
      "latitude": "29.93828530409222",
      "longitude": "-90.07186690815948"
    }
  },
  {
    "service_request": "2024-1106488",
    "request_type": "Trash/Recycling",
    "request_reason": "Request a Large Item Pick Up",
    "date_created": "2024-06-24T15:26:44.000",
    "date_modified": "2024-06-24T15:26:45.000",
    "request_status": "Pending",
    "responsible_agency": "Department of Sanitation",
    "final_address": "10340 Brookfield Dr",
    "address_councildis": "E",
    "status": "Assigned to Contractor",
    "contractor": "Waste Pro",
    "rowid": "1106488",
    "final_x": "3710674.78533",
    "final_y": "563265.635552",
    "longitude": "-89.97475925389885",
    "latitude": "30.041865996865702",
    "geocoded_column": {
      "latitude": "30.041865996865702",
      "longitude": "-89.97475925389885"
    }
  },
  {
    "service_request": "2024-1106487",
    "request_type": "Property Maintenance",
    "request_reason": "Property Maintenance",
    "date_created": "2024-06-24T15:25:58.000",
    "date_modified": "2024-06-24T15:25:58.000",
    "request_status": "Pending",
    "responsible_agency": "Department of Code Enforcement",
    "final_address": "3335 First St",
    "address_councildis": "B",
    "status": "Pending",
    "rowid": "1106487",
    "final_x": "3673518.66235",
    "final_y": "528564.086016",
    "longitude": "-90.09337355915193",
    "latitude": "29.947607816933534",
    "geocoded_column": {
      "latitude": "29.947607816933534",
      "longitude": "-90.09337355915193"
    }
  },
  {
    "service_request": "2024-1106486",
    "request_type": "Trash/Recycling",
    "request_reason": "Replace Trash Cart",
    "date_created": "2024-06-24T15:24:29.000",
    "date_modified": "2024-06-24T15:24:30.000",
    "request_status": "Pending",
    "responsible_agency": "Department of Sanitation",
    "final_address": "13923 Curran Rd",
    "address_councildis": "E",
    "status": "Assigned to Contractor",
    "contractor": "Waste Pro",
    "rowid": "1106486",
    "final_x": "3718260.98143",
    "final_y": "572069.40132",
    "longitude": "-89.95044853717214",
    "latitude": "30.065823216383844",
    "geocoded_column": {
      "latitude": "30.065823216383844",
      "longitude": "-89.95044853717214"
    }
  },
  {
    "service_request": "2024-1106485",
    "request_type": "Trash/Recycling",
    "request_reason": "Request a Large Item Pick Up",
    "date_created": "2024-06-24T15:24:06.000",
    "date_modified": "2024-06-24T15:24:06.000",
    "request_status": "Pending",
    "responsible_agency": "Department of Sanitation",
    "final_address": "7710 Newcastle St",
    "address_councildis": "E",
    "status": "Assigned to Contractor",
    "contractor": "Waste Pro",
    "rowid": "1106485",
    "final_x": "3697034.49463",
    "final_y": "559619.282717",
    "longitude": "-90.01799973721647",
    "latitude": "30.032277568888805",
    "geocoded_column": {
      "latitude": "30.032277568888805",
      "longitude": "-90.01799973721647"
    }
  },
  {
    "service_request": "2024-1106484",
    "request_type": "Trash/Recycling",
    "request_reason": "Request a Large Item Pick Up",
    "date_created": "2024-06-24T15:24:01.000",
    "date_modified": "2024-06-24T15:31:07.000",
    "request_status": "Pending",
    "responsible_agency": "Department of Sanitation",
    "final_address": "1665 Lafreniere St",
    "address_councildis": "D",
    "status": "Assigned to Contractor",
    "contractor": "IV Waste",
    "rowid": "1106484",
    "final_x": "3680272.75771",
    "final_y": "545235.127567",
    "longitude": "-90.07146858328046",
    "latitude": "29.993244750035196",
    "geocoded_column": {
      "latitude": "29.993244750035196",
      "longitude": "-90.07146858328046"
    }
  },
  {
    "service_request": "2024-1106483",
    "request_type": "Trash/Recycling",
    "request_reason": "Request a Large Item Pick Up",
    "date_created": "2024-06-24T15:23:08.000",
    "date_modified": "2024-06-24T15:23:08.000",
    "request_status": "Pending",
    "responsible_agency": "Department of Sanitation",
    "final_address": "9325 Hammond St",
    "address_councildis": "E",
    "status": "Assigned to Contractor",
    "contractor": "Waste Pro",
    "rowid": "1106483",
    "final_x": "3709825.46891",
    "final_y": "556192.746778",
    "longitude": "-89.97770784031816",
    "latitude": "30.022446011533383",
    "geocoded_column": {
      "latitude": "30.022446011533383",
      "longitude": "-89.97770784031816"
    }
  },
  {
    "service_request": "2024-1106482",
    "request_type": "Roads/Drainage",
    "request_reason": "Pothole",
    "date_created": "2024-06-24T15:22:57.000",
    "date_modified": "2024-06-24T15:22:57.000",
    "request_status": "Pending",
    "responsible_agency": "Department of Public Works",
    "final_address": "4216 Chestnut St",
    "address_councildis": "B",
    "status": "Pending",
    "rowid": "1106482",
    "final_x": "3671574.31393",
    "final_y": "519539.203703",
    "longitude": "-90.09981939416457",
    "latitude": "29.922850019854593",
    "geocoded_column": {
      "latitude": "29.922850019854593",
      "longitude": "-90.09981939416457"
    }
  },
  {
    "service_request": "2024-1106481",
    "request_type": "Roads/Drainage",
    "request_reason": "Pothole",
    "date_created": "2024-06-24T15:22:21.000",
    "date_modified": "2024-06-24T15:22:21.000",
    "request_status": "Pending",
    "responsible_agency": "Department of Public Works",
    "final_address": "1312 Milan St",
    "address_councildis": "B",
    "status": "Pending",
    "rowid": "1106481",
    "final_x": "3671625.82823",
    "final_y": "520286.919608",
    "longitude": "-90.09963137110304",
    "latitude": "29.92490447494246",
    "geocoded_column": {
      "latitude": "29.92490447494246",
      "longitude": "-90.09963137110304"
    }
  },
  {
    "service_request": "2024-1106480",
    "request_type": "Mosquito, Termite & Rodent Control",
    "request_reason": "Rodent Complaint (Rats)",
    "date_created": "2024-06-24T15:18:14.000",
    "date_modified": "2024-06-24T15:18:15.000",
    "request_status": "Pending",
    "responsible_agency": "Mosquito, Termite & Rodent Control Board",
    "final_address": "1764 N Broad St",
    "address_councildis": "D",
    "status": "Pending",
    "rowid": "1106480",
    "final_x": "3679923.58811",
    "final_y": "541118.288652",
    "longitude": "-90.07271462271916",
    "latitude": "29.981935454460984",
    "geocoded_column": {
      "latitude": "29.981935454460984",
      "longitude": "-90.07271462271916"
    }
  },
  {
    "service_request": "2024-1106479",
    "request_type": "Trash/Recycling",
    "request_reason": "Repair Trash Cart",
    "date_created": "2024-06-24T15:18:14.000",
    "date_modified": "2024-06-24T15:18:15.000",
    "request_status": "Pending",
    "responsible_agency": "Department of Sanitation",
    "final_address": "13010 Maple Wood Dr",
    "address_councildis": "E",
    "status": "Assigned to Contractor",
    "contractor": "Waste Pro",
    "rowid": "1106479",
    "final_x": "3723464.65337",
    "final_y": "563598.754721",
    "longitude": "-89.93432619066562",
    "latitude": "30.042358771738478",
    "geocoded_column": {
      "latitude": "30.042358771738478",
      "longitude": "-89.93432619066562"
    }
  },
  {
    "service_request": "2024-1106478",
    "request_type": "Abandoned Vehicles",
    "request_reason": "Abandoned/Junk Vehicles",
    "date_created": "2024-06-24T15:17:02.000",
    "date_modified": "2024-06-24T15:17:02.000",
    "request_status": "Pending",
    "responsible_agency": "Department of Public Works",
    "final_address": "400 N Villere St",
    "address_councildis": "C",
    "status": "Inspected",
    "rowid": "1106478",
    "final_x": "3679823.41595",
    "final_y": "533328.089988",
    "longitude": "-90.07330158652334",
    "latitude": "29.96051811655422",
    "geocoded_column": {
      "latitude": "29.96051811655422",
      "longitude": "-90.07330158652334"
    }
  },
  {
    "service_request": "2024-1106477",
    "request_type": "Trash/Recycling",
    "request_reason": "Request a Large Item Pick Up",
    "date_created": "2024-06-24T15:12:28.000",
    "date_modified": "2024-06-24T15:12:28.000",
    "request_status": "Pending",
    "responsible_agency": "Department of Sanitation",
    "final_address": "7018 Dreux Ave",
    "address_councildis": "E",
    "status": "Assigned to Contractor",
    "contractor": "Waste Pro",
    "rowid": "1106477",
    "final_x": "3701060.46097",
    "final_y": "554330.343128",
    "longitude": "-90.00547116685846",
    "latitude": "30.017607330417324",
    "geocoded_column": {
      "latitude": "30.017607330417324",
      "longitude": "-90.00547116685846"
    }
  },
  {
    "service_request": "2024-1106476",
    "request_type": "Traffic Signals/Signs/Striping/Streetlights",
    "request_reason": "Street Light Outage/Malfunction",
    "date_created": "2024-06-24T15:10:58.000",
    "date_modified": "2024-06-24T15:10:59.000",
    "request_status": "Pending",
    "responsible_agency": "Department of Public Works",
    "final_address": "5516 Grand Bayou Dr",
    "address_councildis": "E",
    "status": "Assigned to Contractor",
    "contractor": "Legacy Professional Services",
    "rowid": "1106476",
    "final_x": "3725063.25747",
    "final_y": "563753.165537",
    "longitude": "-89.92926807160812",
    "latitude": "30.042729573511313",
    "geocoded_column": {
      "latitude": "30.042729573511313",
      "longitude": "-89.92926807160812"
    }
  },
  {
    "service_request": "2024-1106475",
    "request_type": "Trash/Recycling",
    "request_reason": "Order Recycling Cart",
    "date_created": "2024-06-24T15:09:27.000",
    "date_modified": "2024-06-24T15:09:27.000",
    "request_status": "Pending",
    "responsible_agency": "Department of Sanitation",
    "final_address": "1125 Piety St",
    "address_councildis": "C",
    "status": "Pending",
    "rowid": "1106475",
    "final_x": "3689939.25731",
    "final_y": "536069.816647",
    "longitude": "-90.04126027235068",
    "latitude": "29.967747158528073",
    "geocoded_column": {
      "latitude": "29.967747158528073",
      "longitude": "-90.04126027235068"
    }
  },
  {
    "service_request": "2024-1106474",
    "request_type": "Trash/Recycling",
    "request_reason": "Missed Trash Pick-Up",
    "date_created": "2024-06-24T14:58:56.000",
    "date_modified": "2024-06-24T14:58:57.000",
    "request_status": "Pending",
    "responsible_agency": "Department of Sanitation",
    "final_address": "1405 Nunez St",
    "address_councildis": "C",
    "status": "Assigned to Contractor",
    "contractor": "Richards Disposal",
    "rowid": "1106474",
    "final_x": "3686998.22818",
    "final_y": "526332.79539",
    "longitude": "-90.05089225741611",
    "latitude": "29.94106455401833",
    "geocoded_column": {
      "latitude": "29.94106455401833",
      "longitude": "-90.05089225741611"
    }
  },
  {
    "service_request": "2024-1106473",
    "request_type": "Trash/Recycling",
    "request_reason": "Missed Trash Pick-Up",
    "date_created": "2024-06-24T14:58:34.000",
    "date_modified": "2024-06-24T14:58:34.000",
    "request_status": "Pending",
    "responsible_agency": "Department of Sanitation",
    "final_address": "1409 Nunez St",
    "address_councildis": "C",
    "status": "Assigned to Contractor",
    "contractor": "Richards Disposal",
    "rowid": "1106473",
    "final_x": "3686999.9654",
    "final_y": "526308.64147",
    "longitude": "-90.05088762620393",
    "latitude": "29.940998085446132",
    "geocoded_column": {
      "latitude": "29.940998085446132",
      "longitude": "-90.05088762620393"
    }
  },
  {
    "service_request": "2024-1106472",
    "request_type": "Trash/Recycling",
    "request_reason": "Missed Trash Pick-Up",
    "date_created": "2024-06-24T14:57:58.000",
    "date_modified": "2024-06-24T14:57:59.000",
    "request_status": "Pending",
    "responsible_agency": "Department of Sanitation",
    "final_address": "1417 Nunez St",
    "address_councildis": "C",
    "status": "Assigned to Contractor",
    "contractor": "Richards Disposal",
    "rowid": "1106472",
    "final_x": "3687002.1951",
    "final_y": "526245.373502",
    "longitude": "-90.05088282228151",
    "latitude": "29.940824051313665",
    "geocoded_column": {
      "latitude": "29.940824051313665",
      "longitude": "-90.05088282228151"
    }
  },
  {
    "service_request": "2024-1106471",
    "request_type": "Roads/Drainage",
    "request_reason": "Street Flooding / Drainage",
    "date_created": "2024-06-24T14:55:17.000",
    "date_modified": "2024-06-24T14:55:17.000",
    "request_status": "Pending",
    "responsible_agency": "Department of Public Works",
    "final_address": "6000 BLK General Diaz St",
    "address_councildis": "A",
    "status": "Pending",
    "rowid": "1106471",
    "final_x": "3669532.2111",
    "final_y": "547511.572743",
    "longitude": "-90.10531922769981",
    "latitude": "29.999825046300302",
    "geocoded_column": {
      "latitude": "29.999825046300302",
      "longitude": "-90.10531922769981"
    }
  },
  {
    "service_request": "2024-1106470",
    "request_type": "Traffic Signals/Signs/Striping/Streetlights",
    "request_reason": "Street Light Outage/Malfunction",
    "date_created": "2024-06-24T14:54:54.000",
    "date_modified": "2024-06-24T14:54:54.000",
    "request_status": "Pending",
    "responsible_agency": "Department of Public Works",
    "final_address": "1830 Franklin Ave",
    "address_councildis": "D",
    "status": "Assigned to Contractor",
    "contractor": "Legacy Professional Services",
    "rowid": "1106470",
    "final_x": "3687621.8982",
    "final_y": "539406.590986",
    "longitude": "-90.0484603752992",
    "latitude": "29.976993765057006",
    "geocoded_column": {
      "latitude": "29.976993765057006",
      "longitude": "-90.0484603752992"
    }
  },
  {
    "service_request": "2024-1106469",
    "request_type": "Trash/Recycling",
    "request_reason": "Missed Trash Pick-Up",
    "date_created": "2024-06-24T14:53:14.000",
    "date_modified": "2024-06-24T14:53:14.000",
    "request_status": "Pending",
    "responsible_agency": "Department of Sanitation",
    "final_address": "6123 Law St",
    "address_councildis": "E",
    "status": "Assigned to Contractor",
    "contractor": "Waste Pro",
    "rowid": "1106469",
    "final_x": "3701834.91735",
    "final_y": "538636.756425",
    "longitude": "-90.00359963956726",
    "latitude": "29.974431117752438",
    "geocoded_column": {
      "latitude": "29.974431117752438",
      "longitude": "-90.00359963956726"
    }
  },
  {
    "service_request": "2024-1106468",
    "request_type": "Trash/Recycling",
    "request_reason": "Request a Large Item Pick Up",
    "date_created": "2024-06-24T14:49:58.000",
    "date_modified": "2024-06-24T14:49:59.000",
    "request_status": "Pending",
    "responsible_agency": "Department of Sanitation",
    "final_address": "7541 Morel St",
    "address_councildis": "E",
    "status": "Assigned to Contractor",
    "contractor": "Waste Pro",
    "rowid": "1106468",
    "final_x": "3719149.11903",
    "final_y": "571603.356904",
    "longitude": "-89.94765886612052",
    "latitude": "30.064512287519054",
    "geocoded_column": {
      "latitude": "30.064512287519054",
      "longitude": "-89.94765886612052"
    }
  },
  {
    "service_request": "2024-1106467",
    "request_type": "Trash/Recycling",
    "request_reason": "Request a Large Item Pick Up",
    "date_created": "2024-06-24T14:49:35.000",
    "date_modified": "2024-06-24T14:49:36.000",
    "request_status": "Pending",
    "responsible_agency": "Department of Sanitation",
    "final_address": "1825 Rivertree Ct",
    "address_councildis": "C",
    "status": "Assigned to Contractor",
    "contractor": "Richards Disposal",
    "rowid": "1106467",
    "final_x": "3701373.00465",
    "final_y": "523994.02342",
    "longitude": "-90.00559432454399",
    "latitude": "29.934183542054196",
    "geocoded_column": {
      "latitude": "29.934183542054196",
      "longitude": "-90.00559432454399"
    }
  },
  {
    "service_request": "2024-1106466",
    "request_type": "Trash/Recycling",
    "request_reason": "Order Recycling Cart",
    "date_created": "2024-06-24T14:47:15.000",
    "date_modified": "2024-06-24T14:47:16.000",
    "request_status": "Pending",
    "responsible_agency": "Department of Sanitation",
    "final_address": "8821 Colapissa St",
    "address_councildis": "A",
    "status": "Pending",
    "rowid": "1106466",
    "final_x": "3664591.90285",
    "final_y": "535227.778438",
    "longitude": "-90.12133639865344",
    "latitude": "29.966193399051082",
    "geocoded_column": {
      "latitude": "29.966193399051082",
      "longitude": "-90.12133639865344"
    }
  },
  {
    "service_request": "2024-1106465",
    "request_type": "Trash/Recycling",
    "request_reason": "Missed Trash Pick-Up",
    "date_created": "2024-06-24T14:46:49.000",
    "date_modified": "2024-06-24T15:30:15.000",
    "case_close_date": "2024-06-24T10:30:15.000",
    "request_status": "Closed",
    "responsible_agency": "Department of Sanitation",
    "final_address": "1916 Prytania St",
    "address_councildis": "B",
    "status": "Invalid Request",
    "contractor": "IV Waste",
    "contractor_action": "Invalid",
    "rowid": "1106465",
    "final_x": "3678633.12104",
    "final_y": "523782.865275",
    "longitude": "-90.07739068110115",
    "latitude": "29.93430787045944",
    "geocoded_column": {
      "latitude": "29.93430787045944",
      "longitude": "-90.07739068110115"
    }
  },
  {
    "service_request": "2024-1106464",
    "request_type": "Trash/Recycling",
    "request_reason": "Replace Trash Cart",
    "date_created": "2024-06-24T14:46:47.000",
    "date_modified": "2024-06-24T14:46:48.000",
    "request_status": "Pending",
    "responsible_agency": "Department of Sanitation",
    "final_address": "8821 Colapissa St",
    "address_councildis": "A",
    "status": "Assigned to Contractor",
    "contractor": "IV Waste",
    "rowid": "1106464",
    "final_x": "3664591.90285",
    "final_y": "535227.778438",
    "longitude": "-90.12133639865344",
    "latitude": "29.966193399051082",
    "geocoded_column": {
      "latitude": "29.966193399051082",
      "longitude": "-90.12133639865344"
    }
  },
  {
    "service_request": "2024-1106463",
    "request_type": "Trash/Recycling",
    "request_reason": "Illegal Dumping",
    "date_created": "2024-06-24T14:44:36.000",
    "date_modified": "2024-06-24T14:44:37.000",
    "request_status": "Pending",
    "responsible_agency": "Department of Sanitation",
    "final_address": "750 S Norman C Francis Prkwy",
    "address_councildis": "B",
    "status": "Pending",
    "rowid": "1106463",
    "final_x": "3671561.74759",
    "final_y": "534316.472453",
    "longitude": "-90.09935672119532",
    "latitude": "29.963483059544206",
    "geocoded_column": {
      "latitude": "29.963483059544206",
      "longitude": "-90.09935672119532"
    }
  },
  {
    "service_request": "2024-1106462",
    "request_type": "Trash/Recycling",
    "request_reason": "Request a Large Item Pick Up",
    "date_created": "2024-06-24T14:44:33.000",
    "date_modified": "2024-06-24T14:44:34.000",
    "request_status": "Pending",
    "responsible_agency": "Department of Sanitation",
    "final_address": "1825 Rivertree Ct",
    "address_councildis": "C",
    "status": "Assigned to Contractor",
    "contractor": "Richards Disposal",
    "rowid": "1106462",
    "final_x": "3701373.00465",
    "final_y": "523994.02342",
    "longitude": "-90.00559432454399",
    "latitude": "29.934183542054196",
    "geocoded_column": {
      "latitude": "29.934183542054196",
      "longitude": "-90.00559432454399"
    }
  },
  {
    "service_request": "2024-1106461",
    "request_type": "Roads/Drainage",
    "request_reason": "Pothole",
    "date_created": "2024-06-24T14:44:03.000",
    "date_modified": "2024-06-24T14:44:03.000",
    "request_status": "Pending",
    "responsible_agency": "Department of Public Works",
    "final_address": "4000 Constance St",
    "address_councildis": "B",
    "status": "Pending",
    "rowid": "1106461",
    "final_x": "3672526.53006",
    "final_y": "518524.538359",
    "longitude": "-90.09684817851132",
    "latitude": "29.92003179335413",
    "geocoded_column": {
      "latitude": "29.92003179335413",
      "longitude": "-90.09684817851132"
    }
  },
  {
    "service_request": "2024-1106460",
    "request_type": "Parks & Parkways",
    "request_reason": "Request Tree Service (Right of Way/Public Property)",
    "date_created": "2024-06-24T14:43:01.000",
    "date_modified": "2024-06-24T14:43:01.000",
    "request_status": "Pending",
    "responsible_agency": "Department of Parks & Parkway",
    "final_address": "7801 Maple St",
    "address_councildis": "A",
    "status": "Pending",
    "rowid": "1106460",
    "final_x": "3661849.21555",
    "final_y": "526638.017854",
    "longitude": "-90.13028259777573",
    "latitude": "29.942653812853546",
    "geocoded_column": {
      "latitude": "29.942653812853546",
      "longitude": "-90.13028259777573"
    }
  },
  {
    "service_request": "2024-1106459",
    "request_type": "Abandoned Vehicles",
    "request_reason": "Abandoned/Junk Vehicles",
    "date_created": "2024-06-24T14:40:29.000",
    "date_modified": "2024-06-24T14:40:29.000",
    "request_status": "Pending",
    "responsible_agency": "Department of Public Works",
    "final_address": "7200 W Tamaron Blvd",
    "address_councildis": "E",
    "status": "Inspected",
    "rowid": "1106459",
    "final_x": "3717880.56447",
    "final_y": "569302.61335",
    "longitude": "-89.95175652684571",
    "latitude": "30.05822832042425",
    "geocoded_column": {
      "latitude": "30.05822832042425",
      "longitude": "-89.95175652684571"
    }
  },
  {
    "service_request": "2024-1106458",
    "request_type": "Roads/Drainage",
    "request_reason": "Pothole",
    "date_created": "2024-06-24T14:39:05.000",
    "date_modified": "2024-06-24T14:39:05.000",
    "request_status": "Pending",
    "responsible_agency": "Department of Public Works",
    "final_address": "724 Constantinople St",
    "address_councildis": "B",
    "status": "Pending",
    "rowid": "1106458",
    "final_x": "3672530.07732",
    "final_y": "518402.462902",
    "longitude": "-90.09684113968652",
    "latitude": "29.919696019479016",
    "geocoded_column": {
      "latitude": "29.919696019479016",
      "longitude": "-90.09684113968652"
    }
  },
  {
    "service_request": "2024-1106457",
    "request_type": "Trash/Recycling",
    "request_reason": "Request a Large Item Pick Up",
    "date_created": "2024-06-24T14:37:55.000",
    "date_modified": "2024-06-24T14:37:56.000",
    "request_status": "Pending",
    "responsible_agency": "Department of Sanitation",
    "final_address": "7717 Pyramid St",
    "address_councildis": "E",
    "status": "Assigned to Contractor",
    "contractor": "Waste Pro",
    "rowid": "1106457",
    "final_x": "3715000.33509",
    "final_y": "569586.65943",
    "longitude": "-89.96084976868379",
    "latitude": "30.059104503395098",
    "geocoded_column": {
      "latitude": "30.059104503395098",
      "longitude": "-89.96084976868379"
    }
  },
  {
    "service_request": "2024-1106456",
    "request_type": "Property Maintenance",
    "request_reason": "Property Maintenance",
    "date_created": "2024-06-24T14:36:06.000",
    "date_modified": "2024-06-24T14:36:06.000",
    "request_status": "Pending",
    "responsible_agency": "Department of Code Enforcement",
    "final_address": "817 Adams St",
    "address_councildis": "A",
    "status": "Pending",
    "rowid": "1106456",
    "final_x": "3662241.82759",
    "final_y": "526432.56883",
    "longitude": "-90.12904984097422",
    "latitude": "29.94207755306097",
    "geocoded_column": {
      "latitude": "29.94207755306097",
      "longitude": "-90.12904984097422"
    }
  },
  {
    "service_request": "2024-1106455",
    "request_type": "Trash/Recycling",
    "request_reason": "Repair Recycling Cart",
    "date_created": "2024-06-24T14:34:20.000",
    "date_modified": "2024-06-24T14:34:20.000",
    "request_status": "Pending",
    "responsible_agency": "Department of Sanitation",
    "final_address": "741 Valence St",
    "address_councildis": "B",
    "status": "Pending",
    "rowid": "1106455",
    "final_x": "3670034.7458",
    "final_y": "518275.31455",
    "longitude": "-90.1047219974798",
    "latitude": "29.919420207777716",
    "geocoded_column": {
      "latitude": "29.919420207777716",
      "longitude": "-90.1047219974798"
    }
  },
  {
    "service_request": "2024-1106454",
    "request_type": "Trash/Recycling",
    "request_reason": "Repair Trash Cart",
    "date_created": "2024-06-24T14:32:34.000",
    "date_modified": "2024-06-24T14:33:02.000",
    "request_status": "Pending",
    "responsible_agency": "Department of Sanitation",
    "final_address": "741 Valence St",
    "address_councildis": "B",
    "status": "Assigned to Contractor",
    "contractor": "IV Waste",
    "rowid": "1106454",
    "final_x": "3670034.7458",
    "final_y": "518275.31455",
    "longitude": "-90.1047219974798",
    "latitude": "29.919420207777716",
    "geocoded_column": {
      "latitude": "29.919420207777716",
      "longitude": "-90.1047219974798"
    }
  },
  {
    "service_request": "2024-1106453",
    "request_type": "Trash/Recycling",
    "request_reason": "Repair Trash Cart",
    "date_created": "2024-06-24T14:32:31.000",
    "date_modified": "2024-06-24T14:32:32.000",
    "request_status": "Pending",
    "responsible_agency": "Department of Sanitation",
    "final_address": "1723 N Dorgenois St",
    "address_councildis": "D",
    "status": "Assigned to Contractor",
    "contractor": "IV Waste",
    "rowid": "1106453",
    "final_x": "3680094.69883",
    "final_y": "540577.173579",
    "longitude": "-90.07219298440891",
    "latitude": "29.980442398983065",
    "geocoded_column": {
      "latitude": "29.980442398983065",
      "longitude": "-90.07219298440891"
    }
  },
  {
    "service_request": "2024-1106452",
    "request_type": "Trash/Recycling",
    "request_reason": "Request a Large Item Pick Up",
    "date_created": "2024-06-24T14:30:17.000",
    "date_modified": "2024-06-24T14:30:18.000",
    "request_status": "Pending",
    "responsible_agency": "Department of Sanitation",
    "final_address": "3223 Iberville St",
    "address_councildis": "B",
    "status": "Assigned to Contractor",
    "contractor": "IV Waste",
    "rowid": "1106452",
    "final_x": "3674024.26299",
    "final_y": "536755.95284",
    "longitude": "-90.0914968597145",
    "latitude": "29.97011765907118",
    "geocoded_column": {
      "latitude": "29.97011765907118",
      "longitude": "-90.0914968597145"
    }
  },
  {
    "service_request": "2024-1106451",
    "request_type": "Trash/Recycling",
    "request_reason": "Request a Large Item Pick Up",
    "date_created": "2024-06-24T14:27:46.000",
    "date_modified": "2024-06-24T14:27:47.000",
    "request_status": "Pending",
    "responsible_agency": "Department of Sanitation",
    "final_address": "217 S Bernadotte St",
    "address_councildis": "A",
    "status": "Assigned to Contractor",
    "contractor": "IV Waste",
    "rowid": "1106451",
    "final_x": "3668428.0377",
    "final_y": "539632.651466",
    "longitude": "-90.10907330349652",
    "latitude": "29.97819319664289",
    "geocoded_column": {
      "latitude": "29.97819319664289",
      "longitude": "-90.10907330349652"
    }
  },
  {
    "service_request": "2024-1106448",
    "request_type": "Trash/Recycling",
    "request_reason": "Missed Trash Pick-Up",
    "date_created": "2024-06-24T14:21:43.000",
    "date_modified": "2024-06-24T14:33:47.000",
    "case_close_date": "2024-06-24T09:33:47.000",
    "request_status": "Closed",
    "responsible_agency": "Department of Sanitation",
    "final_address": "7509 Zimple St",
    "address_councildis": "A",
    "status": "Invalid Request",
    "contractor": "IV Waste",
    "contractor_action": "Invalid",
    "rowid": "1106448",
    "final_x": "3663249.26368",
    "final_y": "526780.245182",
    "longitude": "-90.1258575658391",
    "latitude": "29.943004399504705",
    "geocoded_column": {
      "latitude": "29.943004399504705",
      "longitude": "-90.1258575658391"
    }
  },
  {
    "service_request": "2024-1106447",
    "request_type": "Safety & Permits",
    "request_reason": "Licenses & Permits",
    "date_created": "2024-06-24T14:20:12.000",
    "date_modified": "2024-06-24T14:20:12.000",
    "request_status": "Pending",
    "responsible_agency": "Safety and Permits",
    "final_address": "W LAVERNE ST & CURRAN BLVD",
    "address_councildis": "E",
    "status": "Pending",
    "rowid": "1106447",
    "final_x": "3695106.2",
    "final_y": "558801.28",
    "longitude": "-90.02412279066213",
    "latitude": "30.030089096767927",
    "geocoded_column": {
      "latitude": "30.030089096767927",
      "longitude": "-90.02412279066213"
    }
  },
  {
    "service_request": "2024-1106446",
    "request_type": "Trash/Recycling",
    "request_reason": "Request a Large Item Pick Up",
    "date_created": "2024-06-24T14:20:03.000",
    "date_modified": "2024-06-24T14:20:04.000",
    "request_status": "Pending",
    "responsible_agency": "Department of Sanitation",
    "final_address": "7509 Zimple St",
    "address_councildis": "A",
    "status": "Assigned to Contractor",
    "contractor": "IV Waste",
    "rowid": "1106446",
    "final_x": "3663249.26368",
    "final_y": "526780.245182",
    "longitude": "-90.1258575658391",
    "latitude": "29.943004399504705",
    "geocoded_column": {
      "latitude": "29.943004399504705",
      "longitude": "-90.1258575658391"
    }
  },
  {
    "service_request": "2024-1106445",
    "request_type": "Trash/Recycling",
    "request_reason": "Request a Large Item Pick Up",
    "date_created": "2024-06-24T14:18:47.000",
    "date_modified": "2024-06-24T14:18:48.000",
    "request_status": "Pending",
    "responsible_agency": "Department of Sanitation",
    "final_address": "5124 Chestnut St",
    "address_councildis": "B",
    "status": "Assigned to Contractor",
    "contractor": "IV Waste",
    "rowid": "1106445",
    "final_x": "3668166.63361",
    "final_y": "519274.125559",
    "longitude": "-90.11058506725881",
    "latitude": "29.922221568544785",
    "geocoded_column": {
      "latitude": "29.922221568544785",
      "longitude": "-90.11058506725881"
    }
  },
  {
    "service_request": "2024-1106444",
    "request_type": "Traffic Signals/Signs/Striping/Streetlights",
    "request_reason": "Street Light Outage/Malfunction",
    "date_created": "2024-06-24T14:15:09.000",
    "date_modified": "2024-06-24T14:15:17.000",
    "request_status": "Pending",
    "responsible_agency": "Department of Public Works",
    "final_address": "900 BLK Barracks St",
    "address_councildis": "C",
    "status": "Assigned to Contractor",
    "contractor": "Legacy Professional Services",
    "rowid": "1106444",
    "final_x": "3683158.23667",
    "final_y": "534749.755747",
    "longitude": "-90.06272112445984",
    "latitude": "29.96432595378466",
    "geocoded_column": {
      "latitude": "29.96432595378466",
      "longitude": "-90.06272112445984"
    }
  },
  {
    "service_request": "2024-1106443",
    "request_type": "Traffic Signals/Signs/Striping/Streetlights",
    "request_reason": "Disabled Parking Sign ",
    "date_created": "2024-06-24T14:12:51.000",
    "date_modified": "2024-06-24T14:15:22.000",
    "request_status": "Pending",
    "responsible_agency": "Department of Public Works",
    "final_address": "2417 Annunciation St",
    "address_councildis": "B",
    "status": "Pending",
    "rowid": "1106443",
    "final_x": "3678548.66171",
    "final_y": "520542.998904",
    "longitude": "-90.07776939258918",
    "latitude": "29.925401842854487",
    "geocoded_column": {
      "latitude": "29.925401842854487",
      "longitude": "-90.07776939258918"
    }
  },
  {
    "service_request": "2024-1106442",
    "request_type": "Trash/Recycling",
    "request_reason": "Request a Large Item Pick Up",
    "date_created": "2024-06-24T14:11:13.000",
    "date_modified": "2024-06-24T14:11:13.000",
    "request_status": "Pending",
    "responsible_agency": "Department of Sanitation",
    "final_address": "7941 Sandpiper Dr",
    "address_councildis": "E",
    "status": "Assigned to Contractor",
    "contractor": "Waste Pro",
    "rowid": "1106442",
    "final_x": "3715301.17234",
    "final_y": "570627.473447",
    "longitude": "-89.95985942162685",
    "latitude": "30.061956400129453",
    "geocoded_column": {
      "latitude": "30.061956400129453",
      "longitude": "-89.95985942162685"
    }
  },
  {
    "service_request": "2024-1106441",
    "request_type": "Trash/Recycling",
    "request_reason": "Request a Large Item Pick Up",
    "date_created": "2024-06-24T14:10:59.000",
    "date_modified": "2024-06-24T14:11:00.000",
    "request_status": "Pending",
    "responsible_agency": "Department of Sanitation",
    "final_address": "620 Opelousas Ave",
    "address_councildis": "C",
    "status": "Assigned to Contractor",
    "contractor": "Richards Disposal",
    "rowid": "1106441",
    "final_x": "3687434.51382",
    "final_y": "529211.46336",
    "longitude": "-90.04941299029124",
    "latitude": "29.948966478114226",
    "geocoded_column": {
      "latitude": "29.948966478114226",
      "longitude": "-90.04941299029124"
    }
  },
  {
    "service_request": "2024-1106440",
    "request_type": "Abandoned Vehicles",
    "request_reason": "Abandoned/Junk Vehicles",
    "date_created": "2024-06-24T14:06:34.000",
    "date_modified": "2024-06-24T14:06:34.000",
    "request_status": "Pending",
    "responsible_agency": "Department of Public Works",
    "final_address": "3500 BLK Third St",
    "address_councildis": "B",
    "status": "Pending",
    "rowid": "1106440",
    "final_x": "3672631.09499",
    "final_y": "528629.392988",
    "longitude": "-90.0961737349572",
    "latitude": "29.947813769579795",
    "geocoded_column": {
      "latitude": "29.947813769579795",
      "longitude": "-90.0961737349572"
    }
  },
  {
    "service_request": "2024-1106439",
    "request_type": "Trash/Recycling",
    "request_reason": "Request a Large Item Pick Up",
    "date_created": "2024-06-24T14:03:56.000",
    "date_modified": "2024-06-24T14:03:57.000",
    "request_status": "Pending",
    "responsible_agency": "Department of Sanitation",
    "final_address": "5360 Chestnut St",
    "address_councildis": "B",
    "status": "Assigned to Contractor",
    "contractor": "IV Waste",
    "rowid": "1106439",
    "final_x": "3667092.52199",
    "final_y": "519384.759735",
    "longitude": "-90.11397189037513",
    "latitude": "29.922557250929447",
    "geocoded_column": {
      "latitude": "29.922557250929447",
      "longitude": "-90.11397189037513"
    }
  },
  {
    "service_request": "2024-1106438",
    "request_type": "Property Maintenance",
    "request_reason": "Property Maintenance",
    "date_created": "2024-06-24T14:03:54.000",
    "date_modified": "2024-06-24T14:03:54.000",
    "request_status": "Pending",
    "responsible_agency": "Department of Code Enforcement",
    "final_address": "3317 laurel street new orleans LA 70115",
    "address_councildis": "B",
    "status": "Pending",
    "rowid": "1106438",
    "final_x": "3675531.57262",
    "final_y": "519084.207991",
    "longitude": "-90.08734348640019",
    "latitude": "29.921481197456632",
    "geocoded_column": {
      "latitude": "29.921481197456632",
      "longitude": "-90.08734348640019"
    }
  },
  {
    "service_request": "2024-1106436",
    "request_type": "Roads/Drainage",
    "request_reason": "Street Subsidence (Sinking)",
    "date_created": "2024-06-24T13:59:39.000",
    "date_modified": "2024-06-24T13:59:39.000",
    "request_status": "Pending",
    "responsible_agency": "Department of Public Works",
    "final_address": "800 BLK Louque Pl",
    "address_councildis": "A",
    "status": "Pending",
    "rowid": "1106436",
    "final_x": "3668855.41717",
    "final_y": "543503.176889",
    "longitude": "-90.1075927124507",
    "latitude": "29.988823263983413",
    "geocoded_column": {
      "latitude": "29.988823263983413",
      "longitude": "-90.1075927124507"
    }
  },
  {
    "service_request": "2024-1106435",
    "request_type": "Parks & Parkways",
    "request_reason": "Request Tree Service (Right of Way/Public Property)",
    "date_created": "2024-06-24T13:58:09.000",
    "date_modified": "2024-06-24T13:58:10.000",
    "request_status": "Pending",
    "responsible_agency": "Department of Parks & Parkway",
    "final_address": "1834 Ursulines Ave",
    "address_councildis": "D",
    "status": "Pending",
    "rowid": "1106435",
    "final_x": "3680090.36431",
    "final_y": "536138.346247",
    "longitude": "-90.07236095865538",
    "latitude": "29.968237287634473",
    "geocoded_column": {
      "latitude": "29.968237287634473",
      "longitude": "-90.07236095865538"
    }
  },
  {
    "service_request": "2024-1106434",
    "request_type": "Trash/Recycling",
    "request_reason": "Request a Large Item Pick Up",
    "date_created": "2024-06-24T13:55:51.000",
    "date_modified": "2024-06-24T13:55:52.000",
    "request_status": "Pending",
    "responsible_agency": "Department of Sanitation",
    "final_address": "2712 Cambronne St",
    "address_councildis": "A",
    "status": "Assigned to Contractor",
    "contractor": "IV Waste",
    "rowid": "1106434",
    "final_x": "3664847.31936",
    "final_y": "533202.736132",
    "longitude": "-90.12059747936685",
    "latitude": "29.96061776686797",
    "geocoded_column": {
      "latitude": "29.96061776686797",
      "longitude": "-90.12059747936685"
    }
  },
  {
    "service_request": "2024-1106433",
    "request_type": "Traffic Signals/Signs/Striping/Streetlights",
    "request_reason": "Crosswalks and Signage",
    "date_created": "2024-06-24T13:53:34.000",
    "date_modified": "2024-06-24T13:53:34.000",
    "request_status": "Pending",
    "responsible_agency": "Department of Public Works",
    "final_address": "5423 Laurel St",
    "address_councildis": "A",
    "status": "Pending",
    "rowid": "1106433",
    "final_x": "3666355.53473",
    "final_y": "517918.276854",
    "longitude": "-90.1163474370638",
    "latitude": "29.918546427627916",
    "geocoded_column": {
      "latitude": "29.918546427627916",
      "longitude": "-90.1163474370638"
    }
  },