[
  {
    "service_request": "2024-1101399",
    "request_type": "Roads/Drainage",
    "request_reason": "Road Shoulder Repair",
    "date_created": "2024-06-08T23:54:46.000",
    "date_modified": "2024-06-08T23:54:46.000",
    "request_status": "Pending",
    "responsible_agency": "Department of Public Works",
    "final_address": "4000 BLK Coliseum St",
    "address_councildis": "B",
    "status": "Pending",
    "rowid": "1101399",
    "final_x": "3672238.14072",
    "final_y": "519950.432656",
    "longitude": "-90.09770995128646",
    "latitude": "29.923961101655525",
    "geocoded_column": {
      "latitude": "29.923961101655525",
      "longitude": "-90.09770995128646"
    }
  },
  {
    "service_request": "2024-1101398",
    "request_type": "Trash/Recycling",
    "request_reason": "Request a Large Item Pick Up",
    "date_created": "2024-06-08T23:37:56.000",
    "date_modified": "2024-06-08T23:37:56.000",
    "request_status": "Pending",
    "responsible_agency": "Department of Sanitation",
    "final_address": "1914 Adams St",
    "address_councildis": "A",
    "status": "Assigned to Contractor",
    "contractor": "IV Waste",
    "rowid": "1101398",
    "final_x": "3664770.9088",
    "final_y": "529319.459777",
    "longitude": "-90.12096851552486",
    "latitude": "29.94994224358321",
    "geocoded_column": {
      "latitude": "29.94994224358321",
      "longitude": "-90.12096851552486"
    }
  },
  {
    "service_request": "2024-1101397",
    "request_type": "Roads/Drainage",
    "request_reason": "Pothole",
    "date_created": "2024-06-08T23:11:31.000",
    "date_modified": "2024-06-08T23:11:31.000",
    "request_status": "Pending",
    "responsible_agency": "Department of Public Works",
    "final_address": "4300 BLK Perrier St",
    "address_councildis": "B",
    "status": "Pending",
    "rowid": "1101397",
    "final_x": "3671146.43425",
    "final_y": "520090.973057",
    "longitude": "-90.10115131591078",
    "latitude": "29.92437986829547",
    "geocoded_column": {
      "latitude": "29.92437986829547",
      "longitude": "-90.10115131591078"
    }
  },
  {
    "service_request": "2024-1101396",
    "request_type": "Property Maintenance",
    "request_reason": "Property Maintenance",
    "date_created": "2024-06-08T22:26:50.000",
    "date_modified": "2024-06-08T22:26:50.000",
    "request_status": "Pending",
    "responsible_agency": "Department of Code Enforcement",
    "final_address": "1927 N Dorgenois St",
    "address_councildis": "D",
    "status": "Pending",
    "rowid": "1101396",
    "final_x": "3681430.2429",
    "final_y": "541239.510412",
    "longitude": "-90.06795166367166",
    "latitude": "29.982223108346325",
    "geocoded_column": {
      "latitude": "29.982223108346325",
      "longitude": "-90.06795166367166"
    }
  },
  {
    "service_request": "2024-1101395",
    "request_type": "Trash/Recycling",
    "request_reason": "Request a Large Item Pick Up",
    "date_created": "2024-06-08T22:20:51.000",
    "date_modified": "2024-06-08T22:20:51.000",
    "request_status": "Pending",
    "responsible_agency": "Department of Sanitation",
    "final_address": "7104 W Tamaron Blvd",
    "address_councildis": "E",
    "status": "Assigned to Contractor",
    "contractor": "Waste Pro",
    "rowid": "1101395",
    "final_x": "3718346.65215",
    "final_y": "568667.394149",
    "longitude": "-89.9503075262168",
    "latitude": "30.05646627070511",
    "geocoded_column": {
      "latitude": "30.05646627070511",
      "longitude": "-89.9503075262168"
    }
  },
  {
    "service_request": "2024-1101394",
    "request_type": "Trash/Recycling",
    "request_reason": "Request a Large Item Pick Up",
    "date_created": "2024-06-08T22:20:05.000",
    "date_modified": "2024-06-08T22:20:06.000",
    "request_status": "Pending",
    "responsible_agency": "Department of Sanitation",
    "final_address": "7104 W Tamaron Blvd",
    "address_councildis": "E",
    "status": "Assigned to Contractor",
    "contractor": "Waste Pro",
    "rowid": "1101394",
    "final_x": "3718346.65215",
    "final_y": "568667.394149",
    "longitude": "-89.9503075262168",
    "latitude": "30.05646627070511",
    "geocoded_column": {
      "latitude": "30.05646627070511",
      "longitude": "-89.9503075262168"
    }
  },
  {
    "service_request": "2024-1101393",
    "request_type": "Roads/Drainage",
    "request_reason": "Catch Basin - Clogged",
    "date_created": "2024-06-08T21:57:40.000",
    "date_modified": "2024-06-08T21:57:40.000",
    "request_status": "Pending",
    "responsible_agency": "Department of Public Works",
    "final_address": "8501 N Interstate 10 Service Rd",
    "address_councildis": "E",
    "status": "Pending",
    "rowid": "1101393",
    "final_x": "3704755.23332",
    "final_y": "559450.599453",
    "longitude": "-89.99360808006935",
    "latitude": "30.03156780215238",
    "geocoded_column": {
      "latitude": "30.03156780215238",
      "longitude": "-89.99360808006935"
    }
  },
  {
    "service_request": "2024-1101392",
    "request_type": "Traffic Signals/Signs/Striping/Streetlights",
    "request_reason": "Street Light Outage/Malfunction",
    "date_created": "2024-06-08T21:42:29.000",
    "date_modified": "2024-06-08T21:42:30.000",
    "request_status": "Pending",
    "responsible_agency": "Department of Public Works",
    "final_address": "6462 Marshal Foch St",
    "address_councildis": "A",
    "status": "Assigned to Contractor",
    "contractor": "Legacy Professional Services",
    "rowid": "1101392",
    "final_x": "3670030.13505",
    "final_y": "550436.408212",
    "longitude": "-90.10364710218998",
    "latitude": "30.007852640307533",
    "geocoded_column": {
      "latitude": "30.007852640307533",
      "longitude": "-90.10364710218998"
    }
  },
  {
    "service_request": "2024-1101391",
    "request_type": "Traffic Signals/Signs/Striping/Streetlights",
    "request_reason": "Street Light Outage/Malfunction",
    "date_created": "2024-06-08T21:30:48.000",
    "date_modified": "2024-06-08T21:30:48.000",
    "request_status": "Pending",
    "responsible_agency": "Department of Public Works",
    "final_address": "6938 Marshal Foch St",
    "address_councildis": "A",
    "status": "Assigned to Contractor",
    "contractor": "Legacy Professional Services",
    "rowid": "1101391",
    "final_x": "3670311.16506",
    "final_y": "553525.530519",
    "longitude": "-90.10265442185633",
    "latitude": "30.016338340805532",
    "geocoded_column": {
      "latitude": "30.016338340805532",
      "longitude": "-90.10265442185633"
    }
  },
  {
    "service_request": "2024-1101390",
    "request_type": "Traffic Signals/Signs/Striping/Streetlights",
    "request_reason": "Street Light Outage/Malfunction",
    "date_created": "2024-06-08T21:25:39.000",
    "date_modified": "2024-06-08T21:25:39.000",
    "request_status": "Pending",
    "responsible_agency": "Department of Public Works",
    "final_address": "6919 Marshal Foch St",
    "address_councildis": "A",
    "status": "Assigned to Contractor",
    "contractor": "Legacy Professional Services",
    "rowid": "1101390",
    "final_x": "3670469.73723",
    "final_y": "553396.894999",
    "longitude": "-90.10215776828815",
    "latitude": "30.01597995481472",
    "geocoded_column": {
      "latitude": "30.01597995481472",
      "longitude": "-90.10215776828815"
    }
  },
  {
    "service_request": "2024-1101389",
    "request_type": "Traffic Signals/Signs/Striping/Streetlights",
    "request_reason": "Street Light Outage/Malfunction",
    "date_created": "2024-06-08T21:17:07.000",
    "date_modified": "2024-06-08T21:17:08.000",
    "request_status": "Pending",
    "responsible_agency": "Department of Public Works",
    "final_address": "6554 Marshal Foch St",
    "address_councildis": "A",
    "status": "Assigned to Contractor",
    "contractor": "Legacy Professional Services",
    "rowid": "1101389",
    "final_x": "3670085.98631",
    "final_y": "551042.837013",
    "longitude": "-90.10345008683126",
    "latitude": "30.009518458310136",
    "geocoded_column": {
      "latitude": "30.009518458310136",
      "longitude": "-90.10345008683126"
    }
  },
  {
    "service_request": "2024-1101388",
    "request_type": "Traffic Signals/Signs/Striping/Streetlights",
    "request_reason": "Street Light Outage/Malfunction",
    "date_created": "2024-06-08T21:12:08.000",
    "date_modified": "2024-06-08T21:12:08.000",
    "request_status": "Pending",
    "responsible_agency": "Department of Public Works",
    "final_address": "6430 Marshal Foch St",
    "address_councildis": "A",
    "status": "Assigned to Contractor",
    "contractor": "Legacy Professional Services",
    "rowid": "1101388",
    "final_x": "3670007.36526",
    "final_y": "550188.28002",
    "longitude": "-90.1037274511117",
    "latitude": "30.00717104667166",
    "geocoded_column": {
      "latitude": "30.00717104667166",
      "longitude": "-90.1037274511117"
    }
  },
  {
    "service_request": "2024-1101387",
    "request_type": "Property Maintenance",
    "request_reason": "Property Maintenance",
    "date_created": "2024-06-08T20:19:30.000",
    "date_modified": "2024-06-08T20:19:30.000",
    "request_status": "Pending",
    "responsible_agency": "Department of Code Enforcement",
    "final_address": "4329 Wellington Ave",
    "address_councildis": "D",
    "status": "Pending",
    "rowid": "1101387",
    "final_x": "3677315.1947",
    "final_y": "548290.906386",
    "longitude": "-90.08070551850322",
    "latitude": "30.001736290288385",
    "geocoded_column": {
      "latitude": "30.001736290288385",
      "longitude": "-90.08070551850322"
    }
  },
  {
    "service_request": "2024-1101386",
    "request_type": "Trash/Recycling",
    "request_reason": "Request a Large Item Pick Up",
    "date_created": "2024-06-08T20:11:36.000",
    "date_modified": "2024-06-08T20:11:36.000",
    "request_status": "Pending",
    "responsible_agency": "Department of Sanitation",
    "final_address": "4737 Bright Dr",
    "address_councildis": "E",
    "status": "Assigned to Contractor",
    "contractor": "Waste Pro",
    "rowid": "1101386",
    "final_x": "3715897.24428",
    "final_y": "556961.224922",
    "longitude": "-89.9584935773793",
    "latitude": "30.024360106471935",
    "geocoded_column": {
      "latitude": "30.024360106471935",
      "longitude": "-89.9584935773793"
    }
  },
  {
    "service_request": "2024-1101385",
    "request_type": "Roads/Drainage",
    "request_reason": "Catch Basin - Broken/Damage",
    "date_created": "2024-06-08T20:03:23.000",
    "date_modified": "2024-06-08T20:03:23.000",
    "request_status": "Pending",
    "responsible_agency": "Department of Public Works",
    "final_address": "1950 Soniat St",
    "address_councildis": "B",
    "status": "Pending",
    "rowid": "1101385",
    "final_x": "3668323.64078",
    "final_y": "522693.923066",
    "longitude": "-90.10997420679513",
    "latitude": "29.931620317540272",
    "geocoded_column": {
      "latitude": "29.931620317540272",
      "longitude": "-90.10997420679513"
    }
  },
  {
    "service_request": "2024-1101384",
    "request_type": "Trash/Recycling",
    "request_reason": "Replace Trash Cart",
    "date_created": "2024-06-08T19:17:06.000",
    "date_modified": "2024-06-08T19:17:07.000",
    "request_status": "Pending",
    "responsible_agency": "Department of Sanitation",
    "final_address": "1916 Fern St",
    "address_councildis": "A",
    "status": "Assigned to Contractor",
    "contractor": "IV Waste",
    "rowid": "1101384",
    "final_x": "3664264.84436",
    "final_y": "529816.204161",
    "longitude": "-90.12254982945325",
    "latitude": "29.951322843397715",
    "geocoded_column": {
      "latitude": "29.951322843397715",
      "longitude": "-90.12254982945325"
    }
  },
  {
    "service_request": "2024-1101383",
    "request_type": "Trash/Recycling",
    "request_reason": "Request a Large Item Pick Up",
    "date_created": "2024-06-08T19:09:19.000",
    "date_modified": "2024-06-08T19:09:19.000",
    "request_status": "Pending",
    "responsible_agency": "Department of Sanitation",
    "final_address": "7831 Allison Rd",
    "address_councildis": "E",
    "status": "Assigned to Contractor",
    "contractor": "Waste Pro",
    "rowid": "1101383",
    "final_x": "3699863.49277",
    "final_y": "561182.116254",
    "longitude": "-90.00900287938912",
    "latitude": "30.036485158711557",
    "geocoded_column": {
      "latitude": "30.036485158711557",
      "longitude": "-90.00900287938912"
    }
  },
  {
    "service_request": "2024-1101381",
    "request_type": "Trash/Recycling",
    "request_reason": "Order Recycling Cart",
    "date_created": "2024-06-08T18:38:46.000",
    "date_modified": "2024-06-08T18:38:46.000",
    "request_status": "Pending",
    "responsible_agency": "Department of Sanitation",
    "final_address": "3900 Coliseum St",
    "address_councildis": "B",
    "status": "Pending",
    "rowid": "1101381",
    "final_x": "3672835.8955",
    "final_y": "519969.857016",
    "longitude": "-90.09582238736819",
    "latitude": "29.9239967746941",
    "geocoded_column": {
      "latitude": "29.9239967746941",
      "longitude": "-90.09582238736819"
    }
  },
  {
    "service_request": "2024-1101380",
    "request_type": "Trash/Recycling",
    "request_reason": "Request a Large Item Pick Up",
    "date_created": "2024-06-08T18:30:17.000",
    "date_modified": "2024-06-08T18:30:17.000",
    "request_status": "Pending",
    "responsible_agency": "Department of Sanitation",
    "final_address": "215 Maumus Ave",
    "address_councildis": "C",
    "status": "Assigned to Contractor",
    "contractor": "Richards Disposal",
    "rowid": "1101380",
    "final_x": "3706511.37156",
    "final_y": "516686.608117",
    "longitude": "-89.98964333943896",
    "latitude": "29.91392598336898",
    "geocoded_column": {
      "latitude": "29.91392598336898",
      "longitude": "-89.98964333943896"
    }
  },
  {
    "service_request": "2024-1101379",
    "request_type": "Trash/Recycling",
    "request_reason": "Repair Trash Cart",
    "date_created": "2024-06-08T18:29:37.000",
    "date_modified": "2024-06-08T18:29:38.000",
    "request_status": "Pending",
    "responsible_agency": "Department of Sanitation",
    "final_address": "215 Maumus Ave",
    "address_councildis": "C",
    "status": "Assigned to Contractor",
    "contractor": "Richards Disposal",
    "rowid": "1101379",
    "final_x": "3706511.37156",
    "final_y": "516686.608117",
    "longitude": "-89.98964333943896",
    "latitude": "29.91392598336898",
    "geocoded_column": {
      "latitude": "29.91392598336898",
      "longitude": "-89.98964333943896"
    }
  },
  {
    "service_request": "2024-1101377",
    "request_type": "Trash/Recycling",
    "request_reason": "Replace Trash Cart",
    "date_created": "2024-06-08T18:25:10.000",
    "date_modified": "2024-06-08T18:25:11.000",
    "request_status": "Pending",
    "responsible_agency": "Department of Sanitation",
    "final_address": "2419 Upperline St",
    "address_councildis": "B",
    "status": "Assigned to Contractor",
    "contractor": "IV Waste",
    "rowid": "1101377",
    "final_x": "3669201.66599",
    "final_y": "523696.901307",
    "longitude": "-90.10716849173167",
    "latitude": "29.9343523808598",
    "geocoded_column": {
      "latitude": "29.9343523808598",
      "longitude": "-90.10716849173167"
    }
  },
  {
    "service_request": "2024-1101376",
    "request_type": "Trash/Recycling",
    "request_reason": "Request a Large Item Pick Up",
    "date_created": "2024-06-08T17:56:30.000",
    "date_modified": "2024-06-08T17:56:31.000",
    "request_status": "Pending",
    "responsible_agency": "Department of Sanitation",
    "final_address": "1462 N Prieur St",
    "address_councildis": "D",
    "status": "Assigned to Contractor",
    "contractor": "IV Waste",
    "rowid": "1101376",
    "final_x": "3680816.20399",
    "final_y": "537636.472712",
    "longitude": "-90.070016564745",
    "latitude": "29.97233463623756",
    "geocoded_column": {
      "latitude": "29.97233463623756",
      "longitude": "-90.070016564745"
    }
  },
  {
    "service_request": "2024-1101375",
    "request_type": "Abandoned Vehicles",
    "request_reason": "Abandoned/Junk Vehicles",
    "date_created": "2024-06-08T17:36:24.000",
    "date_modified": "2024-06-08T17:36:24.000",
    "request_status": "Pending",
    "responsible_agency": "Department of Public Works",
    "final_address": "3503 S Miro St",
    "address_councildis": "B",
    "status": "Pending",
    "rowid": "1101375",
    "final_x": "3671249.69422",
    "final_y": "528026.407039",
    "longitude": "-90.10055585898027",
    "latitude": "29.94619669445038",
    "geocoded_column": {
      "latitude": "29.94619669445038",
      "longitude": "-90.10055585898027"
    }
  },
  {
    "service_request": "2024-1101374",
    "request_type": "Abandoned Vehicles",
    "request_reason": "Abandoned/Junk Vehicles",
    "date_created": "2024-06-08T17:35:28.000",
    "date_modified": "2024-06-08T17:35:28.000",
    "request_status": "Pending",
    "responsible_agency": "Department of Public Works",
    "final_address": "3503 S Miro St",
    "address_councildis": "B",
    "status": "Pending",
    "rowid": "1101374",
    "final_x": "3671249.69422",
    "final_y": "528026.407039",
    "longitude": "-90.10055585898027",
    "latitude": "29.94619669445038",
    "geocoded_column": {
      "latitude": "29.94619669445038",
      "longitude": "-90.10055585898027"
    }
  },
  {
    "service_request": "2024-1101373",
    "request_type": "Trash/Recycling",
    "request_reason": "Dead Animal Pick Up",
    "date_created": "2024-06-08T17:23:37.000",
    "date_modified": "2024-06-08T17:23:37.000",
    "request_status": "Pending",
    "responsible_agency": "Department of Sanitation",
    "final_address": "5603 Rosemary Pl",
    "address_councildis": "A",
    "status": "Assigned to Contractor",
    "contractor": "IV Waste",
    "rowid": "1101373",
    "final_x": "3667206.98695",
    "final_y": "544733.913999",
    "longitude": "-90.11275820816917",
    "latitude": "29.992255754743415",
    "geocoded_column": {
      "latitude": "29.992255754743415",
      "longitude": "-90.11275820816917"
    }
  },
  {
    "service_request": "2024-1101372",
    "request_type": "Trash/Recycling",
    "request_reason": "Request a Large Item Pick Up",
    "date_created": "2024-06-08T17:17:20.000",
    "date_modified": "2024-06-08T17:17:21.000",
    "request_status": "Pending",
    "responsible_agency": "Department of Sanitation",
    "final_address": "1659 N Dupre St",
    "address_councildis": "D",
    "status": "Assigned to Contractor",
    "contractor": "IV Waste",
    "rowid": "1101372",
    "final_x": "3678815.48917",
    "final_y": "541058.473036",
    "longitude": "-90.07621660056041",
    "latitude": "29.981804456675086",
    "geocoded_column": {
      "latitude": "29.981804456675086",
      "longitude": "-90.07621660056041"
    }
  },
  {
    "service_request": "2024-1101371",
    "request_type": "Trash/Recycling",
    "request_reason": "Illegal Dumping",
    "date_created": "2024-06-08T16:59:03.000",
    "date_modified": "2024-06-08T16:59:03.000",
    "request_status": "Pending",
    "responsible_agency": "Department of Sanitation",
    "final_address": "1200 BLK Tricou St",
    "address_councildis": "E",
    "status": "Pending",
    "rowid": "1101371",
    "final_x": "3700342.23511",
    "final_y": "533554.992061",
    "longitude": "-90.00849942110784",
    "latitude": "29.96050564068879",
    "geocoded_column": {
      "latitude": "29.96050564068879",
      "longitude": "-90.00849942110784"
    }
  },
  {
    "service_request": "2024-1101370",
    "request_type": "Trash/Recycling",
    "request_reason": "Illegal Dumping",
    "date_created": "2024-06-08T16:56:24.000",
    "date_modified": "2024-06-08T16:56:24.000",
    "request_status": "Pending",
    "responsible_agency": "Department of Sanitation",
    "final_address": "1200 BLK Tricou St",
    "address_councildis": "E",
    "status": "Pending",
    "rowid": "1101370",
    "final_x": "3700342.23511",
    "final_y": "533554.992061",
    "longitude": "-90.00849942110784",
    "latitude": "29.96050564068879",
    "geocoded_column": {
      "latitude": "29.96050564068879",
      "longitude": "-90.00849942110784"
    }
  },
  {
    "service_request": "2024-1101369",
    "request_type": "Roads/Drainage",
    "request_reason": "Damaged Sidewalk",
    "date_created": "2024-06-08T16:52:19.000",
    "date_modified": "2024-06-08T16:52:19.000",
    "request_status": "Pending",
    "responsible_agency": "Department of Public Works",
    "final_address": "916 Dumaine St",
    "address_councildis": "C",
    "status": "Pending",
    "rowid": "1101369",
    "final_x": "3682282.05775",
    "final_y": "533566.983685",
    "longitude": "-90.06552935085142",
    "latitude": "29.961100421983584",
    "geocoded_column": {
      "latitude": "29.961100421983584",
      "longitude": "-90.06552935085142"
    }
  },
  {
    "service_request": "2024-1101368",
    "request_type": "Roads/Drainage",
    "request_reason": "Damaged Sidewalk",
    "date_created": "2024-06-08T16:50:59.000",
    "date_modified": "2024-06-08T16:50:59.000",
    "request_status": "Pending",
    "responsible_agency": "Department of Public Works",
    "final_address": "910 Dauphine St",
    "address_councildis": "C",
    "status": "Pending",
    "rowid": "1101368",
    "final_x": "3682508.50799",
    "final_y": "533549.124613",
    "longitude": "-90.06481488743063",
    "latitude": "29.96104442432874",
    "geocoded_column": {
      "latitude": "29.96104442432874",
      "longitude": "-90.06481488743063"
    }
  },
  {
    "service_request": "2024-1101367",
    "request_type": "Property Maintenance",
    "request_reason": "Property Maintenance",
    "date_created": "2024-06-08T16:50:01.000",
    "date_modified": "2024-06-08T16:50:01.000",
    "request_status": "Pending",
    "responsible_agency": "Department of Code Enforcement",
    "final_address": "4400 Ray Ave",
    "address_councildis": "E",
    "status": "Pending",
    "rowid": "1101367",
    "final_x": "3698870.42231",
    "final_y": "552513.925782",
    "longitude": "-90.01245694338763",
    "latitude": "30.01268247196575",
    "geocoded_column": {
      "latitude": "30.01268247196575",
      "longitude": "-90.01245694338763"
    }
  },
  {
    "service_request": "2024-1101366",
    "request_type": "Trash/Recycling",
    "request_reason": "Request a Large Item Pick Up",
    "date_created": "2024-06-08T16:13:58.000",
    "date_modified": "2024-06-08T16:13:58.000",
    "request_status": "Pending",
    "responsible_agency": "Department of Sanitation",
    "final_address": "3485 Wall Blvd, New Orleans, Louisiana, 70114",
    "address_councildis": "C",
    "status": "Assigned to Contractor",
    "contractor": "Richards Disposal",
    "rowid": "1101366",
    "final_x": "3696184.18218",
    "final_y": "523769.201019",
    "longitude": "-90.02198329604191",
    "latitude": "29.933729662340927",
    "geocoded_column": {
      "latitude": "29.933729662340927",
      "longitude": "-90.02198329604191"
    }
  },
  {
    "service_request": "2024-1101365",
    "request_type": "Trash/Recycling",
    "request_reason": "Request a Large Item Pick Up",
    "date_created": "2024-06-08T16:12:59.000",
    "date_modified": "2024-06-08T16:12:59.000",
    "request_status": "Pending",
    "responsible_agency": "Department of Sanitation",
    "final_address": "322 Alix St",
    "address_councildis": "C",
    "status": "Assigned to Contractor",
    "contractor": "Richards Disposal",
    "rowid": "1101365",
    "final_x": "3686540.80905",
    "final_y": "530085.101249",
    "longitude": "-90.05220395578007",
    "latitude": "29.951396189025203",
    "geocoded_column": {
      "latitude": "29.951396189025203",
      "longitude": "-90.05220395578007"
    }
  },
  {
    "service_request": "2024-1101364",
    "request_type": "Trash/Recycling",
    "request_reason": "Request a Large Item Pick Up",
    "date_created": "2024-06-08T16:10:33.000",
    "date_modified": "2024-06-08T16:10:33.000",
    "request_status": "Pending",
    "responsible_agency": "Department of Sanitation",
    "final_address": "320 Alix St",
    "address_councildis": "C",
    "status": "Assigned to Contractor",
    "contractor": "Richards Disposal",
    "rowid": "1101364",
    "final_x": "3686532.61436",
    "final_y": "530078.590081",
    "longitude": "-90.05223006039935",
    "latitude": "29.95137853746635",
    "geocoded_column": {
      "latitude": "29.95137853746635",
      "longitude": "-90.05223006039935"
    }
  },
  {
    "service_request": "2024-1101363",
    "request_type": "Trash/Recycling",
    "request_reason": "Request a Large Item Pick Up",
    "date_created": "2024-06-08T15:38:03.000",
    "date_modified": "2024-06-08T15:38:04.000",
    "request_status": "Pending",
    "responsible_agency": "Department of Sanitation",
    "final_address": "931 Sister St, New Orleans, Louisiana, 70117",
    "address_councildis": "E",
    "status": "Assigned to Contractor",
    "contractor": "Waste Pro",
    "rowid": "1101363",
    "final_x": "3694566.51888",
    "final_y": "533978.403845",
    "longitude": "-90.02672263593091",
    "latitude": "29.961852230577342",
    "geocoded_column": {
      "latitude": "29.961852230577342",
      "longitude": "-90.02672263593091"
    }
  },
  {
    "service_request": "2024-1101362",
    "request_type": "Abandoned Vehicles",
    "request_reason": "Abandoned/Junk Vehicles",
    "date_created": "2024-06-08T15:05:54.000",
    "date_modified": "2024-06-08T15:05:54.000",
    "request_status": "Pending",
    "responsible_agency": "Department of Public Works",
    "final_address": "4412 Canal St",
    "address_councildis": "A",
    "status": "Pending",
    "rowid": "1101362",
    "final_x": "3669837.80526",
    "final_y": "539190.04865",
    "longitude": "-90.10463572985543",
    "latitude": "29.976934696532883",
    "geocoded_column": {
      "latitude": "29.976934696532883",
      "longitude": "-90.10463572985543"
    }
  },
  {
    "service_request": "2024-1101361",
    "request_type": "Property Maintenance",
    "request_reason": "Property Maintenance",
    "date_created": "2024-06-08T14:46:25.000",
    "date_modified": "2024-06-08T14:46:25.000",
    "request_status": "Pending",
    "responsible_agency": "Department of Code Enforcement",
    "final_address": "29 Marywood Ct",
    "address_councildis": "E",
    "status": "Pending",
    "rowid": "1101361",
    "final_x": "3712490.10379",
    "final_y": "566892.619044",
    "longitude": "-89.96888573235839",
    "latitude": "30.051779427891738",
    "geocoded_column": {
      "latitude": "30.051779427891738",
      "longitude": "-89.96888573235839"
    }
  },
  {
    "service_request": "2024-1101360",
    "request_type": "Property Maintenance",
    "request_reason": "Property Maintenance",
    "date_created": "2024-06-08T14:44:37.000",
    "date_modified": "2024-06-08T14:44:37.000",
    "request_status": "Pending",
    "responsible_agency": "Department of Code Enforcement",
    "final_address": "29 Marywood Ct",
    "address_councildis": "E",
    "status": "Pending",
    "rowid": "1101360",
    "final_x": "3712490.10379",
    "final_y": "566892.619044",
    "longitude": "-89.96888573235839",
    "latitude": "30.051779427891738",
    "geocoded_column": {
      "latitude": "30.051779427891738",
      "longitude": "-89.96888573235839"
    }
  },
  {
    "service_request": "2024-1101359",
    "request_type": "Parks & Parkways",
    "request_reason": "Request Tree Service (Right of Way/Public Property)",
    "date_created": "2024-06-08T14:03:20.000",
    "date_modified": "2024-06-08T14:03:20.000",
    "request_status": "Pending",
    "responsible_agency": "Department of Parks & Parkway",
    "final_address": "2236 State St",
    "address_councildis": "A",
    "status": "Pending",
    "rowid": "1101359",
    "final_x": "3666530.05153",
    "final_y": "525068.938621",
    "longitude": "-90.11555669882472",
    "latitude": "29.938203384946632",
    "geocoded_column": {
      "latitude": "29.938203384946632",
      "longitude": "-90.11555669882472"
    }
  },
  {
    "service_request": "2024-1101358",
    "request_type": "Trash/Recycling",
    "request_reason": "Request a Large Item Pick Up",
    "date_created": "2024-06-08T13:58:35.000",
    "date_modified": "2024-06-08T13:58:35.000",
    "request_status": "Pending",
    "responsible_agency": "Department of Sanitation",
    "final_address": "3249 Frey Pl",
    "address_councildis": "D",
    "status": "Assigned to Contractor",
    "contractor": "IV Waste",
    "rowid": "1101358",
    "final_x": "3677792.31445",
    "final_y": "544280.413263",
    "longitude": "-90.07933690154867",
    "latitude": "29.990694496707658",
    "geocoded_column": {
      "latitude": "29.990694496707658",
      "longitude": "-90.07933690154867"
    }
  },
  {
    "service_request": "2024-1101357",
    "request_type": "Utility Poles",
    "request_reason": "Utility Pole Leaning",
    "date_created": "2024-06-08T13:56:38.000",
    "date_modified": "2024-06-08T13:56:45.000",
    "request_status": "Pending",
    "responsible_agency": "Utility Company Collective",
    "final_address": "TCHOUPITOULAS ST & CALLIOPE ST",
    "address_councildis": "B",
    "status": "Pending",
    "rowid": "1101357",
    "final_x": "3681994.8",
    "final_y": "525190.58",
    "longitude": "-90.0667288467961",
    "latitude": "29.938076873146144",
    "geocoded_column": {
      "latitude": "29.938076873146144",
      "longitude": "-90.0667288467961"
    }
  },
  {
    "service_request": "2024-1101356",
    "request_type": "Roads/Drainage",
    "request_reason": "Pothole",
    "date_created": "2024-06-08T13:52:41.000",
    "date_modified": "2024-06-08T13:52:41.000",
    "request_status": "Pending",
    "responsible_agency": "Department of Public Works",
    "final_address": "5722 Garfield St",
    "address_councildis": "A",
    "status": "Pending",
    "rowid": "1101356",
    "final_x": "3666129.88941",
    "final_y": "521281.319289",
    "longitude": "-90.11694699363373",
    "latitude": "29.92780032437766",
    "geocoded_column": {
      "latitude": "29.92780032437766",
      "longitude": "-90.11694699363373"
    }
  },
  {
    "service_request": "2024-1101355",
    "request_type": "Property Maintenance",
    "request_reason": "Property Maintenance",
    "date_created": "2024-06-08T13:22:05.000",
    "date_modified": "2024-06-08T13:22:05.000",
    "request_status": "Pending",
    "responsible_agency": "Department of Code Enforcement",
    "final_address": "416 Tacoma St",
    "address_councildis": "A",
    "status": "Pending",
    "rowid": "1101355",
    "final_x": "3664752.90925",
    "final_y": "551182.313813",
    "longitude": "-90.12029455225209",
    "latitude": "30.010058289050708",
    "geocoded_column": {
      "latitude": "30.010058289050708",
      "longitude": "-90.12029455225209"
    }
  },
  {
    "service_request": "2024-1101354",
    "request_type": "Trash/Recycling",
    "request_reason": "MIssed Recycling Pick-Up",
    "date_created": "2024-06-08T13:13:20.000",
    "date_modified": "2024-06-08T13:13:21.000",
    "request_status": "Pending",
    "responsible_agency": "Department of Sanitation",
    "final_address": "2329 General Meyer Ave",
    "address_councildis": "C",
    "status": "Assigned to Contractor",
    "contractor": "Richards Disposal",
    "rowid": "1101354",
    "final_x": "3692652.05296",
    "final_y": "527621.965631",
    "longitude": "-90.03299598049206",
    "latitude": "29.944434123735533",
    "geocoded_column": {
      "latitude": "29.944434123735533",
      "longitude": "-90.03299598049206"
    }
  },
  {
    "service_request": "2024-1101353",
    "request_type": "Roads/Drainage",
    "request_reason": "Debris in Roadway",
    "date_created": "2024-06-08T13:11:21.000",
    "date_modified": "2024-06-08T13:11:21.000",
    "request_status": "Pending",
    "responsible_agency": "Department of Public Works",
    "final_address": "CHATHAM DR & FILMORE AVE",
    "address_councildis": "D",
    "status": "Pending",
    "rowid": "1101353",
    "final_x": "3679800.6",
    "final_y": "551977.48",
    "longitude": "-90.07272573940244",
    "latitude": "30.011798103517705",
    "geocoded_column": {
      "latitude": "30.011798103517705",
      "longitude": "-90.07272573940244"
    }
  },
  {
    "service_request": "2024-1101352",
    "request_type": "Traffic Signals/Signs/Striping/Streetlights",
    "request_reason": "Street Light Outage/Malfunction",
    "date_created": "2024-06-08T13:06:50.000",
    "date_modified": "2024-06-08T13:06:50.000",
    "request_status": "Pending",
    "responsible_agency": "Department of Public Works",
    "final_address": "1628 Charlton Dr",
    "address_councildis": "D",
    "status": "Assigned to Contractor",
    "contractor": "Legacy Professional Services",
    "rowid": "1101352",
    "final_x": "3680296.74632",
    "final_y": "550697.407508",
    "longitude": "-90.07120275152468",
    "latitude": "30.008263347305686",
    "geocoded_column": {
      "latitude": "30.008263347305686",
      "longitude": "-90.07120275152468"
    }
  },
  {
    "service_request": "2024-1101351",
    "request_type": "Property Maintenance",
    "request_reason": "Property Maintenance",
    "date_created": "2024-06-08T12:56:41.000",
    "date_modified": "2024-06-08T12:56:41.000",
    "request_status": "Pending",
    "responsible_agency": "Department of Code Enforcement",
    "final_address": "5460 Royal St",
    "address_councildis": "E",
    "status": "Pending",
    "rowid": "1101351",
    "final_x": "3697090.18371",
    "final_y": "532367.291011",
    "longitude": "-90.01881171347497",
    "latitude": "29.95734287088281",
    "geocoded_column": {
      "latitude": "29.95734287088281",
      "longitude": "-90.01881171347497"
    }
  },
  {
    "service_request": "2024-1101350",
    "request_type": "Roads/Drainage",
    "request_reason": "Catch Basin - Broken/Damage",
    "date_created": "2024-06-08T12:39:59.000",
    "date_modified": "2024-06-08T12:39:59.000",
    "request_status": "Pending",
    "responsible_agency": "Department of Public Works",
    "final_address": "5629 Bellaire Dr",
    "address_councildis": "A",
    "status": "Pending",
    "rowid": "1101350",
    "final_x": "3664172.70292",
    "final_y": "545273.403983",
    "longitude": "-90.12232494720814",
    "latitude": "29.993827693801133",
    "geocoded_column": {
      "latitude": "29.993827693801133",
      "longitude": "-90.12232494720814"
    }
  },
  {
    "service_request": "2024-1101349",
    "request_type": "Abandoned Vehicles",
    "request_reason": "Abandoned/Junk Vehicles",
    "date_created": "2024-06-08T12:27:31.000",
    "date_modified": "2024-06-08T12:27:31.000",
    "request_status": "Pending",
    "responsible_agency": "Department of Public Works",
    "final_address": "1427 Leboeuf St",
    "address_councildis": "C",
    "status": "Pending",
    "rowid": "1101349",
    "final_x": "3689643.44803",
    "final_y": "526121.55891",
    "longitude": "-90.04254835278088",
    "latitude": "29.940402054815262",
    "geocoded_column": {
      "latitude": "29.940402054815262",
      "longitude": "-90.04254835278088"
    }
  },
  {
    "service_request": "2024-1101348",
    "request_type": "Trash/Recycling",
    "request_reason": "Request a Large Item Pick Up",
    "date_created": "2024-06-08T12:25:54.000",
    "date_modified": "2024-06-08T12:25:54.000",
    "request_status": "Pending",
    "responsible_agency": "Department of Sanitation",
    "final_address": "1131 Leboeuf St",
    "address_councildis": "C",
    "status": "Assigned to Contractor",
    "contractor": "Richards Disposal",
    "rowid": "1101348",
    "final_x": "3689663.2495",
    "final_y": "527157.584959",
    "longitude": "-90.04244898713497",
    "latitude": "29.94325015998874",
    "geocoded_column": {
      "latitude": "29.94325015998874",
      "longitude": "-90.04244898713497"
    }
  },
  {
    "service_request": "2024-1101347",
    "request_type": "Roads/Drainage",
    "request_reason": "Damaged Sidewalk",
    "date_created": "2024-06-08T12:03:58.000",
    "date_modified": "2024-06-08T12:03:58.000",
    "request_status": "Pending",
    "responsible_agency": "Department of Public Works",
    "final_address": "1136 Barracks St",
    "address_councildis": "C",
    "status": "Pending",
    "rowid": "1101347",
    "final_x": "3682427.81013",
    "final_y": "535256.29927",
    "longitude": "-90.06501004416145",
    "latitude": "29.965741025459064",
    "geocoded_column": {
      "latitude": "29.965741025459064",
      "longitude": "-90.06501004416145"
    }
  },
  {
    "service_request": "2024-1101346",
    "request_type": "Property Maintenance",
    "request_reason": "Property Maintenance",
    "date_created": "2024-06-08T11:41:39.000",
    "date_modified": "2024-06-08T11:41:39.000",
    "request_status": "Pending",
    "responsible_agency": "Department of Code Enforcement",
    "final_address": "4027 Hollygrove St",
    "address_councildis": "A",
    "status": "Pending",
    "rowid": "1101346",
    "final_x": "3666464.67937",
    "final_y": "537988.645961",
    "longitude": "-90.11532950975014",
    "latitude": "29.97373026609402",
    "geocoded_column": {
      "latitude": "29.97373026609402",
      "longitude": "-90.11532950975014"
    }
  },
  {
    "service_request": "2024-1101345",
    "request_type": "Mosquito, Termite & Rodent Control",
    "request_reason": "Non-Rodent Complaint (Mice, Possums, Snakes)",
    "date_created": "2024-06-08T11:31:40.000",
    "date_modified": "2024-06-08T11:31:40.000",
    "request_status": "Pending",
    "responsible_agency": "Mosquito, Termite & Rodent Control Board",
    "final_address": "4027 Annunciation St",
    "address_councildis": "B",
    "status": "Pending",
    "rowid": "1101345",
    "final_x": "3672396.59303",
    "final_y": "517914.418806",
    "longitude": "-90.09727910274931",
    "latitude": "29.918358013572398",
    "geocoded_column": {
      "latitude": "29.918358013572398",
      "longitude": "-90.09727910274931"
    }
  },
  {
    "service_request": "2024-1101344",
    "request_type": "Roads/Drainage",
    "request_reason": "Pothole",
    "date_created": "2024-06-08T11:17:50.000",
    "date_modified": "2024-06-08T11:17:50.000",
    "request_status": "Pending",
    "responsible_agency": "Department of Public Works",
    "final_address": "936 Arabella St",
    "address_councildis": "A",
    "status": "Pending",
    "rowid": "1101344",
    "final_x": "3665920.35764",
    "final_y": "519569.128439",
    "longitude": "-90.11766578223516",
    "latitude": "29.923098453673333",
    "geocoded_column": {
      "latitude": "29.923098453673333",
      "longitude": "-90.11766578223516"
    }
  },
  {
    "service_request": "2024-1101343",
    "request_type": "Trash/Recycling",
    "request_reason": "Replace Recycling Cart",
    "date_created": "2024-06-08T11:16:15.000",
    "date_modified": "2024-06-08T11:16:15.000",
    "request_status": "Pending",
    "responsible_agency": "Department of Sanitation",
    "final_address": "3801 Iberville St",
    "address_councildis": "A",
    "status": "Pending",
    "rowid": "1101343",
    "final_x": "3672332.9467",
    "final_y": "538003.012809",
    "longitude": "-90.09679572032937",
    "latitude": "29.973596945774997",
    "geocoded_column": {
      "latitude": "29.973596945774997",
      "longitude": "-90.09679572032937"
    }
  },
  {
    "service_request": "2024-1101342",
    "request_type": "Trash/Recycling",
    "request_reason": "Dead Animal Pick Up",
    "date_created": "2024-06-08T11:13:01.000",
    "date_modified": "2024-06-08T13:07:24.000",
    "case_close_date": "2024-06-08T08:07:24.000",
    "request_status": "Closed",
    "responsible_agency": "Department of Sanitation",
    "final_address": "1437 Congress St",
    "address_councildis": "D",
    "status": "Assigned to Contractor",
    "contractor": "IV Waste",
    "contractor_action": "Completed",
    "rowid": "1101342",
    "final_x": "3691098.33622",
    "final_y": "536921.7458",
    "longitude": "-90.03756945824573",
    "latitude": "29.970053674541553",
    "geocoded_column": {
      "latitude": "29.970053674541553",
      "longitude": "-90.03756945824573"
    }
  },
  {
    "service_request": "2024-1101341",
    "request_type": "Roads/Drainage",
    "request_reason": "Damaged Sidewalk",
    "date_created": "2024-06-08T11:02:33.000",
    "date_modified": "2024-06-08T11:02:33.000",
    "request_status": "Pending",
    "responsible_agency": "Department of Public Works",
    "final_address": "314 S Hennessey St",
    "address_councildis": "A",
    "status": "Pending",
    "rowid": "1101341",
    "final_x": "3669748.68711",
    "final_y": "538195.256073",
    "longitude": "-90.10495087617979",
    "latitude": "29.97420197977846",
    "geocoded_column": {
      "latitude": "29.97420197977846",
      "longitude": "-90.10495087617979"
    }
  },
  {
    "service_request": "2024-1101340",
    "request_type": "Roads/Drainage",
    "request_reason": "Catch Basin - Clogged",
    "date_created": "2024-06-08T10:57:16.000",
    "date_modified": "2024-06-08T10:57:16.000",
    "request_status": "Pending",
    "responsible_agency": "Department of Public Works",
    "final_address": "3926 Magazine St",
    "address_councildis": "B",
    "status": "Pending",
    "rowid": "1101340",
    "final_x": "3672834.64616",
    "final_y": "518927.303863",
    "longitude": "-90.0958618725394",
    "latitude": "29.921130123979815",
    "geocoded_column": {
      "latitude": "29.921130123979815",
      "longitude": "-90.0958618725394"
    }
  },
  {
    "service_request": "2024-1101339",
    "request_type": "Trash/Recycling",
    "request_reason": "Replace Trash Cart",
    "date_created": "2024-06-08T10:45:49.000",
    "date_modified": "2024-06-08T10:45:50.000",
    "request_status": "Pending",
    "responsible_agency": "Department of Sanitation",
    "final_address": "2336 St Thomas St",
    "address_councildis": "B",
    "status": "Assigned to Contractor",
    "contractor": "IV Waste",
    "rowid": "1101339",
    "final_x": "3679431.74703",
    "final_y": "520190.466936",
    "longitude": "-90.07499398887097",
    "latitude": "29.924405858176968",
    "geocoded_column": {
      "latitude": "29.924405858176968",
      "longitude": "-90.07499398887097"
    }
  },
  {
    "service_request": "2024-1101338",
    "request_type": "Abandoned Vehicles",
    "request_reason": "Vehicle Blocking Your Driveway",
    "date_created": "2024-06-08T10:45:10.000",
    "date_modified": "2024-06-08T10:45:10.000",
    "request_status": "Pending",
    "responsible_agency": "Department of Public Works",
    "final_address": "547 Baronne St",
    "address_councildis": "B",
    "status": "Pending",
    "rowid": "1101338",
    "final_x": "3679801.53653",
    "final_y": "529192.781888",
    "longitude": "-90.07351425149481",
    "latitude": "29.9491480761366",
    "geocoded_column": {
      "latitude": "29.9491480761366",
      "longitude": "-90.07351425149481"
    }
  },
  {
    "service_request": "2024-1101337",
    "request_type": "Abandoned Vehicles",
    "request_reason": "Vehicle Blocking Your Driveway",
    "date_created": "2024-06-08T10:41:27.000",
    "date_modified": "2024-06-08T10:41:27.000",
    "request_status": "Pending",
    "responsible_agency": "Department of Public Works",
    "final_address": "547 Baronne St",
    "address_councildis": "B",
    "status": "Pending",
    "rowid": "1101337",
    "final_x": "3679801.53653",
    "final_y": "529192.781888",
    "longitude": "-90.07351425149481",
    "latitude": "29.9491480761366",
    "geocoded_column": {
      "latitude": "29.9491480761366",
      "longitude": "-90.07351425149481"
    }
  },
  {
    "service_request": "2024-1101336",
    "request_type": "Trash/Recycling",
    "request_reason": "Return Recycling Cart",
    "date_created": "2024-06-08T10:33:17.000",
    "date_modified": "2024-06-08T10:33:17.000",
    "request_status": "Pending",
    "responsible_agency": "Department of Sanitation",
    "final_address": "3714 Jena St",
    "address_councildis": "B",
    "status": "Pending",
    "rowid": "1101336",
    "final_x": "3669671.87278",
    "final_y": "528260.854848",
    "longitude": "-90.10552966907831",
    "latitude": "29.9468879317482",
    "geocoded_column": {
      "latitude": "29.9468879317482",
      "longitude": "-90.10552966907831"
    }
  },
  {
    "service_request": "2024-1101335",
    "request_type": "Traffic Signals/Signs/Striping/Streetlights",
    "request_reason": "Street Light Outage/Malfunction",
    "date_created": "2024-06-08T10:26:39.000",
    "date_modified": "2024-06-08T10:26:39.000",
    "request_status": "Pending",
    "responsible_agency": "Department of Public Works",
    "final_address": "5946 Memphis St",
    "address_councildis": "A",
    "status": "Assigned to Contractor",
    "contractor": "Legacy Professional Services",
    "rowid": "1101335",
    "final_x": "3669070.47572",
    "final_y": "546945.072465",
    "longitude": "-90.10679703044974",
    "latitude": "29.998280965243257",
    "geocoded_column": {
      "latitude": "29.998280965243257",
      "longitude": "-90.10679703044974"
    }
  },
  {
    "service_request": "2024-1101334",
    "request_type": "Trash/Recycling",
    "request_reason": "Repair Recycling Cart",
    "date_created": "2024-06-08T10:22:23.000",
    "date_modified": "2024-06-08T10:22:23.000",
    "request_status": "Pending",
    "responsible_agency": "Department of Sanitation",
    "final_address": "2028 Music St",
    "address_councildis": "D",
    "status": "Pending",
    "rowid": "1101334",
    "final_x": "3686522.70575",
    "final_y": "540004.431627",
    "longitude": "-90.05191085343617",
    "latitude": "29.978671461787066",
    "geocoded_column": {
      "latitude": "29.978671461787066",
      "longitude": "-90.05191085343617"
    }
  },
  {
    "service_request": "2024-1101333",
    "request_type": "Trash/Recycling",
    "request_reason": "Order Recycling Cart",
    "date_created": "2024-06-08T10:16:50.000",
    "date_modified": "2024-06-08T10:16:50.000",
    "request_status": "Pending",
    "responsible_agency": "Department of Sanitation",
    "final_address": "819 N Dupre St",
    "address_councildis": "A",
    "status": "Pending",
    "rowid": "1101333",
    "final_x": "3676284.38888",
    "final_y": "537932.653257",
    "longitude": "-90.08431863642203",
    "latitude": "29.97328563816815",
    "geocoded_column": {
      "latitude": "29.97328563816815",
      "longitude": "-90.08431863642203"
    }
  },
  {
    "service_request": "2024-1101332",
    "request_type": "Trash/Recycling",
    "request_reason": "Replace Trash Cart",
    "date_created": "2024-06-08T10:14:59.000",
    "date_modified": "2024-06-08T10:15:00.000",
    "request_status": "Pending",
    "responsible_agency": "Department of Sanitation",
    "final_address": "2369 Rousseau St",
    "address_councildis": "B",
    "status": "Assigned to Contractor",
    "contractor": "IV Waste",
    "rowid": "1101332",
    "final_x": "3679421.37243",
    "final_y": "519724.295672",
    "longitude": "-90.0750428974777",
    "latitude": "29.92312435226266",
    "geocoded_column": {
      "latitude": "29.92312435226266",
      "longitude": "-90.0750428974777"
    }
  },
  {
    "service_request": "2024-1101331",
    "request_type": "Traffic Signals/Signs/Striping/Streetlights",
    "request_reason": "Traffic Signal Malfunctioning/Damaged",
    "date_created": "2024-06-08T10:14:30.000",
    "date_modified": "2024-06-08T10:14:30.000",
    "request_status": "Pending",
    "responsible_agency": "Department of Public Works",
    "final_address": "2700 Clio St",
    "address_councildis": "B",
    "status": "Pending",
    "rowid": "1101331",
    "final_x": "3676131.56597",
    "final_y": "528874.085696",
    "longitude": "-90.08511293241654",
    "latitude": "29.94838220697618",
    "geocoded_column": {
      "latitude": "29.94838220697618",
      "longitude": "-90.08511293241654"
    }
  },
  {
    "service_request": "2024-1101330",
    "request_type": "Traffic Signals/Signs/Striping/Streetlights",
    "request_reason": "Traffic Signal Malfunctioning/Damaged",
    "date_created": "2024-06-08T10:09:54.000",
    "date_modified": "2024-06-08T10:09:54.000",
    "request_status": "Pending",
    "responsible_agency": "Department of Public Works",
    "final_address": "1300 BLK Magnolia St",
    "address_councildis": "B",
    "status": "Pending",
    "rowid": "1101330",
    "final_x": "3676136.76678",
    "final_y": "528009.719687",
    "longitude": "-90.08512624108378",
    "latitude": "29.946005331181055",
    "geocoded_column": {
      "latitude": "29.946005331181055",
      "longitude": "-90.08512624108378"
    }
  },
  {
    "service_request": "2024-1101329",
    "request_type": "Traffic Signals/Signs/Striping/Streetlights",
    "request_reason": "Traffic Signal Malfunctioning/Damaged",
    "date_created": "2024-06-08T10:08:30.000",
    "date_modified": "2024-06-08T10:08:30.000",
    "request_status": "Pending",
    "responsible_agency": "Department of Public Works",
    "final_address": "1400 BLK Magnolia St",
    "address_councildis": "B",
    "status": "Pending",
    "rowid": "1101329",
    "final_x": "3675984.28907",
    "final_y": "527767.540381",
    "longitude": "-90.08561599174074",
    "latitude": "29.94534398450507",
    "geocoded_column": {
      "latitude": "29.94534398450507",
      "longitude": "-90.08561599174074"
    }
  },
  {
    "service_request": "2024-1101328",
    "request_type": "Trash/Recycling",
    "request_reason": "Missed Trash Pick-Up",
    "date_created": "2024-06-08T09:37:05.000",
    "date_modified": "2024-06-08T13:04:27.000",
    "case_close_date": "2024-06-08T08:04:27.000",
    "request_status": "Closed",
    "responsible_agency": "Department of Sanitation",
    "final_address": "2720 S Carrollton Ave, New Orleans, Louisiana, 70118",
    "address_councildis": "A",
    "status": "Invalid Request",
    "contractor": "IV Waste",
    "contractor_action": "Invalid Request",
    "rowid": "1101328",
    "final_x": "3665710.68135",
    "final_y": "532507.302404",
    "longitude": "-90.11789443654493",
    "latitude": "29.95868039828293",
    "geocoded_column": {
      "latitude": "29.95868039828293",
      "longitude": "-90.11789443654493"
    }
  },
  {
    "service_request": "2024-1101327",
    "request_type": "Trash/Recycling",
    "request_reason": "Missed Trash Pick-Up",
    "date_created": "2024-06-08T09:21:43.000",
    "date_modified": "2024-06-08T10:43:55.000",
    "case_close_date": "2024-06-08T05:43:55.000",
    "request_status": "Closed",
    "responsible_agency": "Department of Sanitation",
    "final_address": "2228 Calhoun St, New Orleans, Louisiana, 70118",
    "address_councildis": "A",
    "status": "Invalid Request",
    "contractor": "IV Waste",
    "contractor_action": "Invalid",
    "rowid": "1101327",
    "final_x": "3665845.29069",
    "final_y": "525360.751101",
    "longitude": "-90.11770878708177",
    "latitude": "29.939025768907346",
    "geocoded_column": {
      "latitude": "29.939025768907346",
      "longitude": "-90.11770878708177"
    }
  },
  {
    "service_request": "2024-1101326",
    "request_type": "Trash/Recycling",
    "request_reason": "Replace Trash Cart",
    "date_created": "2024-06-08T09:15:07.000",
    "date_modified": "2024-06-08T09:15:08.000",
    "request_status": "Pending",
    "responsible_agency": "Department of Sanitation",
    "final_address": "3620 Danneel St",
    "address_councildis": "B",
    "status": "Assigned to Contractor",
    "contractor": "IV Waste",
    "rowid": "1101326",
    "final_x": "3672876.32276",
    "final_y": "522509.312634",
    "longitude": "-90.09560818292567",
    "latitude": "29.930978260482284",
    "geocoded_column": {
      "latitude": "29.930978260482284",
      "longitude": "-90.09560818292567"
    }
  },
  {
    "service_request": "2024-1101325",
    "request_type": "Trash/Recycling",
    "request_reason": "Replace Trash Cart",
    "date_created": "2024-06-08T09:14:27.000",
    "date_modified": "2024-06-08T09:14:27.000",
    "request_status": "Pending",
    "responsible_agency": "Department of Sanitation",
    "final_address": "3618 Danneel St",
    "address_councildis": "B",
    "status": "Assigned to Contractor",
    "contractor": "IV Waste",
    "rowid": "1101325",
    "final_x": "3672876.32276",
    "final_y": "522509.312634",
    "longitude": "-90.09560818292567",
    "latitude": "29.930978260482284",
    "geocoded_column": {
      "latitude": "29.930978260482284",
      "longitude": "-90.09560818292567"
    }
  },
  {
    "service_request": "2024-1101324",
    "request_type": "Roads/Drainage",
    "request_reason": "Damaged Sidewalk",
    "date_created": "2024-06-08T09:08:57.000",
    "date_modified": "2024-06-08T09:08:57.000",
    "request_status": "Pending",
    "responsible_agency": "Department of Public Works",
    "final_address": "1122 Barracks St",
    "address_councildis": "C",
    "status": "Pending",
    "rowid": "1101324",
    "final_x": "3682518.3814",
    "final_y": "535207.670982",
    "longitude": "-90.06472572382619",
    "latitude": "29.965604557470886",
    "geocoded_column": {
      "latitude": "29.965604557470886",
      "longitude": "-90.06472572382619"
    }
  },
  {
    "service_request": "2024-1101323",
    "request_type": "Abandoned Vehicles",
    "request_reason": "Vehicle Blocking Your Driveway",
    "date_created": "2024-06-08T09:05:03.000",
    "date_modified": "2024-06-08T09:05:03.000",
    "request_status": "Pending",
    "responsible_agency": "Department of Public Works",
    "final_address": "1341 St Bernard Ave",
    "address_councildis": "C",
    "status": "Pending",
    "rowid": "1101323",
    "final_x": "3682787.40648",
    "final_y": "536802.919752",
    "longitude": "-90.06382033976618",
    "latitude": "29.96998274876215",
    "geocoded_column": {
      "latitude": "29.96998274876215",
      "longitude": "-90.06382033976618"
    }
  },
  {
    "service_request": "2024-1101322",
    "request_type": "Trash/Recycling",
    "request_reason": "Missed Trash Pick-Up",
    "date_created": "2024-06-08T09:04:55.000",
    "date_modified": "2024-06-08T10:05:42.000",
    "case_close_date": "2024-06-08T05:05:42.000",
    "request_status": "Closed",
    "responsible_agency": "Department of Sanitation",
    "final_address": "3600 BLK Danneel St",
    "address_councildis": "B",
    "status": "Assigned to Contractor",
    "contractor": "IV Waste",
    "contractor_action": "Completed",
    "rowid": "1101322",
    "final_x": "3672911.88642",
    "final_y": "522588.70986",
    "longitude": "-90.09549320535534",
    "latitude": "29.931195520869835",
    "geocoded_column": {
      "latitude": "29.931195520869835",
      "longitude": "-90.09549320535534"
    }
  },
  {
    "service_request": "2024-1101321",
    "request_type": "Roads/Drainage",
    "request_reason": "Catch Basin - Clogged",
    "date_created": "2024-06-08T09:03:01.000",
    "date_modified": "2024-06-08T09:03:01.000",
    "request_status": "Pending",
    "responsible_agency": "Department of Public Works",
    "final_address": "1136 Barracks St",
    "address_councildis": "C",
    "status": "Pending",
    "rowid": "1101321",
    "final_x": "3682427.81013",
    "final_y": "535256.29927",
    "longitude": "-90.06501004416145",
    "latitude": "29.965741025459064",
    "geocoded_column": {
      "latitude": "29.965741025459064",
      "longitude": "-90.06501004416145"
    }
  },
  {
    "service_request": "2024-1101320",
    "request_type": "Abandoned Vehicles",
    "request_reason": "Abandoned/Junk Vehicles",
    "date_created": "2024-06-08T08:58:14.000",
    "date_modified": "2024-06-08T08:58:14.000",
    "request_status": "Pending",
    "responsible_agency": "Department of Public Works",
    "final_address": "1505 Marengo St",
    "address_councildis": "B",
    "status": "Pending",
    "rowid": "1101320",
    "final_x": "3672035.73556",
    "final_y": "520732.705273",
    "longitude": "-90.09832225812578",
    "latitude": "29.92611810106275",
    "geocoded_column": {
      "latitude": "29.92611810106275",
      "longitude": "-90.09832225812578"
    }
  },
  {
    "service_request": "2024-1101318",
    "request_type": "Roads/Drainage",
    "request_reason": "Damaged Sidewalk",
    "date_created": "2024-06-08T08:57:21.000",
    "date_modified": "2024-06-08T08:57:21.000",
    "request_status": "Pending",
    "responsible_agency": "Department of Public Works",
    "final_address": "1135 Barracks St",
    "address_councildis": "C",
    "status": "Pending",
    "rowid": "1101318",
    "final_x": "3682475.87061",
    "final_y": "535317.642694",
    "longitude": "-90.06485612650428",
    "latitude": "29.96590823593306",
    "geocoded_column": {
      "latitude": "29.96590823593306",
      "longitude": "-90.06485612650428"
    }
  },
  {
    "service_request": "2024-1101317",
    "request_type": "Traffic Signals/Signs/Striping/Streetlights",
    "request_reason": "Street Light Outage/Malfunction",
    "date_created": "2024-06-08T08:54:38.000",
    "date_modified": "2024-06-08T08:54:38.000",
    "request_status": "Pending",
    "responsible_agency": "Department of Public Works",
    "final_address": "15 Flowerdale Ct",
    "address_councildis": "A",
    "status": "Assigned to Contractor",
    "contractor": "Legacy Professional Services",
    "rowid": "1101317",
    "final_x": "3673448.20398",
    "final_y": "541227.840204",
    "longitude": "-90.09316326314165",
    "latitude": "29.9824309804596",
    "geocoded_column": {
      "latitude": "29.9824309804596",
      "longitude": "-90.09316326314165"
    }
  },
  {
    "service_request": "2024-1101316",
    "request_type": "Roads/Drainage",
    "request_reason": "Damaged Sidewalk",
    "date_created": "2024-06-08T08:53:29.000",
    "date_modified": "2024-06-08T08:53:29.000",
    "request_status": "Pending",
    "responsible_agency": "Department of Public Works",
    "final_address": "1136 Barracks St",
    "address_councildis": "C",
    "status": "Pending",
    "rowid": "1101316",
    "final_x": "3682427.81013",
    "final_y": "535256.29927",
    "longitude": "-90.06501004416145",
    "latitude": "29.965741025459064",
    "geocoded_column": {
      "latitude": "29.965741025459064",
      "longitude": "-90.06501004416145"
    }
  },
  {
    "service_request": "2024-1101315",
    "request_type": "Traffic Signals/Signs/Striping/Streetlights",
    "request_reason": "Street Light Outage/Malfunction",
    "date_created": "2024-06-08T08:48:35.000",
    "date_modified": "2024-06-08T08:48:35.000",
    "request_status": "Pending",
    "responsible_agency": "Department of Public Works",
    "final_address": "15 Flowerdale Ct",
    "address_councildis": "A",
    "status": "Assigned to Contractor",
    "contractor": "Legacy Professional Services",
    "rowid": "1101315",
    "final_x": "3673448.20398",
    "final_y": "541227.840204",
    "longitude": "-90.09316326314165",
    "latitude": "29.9824309804596",
    "geocoded_column": {
      "latitude": "29.9824309804596",
      "longitude": "-90.09316326314165"
    }
  },
  {
    "service_request": "2024-1101314",
    "request_type": "Roads/Drainage",
    "request_reason": "Pothole",
    "date_created": "2024-06-08T08:45:40.000",
    "date_modified": "2024-06-08T08:45:40.000",
    "request_status": "Pending",
    "responsible_agency": "Department of Public Works",
    "final_address": "1479 Nashville Ave",
    "address_councildis": "A",
    "status": "Pending",
    "rowid": "1101314",
    "final_x": "3666169.44615",
    "final_y": "521606.050681",
    "longitude": "-90.11681123850927",
    "latitude": "29.92869207826199",
    "geocoded_column": {
      "latitude": "29.92869207826199",
      "longitude": "-90.11681123850927"
    }
  },
  {
    "service_request": "2024-1101313",
    "request_type": "Traffic Signals/Signs/Striping/Streetlights",
    "request_reason": "Traffic Signal Malfunctioning/Damaged",
    "date_created": "2024-06-08T08:43:04.000",
    "date_modified": "2024-06-08T08:43:04.000",
    "request_status": "Pending",
    "responsible_agency": "Department of Public Works",
    "final_address": "1136 Esplanade Ave",
    "address_councildis": "C",
    "status": "Pending",
    "rowid": "1101313",
    "final_x": "3682590.27234",
    "final_y": "535476.75847",
    "longitude": "-90.06448928548305",
    "latitude": "29.96634226673819",
    "geocoded_column": {
      "latitude": "29.96634226673819",
      "longitude": "-90.06448928548305"
    }
  },
  {
    "service_request": "2024-1101312",
    "request_type": "Trash/Recycling",
    "request_reason": "Replace Trash Cart",
    "date_created": "2024-06-08T08:35:34.000",
    "date_modified": "2024-06-08T08:35:34.000",
    "request_status": "Pending",
    "responsible_agency": "Department of Sanitation",
    "final_address": "5910 Campus Blvd, New Orleans, Louisiana, 70126",
    "address_councildis": "D",
    "status": "Assigned to Contractor",
    "contractor": "IV Waste",
    "rowid": "1101312",
    "final_x": "3688510.6255",
    "final_y": "555105.650393",
    "longitude": "-90.0450960541982",
    "latitude": "30.020133057947614",
    "geocoded_column": {
      "latitude": "30.020133057947614",
      "longitude": "-90.0450960541982"
    }
  },
  {
    "service_request": "2024-1101311",
    "request_type": "Roads/Drainage",
    "request_reason": "Accessibility Ramps, Curbs and Sidewalk Repair",
    "date_created": "2024-06-08T08:32:48.000",
    "date_modified": "2024-06-08T08:32:48.000",
    "request_status": "Pending",
    "responsible_agency": "Department of Public Works",
    "final_address": "1200 BLK Ursulines Ave",
    "address_councildis": "C",
    "status": "Pending",
    "rowid": "1101311",
    "final_x": "3681829.62941",
    "final_y": "534877.044535",
    "longitude": "-90.0669123129784",
    "latitude": "29.964716397613305",
    "geocoded_column": {
      "latitude": "29.964716397613305",
      "longitude": "-90.0669123129784"
    }
  },
  {
    "service_request": "2024-1101310",
    "request_type": "Roads/Drainage",
    "request_reason": "Pothole",
    "date_created": "2024-06-08T08:24:54.000",
    "date_modified": "2024-06-08T08:24:54.000",
    "request_status": "Pending",
    "responsible_agency": "Department of Public Works",
    "final_address": "1132 Ursulines Ave",
    "address_councildis": "C",
    "status": "Pending",
    "rowid": "1101310",
    "final_x": "3682020.81192",
    "final_y": "534692.128262",
    "longitude": "-90.06631502927343",
    "latitude": "29.964202129837755",
    "geocoded_column": {
      "latitude": "29.964202129837755",
      "longitude": "-90.06631502927343"
    }
  },
  {
    "service_request": "2024-1101309",
    "request_type": "Trash/Recycling",
    "request_reason": "MIssed Recycling Pick-Up",
    "date_created": "2024-06-08T08:08:38.000",
    "date_modified": "2024-06-08T09:28:36.000",
    "case_close_date": "2024-06-08T04:28:36.000",
    "request_status": "Closed",
    "responsible_agency": "Department of Sanitation",
    "final_address": "2806 N Rampart St",
    "address_councildis": "C",
    "status": "Assigned to Contractor",
    "contractor": "IV Waste",
    "contractor_action": "Completed",
    "rowid": "1101309",
    "final_x": "3687670.53148",
    "final_y": "535841.522247",
    "longitude": "-90.04843303715046",
    "latitude": "29.967189576934842",
    "geocoded_column": {
      "latitude": "29.967189576934842",
      "longitude": "-90.04843303715046"
    }
  },
  {
    "service_request": "2024-1101308",
    "request_type": "Trash/Recycling",
    "request_reason": "Request a Large Item Pick Up",
    "date_created": "2024-06-08T08:04:12.000",
    "date_modified": "2024-06-08T08:04:12.000",
    "request_status": "Pending",
    "responsible_agency": "Department of Sanitation",
    "final_address": "3530 Rue Mignon",
    "address_councildis": "C",
    "status": "Assigned to Contractor",
    "contractor": "Richards Disposal",
    "rowid": "1101308",
    "final_x": "3703388.43287",
    "final_y": "517644.477366",
    "longitude": "-89.99946508049301",
    "latitude": "29.91666012332781",
    "geocoded_column": {
      "latitude": "29.91666012332781",
      "longitude": "-89.99946508049301"
    }
  },
  {
    "service_request": "2024-1101307",
    "request_type": "Safety & Permits",
    "request_reason": "Construction permit",
    "date_created": "2024-06-08T08:03:20.000",
    "date_modified": "2024-06-08T08:03:20.000",
    "request_status": "Pending",
    "responsible_agency": "Safety and Permits",
    "final_address": "1050 Annunciation St",
    "address_councildis": "B",
    "status": "Pending",
    "rowid": "1101307",
    "final_x": "3681649.20469",
    "final_y": "526146.660606",
    "longitude": "-90.06778658341321",
    "latitude": "29.940716276022762",
    "geocoded_column": {
      "latitude": "29.940716276022762",
      "longitude": "-90.06778658341321"
    }
  },
  {
    "service_request": "2024-1101306",
    "request_type": "Trash/Recycling",
    "request_reason": "Missed Trash Pick-Up",
    "date_created": "2024-06-08T08:02:19.000",
    "date_modified": "2024-06-08T13:06:29.000",
    "case_close_date": "2024-06-08T08:06:29.000",
    "request_status": "Closed",
    "responsible_agency": "Department of Sanitation",
    "final_address": "1518 Religious St",
    "address_councildis": "B",
    "status": "Invalid Request",
    "contractor": "IV Waste",
    "contractor_action": "Invalid",
    "rowid": "1101306",
    "final_x": "3682069.67912",
    "final_y": "523210.179835",
    "longitude": "-90.06656156857525",
    "latitude": "29.932629154067644",
    "geocoded_column": {
      "latitude": "29.932629154067644",
      "longitude": "-90.06656156857525"
    }
  },
  {
    "service_request": "2024-1101305",
    "request_type": "Roads/Drainage",
    "request_reason": "Catch Basin - Clogged",
    "date_created": "2024-06-08T07:57:32.000",
    "date_modified": "2024-06-08T07:57:32.000",
    "request_status": "Pending",
    "responsible_agency": "Department of Public Works",
    "final_address": "1114 Henriette Delille St",
    "address_councildis": "C",
    "status": "Pending",
    "rowid": "1101305",
    "final_x": "3682051.23228",
    "final_y": "534851.31303",
    "longitude": "-90.06621340544874",
    "latitude": "29.964638908399724",
    "geocoded_column": {
      "latitude": "29.964638908399724",
      "longitude": "-90.06621340544874"
    }
  },
  {
    "service_request": "2024-1101304",
    "request_type": "Trash/Recycling",
    "request_reason": "Replace Trash Cart",
    "date_created": "2024-06-08T07:43:09.000",
    "date_modified": "2024-06-08T07:43:09.000",
    "request_status": "Pending",
    "responsible_agency": "Department of Sanitation",
    "final_address": "542 Elmira Ave",
    "address_councildis": "C",
    "status": "Assigned to Contractor",
    "contractor": "Richards Disposal",
    "rowid": "1101304",
    "final_x": "3688238.89622",
    "final_y": "529553.666945",
    "longitude": "-90.04686108257508",
    "latitude": "29.949882613155296",
    "geocoded_column": {
      "latitude": "29.949882613155296",
      "longitude": "-90.04686108257508"
    }
  },
  {
    "service_request": "2024-1101303",
    "request_type": "Property Maintenance",
    "request_reason": "Property Maintenance",
    "date_created": "2024-06-08T07:39:58.000",
    "date_modified": "2024-06-08T07:39:58.000",
    "request_status": "Pending",
    "responsible_agency": "Department of Code Enforcement",
    "final_address": "FALMOUTH DR & OXFORD PL",
    "address_councildis": "C",
    "status": "Pending",
    "rowid": "1101303",
    "final_x": "3706586.7",
    "final_y": "519798.38",
    "longitude": "-89.98929037386465",
    "latitude": "29.92247984709041",
    "geocoded_column": {
      "latitude": "29.92247984709041",
      "longitude": "-89.98929037386465"
    }
  },
  {
    "service_request": "2024-1101302",
    "request_type": "Roads/Drainage",
    "request_reason": "Damaged Sidewalk",
    "date_created": "2024-06-08T07:27:41.000",
    "date_modified": "2024-06-08T07:27:41.000",
    "request_status": "Pending",
    "responsible_agency": "Department of Public Works",
    "final_address": "1210 Governor Nicholls St",
    "address_councildis": "C",
    "status": "Pending",
    "rowid": "1101302",
    "final_x": "3682034.35151",
    "final_y": "535147.335238",
    "longitude": "-90.06625637642081",
    "latitude": "29.96545338115008",
    "geocoded_column": {
      "latitude": "29.96545338115008",
      "longitude": "-90.06625637642081"
    }
  },
  {
    "service_request": "2024-1101301",
    "request_type": "Trash/Recycling",
    "request_reason": "Missed Trash Pick-Up",
    "date_created": "2024-06-08T07:03:21.000",
    "date_modified": "2024-06-08T08:19:55.000",
    "case_close_date": "2024-06-08T03:19:55.000",
    "request_status": "Closed",
    "responsible_agency": "Department of Sanitation",
    "final_address": "1836 Baronne St",
    "address_councildis": "B",
    "status": "Invalid Request",
    "contractor": "IV Waste",
    "contractor_action": "Invalid",
    "rowid": "1101301",
    "final_x": "3677699.42216",
    "final_y": "524925.198524",
    "longitude": "-90.08029890460413",
    "latitude": "29.937477019124707",
    "geocoded_column": {
      "latitude": "29.937477019124707",
      "longitude": "-90.08029890460413"
    }
  },
  {
    "service_request": "2024-1101299",
    "request_type": "Roads/Drainage",
    "request_reason": "Pothole",
    "date_created": "2024-06-08T06:28:24.000",
    "date_modified": "2024-06-08T06:28:24.000",
    "request_status": "Pending",
    "responsible_agency": "Department of Public Works",
    "final_address": "1300 BLK Barracks St",
    "address_councildis": "C",
    "status": "Pending",
    "rowid": "1101299",
    "final_x": "3682026.76124",
    "final_y": "535627.327483",
    "longitude": "-90.06626358449546",
    "latitude": "29.96677342566635",
    "geocoded_column": {
      "latitude": "29.96677342566635",
      "longitude": "-90.06626358449546"
    }
  },
  {
    "service_request": "2024-1101298",
    "request_type": "Roads/Drainage",
    "request_reason": "Street Subsidence (Sinking)",
    "date_created": "2024-06-08T06:24:46.000",
    "date_modified": "2024-06-08T06:24:46.000",
    "request_status": "Pending",
    "responsible_agency": "Department of Public Works",
    "final_address": "1211 Governor Nicholls St",
    "address_councildis": "C",
    "status": "Pending",
    "rowid": "1101298",
    "final_x": "3682126.22677",
    "final_y": "535194.644486",
    "longitude": "-90.06596458628206",
    "latitude": "29.965580671464146",
    "geocoded_column": {
      "latitude": "29.965580671464146",
      "longitude": "-90.06596458628206"
    }
  },
  {
    "service_request": "2024-1101297",
    "request_type": "Roads/Drainage",
    "request_reason": "Street Flooding / Drainage",
    "date_created": "2024-06-08T06:18:13.000",
    "date_modified": "2024-06-08T06:18:13.000",
    "request_status": "Pending",
    "responsible_agency": "Department of Public Works",
    "final_address": "7556 Lady Gray St",
    "address_councildis": "E",
    "status": "Pending",
    "rowid": "1101297",
    "final_x": "3710119.88785",
    "final_y": "564952.94269",
    "longitude": "-89.97644977443926",
    "latitude": "30.04652349304393",
    "geocoded_column": {
      "latitude": "30.04652349304393",
      "longitude": "-89.97644977443926"
    }
  },
  {
    "service_request": "2024-1101296",
    "request_type": "Traffic Signals/Signs/Striping/Streetlights",
    "request_reason": "Street Light Outage/Malfunction",
    "date_created": "2024-06-08T05:31:46.000",
    "date_modified": "2024-06-08T05:31:47.000",
    "request_status": "Pending",
    "responsible_agency": "Department of Public Works",
    "final_address": "1119 N Rampart St",
    "address_councildis": "C",
    "status": "Assigned to Contractor",
    "contractor": "Legacy Professional Services",
    "rowid": "1101296",
    "final_x": "3682331.76936",
    "final_y": "534701.63239",
    "longitude": "-90.06533272078558",
    "latitude": "29.9642188047668",
    "geocoded_column": {
      "latitude": "29.9642188047668",
      "longitude": "-90.06533272078558"
    }
  },
  {
    "service_request": "2024-1101295",
    "request_type": "Traffic Signals/Signs/Striping/Streetlights",
    "request_reason": "Street Light Outage/Malfunction",
    "date_created": "2024-06-08T05:28:00.000",
    "date_modified": "2024-06-08T05:28:01.000",
    "request_status": "Pending",
    "responsible_agency": "Department of Public Works",
    "final_address": "1130 N Rampart St",
    "address_councildis": "C",
    "status": "Assigned to Contractor",
    "contractor": "Legacy Professional Services",
    "rowid": "1101295",
    "final_x": "3682472.43752",
    "final_y": "534687.873414",
    "longitude": "-90.0648889839901",
    "latitude": "29.964176691298604",
    "geocoded_column": {
      "latitude": "29.964176691298604",
      "longitude": "-90.0648889839901"
    }
  },
  {
    "service_request": "2024-1101294",
    "request_type": "Traffic Signals/Signs/Striping/Streetlights",
    "request_reason": "Street Light Outage/Malfunction",
    "date_created": "2024-06-08T05:23:45.000",
    "date_modified": "2024-06-08T05:23:45.000",
    "request_status": "Pending",
    "responsible_agency": "Department of Public Works",
    "final_address": "1204 N Rampart St",
    "address_councildis": "C",
    "status": "Assigned to Contractor",
    "contractor": "Legacy Professional Services",
    "rowid": "1101294",
    "final_x": "3682570.77967",
    "final_y": "534798.011398",
    "longitude": "-90.06457457703021",
    "latitude": "29.964476539160604",
    "geocoded_column": {
      "latitude": "29.964476539160604",
      "longitude": "-90.06457457703021"
    }
  },
  {
    "service_request": "2024-1101292",
    "request_type": "Property Maintenance",
    "request_reason": "Property Maintenance",
    "date_created": "2024-06-08T03:39:59.000",
    "date_modified": "2024-06-08T03:39:59.000",
    "request_status": "Pending",
    "responsible_agency": "Department of Code Enforcement",
    "final_address": "29 Marywood Ct",
    "address_councildis": "E",
    "status": "Pending",
    "rowid": "1101292",
    "final_x": "3712490.10379",
    "final_y": "566892.619044",
    "longitude": "-89.96888573235839",
    "latitude": "30.051779427891738",
    "geocoded_column": {
      "latitude": "30.051779427891738",
      "longitude": "-89.96888573235839"
    }
  },
  {
    "service_request": "2024-1101291",
    "request_type": "Roads/Drainage",
    "request_reason": "Street Subsidence (Sinking)",
    "date_created": "2024-06-08T02:13:07.000",
    "date_modified": "2024-06-08T02:13:07.000",
    "request_status": "Pending",
    "responsible_agency": "Department of Public Works",
    "final_address": "1110 General Pershing St",
    "address_councildis": "B",
    "status": "Pending",
    "rowid": "1101291",
    "final_x": "3671317.34132",
    "final_y": "519654.714424",
    "longitude": "-90.1006266350525",
    "latitude": "29.923175241588424",
    "geocoded_column": {
      "latitude": "29.923175241588424",
      "longitude": "-90.1006266350525"
    }
  },
  {
    "service_request": "2024-1101290",
    "request_type": "Roads/Drainage",
    "request_reason": "Pothole",
    "date_created": "2024-06-08T00:04:33.000",
    "date_modified": "2024-06-08T00:04:33.000",
    "request_status": "Pending",
    "responsible_agency": "Department of Public Works",
    "final_address": "DWYER RD & LONELY OAK DR",
    "address_councildis": "E",
    "status": "Pending",
    "rowid": "1101290",
    "final_x": "3702181.2",
    "final_y": "555867.18",
    "longitude": "-90.00187367404291",
    "latitude": "30.02179728382317",
    "geocoded_column": {
      "latitude": "30.02179728382317",
      "longitude": "-90.00187367404291"
    }
  },
  {
    "service_request": "2024-1101289",
    "request_type": "Trash/Recycling",
    "request_reason": "Order Recycling Cart",
    "date_created": "2024-06-07T23:56:44.000",
    "date_modified": "2024-06-07T23:56:44.000",
    "request_status": "Pending",
    "responsible_agency": "Department of Sanitation",
    "final_address": "1835 Independence St",
    "address_councildis": "D",
    "status": "Pending",
    "rowid": "1101289",
    "final_x": "3691719.24176",
    "final_y": "538427.824649",
    "longitude": "-90.03555471331873",
    "latitude": "29.97417553669906",
    "geocoded_column": {
      "latitude": "29.97417553669906",
      "longitude": "-90.03555471331873"
    }
  },
  {
    "service_request": "2024-1101288",
    "request_type": "Trash/Recycling",
    "request_reason": "Order Trash Cart",
    "date_created": "2024-06-07T23:55:50.000",
    "date_modified": "2024-06-07T23:55:51.000",
    "request_status": "Pending",
    "responsible_agency": "Department of Sanitation",
    "final_address": "1835 Independence St",
    "address_councildis": "D",
    "status": "Assigned to Contractor",
    "contractor": "IV Waste",
    "rowid": "1101288",
    "final_x": "3691719.24176",
    "final_y": "538427.824649",
    "longitude": "-90.03555471331873",
    "latitude": "29.97417553669906",
    "geocoded_column": {
      "latitude": "29.97417553669906",
      "longitude": "-90.03555471331873"
    }
  },
  {
    "service_request": "2024-1101287",
    "request_type": "Traffic Signals/Signs/Striping/Streetlights",
    "request_reason": "Street Light Outage/Malfunction",
    "date_created": "2024-06-07T23:44:40.000",
    "date_modified": "2024-06-07T23:44:41.000",
    "request_status": "Pending",
    "responsible_agency": "Department of Public Works",
    "final_address": "8320 Hammond St",
    "address_councildis": "E",
    "status": "Assigned to Contractor",
    "contractor": "Legacy Professional Services",
    "rowid": "1101287",
    "final_x": "3705858.22359",
    "final_y": "555679.793113",
    "longitude": "-89.99026227560849",
    "latitude": "30.021164047055517",
    "geocoded_column": {
      "latitude": "30.021164047055517",
      "longitude": "-89.99026227560849"
    }
  },
  {
    "service_request": "2024-1101286",
    "request_type": "Roads/Drainage",
    "request_reason": "Pothole",
    "date_created": "2024-06-07T23:36:38.000",
    "date_modified": "2024-06-07T23:36:38.000",
    "request_status": "Pending",
    "responsible_agency": "Department of Public Works",
    "final_address": "1112 Constantinople St",
    "address_councildis": "B",
    "status": "Pending",
    "rowid": "1101286",
    "final_x": "3672348.95259",
    "final_y": "519796.384952",
    "longitude": "-90.09736540233975",
    "latitude": "29.923534233550217",
    "geocoded_column": {
      "latitude": "29.923534233550217",
      "longitude": "-90.09736540233975"
    }
  },
  {
    "service_request": "2024-1101285",
    "request_type": "Roads/Drainage",
    "request_reason": "Pothole",
    "date_created": "2024-06-07T23:32:33.000",
    "date_modified": "2024-06-07T23:32:33.000",
    "request_status": "Pending",
    "responsible_agency": "Department of Public Works",
    "final_address": "1421 Constantinople St",
    "address_councildis": "B",
    "status": "Pending",
    "rowid": "1101285",
    "final_x": "3672433.24257",
    "final_y": "520667.657465",
    "longitude": "-90.09706965638372",
    "latitude": "29.925927453713577",
    "geocoded_column": {
      "latitude": "29.925927453713577",
      "longitude": "-90.09706965638372"
    }
  },
  {
    "service_request": "2024-1101284",
    "request_type": "Roads/Drainage",
    "request_reason": "Pothole",
    "date_created": "2024-06-07T23:15:25.000",
    "date_modified": "2024-06-07T23:15:25.000",
    "request_status": "Pending",
    "responsible_agency": "Department of Public Works",
    "final_address": "1120 Aline St Apt 2A",
    "address_councildis": "B",
    "status": "Pending",
    "rowid": "1101284",
    "final_x": "3674344.461",
    "final_y": "519521.432503",
    "longitude": "-90.09107572309848",
    "latitude": "29.922718865916426",
    "geocoded_column": {
      "latitude": "29.922718865916426",
      "longitude": "-90.09107572309848"
    }
  },
  {
    "service_request": "2024-1101283",
    "request_type": "Roads/Drainage",
    "request_reason": "Pothole",
    "date_created": "2024-06-07T23:14:44.000",
    "date_modified": "2024-06-07T23:14:44.000",
    "request_status": "Pending",
    "responsible_agency": "Department of Public Works",
    "final_address": "1312 Milan St",
    "address_councildis": "B",
    "status": "Pending",
    "rowid": "1101283",
    "final_x": "3671625.82823",
    "final_y": "520286.919608",
    "longitude": "-90.09963137110304",
    "latitude": "29.92490447494246",
    "geocoded_column": {
      "latitude": "29.92490447494246",
      "longitude": "-90.09963137110304"
    }
  },
  {
    "service_request": "2024-1101282",
    "request_type": "Roads/Drainage",
    "request_reason": "Catch Basin - Clogged",
    "date_created": "2024-06-07T22:59:28.000",
    "date_modified": "2024-06-07T22:59:28.000",
    "request_status": "Pending",
    "responsible_agency": "Department of Public Works",
    "final_address": "CHEF MENTEUR HWY & REYNES ST",
    "address_councildis": "E",
    "status": "Pending",
    "rowid": "1101282",
    "final_x": "3699446.6",
    "final_y": "551896.18",
    "longitude": "-90.01065907937286",
    "latitude": "30.01096562871649",
    "geocoded_column": {
      "latitude": "30.01096562871649",
      "longitude": "-90.01065907937286"
    }
  },
  {
    "service_request": "2024-1101281",
    "request_type": "Traffic Signals/Signs/Striping/Streetlights",
    "request_reason": "Street Light Outage/Malfunction",
    "date_created": "2024-06-07T22:54:47.000",
    "date_modified": "2024-06-07T22:54:47.000",
    "request_status": "Pending",
    "responsible_agency": "Department of Public Works",
    "final_address": "1001 Allen Toussaint Blvd",
    "address_councildis": "D",
    "status": "Assigned to Contractor",
    "contractor": "Legacy Professional Services",
    "rowid": "1101281",
    "final_x": "3672411.19291",
    "final_y": "554504.725976",
    "longitude": "-90.09598582219596",
    "latitude": "30.018968593026525",
    "geocoded_column": {
      "latitude": "30.018968593026525",
      "longitude": "-90.09598582219596"
    }
  },
  {
    "service_request": "2024-1101280",
    "request_type": "Roads/Drainage",
    "request_reason": "Street Flooding / Drainage",
    "date_created": "2024-06-07T22:53:26.000",
    "date_modified": "2024-06-07T22:53:26.000",
    "request_status": "Pending",
    "responsible_agency": "Department of Public Works",
    "final_address": "4409 Lonely Oak Dr",
    "address_councildis": "E",
    "status": "Pending",
    "rowid": "1101280",
    "final_x": "3702513.91607",
    "final_y": "552933.087511",
    "longitude": "-90.00093018983064",
    "latitude": "30.013719017535543",
    "geocoded_column": {
      "latitude": "30.013719017535543",
      "longitude": "-90.00093018983064"
    }
  },
  {
    "service_request": "2024-1101279",
    "request_type": "Traffic Signals/Signs/Striping/Streetlights",
    "request_reason": "Street Light Outage/Malfunction",
    "date_created": "2024-06-07T22:53:06.000",
    "date_modified": "2024-06-07T22:53:07.000",
    "request_status": "Pending",
    "responsible_agency": "Department of Public Works",
    "final_address": "1037 Allen Toussaint Blvd",
    "address_councildis": "D",
    "status": "Assigned to Contractor",
    "contractor": "Legacy Professional Services",
    "rowid": "1101279",
    "final_x": "3673226.12635",
    "final_y": "554457.090904",
    "longitude": "-90.09341254217539",
    "latitude": "30.018813391253786",
    "geocoded_column": {
      "latitude": "30.018813391253786",
      "longitude": "-90.09341254217539"
    }
  },
  {
    "service_request": "2024-1101278",
    "request_type": "Roads/Drainage",
    "request_reason": "Pothole",
    "date_created": "2024-06-07T22:51:49.000",
    "date_modified": "2024-06-07T22:51:49.000",
    "request_status": "Pending",
    "responsible_agency": "Department of Public Works",
    "final_address": "4710 Lonely Oak Dr",
    "address_councildis": "E",
    "status": "Pending",
    "rowid": "1101278",
    "final_x": "3702268.22839",
    "final_y": "554231.589656",
    "longitude": "-90.00165875085654",
    "latitude": "30.01729725625667",
    "geocoded_column": {
      "latitude": "30.01729725625667",
      "longitude": "-90.00165875085654"
    }
  },
  {
    "service_request": "2024-1101277",
    "request_type": "Roads/Drainage",
    "request_reason": "Pothole",
    "date_created": "2024-06-07T22:46:08.000",
    "date_modified": "2024-06-07T22:46:08.000",
    "request_status": "Pending",
    "responsible_agency": "Department of Public Works",
    "final_address": "1122 Aline St",
    "address_councildis": "B",
    "status": "Pending",
    "rowid": "1101277",
    "final_x": "3674288.77825",
    "final_y": "519514.088503",
    "longitude": "-90.09125174299426",
    "latitude": "29.92270033208624",
    "geocoded_column": {
      "latitude": "29.92270033208624",
      "longitude": "-90.09125174299426"
    }
  },
  {
    "service_request": "2024-1101276",
    "request_type": "Traffic Signals/Signs/Striping/Streetlights",
    "request_reason": "Street Light Outage/Malfunction",
    "date_created": "2024-06-07T22:43:50.000",
    "date_modified": "2024-06-07T22:43:51.000",
    "request_status": "Pending",
    "responsible_agency": "Department of Public Works",
    "final_address": "1137 Allen Toussaint Blvd",
    "address_councildis": "D",
    "status": "Assigned to Contractor",
    "contractor": "Legacy Professional Services",
    "rowid": "1101276",
    "final_x": "3675071.41397",
    "final_y": "554975.497688",
    "longitude": "-90.08756427350598",
    "latitude": "30.02018378951573",
    "geocoded_column": {
      "latitude": "30.02018378951573",
      "longitude": "-90.08756427350598"
    }
  },
  {
    "service_request": "2024-1101275",
    "request_type": "Traffic Signals/Signs/Striping/Streetlights",
    "request_reason": "Street Light Outage/Malfunction",
    "date_created": "2024-06-07T22:41:37.000",
    "date_modified": "2024-06-07T22:41:38.000",
    "request_status": "Pending",
    "responsible_agency": "Department of Public Works",
    "final_address": "1037 Allen Toussaint Blvd",
    "address_councildis": "D",
    "status": "Assigned to Contractor",
    "contractor": "Legacy Professional Services",
    "rowid": "1101275",
    "final_x": "3673226.12635",
    "final_y": "554457.090904",
    "longitude": "-90.09341254217539",
    "latitude": "30.018813391253786",
    "geocoded_column": {
      "latitude": "30.018813391253786",
      "longitude": "-90.09341254217539"
    }
  },
  {
    "service_request": "2024-1101274",
    "request_type": "Traffic Signals/Signs/Striping/Streetlights",
    "request_reason": "Street Light Outage/Malfunction",
    "date_created": "2024-06-07T22:39:03.000",
    "date_modified": "2024-06-07T22:39:04.000",
    "request_status": "Pending",
    "responsible_agency": "Department of Public Works",
    "final_address": "1001 Allen Toussaint Blvd",
    "address_councildis": "D",
    "status": "Assigned to Contractor",
    "contractor": "Legacy Professional Services",
    "rowid": "1101274",
    "final_x": "3672411.19291",
    "final_y": "554504.725976",
    "longitude": "-90.09598582219596",
    "latitude": "30.018968593026525",
    "geocoded_column": {
      "latitude": "30.018968593026525",
      "longitude": "-90.09598582219596"
    }
  },
  {
    "service_request": "2024-1101273",
    "request_type": "Traffic Signals/Signs/Striping/Streetlights",
    "request_reason": "Street Light Outage/Malfunction",
    "date_created": "2024-06-07T22:35:32.000",
    "date_modified": "2024-06-07T22:35:32.000",
    "request_status": "Pending",
    "responsible_agency": "Department of Public Works",
    "final_address": "1051 Filmore Ave",
    "address_councildis": "A",
    "status": "Assigned to Contractor",
    "contractor": "Legacy Professional Services",
    "rowid": "1101273",
    "final_x": "3674639.32264",
    "final_y": "552118.685526",
    "longitude": "-90.0890275724489",
    "latitude": "30.012341489469655",
    "geocoded_column": {
      "latitude": "30.012341489469655",
      "longitude": "-90.0890275724489"
    }
  },
  {
    "service_request": "2024-1101272",
    "request_type": "Traffic Signals/Signs/Striping/Streetlights",
    "request_reason": "Street Light Outage/Malfunction",
    "date_created": "2024-06-07T22:32:37.000",
    "date_modified": "2024-06-07T22:32:38.000",
    "request_status": "Pending",
    "responsible_agency": "Department of Public Works",
    "final_address": "1001 Filmore Ave",
    "address_councildis": "A",
    "status": "Assigned to Contractor",
    "contractor": "Legacy Professional Services",
    "rowid": "1101272",
    "final_x": "3672342.2258",
    "final_y": "552210.189846",
    "longitude": "-90.09628200497066",
    "latitude": "30.012661483469188",
    "geocoded_column": {
      "latitude": "30.012661483469188",
      "longitude": "-90.09628200497066"
    }
  },
  {
    "service_request": "2024-1101271",
    "request_type": "Abandoned Vehicles",
    "request_reason": "Abandoned/Junk Vehicles",
    "date_created": "2024-06-07T22:24:44.000",
    "date_modified": "2024-06-07T22:24:44.000",
    "request_status": "Pending",
    "responsible_agency": "Department of Public Works",
    "final_address": "1200 BLK N Derbigny St",
    "address_councildis": "D",
    "status": "Pending",
    "rowid": "1101271",
    "final_x": "3680653.27908",
    "final_y": "536381.627484",
    "longitude": "-90.07057478345769",
    "latitude": "29.96888918202236",
    "geocoded_column": {
      "latitude": "29.96888918202236",
      "longitude": "-90.07057478345769"
    }
  },
  {
    "service_request": "2024-1101270",
    "request_type": "Traffic Signals/Signs/Striping/Streetlights",
    "request_reason": "Street Light Outage/Malfunction",
    "date_created": "2024-06-07T22:15:01.000",
    "date_modified": "2024-06-07T22:15:02.000",
    "request_status": "Pending",
    "responsible_agency": "Department of Public Works",
    "final_address": "3660 White Oak Ave",
    "address_councildis": "C",
    "status": "Assigned to Contractor",
    "contractor": "Legacy Professional Services",
    "rowid": "1101270",
    "final_x": "3703896.65118",
    "final_y": "514218.644723",
    "longitude": "-89.99798696345063",
    "latitude": "29.907223979450258",
    "geocoded_column": {
      "latitude": "29.907223979450258",
      "longitude": "-89.99798696345063"
    }
  },
  {
    "service_request": "2024-1101269",
    "request_type": "Roads/Drainage",
    "request_reason": "Street Flooding / Drainage",
    "date_created": "2024-06-07T21:52:51.000",
    "date_modified": "2024-06-08T08:42:12.000",
    "case_close_date": "2024-06-08T03:42:12.000",
    "request_status": "Closed",
    "responsible_agency": "Department of Public Works",
    "final_address": "601 N Galvez St",
    "address_councildis": "D",
    "status": "Resolved",
    "rowid": "1101269",
    "final_x": "3678066.69218",
    "final_y": "535420.859142",
    "longitude": "-90.07877661307997",
    "latitude": "29.966325522517494",
    "geocoded_column": {
      "latitude": "29.966325522517494",
      "longitude": "-90.07877661307997"
    }
  },
  {
    "service_request": "2024-1101268",
    "request_type": "Traffic Signals/Signs/Striping/Streetlights",
    "request_reason": "Street Light Outage/Malfunction",
    "date_created": "2024-06-07T21:27:23.000",
    "date_modified": "2024-06-07T21:27:24.000",
    "request_status": "Pending",
    "responsible_agency": "Department of Public Works",
    "final_address": "5124 Willow St",
    "address_councildis": "B",
    "status": "Assigned to Contractor",
    "contractor": "Legacy Professional Services",
    "rowid": "1101268",
    "final_x": "3668362.95444",
    "final_y": "525194.639229",
    "longitude": "-90.10976579774695",
    "latitude": "29.938495331026367",
    "geocoded_column": {
      "latitude": "29.938495331026367",
      "longitude": "-90.10976579774695"
    }
  },
  {
    "service_request": "2024-1101267",
    "request_type": "Roads/Drainage",
    "request_reason": "Street Flooding / Drainage",
    "date_created": "2024-06-07T20:57:54.000",
    "date_modified": "2024-06-07T22:42:07.000",
    "case_close_date": "2024-06-07T17:42:07.000",
    "request_status": "Closed",
    "responsible_agency": "Department of Public Works",
    "final_address": " & BALDWIN ST",
    "address_councildis": "D",
    "status": "Resolved",
    "rowid": "1101267",
    "final_x": "3687893.7",
    "final_y": "559892.69",
    "longitude": "-90.04687552277309",
    "latitude": "30.033314683701462",
    "geocoded_column": {
      "latitude": "30.033314683701462",
      "longitude": "-90.04687552277309"
    }
  },
  {
    "service_request": "2024-1101266",
    "request_type": "Trash/Recycling",
    "request_reason": "Request a Large Item Pick Up",
    "date_created": "2024-06-07T20:56:27.000",
    "date_modified": "2024-06-07T20:56:28.000",
    "request_status": "Pending",
    "responsible_agency": "Department of Sanitation",
    "final_address": "9930 Morrison Rd",
    "address_councildis": "E",
    "status": "Assigned to Contractor",
    "contractor": "Waste Pro",
    "rowid": "1101266",
    "final_x": "3708367.40171",
    "final_y": "563189.10416",
    "longitude": "-89.98205423723536",
    "latitude": "30.041730587281684",
    "geocoded_column": {
      "latitude": "30.041730587281684",
      "longitude": "-89.98205423723536"
    }
  },
  {
    "service_request": "2024-1101265",
    "request_type": "Parks & Parkways",
    "request_reason": "Request Grass Cutting Service (City Owned Property)",
    "date_created": "2024-06-07T20:08:20.000",
    "date_modified": "2024-06-07T20:08:20.000",
    "request_status": "Pending",
    "responsible_agency": "Department of Parks & Parkway",
    "final_address": "3301 Royal St",
    "address_councildis": "C",
    "status": "Pending",
    "rowid": "1101265",
    "final_x": "3689507.60585",
    "final_y": "534299.647045",
    "longitude": "-90.04268640237082",
    "latitude": "29.962893187662416",
    "geocoded_column": {
      "latitude": "29.962893187662416",
      "longitude": "-90.04268640237082"
    }
  },
  {
    "service_request": "2024-1101264",
    "request_type": "Roads/Drainage",
    "request_reason": "Pothole",
    "date_created": "2024-06-07T20:03:21.000",
    "date_modified": "2024-06-07T20:03:21.000",
    "request_status": "Pending",
    "responsible_agency": "Department of Public Works",
    "final_address": "3127 Dauphine St",
    "address_councildis": "C",
    "status": "Pending",
    "rowid": "1101264",
    "final_x": "3688938.95657",
    "final_y": "534828.517254",
    "longitude": "-90.04446333403554",
    "latitude": "29.964364996072092",
    "geocoded_column": {
      "latitude": "29.964364996072092",
      "longitude": "-90.04446333403554"
    }
  },
  {
    "service_request": "2024-1101263",
    "request_type": "Abandoned Vehicles",
    "request_reason": "Abandoned/Junk Vehicles",
    "date_created": "2024-06-07T19:34:36.000",
    "date_modified": "2024-06-07T19:34:36.000",
    "request_status": "Pending",
    "responsible_agency": "Department of Public Works",
    "final_address": "2500 BLK Monroe St",
    "address_councildis": "A",
    "status": "Pending",
    "rowid": "1101263",
    "final_x": "3663662.29862",
    "final_y": "533403.764673",
    "longitude": "-90.12433285945202",
    "latitude": "29.961204962891337",
    "geocoded_column": {
      "latitude": "29.961204962891337",
      "longitude": "-90.12433285945202"
    }
  },
  {
    "service_request": "2024-1101262",
    "request_type": "Trash/Recycling",
    "request_reason": "Replace Trash Cart",
    "date_created": "2024-06-07T19:23:14.000",
    "date_modified": "2024-06-07T19:23:15.000",
    "request_status": "Pending",
    "responsible_agency": "Department of Sanitation",
    "final_address": "1304 Seventh St",
    "address_councildis": "B",
    "status": "Assigned to Contractor",
    "contractor": "IV Waste",
    "rowid": "1101262",
    "final_x": "3675895.20001",
    "final_y": "521019.432505",
    "longitude": "-90.08612918164776",
    "latitude": "29.92679156265271",
    "geocoded_column": {
      "latitude": "29.92679156265271",
      "longitude": "-90.08612918164776"
    }
  },
  {
    "service_request": "2024-1101261",
    "request_type": "Roads/Drainage",
    "request_reason": "Pothole",
    "date_created": "2024-06-07T19:22:37.000",
    "date_modified": "2024-06-07T19:22:37.000",
    "request_status": "Pending",
    "responsible_agency": "Department of Public Works",
    "final_address": "1400 BLK Valence St",
    "address_councildis": "B",
    "status": "Pending",
    "rowid": "1101261",
    "final_x": "3669784.65285",
    "final_y": "520336.257015",
    "longitude": "-90.1054417057675",
    "latitude": "29.925094517046503",
    "geocoded_column": {
      "latitude": "29.925094517046503",
      "longitude": "-90.1054417057675"
    }
  },
  {
    "service_request": "2024-1101260",
    "request_type": "Abandoned Vehicles",
    "request_reason": "Abandoned/Junk Vehicles",
    "date_created": "2024-06-07T19:06:07.000",
    "date_modified": "2024-06-07T19:06:07.000",
    "request_status": "Pending",
    "responsible_agency": "Department of Public Works",
    "final_address": "225 Bermuda St",
    "address_councildis": "C",
    "status": "Pending",
    "rowid": "1101260",
    "final_x": "3686150.38658",
    "final_y": "530889.80109",
    "longitude": "-90.05340833437134",
    "latitude": "29.95362083553353",
    "geocoded_column": {
      "latitude": "29.95362083553353",
      "longitude": "-90.05340833437134"
    }
  },
  {
    "service_request": "2024-1101259",
    "request_type": "Trash/Recycling",
    "request_reason": "Illegal Dumping",
    "date_created": "2024-06-07T19:03:38.000",
    "date_modified": "2024-06-07T19:03:38.000",
    "request_status": "Pending",
    "responsible_agency": "Department of Sanitation",
    "final_address": "3690 Bennett St",
    "address_councildis": "C",
    "status": "Pending",
    "rowid": "1101259",
    "final_x": "3710333.77598",
    "final_y": "516641.230581",
    "longitude": "-89.97758040086073",
    "latitude": "29.913677406192196",
    "geocoded_column": {
      "latitude": "29.913677406192196",
      "longitude": "-89.97758040086073"
    }
  },
  {
    "service_request": "2024-1101258",
    "request_type": "Trash/Recycling",
    "request_reason": "Illegal Dumping",
    "date_created": "2024-06-07T19:02:12.000",
    "date_modified": "2024-06-07T19:02:12.000",
    "request_status": "Pending",
    "responsible_agency": "Department of Sanitation",
    "final_address": "7100 Maumus Ave",
    "address_councildis": "C",
    "status": "Pending",
    "rowid": "1101258",
    "final_x": "3710343.67185",
    "final_y": "516549.390261",
    "longitude": "-89.97755259653275",
    "latitude": "29.91342455538422",
    "geocoded_column": {
      "latitude": "29.91342455538422",
      "longitude": "-89.97755259653275"
    }
  },