[
  {
    "service_request": "2024-1142895",
    "request_type": "Trash/Recycling",
    "request_reason": "Request a Large Item Pick Up",
    "date_created": "2024-10-21T22:55:08.000",
    "date_modified": "2024-10-21T22:55:09.000",
    "request_status": "Pending",
    "responsible_agency": "Department of Sanitation",
    "final_address": "506 Conti St, New Orleans, Louisiana, 70130",
    "address_councildis": "B",
    "status": "Assigned to Contractor",
    "contractor": "IV Waste",
    "rowid": "1142895",
    "final_x": "3676761.7764",
    "final_y": "535456.548934",
    "longitude": "-90.08289628749345",
    "latitude": "29.966462877878598",
    "geocoded_column": {
      "latitude": "29.966462877878598",
      "longitude": "-90.08289628749345"
    }
  },
  {
    "service_request": "2024-1142894",
    "request_type": "Trash/Recycling",
    "request_reason": "Request a Large Item Pick Up",
    "date_created": "2024-10-21T22:52:45.000",
    "date_modified": "2024-10-21T22:52:46.000",
    "request_status": "Pending",
    "responsible_agency": "Department of Sanitation",
    "final_address": "508 Conti St, New Orleans, Louisiana, 70130",
    "address_councildis": "B",
    "status": "Assigned to Contractor",
    "contractor": "IV Waste",
    "rowid": "1142894",
    "final_x": "3676748.9668",
    "final_y": "535464.652998",
    "longitude": "-90.08293646079493",
    "latitude": "29.9664855456703",
    "geocoded_column": {
      "latitude": "29.9664855456703",
      "longitude": "-90.08293646079493"
    }
  },
  {
    "service_request": "2024-1142893",
    "request_type": "Trash/Recycling",
    "request_reason": "Request a Large Item Pick Up",
    "date_created": "2024-10-21T21:46:37.000",
    "date_modified": "2024-10-21T21:46:38.000",
    "request_status": "Pending",
    "responsible_agency": "Department of Sanitation",
    "final_address": "1020 Sixth St",
    "address_councildis": "B",
    "status": "Assigned to Contractor",
    "contractor": "IV Waste",
    "rowid": "1142893",
    "final_x": "3676687.29243",
    "final_y": "520344.496568",
    "longitude": "-90.08365199306266",
    "latitude": "29.924911977132517",
    "geocoded_column": {
      "latitude": "29.924911977132517",
      "longitude": "-90.08365199306266"
    }
  },
  {
    "service_request": "2024-1142892",
    "request_type": "Roads and Streets",
    "request_reason": "Pothole",
    "date_created": "2024-10-21T21:33:52.000",
    "date_modified": "2024-10-21T21:33:52.000",
    "request_status": "Pending",
    "responsible_agency": "Department of Public Works",
    "final_address": "8800 Apricot St",
    "address_councildis": "A",
    "status": "Pending",
    "rowid": "1142892",
    "final_x": "3663930.52781",
    "final_y": "534293.923269",
    "longitude": "-90.12345615536694",
    "latitude": "29.96364482294499",
    "geocoded_column": {
      "latitude": "29.96364482294499",
      "longitude": "-90.12345615536694"
    }
  },
  {
    "service_request": "2024-1142891",
    "request_type": "Streetlights",
    "request_reason": "Streetlight Outage/Malfunction",
    "date_created": "2024-10-21T21:28:14.000",
    "date_modified": "2024-10-21T21:28:16.000",
    "request_status": "Pending",
    "responsible_agency": "Department of Public Works",
    "final_address": "MAYO RD & CURRAN BLVD",
    "address_councildis": "E",
    "status": "Pending",
    "contractor": "Legacy Professional Services",
    "rowid": "1142891",
    "final_x": "3700748.8",
    "final_y": "560983.48",
    "longitude": "-90.00621241658476",
    "latitude": "30.035910822104036",
    "geocoded_column": {
      "latitude": "30.035910822104036",
      "longitude": "-90.00621241658476"
    }
  },
  {
    "service_request": "2024-1142890",
    "request_type": "Streetlights",
    "request_reason": "Streetlight Outage/Malfunction",
    "date_created": "2024-10-21T21:26:37.000",
    "date_modified": "2024-10-21T21:26:38.000",
    "request_status": "Pending",
    "responsible_agency": "Department of Public Works",
    "final_address": "MAYO RD & CURRAN BLVD",
    "address_councildis": "E",
    "status": "Pending",
    "contractor": "Legacy Professional Services",
    "rowid": "1142890",
    "final_x": "3700748.8",
    "final_y": "560983.48",
    "longitude": "-90.00621241658476",
    "latitude": "30.035910822104036",
    "geocoded_column": {
      "latitude": "30.035910822104036",
      "longitude": "-90.00621241658476"
    }
  },
  {
    "service_request": "2024-1142889",
    "request_type": "Streetlights",
    "request_reason": "Streetlight Outage/Malfunction",
    "date_created": "2024-10-21T20:41:56.000",
    "date_modified": "2024-10-21T20:41:57.000",
    "request_status": "Pending",
    "responsible_agency": "Department of Public Works",
    "final_address": "65 Versailles Blvd",
    "address_councildis": "B",
    "status": "Pending",
    "contractor": "Legacy Professional Services",
    "rowid": "1142889",
    "final_x": "3667786.32353",
    "final_y": "530363.657538",
    "longitude": "-90.11141225974532",
    "latitude": "29.952725374670543",
    "geocoded_column": {
      "latitude": "29.952725374670543",
      "longitude": "-90.11141225974532"
    }
  },
  {
    "service_request": "2024-1142888",
    "request_type": "Trash/Recycling",
    "request_reason": "Order Recycling Cart",
    "date_created": "2024-10-21T20:07:37.000",
    "date_modified": "2024-10-21T20:07:37.000",
    "request_status": "Pending",
    "responsible_agency": "Department of Sanitation",
    "final_address": "1137 Nashville Ave",
    "address_councildis": "A",
    "status": "Pending",
    "rowid": "1142888",
    "final_x": "3665876.29517",
    "final_y": "520267.139704",
    "longitude": "-90.11778149699714",
    "latitude": "29.925019050366227",
    "geocoded_column": {
      "latitude": "29.925019050366227",
      "longitude": "-90.11778149699714"
    }
  },
  {
    "service_request": "2024-1142887",
    "request_type": "Trash/Recycling",
    "request_reason": "Replace Recycling Cart",
    "date_created": "2024-10-21T20:05:38.000",
    "date_modified": "2024-10-21T20:05:38.000",
    "request_status": "Pending",
    "responsible_agency": "Department of Sanitation",
    "final_address": "608 Verret St",
    "address_councildis": "C",
    "status": "Pending",
    "rowid": "1142887",
    "final_x": "3687087.83554",
    "final_y": "529390.760897",
    "longitude": "-90.05050126318514",
    "latitude": "29.949470161774954",
    "geocoded_column": {
      "latitude": "29.949470161774954",
      "longitude": "-90.05050126318514"
    }
  },
  {
    "service_request": "2024-1142886",
    "request_type": "Trash/Recycling",
    "request_reason": "Replace Trash Cart",
    "date_created": "2024-10-21T20:05:30.000",
    "date_modified": "2024-10-21T20:05:31.000",
    "request_status": "Pending",
    "responsible_agency": "Department of Sanitation",
    "final_address": "2640 Flood St",
    "address_councildis": "E",
    "status": "Assigned to Contractor",
    "contractor": "Waste Pro",
    "rowid": "1142886",
    "final_x": "3699283.13386",
    "final_y": "539805.055178",
    "longitude": "-90.01161617079936",
    "latitude": "29.97772469493518",
    "geocoded_column": {
      "latitude": "29.97772469493518",
      "longitude": "-90.01161617079936"
    }
  },
  {
    "service_request": "2024-1142885",
    "request_type": "Trash/Recycling",
    "request_reason": "Request a Large Item Pick Up",
    "date_created": "2024-10-21T20:03:57.000",
    "date_modified": "2024-10-21T20:03:58.000",
    "request_status": "Pending",
    "responsible_agency": "Department of Sanitation",
    "final_address": "3227 Banks St",
    "address_councildis": "B",
    "status": "Assigned to Contractor",
    "contractor": "IV Waste",
    "rowid": "1142885",
    "final_x": "3672996.24372",
    "final_y": "535465.946438",
    "longitude": "-90.09478749197957",
    "latitude": "29.96660117138148",
    "geocoded_column": {
      "latitude": "29.96660117138148",
      "longitude": "-90.09478749197957"
    }
  },
  {
    "service_request": "2024-1142884",
    "request_type": "General Services",
    "request_reason": "General Service Request",
    "date_created": "2024-10-21T20:03:19.000",
    "date_modified": "2024-10-21T20:03:19.000",
    "request_status": "Pending",
    "responsible_agency": "Orleans Parish Communication District",
    "final_address": "3045 Royal St",
    "address_councildis": "C",
    "status": "Pending",
    "rowid": "1142884",
    "final_x": "3688413.68822",
    "final_y": "534585.515973",
    "longitude": "-90.046130705577",
    "latitude": "29.963713062648118",
    "geocoded_column": {
      "latitude": "29.963713062648118",
      "longitude": "-90.046130705577"
    }
  },
  {
    "service_request": "2024-1142883",
    "request_type": "Trash/Recycling",
    "request_reason": "Start Trash Service",
    "date_created": "2024-10-21T20:02:56.000",
    "date_modified": "2024-10-21T20:02:57.000",
    "request_status": "Pending",
    "responsible_agency": "Department of Sanitation",
    "final_address": "320 St Joseph St",
    "address_councildis": "B",
    "status": "Assigned to Contractor",
    "contractor": "Empire Services",
    "rowid": "1142883",
    "final_x": "3682068.54882",
    "final_y": "526972.597246",
    "longitude": "-90.06643381166963",
    "latitude": "29.94297458375464",
    "geocoded_column": {
      "latitude": "29.94297458375464",
      "longitude": "-90.06643381166963"
    }
  },
  {
    "service_request": "2024-1142882",
    "request_type": "Trash/Recycling",
    "request_reason": "Start Trash Service",
    "date_created": "2024-10-21T20:01:53.000",
    "date_modified": "2024-10-21T20:01:54.000",
    "request_status": "Pending",
    "responsible_agency": "Department of Sanitation",
    "final_address": "324 Joseph St",
    "address_councildis": "A",
    "status": "Assigned to Contractor",
    "contractor": "IV Waste",
    "rowid": "1142882",
    "final_x": "3665733.25396",
    "final_y": "517367.760245",
    "longitude": "-90.11833008206439",
    "latitude": "29.917050837357465",
    "geocoded_column": {
      "latitude": "29.917050837357465",
      "longitude": "-90.11833008206439"
    }
  },
  {
    "service_request": "2024-1142881",
    "request_type": "Streetlights",
    "request_reason": "Streetlight Outage/Malfunction",
    "date_created": "2024-10-21T20:01:49.000",
    "date_modified": "2024-10-21T20:01:50.000",
    "request_status": "Pending",
    "responsible_agency": "Department of Public Works",
    "final_address": "2018 Pine St",
    "address_councildis": "A",
    "status": "Pending",
    "contractor": "Legacy Professional Services",
    "rowid": "1142881",
    "final_x": "3665590.30042",
    "final_y": "529213.151872",
    "longitude": "-90.11838486443214",
    "latitude": "29.94962606721922",
    "geocoded_column": {
      "latitude": "29.94962606721922",
      "longitude": "-90.11838486443214"
    }
  },
  {
    "service_request": "2024-1142880",
    "request_type": "Trash/Recycling",
    "request_reason": "Request a Large Item Pick Up",
    "date_created": "2024-10-21T20:01:44.000",
    "date_modified": "2024-10-21T20:01:45.000",
    "request_status": "Pending",
    "responsible_agency": "Department of Sanitation",
    "final_address": "3225 Banks St",
    "address_councildis": "B",
    "status": "Assigned to Contractor",
    "contractor": "IV Waste",
    "rowid": "1142880",
    "final_x": "3673005.17128",
    "final_y": "535458.515782",
    "longitude": "-90.09475955242071",
    "latitude": "29.96658047423558",
    "geocoded_column": {
      "latitude": "29.96658047423558",
      "longitude": "-90.09475955242071"
    }
  },
  {
    "service_request": "2024-1142879",
    "request_type": "Streetlights",
    "request_reason": "Streetlight Outage/Malfunction",
    "date_created": "2024-10-21T19:55:57.000",
    "date_modified": "2024-10-21T19:55:58.000",
    "request_status": "Pending",
    "responsible_agency": "Department of Public Works",
    "final_address": "2011 Pine St",
    "address_councildis": "A",
    "status": "Pending",
    "contractor": "Legacy Professional Services",
    "rowid": "1142879",
    "final_x": "3665598.20365",
    "final_y": "529095.037312",
    "longitude": "-90.11836386465984",
    "latitude": "29.94930105999655",
    "geocoded_column": {
      "latitude": "29.94930105999655",
      "longitude": "-90.11836386465984"
    }
  },
  {
    "service_request": "2024-1142878",
    "request_type": "Trash/Recycling",
    "request_reason": "Repair Recycling Cart",
    "date_created": "2024-10-21T19:49:32.000",
    "date_modified": "2024-10-21T19:49:32.000",
    "request_status": "Pending",
    "responsible_agency": "Department of Sanitation",
    "final_address": "3226 Derby Pl",
    "address_councildis": "A",
    "status": "Pending",
    "rowid": "1142878",
    "final_x": "3677807.48923",
    "final_y": "542864.950733",
    "longitude": "-90.0793378993523",
    "latitude": "29.986802012401842",
    "geocoded_column": {
      "latitude": "29.986802012401842",
      "longitude": "-90.0793378993523"
    }
  },
  {
    "service_request": "2024-1142877",
    "request_type": "Trash/Recycling",
    "request_reason": "Replace Recycling Cart",
    "date_created": "2024-10-21T19:47:49.000",
    "date_modified": "2024-10-21T19:47:49.000",
    "request_status": "Pending",
    "responsible_agency": "Department of Sanitation",
    "final_address": "3226 Derby Pl",
    "address_councildis": "A",
    "status": "Pending",
    "rowid": "1142877",
    "final_x": "3677807.48923",
    "final_y": "542864.950733",
    "longitude": "-90.0793378993523",
    "latitude": "29.986802012401842",
    "geocoded_column": {
      "latitude": "29.986802012401842",
      "longitude": "-90.0793378993523"
    }
  },
  {
    "service_request": "2024-1142876",
    "request_type": "Trash/Recycling",
    "request_reason": "Illegal Dumping",
    "date_created": "2024-10-21T19:39:31.000",
    "date_modified": "2024-10-21T19:39:31.000",
    "request_status": "Pending",
    "responsible_agency": "Department of Sanitation",
    "final_address": "622 N Alexander St",
    "address_councildis": "A",
    "status": "Pending",
    "rowid": "1142876",
    "final_x": "3671238.69972",
    "final_y": "540749.152715",
    "longitude": "-90.10015825391989",
    "latitude": "29.981180323266695",
    "geocoded_column": {
      "latitude": "29.981180323266695",
      "longitude": "-90.10015825391989"
    }
  },
  {
    "service_request": "2024-1142875",
    "request_type": "Streetlights",
    "request_reason": "Streetlight Outage/Malfunction",
    "date_created": "2024-10-21T18:54:39.000",
    "date_modified": "2024-10-21T18:54:40.000",
    "request_status": "Pending",
    "responsible_agency": "Department of Public Works",
    "final_address": "832 Roosevelt Pl",
    "address_councildis": "A",
    "status": "Pending",
    "contractor": "Legacy Professional Services",
    "rowid": "1142875",
    "final_x": "3673602.96648",
    "final_y": "539888.123594",
    "longitude": "-90.09272026087697",
    "latitude": "29.978742611859023",
    "geocoded_column": {
      "latitude": "29.978742611859023",
      "longitude": "-90.09272026087697"
    }
  },
  {
    "service_request": "2024-1142874",
    "request_type": "New Orleans Recreation Development Commission (NORDC)",
    "request_reason": "Facilities and Parks Maintenance/Clean Up",
    "date_created": "2024-10-21T18:41:36.000",
    "date_modified": "2024-10-21T18:41:36.000",
    "request_status": "Pending",
    "responsible_agency": "New Orleans Recreation Development Commission",
    "final_address": "2500 BLK Chippewa St",
    "address_councildis": "B",
    "status": "Pending",
    "rowid": "1142874",
    "final_x": "3678515.75875",
    "final_y": "520016.131671",
    "longitude": "-90.07789147937855",
    "latitude": "29.92395412061048",
    "geocoded_column": {
      "latitude": "29.92395412061048",
      "longitude": "-90.07789147937855"
    }
  },
  {
    "service_request": "2024-1142873",
    "request_type": "Drainage",
    "request_reason": "Street Flooding",
    "date_created": "2024-10-21T18:37:19.000",
    "date_modified": "2024-10-21T18:37:19.000",
    "request_status": "Pending",
    "responsible_agency": "Department of Public Works",
    "final_address": "2419 Chippewa St",
    "address_councildis": "B",
    "status": "Pending",
    "rowid": "1142873",
    "final_x": "3678724.74037",
    "final_y": "520212.927352",
    "longitude": "-90.07722498913145",
    "latitude": "29.924488947124217",
    "geocoded_column": {
      "latitude": "29.924488947124217",
      "longitude": "-90.07722498913145"
    }
  },
  {
    "service_request": "2024-1142872",
    "request_type": "Abandoned Vehicles",
    "request_reason": "Vehicle Blocking Your Driveway",
    "date_created": "2024-10-21T18:36:38.000",
    "date_modified": "2024-10-21T18:36:38.000",
    "request_status": "Pending",
    "responsible_agency": "Department of Public Works",
    "final_address": "615 S Telemachus St",
    "address_councildis": "B",
    "status": "Pending",
    "rowid": "1142872",
    "final_x": "3670995.62855",
    "final_y": "535741.063943",
    "longitude": "-90.10109608958841",
    "latitude": "29.967416961504863",
    "geocoded_column": {
      "latitude": "29.967416961504863",
      "longitude": "-90.10109608958841"
    }
  },
  {
    "service_request": "2024-1142871",
    "request_type": "Trash/Recycling",
    "request_reason": "Request a Large Item Pick Up",
    "date_created": "2024-10-21T18:30:55.000",
    "date_modified": "2024-10-21T18:30:56.000",
    "request_status": "Pending",
    "responsible_agency": "Department of Sanitation",
    "final_address": "6863 Argonne Blvd",
    "address_councildis": "A",
    "status": "Assigned to Contractor",
    "contractor": "IV Waste",
    "rowid": "1142871",
    "final_x": "3670753.71278",
    "final_y": "553002.998679",
    "longitude": "-90.10127391152116",
    "latitude": "30.014888486763482",
    "geocoded_column": {
      "latitude": "30.014888486763482",
      "longitude": "-90.10127391152116"
    }
  },
  {
    "service_request": "2024-1142870",
    "request_type": "General Services",
    "request_reason": "General Service Request",
    "date_created": "2024-10-21T18:29:40.000",
    "date_modified": "2024-10-21T18:29:40.000",
    "request_status": "Pending",
    "responsible_agency": "Orleans Parish Communication District",
    "final_address": "13000 N Lake Carmel Dr",
    "address_councildis": "E",
    "status": "Pending",
    "rowid": "1142870",
    "final_x": "3716608.4597",
    "final_y": "568675.093413",
    "longitude": "-89.9558013131371",
    "latitude": "30.0565450125185",
    "geocoded_column": {
      "latitude": "30.0565450125185",
      "longitude": "-89.9558013131371"
    }
  },
  {
    "service_request": "2024-1142869",
    "request_type": "Trash/Recycling",
    "request_reason": "Request a Large Item Pick Up",
    "date_created": "2024-10-21T18:05:47.000",
    "date_modified": "2024-10-21T18:05:48.000",
    "request_status": "Pending",
    "responsible_agency": "Department of Sanitation",
    "final_address": "7632 Vanderkloot Ave",
    "address_councildis": "E",
    "status": "Assigned to Contractor",
    "contractor": "Waste Pro",
    "rowid": "1142869",
    "final_x": "3705768.51051",
    "final_y": "563228.907232",
    "longitude": "-89.99026615444895",
    "latitude": "30.04192404549388",
    "geocoded_column": {
      "latitude": "30.04192404549388",
      "longitude": "-89.99026615444895"
    }
  },
  {
    "service_request": "2024-1142868",
    "request_type": "Mosquito, Termite & Rodent Control",
    "request_reason": "Non-Rodent Complaint (Mice, Possums, Snakes)",
    "date_created": "2024-10-21T17:55:49.000",
    "date_modified": "2024-10-21T17:55:49.000",
    "request_status": "Pending",
    "responsible_agency": "Mosquito, Termite & Rodent Control Board",
    "final_address": "2623 Banks St",
    "address_councildis": "B",
    "status": "Pending",
    "rowid": "1142868",
    "final_x": "3674921.80539",
    "final_y": "533998.000837",
    "longitude": "-90.08875692925093",
    "latitude": "29.962507445275044",
    "geocoded_column": {
      "latitude": "29.962507445275044",
      "longitude": "-90.08875692925093"
    }
  },
  {
    "service_request": "2024-1142867",
    "request_type": "Roads and Streets",
    "request_reason": "Sidewalk Damaged or Missing",
    "date_created": "2024-10-21T17:50:21.000",
    "date_modified": "2024-10-21T17:50:21.000",
    "request_status": "Pending",
    "responsible_agency": "Department of Public Works",
    "final_address": "1200 BLK Bourbon St",
    "address_councildis": "C",
    "status": "Pending",
    "rowid": "1142867",
    "final_x": "3683477.82625",
    "final_y": "534274.382354",
    "longitude": "-90.06172854722628",
    "latitude": "29.963009092049766",
    "geocoded_column": {
      "latitude": "29.963009092049766",
      "longitude": "-90.06172854722628"
    }
  },
  {
    "service_request": "2024-1142866",
    "request_type": "Trash/Recycling",
    "request_reason": "Replace Trash Cart",
    "date_created": "2024-10-21T17:48:25.000",
    "date_modified": "2024-10-21T17:48:26.000",
    "request_status": "Pending",
    "responsible_agency": "Department of Sanitation",
    "final_address": "307 S Olympia St",
    "address_councildis": "A",
    "status": "Assigned to Contractor",
    "contractor": "IV Waste",
    "rowid": "1142866",
    "final_x": "3668829.3099",
    "final_y": "538940.521994",
    "longitude": "-90.10782931795029",
    "latitude": "29.976278279126632",
    "geocoded_column": {
      "latitude": "29.976278279126632",
      "longitude": "-90.10782931795029"
    }
  },
  {
    "service_request": "2024-1142865",
    "request_type": "Street and Traffic Signs",
    "request_reason": "Street Name Sign Damaged or Missing",
    "date_created": "2024-10-21T17:48:08.000",
    "date_modified": "2024-10-21T17:48:08.000",
    "request_status": "Pending",
    "responsible_agency": "Department of Public Works",
    "final_address": "1200 BLK Bourbon St",
    "address_councildis": "C",
    "status": "Pending",
    "rowid": "1142865",
    "final_x": "3683477.82625",
    "final_y": "534274.382354",
    "longitude": "-90.06172854722628",
    "latitude": "29.963009092049766",
    "geocoded_column": {
      "latitude": "29.963009092049766",
      "longitude": "-90.06172854722628"
    }
  },
  {
    "service_request": "2024-1142864",
    "request_type": "Parks & Parkways",
    "request_reason": "Park Maintenance/Clean Up",
    "date_created": "2024-10-21T17:46:11.000",
    "date_modified": "2024-10-21T17:46:11.000",
    "request_status": "Pending",
    "responsible_agency": "Department of Parks & Parkway",
    "final_address": "7017 Leake Ave",
    "address_councildis": "A",
    "status": "Pending",
    "rowid": "1142864",
    "final_x": "3660914.76659",
    "final_y": "520305.808184",
    "longitude": "-90.13344224106855",
    "latitude": "29.92526917033275",
    "geocoded_column": {
      "latitude": "29.92526917033275",
      "longitude": "-90.13344224106855"
    }
  },
  {
    "service_request": "2024-1142863",
    "request_type": "Trash/Recycling",
    "request_reason": "Request a Large Item Pick Up",
    "date_created": "2024-10-21T17:41:10.000",
    "date_modified": "2024-10-21T17:41:12.000",
    "request_status": "Pending",
    "responsible_agency": "Department of Sanitation",
    "final_address": "1713 Philip St",
    "address_councildis": "B",
    "status": "Assigned to Contractor",
    "contractor": "IV Waste",
    "rowid": "1142863",
    "final_x": "3676885.87675",
    "final_y": "523777.584763",
    "longitude": "-90.08290686405577",
    "latitude": "29.93434589504114",
    "geocoded_column": {
      "latitude": "29.93434589504114",
      "longitude": "-90.08290686405577"
    }
  },
  {
    "service_request": "2024-1142862",
    "request_type": "Trash/Recycling",
    "request_reason": "Request a Large Item Pick Up",
    "date_created": "2024-10-21T17:34:12.000",
    "date_modified": "2024-10-21T17:34:13.000",
    "request_status": "Pending",
    "responsible_agency": "Department of Sanitation",
    "final_address": "1808 Tennessee St",
    "address_councildis": "E",
    "status": "Assigned to Contractor",
    "contractor": "Waste Pro",
    "rowid": "1142862",
    "final_x": "3696391.13546",
    "final_y": "537041.110856",
    "longitude": "-90.02085003666046",
    "latitude": "29.970216248836593",
    "geocoded_column": {
      "latitude": "29.970216248836593",
      "longitude": "-90.02085003666046"
    }
  },
  {
    "service_request": "2024-1142861",
    "request_type": "General Services",
    "request_reason": "General Service Request",
    "date_created": "2024-10-21T17:12:15.000",
    "date_modified": "2024-10-21T17:12:15.000",
    "request_status": "Pending",
    "responsible_agency": "Orleans Parish Communication District",
    "final_address": "7927 Burthe St",
    "address_councildis": "A",
    "status": "Pending",
    "rowid": "1142861",
    "final_x": "3661690.00288",
    "final_y": "527253.615423",
    "longitude": "-90.13076487386057",
    "latitude": "29.94435110561763",
    "geocoded_column": {
      "latitude": "29.94435110561763",
      "longitude": "-90.13076487386057"
    }
  },
  {
    "service_request": "2024-1142860",
    "request_type": "Trash/Recycling",
    "request_reason": "Storm Debris Collection",
    "date_created": "2024-10-21T17:11:17.000",
    "date_modified": "2024-10-21T17:11:17.000",
    "request_status": "Pending",
    "responsible_agency": "Department of Sanitation",
    "final_address": "406 Tricou St",
    "address_councildis": "E",
    "status": "Pending",
    "rowid": "1142860",
    "final_x": "3699180.75095",
    "final_y": "530744.117378",
    "longitude": "-90.0122694663844",
    "latitude": "29.952813606803037",
    "geocoded_column": {
      "latitude": "29.952813606803037",
      "longitude": "-90.0122694663844"
    }
  },
  {
    "service_request": "2024-1142859",
    "request_type": "Streetlights",
    "request_reason": "Streetlight Outage/Malfunction",
    "date_created": "2024-10-21T17:08:41.000",
    "date_modified": "2024-10-21T17:08:43.000",
    "request_status": "Pending",
    "responsible_agency": "Department of Public Works",
    "final_address": "325 Calhoun St",
    "address_councildis": "A",
    "status": "Pending",
    "contractor": "Legacy Professional Services",
    "rowid": "1142859",
    "final_x": "3662887.72557",
    "final_y": "518303.782198",
    "longitude": "-90.12728072196383",
    "latitude": "29.919707266356426",
    "geocoded_column": {
      "latitude": "29.919707266356426",
      "longitude": "-90.12728072196383"
    }
  },
  {
    "service_request": "2024-1142858",
    "request_type": "Road Striping",
    "request_reason": "Lane Striping or other Pavement Markings",
    "date_created": "2024-10-21T17:03:35.000",
    "date_modified": "2024-10-21T17:03:35.000",
    "request_status": "Pending",
    "responsible_agency": "Department of Public Works",
    "final_address": "1100 BLK Toulouse St",
    "address_councildis": "C",
    "status": "Pending",
    "rowid": "1142858",
    "final_x": "3680995.32334",
    "final_y": "533070.051758",
    "longitude": "-90.06960992736818",
    "latitude": "29.95977311245659",
    "geocoded_column": {
      "latitude": "29.95977311245659",
      "longitude": "-90.06960992736818"
    }
  },
  {
    "service_request": "2024-1142857",
    "request_type": "Trash/Recycling",
    "request_reason": "Request a Large Item Pick Up",
    "date_created": "2024-10-21T17:02:37.000",
    "date_modified": "2024-10-21T17:02:38.000",
    "request_status": "Pending",
    "responsible_agency": "Department of Sanitation",
    "final_address": "7922 Arcadia Ln",
    "address_councildis": "E",
    "status": "Assigned to Contractor",
    "contractor": "Waste Pro",
    "rowid": "1142857",
    "final_x": "3711799.78846",
    "final_y": "567881.948709",
    "longitude": "-89.97103040553964",
    "latitude": "30.054522266104446",
    "geocoded_column": {
      "latitude": "30.054522266104446",
      "longitude": "-89.97103040553964"
    }
  },
  {
    "service_request": "2024-1142856",
    "request_type": "Streetlights",
    "request_reason": "Streetlight Outage/Malfunction",
    "date_created": "2024-10-21T16:54:48.000",
    "date_modified": "2024-10-21T16:55:32.000",
    "request_status": "Pending",
    "responsible_agency": "Department of Public Works",
    "final_address": "11301 Morrison Rd",
    "address_councildis": "E",
    "status": "Pending",
    "contractor": "Legacy Professional Services",
    "rowid": "1142856",
    "final_x": "3711812.05355",
    "final_y": "565538.876002",
    "longitude": "-89.97107968519211",
    "latitude": "30.048079366576395",
    "geocoded_column": {
      "latitude": "30.048079366576395",
      "longitude": "-89.97107968519211"
    }
  },
  {
    "service_request": "2024-1142855",
    "request_type": "Trash/Recycling",
    "request_reason": "Order Trash Cart",
    "date_created": "2024-10-21T16:54:02.000",
    "date_modified": "2024-10-21T16:54:03.000",
    "request_status": "Pending",
    "responsible_agency": "Department of Sanitation",
    "final_address": "1207 Alvar St",
    "address_councildis": "D",
    "status": "Assigned to Contractor",
    "contractor": "IV Waste",
    "rowid": "1142855",
    "final_x": "3691645.6966",
    "final_y": "535813.353671",
    "longitude": "-90.03588048138101",
    "latitude": "29.966988956063318",
    "geocoded_column": {
      "latitude": "29.966988956063318",
      "longitude": "-90.03588048138101"
    }
  },
  {
    "service_request": "2024-1142854",
    "request_type": "Trash/Recycling",
    "request_reason": "Order Trash Cart",
    "date_created": "2024-10-21T16:53:43.000",
    "date_modified": "2024-10-21T16:53:44.000",
    "request_status": "Pending",
    "responsible_agency": "Department of Sanitation",
    "final_address": "1209 Alvar St",
    "address_councildis": "D",
    "status": "Assigned to Contractor",
    "contractor": "IV Waste",
    "rowid": "1142854",
    "final_x": "3691650.21052",
    "final_y": "535827.242567",
    "longitude": "-90.03586572980795",
    "latitude": "29.9670270050957",
    "geocoded_column": {
      "latitude": "29.9670270050957",
      "longitude": "-90.03586572980795"
    }
  },
  {
    "service_request": "2024-1142853",
    "request_type": "Parks & Parkways",
    "request_reason": "Request Tree Service (Right of Way/Public Property)",
    "date_created": "2024-10-21T16:53:23.000",
    "date_modified": "2024-10-21T16:57:20.000",
    "request_status": "Pending",
    "responsible_agency": "Department of Parks & Parkway",
    "final_address": "11301 Morrison Rd",
    "address_councildis": "E",
    "status": "Pending",
    "rowid": "1142853",
    "final_x": "3711812.05355",
    "final_y": "565538.876002",
    "longitude": "-89.97107968519211",
    "latitude": "30.048079366576395",
    "geocoded_column": {
      "latitude": "30.048079366576395",
      "longitude": "-89.97107968519211"
    }
  },
  {
    "service_request": "2024-1142852",
    "request_type": "Trash/Recycling",
    "request_reason": "Request a Large Item Pick Up",
    "date_created": "2024-10-21T16:52:38.000",
    "date_modified": "2024-10-21T16:52:57.000",
    "request_status": "Pending",
    "responsible_agency": "Department of Sanitation",
    "final_address": "1209 Alvar St",
    "address_councildis": "D",
    "status": "Assigned to Contractor",
    "contractor": "IV Waste",
    "rowid": "1142852",
    "final_x": "3691650.21052",
    "final_y": "535827.242567",
    "longitude": "-90.03586572980795",
    "latitude": "29.9670270050957",
    "geocoded_column": {
      "latitude": "29.9670270050957",
      "longitude": "-90.03586572980795"
    }
  },
  {
    "service_request": "2024-1142851",
    "request_type": "Abandoned Vehicles",
    "request_reason": "Abandoned/Junk Vehicles",
    "date_created": "2024-10-21T16:50:51.000",
    "date_modified": "2024-10-21T16:52:21.000",
    "request_status": "Pending",
    "responsible_agency": "Department of Public Works",
    "final_address": "1308 Philip St",
    "address_councildis": "B",
    "status": "Pending",
    "rowid": "1142851",
    "final_x": "3677996.31086",
    "final_y": "522493.31033",
    "longitude": "-90.07944562194822",
    "latitude": "29.930781194162794",
    "geocoded_column": {
      "latitude": "29.930781194162794",
      "longitude": "-90.07944562194822"
    }
  },
  {
    "service_request": "2024-1142850",
    "request_type": "Roads and Streets",
    "request_reason": "Pothole",
    "date_created": "2024-10-21T16:47:20.000",
    "date_modified": "2024-10-21T16:47:20.000",
    "request_status": "Pending",
    "responsible_agency": "Department of Public Works",
    "final_address": "500 BLK Webster St",
    "address_councildis": "A",
    "status": "Pending",
    "rowid": "1142850",
    "final_x": "3663819.37902",
    "final_y": "518611.721423",
    "longitude": "-90.12432968109948",
    "latitude": "29.920527006751712",
    "geocoded_column": {
      "latitude": "29.920527006751712",
      "longitude": "-90.12432968109948"
    }
  },
  {
    "service_request": "2024-1142849",
    "request_type": "Safety & Permits",
    "request_reason": "Licenses & Permits",
    "date_created": "2024-10-21T16:42:50.000",
    "date_modified": "2024-10-21T16:42:51.000",
    "request_status": "Pending",
    "responsible_agency": "Safety and Permits",
    "final_address": "2438 Painters St",
    "address_councildis": "D",
    "status": "Pending",
    "rowid": "1142849",
    "final_x": "3687123.17327",
    "final_y": "541630.3019",
    "longitude": "-90.04995684269589",
    "latitude": "29.98312355169213",
    "geocoded_column": {
      "latitude": "29.98312355169213",
      "longitude": "-90.04995684269589"
    }
  },
  {
    "service_request": "2024-1142848",
    "request_type": "Health Related Request",
    "request_reason": "Noise Ordinance Complaint",
    "date_created": "2024-10-21T16:41:51.000",
    "date_modified": "2024-10-21T16:41:52.000",
    "request_status": "Pending",
    "responsible_agency": "Health Department",
    "final_address": "2438 Painters St",
    "address_councildis": "D",
    "status": "Pending",
    "rowid": "1142848",
    "final_x": "3687123.17327",
    "final_y": "541630.3019",
    "longitude": "-90.04995684269589",
    "latitude": "29.98312355169213",
    "geocoded_column": {
      "latitude": "29.98312355169213",
      "longitude": "-90.04995684269589"
    }
  },
  {
    "service_request": "2024-1142847",
    "request_type": "Abandoned Vehicles",
    "request_reason": "Abandoned/Junk Vehicles",
    "date_created": "2024-10-21T16:40:04.000",
    "date_modified": "2024-10-21T16:40:04.000",
    "request_status": "Pending",
    "responsible_agency": "Department of Public Works",
    "final_address": "1899 Crete St",
    "address_councildis": "A",
    "status": "Pending",
    "rowid": "1142847",
    "final_x": "3678708.24763",
    "final_y": "543086.114509",
    "longitude": "-90.07648507319786",
    "latitude": "29.98738299927463",
    "geocoded_column": {
      "latitude": "29.98738299927463",
      "longitude": "-90.07648507319786"
    }
  },
  {
    "service_request": "2024-1142846",
    "request_type": "Trash/Recycling",
    "request_reason": "Missed Trash Pick-Up",
    "date_created": "2024-10-21T16:39:52.000",
    "date_modified": "2024-10-21T16:39:53.000",
    "request_status": "Pending",
    "responsible_agency": "Department of Sanitation",
    "final_address": "4883 Rosemont Pl",
    "address_councildis": "E",
    "status": "Assigned to Contractor",
    "contractor": "Waste Pro",
    "rowid": "1142846",
    "final_x": "3702699.70097",
    "final_y": "555773.340569",
    "longitude": "-90.00023880785623",
    "latitude": "30.02152268490085",
    "geocoded_column": {
      "latitude": "30.02152268490085",
      "longitude": "-90.00023880785623"
    }
  },
  {
    "service_request": "2024-1142845",
    "request_type": "Trash/Recycling",
    "request_reason": "Request a Large Item Pick Up",
    "date_created": "2024-10-21T16:37:22.000",
    "date_modified": "2024-10-21T16:37:23.000",
    "request_status": "Pending",
    "responsible_agency": "Department of Sanitation",
    "final_address": "4827 Evangeline Dr",
    "address_councildis": "E",
    "status": "Assigned to Contractor",
    "contractor": "Waste Pro",
    "rowid": "1142845",
    "final_x": "3709121.46885",
    "final_y": "556294.380378",
    "longitude": "-89.9799284973336",
    "latitude": "30.02274834684033",
    "geocoded_column": {
      "latitude": "30.02274834684033",
      "longitude": "-89.9799284973336"
    }
  },
  {
    "service_request": "2024-1142844",
    "request_type": "Trash/Recycling",
    "request_reason": "Request a Large Item Pick Up",
    "date_created": "2024-10-21T16:36:14.000",
    "date_modified": "2024-10-21T16:36:15.000",
    "request_status": "Pending",
    "responsible_agency": "Department of Sanitation",
    "final_address": "826 Delery St Apt D",
    "address_councildis": "E",
    "status": "Assigned to Contractor",
    "contractor": "Waste Pro",
    "rowid": "1142844",
    "final_x": "3699949.40836",
    "final_y": "532093.377219",
    "longitude": "-90.00979319335984",
    "latitude": "29.95649920309229",
    "geocoded_column": {
      "latitude": "29.95649920309229",
      "longitude": "-90.00979319335984"
    }
  },
  {
    "service_request": "2024-1142843",
    "request_type": "Trash/Recycling",
    "request_reason": "Request a Large Item Pick Up",
    "date_created": "2024-10-21T16:35:28.000",
    "date_modified": "2024-10-21T16:35:29.000",
    "request_status": "Pending",
    "responsible_agency": "Department of Sanitation",
    "final_address": "7640 Anne Marie Ct",
    "address_councildis": "E",
    "status": "Assigned to Contractor",
    "contractor": "Waste Pro",
    "rowid": "1142843",
    "final_x": "3717809.35097",
    "final_y": "571224.457128",
    "longitude": "-89.95190838559085",
    "latitude": "30.06351495213197",
    "geocoded_column": {
      "latitude": "30.06351495213197",
      "longitude": "-89.95190838559085"
    }
  },
  {
    "service_request": "2024-1142842",
    "request_type": "Street and Traffic Signs",
    "request_reason": "Stop Sign Missing or Damaged",
    "date_created": "2024-10-21T16:31:57.000",
    "date_modified": "2024-10-21T16:31:58.000",
    "request_status": "Pending",
    "responsible_agency": "Department of Public Works",
    "final_address": "LAFITTE ST & N GALVEZ ST",
    "address_councildis": "D",
    "status": "Pending",
    "rowid": "1142842",
    "final_x": "3678063.5",
    "final_y": "535353.38",
    "longitude": "-90.07878902707445",
    "latitude": "29.96614007394721",
    "geocoded_column": {
      "latitude": "29.96614007394721",
      "longitude": "-90.07878902707445"
    }
  },
  {
    "service_request": "2024-1142841",
    "request_type": "Trash/Recycling",
    "request_reason": "Dead Animal Pick Up",
    "date_created": "2024-10-21T16:30:45.000",
    "date_modified": "2024-10-21T16:30:46.000",
    "request_status": "Pending",
    "responsible_agency": "Department of Sanitation",
    "final_address": "4409 Kennon Ave",
    "address_councildis": "D",
    "status": "Assigned to Contractor",
    "contractor": "IV Waste",
    "rowid": "1142841",
    "final_x": "3677546.3364",
    "final_y": "548556.758866",
    "longitude": "-90.07996613085504",
    "latitude": "30.0024603404352",
    "geocoded_column": {
      "latitude": "30.0024603404352",
      "longitude": "-90.07996613085504"
    }
  },
  {
    "service_request": "2024-1142840",
    "request_type": "Trash/Recycling",
    "request_reason": "Request a Large Item Pick Up",
    "date_created": "2024-10-21T16:29:30.000",
    "date_modified": "2024-10-21T16:29:31.000",
    "request_status": "Pending",
    "responsible_agency": "Department of Sanitation",
    "final_address": "11429 S St Andrews Cir",
    "address_councildis": "E",
    "status": "Assigned to Contractor",
    "contractor": "Waste Pro",
    "rowid": "1142840",
    "final_x": "3719763.03877",
    "final_y": "559725.050589",
    "longitude": "-89.94617279504737",
    "latitude": "30.0318314094296",
    "geocoded_column": {
      "latitude": "30.0318314094296",
      "longitude": "-89.94617279504737"
    }
  },
  {
    "service_request": "2024-1142839",
    "request_type": "Trash/Recycling",
    "request_reason": "Request a Large Item Pick Up",
    "date_created": "2024-10-21T16:27:32.000",
    "date_modified": "2024-10-21T16:27:33.000",
    "request_status": "Pending",
    "responsible_agency": "Department of Sanitation",
    "final_address": "1329 Pacific Ave",
    "address_councildis": "C",
    "status": "Assigned to Contractor",
    "contractor": "Richards Disposal",
    "rowid": "1142839",
    "final_x": "3688308.61884",
    "final_y": "526550.687422",
    "longitude": "-90.0467474011326",
    "latitude": "29.941623291269842",
    "geocoded_column": {
      "latitude": "29.941623291269842",
      "longitude": "-90.0467474011326"
    }
  },
  {
    "service_request": "2024-1142838",
    "request_type": "Streetlights",
    "request_reason": "Streetlight Outage/Malfunction",
    "date_created": "2024-10-21T16:26:59.000",
    "date_modified": "2024-10-21T16:27:00.000",
    "request_status": "Pending",
    "responsible_agency": "Department of Public Works",
    "final_address": "5010 Westlake Dr",
    "address_councildis": "E",
    "status": "Pending",
    "contractor": "Legacy Professional Services",
    "rowid": "1142838",
    "final_x": "3699636.15748",
    "final_y": "555717.734041",
    "longitude": "-90.00992074739891",
    "latitude": "30.02146743438946",
    "geocoded_column": {
      "latitude": "30.02146743438946",
      "longitude": "-90.00992074739891"
    }
  },
  {
    "service_request": "2024-1142837",
    "request_type": "Trash/Recycling",
    "request_reason": "Request a Large Item Pick Up",
    "date_created": "2024-10-21T16:23:28.000",
    "date_modified": "2024-10-21T16:34:32.000",
    "request_status": "Pending",
    "responsible_agency": "Department of Sanitation",
    "final_address": "10940 Harrow Rd",
    "address_councildis": "E",
    "status": "Assigned to Contractor",
    "contractor": "Waste Pro",
    "rowid": "1142837",
    "final_x": "3711778.88235",
    "final_y": "563817.623201",
    "longitude": "-89.97124919197346",
    "latitude": "30.043347700071017",
    "geocoded_column": {
      "latitude": "30.043347700071017",
      "longitude": "-89.97124919197346"
    }
  },
  {
    "service_request": "2024-1142836",
    "request_type": "Trash/Recycling",
    "request_reason": "Request a Large Item Pick Up",
    "date_created": "2024-10-21T16:22:31.000",
    "date_modified": "2024-10-21T16:22:32.000",
    "request_status": "Pending",
    "responsible_agency": "Department of Sanitation",
    "final_address": "43 E Blue Ridge Ct",
    "address_councildis": "E",
    "status": "Assigned to Contractor",
    "contractor": "Waste Pro",
    "rowid": "1142836",
    "final_x": "3714197.93285",
    "final_y": "567480.316964",
    "longitude": "-89.9634656680098",
    "latitude": "30.053339328727322",
    "geocoded_column": {
      "latitude": "30.053339328727322",
      "longitude": "-89.9634656680098"
    }
  },
  {
    "service_request": "2024-1142835",
    "request_type": "Roads and Streets",
    "request_reason": "Street Subsidence (Sinking)",
    "date_created": "2024-10-21T16:18:40.000",
    "date_modified": "2024-10-21T16:18:41.000",
    "request_status": "Pending",
    "responsible_agency": "Department of Public Works",
    "final_address": "RHODES AVE & ETON ST",
    "address_councildis": "C",
    "status": "Pending",
    "rowid": "1142835",
    "final_x": "3703923.1",
    "final_y": "519956.68",
    "longitude": "-89.99769239251573",
    "latitude": "29.923000757472153",
    "geocoded_column": {
      "latitude": "29.923000757472153",
      "longitude": "-89.99769239251573"
    }
  },
  {
    "service_request": "2024-1142834",
    "request_type": "Abandoned Vehicles",
    "request_reason": "Abandoned/Junk Vehicles",
    "date_created": "2024-10-21T16:17:35.000",
    "date_modified": "2024-10-21T16:17:36.000",
    "request_status": "Pending",
    "responsible_agency": "Department of Public Works",
    "final_address": "6501 Virgilian St",
    "address_councildis": "D",
    "status": "Pending",
    "rowid": "1142834",
    "final_x": "3697481.96087",
    "final_y": "555145.764313",
    "longitude": "-90.01674815145309",
    "latitude": "30.019962970551507",
    "geocoded_column": {
      "latitude": "30.019962970551507",
      "longitude": "-90.01674815145309"
    }
  },
  {
    "service_request": "2024-1142833",
    "request_type": "Roads and Streets",
    "request_reason": "Sidewalk Damaged or Missing",
    "date_created": "2024-10-21T16:17:21.000",
    "date_modified": "2024-10-21T16:17:22.000",
    "request_status": "Pending",
    "responsible_agency": "Department of Public Works",
    "final_address": "RHODES AVE & ETON ST",
    "address_councildis": "C",
    "status": "Pending",
    "rowid": "1142833",
    "final_x": "3703923.1",
    "final_y": "519956.68",
    "longitude": "-89.99769239251573",
    "latitude": "29.923000757472153",
    "geocoded_column": {
      "latitude": "29.923000757472153",
      "longitude": "-89.99769239251573"
    }
  },
  {
    "service_request": "2024-1142832",
    "request_type": "Trash/Recycling",
    "request_reason": "Request a Large Item Pick Up",
    "date_created": "2024-10-21T16:12:14.000",
    "date_modified": "2024-10-21T16:12:15.000",
    "request_status": "Pending",
    "responsible_agency": "Department of Sanitation",
    "final_address": "6941 Bunker Hill Rd",
    "address_councildis": "E",
    "status": "Assigned to Contractor",
    "contractor": "Waste Pro",
    "rowid": "1142832",
    "final_x": "3706094.60766",
    "final_y": "560146.102749",
    "longitude": "-89.98934984878052",
    "latitude": "30.03343703604822",
    "geocoded_column": {
      "latitude": "30.03343703604822",
      "longitude": "-89.98934984878052"
    }
  },
  {
    "service_request": "2024-1142831",
    "request_type": "Safety & Permits",
    "request_reason": "Zoning Enforcement",
    "date_created": "2024-10-21T16:04:50.000",
    "date_modified": "2024-10-21T16:04:50.000",
    "request_status": "Pending",
    "responsible_agency": "Safety and Permits",
    "final_address": "4407 S Carrollton Ave",
    "address_councildis": "A",
    "status": "Pending",
    "rowid": "1142831",
    "final_x": "3670039.81146",
    "final_y": "537296.607944",
    "longitude": "-90.10406188337352",
    "latitude": "29.97172241499035",
    "geocoded_column": {
      "latitude": "29.97172241499035",
      "longitude": "-90.10406188337352"
    }
  },
  {
    "service_request": "2024-1142830",
    "request_type": "Roads and Streets",
    "request_reason": "Sidewalk Damaged or Missing",
    "date_created": "2024-10-21T15:56:48.000",
    "date_modified": "2024-10-21T15:56:49.000",
    "request_status": "Pending",
    "responsible_agency": "Department of Public Works",
    "final_address": "4843 Mendez St",
    "address_councildis": "D",
    "status": "Pending",
    "rowid": "1142830",
    "final_x": "3691426.82985",
    "final_y": "554456.71964",
    "longitude": "-90.03590501421064",
    "latitude": "30.01825826867962",
    "geocoded_column": {
      "latitude": "30.01825826867962",
      "longitude": "-90.03590501421064"
    }
  },
  {
    "service_request": "2024-1142829",
    "request_type": "Trash/Recycling",
    "request_reason": "Request a Large Item Pick Up",
    "date_created": "2024-10-21T15:52:49.000",
    "date_modified": "2024-10-21T15:52:50.000",
    "request_status": "Pending",
    "responsible_agency": "Department of Sanitation",
    "final_address": "7160 Boston Dr",
    "address_councildis": "E",
    "status": "Assigned to Contractor",
    "contractor": "Waste Pro",
    "rowid": "1142829",
    "final_x": "3706089.52868",
    "final_y": "561265.769758",
    "longitude": "-89.9893243969056",
    "latitude": "30.036515843600437",
    "geocoded_column": {
      "latitude": "30.036515843600437",
      "longitude": "-89.9893243969056"
    }
  },
  {
    "service_request": "2024-1142828",
    "request_type": "Trash/Recycling",
    "request_reason": "Request a Large Item Pick Up",
    "date_created": "2024-10-21T15:51:55.000",
    "date_modified": "2024-10-21T15:51:56.000",
    "request_status": "Pending",
    "responsible_agency": "Department of Sanitation",
    "final_address": "1208 Hillary St",
    "address_councildis": "A",
    "status": "Assigned to Contractor",
    "contractor": "IV Waste",
    "rowid": "1142828",
    "final_x": "3663335.54336",
    "final_y": "527266.528319",
    "longitude": "-90.1255689756006",
    "latitude": "29.94433902233611",
    "geocoded_column": {
      "latitude": "29.94433902233611",
      "longitude": "-90.1255689756006"
    }
  },
  {
    "service_request": "2024-1142827",
    "request_type": "Trash/Recycling",
    "request_reason": "MIssed Recycling Pick-Up",
    "date_created": "2024-10-21T15:49:17.000",
    "date_modified": "2024-10-21T15:49:18.000",
    "request_status": "Pending",
    "responsible_agency": "Department of Sanitation",
    "final_address": "4534 Annette St",
    "address_councildis": "D",
    "status": "Assigned to Contractor",
    "contractor": "IV Waste",
    "rowid": "1142827",
    "final_x": "3682035.96898",
    "final_y": "549364.569619",
    "longitude": "-90.06575459418951",
    "latitude": "30.004545732608978",
    "geocoded_column": {
      "latitude": "30.004545732608978",
      "longitude": "-90.06575459418951"
    }
  },
  {
    "service_request": "2024-1142826",
    "request_type": "Trash/Recycling",
    "request_reason": "Request a Large Item Pick Up",
    "date_created": "2024-10-21T15:48:10.000",
    "date_modified": "2024-10-21T15:48:11.000",
    "request_status": "Pending",
    "responsible_agency": "Department of Sanitation",
    "final_address": "848 Roosevelt Pl",
    "address_councildis": "A",
    "status": "Assigned to Contractor",
    "contractor": "IV Waste",
    "rowid": "1142826",
    "final_x": "3673623.16424",
    "final_y": "539997.305355",
    "longitude": "-90.09265273486632",
    "latitude": "29.97904222307021",
    "geocoded_column": {
      "latitude": "29.97904222307021",
      "longitude": "-90.09265273486632"
    }
  },
  {
    "service_request": "2024-1142825",
    "request_type": "Trash/Recycling",
    "request_reason": "Order Recycling Cart",
    "date_created": "2024-10-21T15:45:19.000",
    "date_modified": "2024-10-21T15:45:19.000",
    "request_status": "Pending",
    "responsible_agency": "Department of Sanitation",
    "final_address": "5017 Constance St",
    "address_councildis": "B",
    "status": "Pending",
    "rowid": "1142825",
    "final_x": "3668494.94593",
    "final_y": "518260.927606",
    "longitude": "-90.10958287452708",
    "latitude": "29.919425956404865",
    "geocoded_column": {
      "latitude": "29.919425956404865",
      "longitude": "-90.10958287452708"
    }
  },
  {
    "service_request": "2024-1142824",
    "request_type": "Streetlights",
    "request_reason": "Streetlight Outage/Malfunction",
    "date_created": "2024-10-21T15:43:27.000",
    "date_modified": "2024-10-21T15:43:28.000",
    "request_status": "Pending",
    "responsible_agency": "Department of Public Works",
    "final_address": "WOODLAND HWY & WOODLAND BRIDGE",
    "status": "Pending",
    "contractor": "Legacy Professional Services",
    "rowid": "1142824",
    "final_x": "3709080.95",
    "final_y": "512313.69",
    "longitude": "-89.98169580278517",
    "latitude": "29.901818865154112",
    "geocoded_column": {
      "latitude": "29.901818865154112",
      "longitude": "-89.98169580278517"
    }
  },
  {
    "service_request": "2024-1142823",
    "request_type": "Trash/Recycling",
    "request_reason": "Request a Large Item Pick Up",
    "date_created": "2024-10-21T15:40:28.000",
    "date_modified": "2024-10-21T15:40:29.000",
    "request_status": "Pending",
    "responsible_agency": "Department of Sanitation",
    "final_address": "2601 Octavia St",
    "address_councildis": "A",
    "status": "Assigned to Contractor",
    "contractor": "IV Waste",
    "rowid": "1142823",
    "final_x": "3667861.62593",
    "final_y": "525058.337597",
    "longitude": "-90.11135313751238",
    "latitude": "29.93813525580303",
    "geocoded_column": {
      "latitude": "29.93813525580303",
      "longitude": "-90.11135313751238"
    }
  },
  {
    "service_request": "2024-1142822",
    "request_type": "Health Related Request",
    "request_reason": "Noise Ordinance Complaint",
    "date_created": "2024-10-21T15:40:07.000",
    "date_modified": "2024-10-21T15:40:08.000",
    "request_status": "Pending",
    "responsible_agency": "Health Department",
    "final_address": "2438 Painters St",
    "address_councildis": "D",
    "status": "Pending",
    "rowid": "1142822",
    "final_x": "3687123.17327",
    "final_y": "541630.3019",
    "longitude": "-90.04995684269589",
    "latitude": "29.98312355169213",
    "geocoded_column": {
      "latitude": "29.98312355169213",
      "longitude": "-90.04995684269589"
    }
  },
  {
    "service_request": "2024-1142821",
    "request_type": "Street and Traffic Signs",
    "request_reason": "New Disabled Parking Sign Request ",
    "date_created": "2024-10-21T15:39:28.000",
    "date_modified": "2024-10-21T15:39:29.000",
    "request_status": "Pending",
    "responsible_agency": "Department of Public Works",
    "final_address": "4011 Carondelet St",
    "address_councildis": "B",
    "status": "Pending",
    "rowid": "1142821",
    "final_x": "3672152.24091",
    "final_y": "521443.700601",
    "longitude": "-90.09793028528959",
    "latitude": "29.928069656786178",
    "geocoded_column": {
      "latitude": "29.928069656786178",
      "longitude": "-90.09793028528959"
    }
  },
  {
    "service_request": "2024-1142820",
    "request_type": "Street and Traffic Signs",
    "request_reason": "Stop Sign Missing or Damaged",
    "date_created": "2024-10-21T15:35:09.000",
    "date_modified": "2024-10-21T15:35:09.000",
    "request_status": "Pending",
    "responsible_agency": "Department of Public Works",
    "final_address": "111 Audubon St",
    "address_councildis": "A",
    "status": "Pending",
    "rowid": "1142820",
    "final_x": "3660916.91347",
    "final_y": "521057.297401",
    "longitude": "-90.13341062217289",
    "latitude": "29.927335469788034",
    "geocoded_column": {
      "latitude": "29.927335469788034",
      "longitude": "-90.13341062217289"
    }
  },
  {
    "service_request": "2024-1142819",
    "request_type": "Trash/Recycling",
    "request_reason": "Request a Large Item Pick Up",
    "date_created": "2024-10-21T15:33:02.000",
    "date_modified": "2024-10-21T15:33:03.000",
    "request_status": "Pending",
    "responsible_agency": "Department of Sanitation",
    "final_address": "6912 Lake Willow Dr",
    "address_councildis": "E",
    "status": "Assigned to Contractor",
    "contractor": "Waste Pro",
    "rowid": "1142819",
    "final_x": "3703139.14039",
    "final_y": "558601.178204",
    "longitude": "-89.99874623796288",
    "latitude": "30.029284080414914",
    "geocoded_column": {
      "latitude": "30.029284080414914",
      "longitude": "-89.99874623796288"
    }
  },
  {
    "service_request": "2024-1142818",
    "request_type": "Abandoned Vehicles",
    "request_reason": "Abandoned/Junk Vehicles",
    "date_created": "2024-10-21T15:32:29.000",
    "date_modified": "2024-10-21T15:33:39.000",
    "request_status": "Pending",
    "responsible_agency": "Department of Public Works",
    "final_address": "4601 Pineda St",
    "address_councildis": "D",
    "status": "Pending",
    "rowid": "1142818",
    "final_x": "3690677.65814",
    "final_y": "552590.620566",
    "longitude": "-90.03833874582484",
    "latitude": "30.0131504928054",
    "geocoded_column": {
      "latitude": "30.0131504928054",
      "longitude": "-90.03833874582484"
    }
  },
  {
    "service_request": "2024-1142817",
    "request_type": "Roads and Streets",
    "request_reason": "Street Subsidence (Sinking)",
    "date_created": "2024-10-21T15:31:24.000",
    "date_modified": "2024-10-21T15:31:25.000",
    "request_status": "Pending",
    "responsible_agency": "Department of Public Works",
    "final_address": "717 Second St",
    "address_councildis": "B",
    "status": "Pending",
    "rowid": "1142817",
    "final_x": "3678589.1099",
    "final_y": "520250.522872",
    "longitude": "-90.07765182784492",
    "latitude": "29.924596410169475",
    "geocoded_column": {
      "latitude": "29.924596410169475",
      "longitude": "-90.07765182784492"
    }
  },
  {
    "service_request": "2024-1142816",
    "request_type": "Trash/Recycling",
    "request_reason": "Request a Large Item Pick Up",
    "date_created": "2024-10-21T15:31:20.000",
    "date_modified": "2024-10-21T15:31:21.000",
    "request_status": "Pending",
    "responsible_agency": "Department of Sanitation",
    "final_address": "817 Governor Nicholls St",
    "address_councildis": "C",
    "status": "Assigned to Contractor",
    "contractor": "Empire Services",
    "rowid": "1142816",
    "final_x": "3683279.5213",
    "final_y": "534235.357509",
    "longitude": "-90.06235613616163",
    "latitude": "29.96290783682339",
    "geocoded_column": {
      "latitude": "29.96290783682339",
      "longitude": "-90.06235613616163"
    }
  },
  {
    "service_request": "2024-1142815",
    "request_type": "Trash/Recycling",
    "request_reason": "Request a Large Item Pick Up",
    "date_created": "2024-10-21T15:28:35.000",
    "date_modified": "2024-10-21T15:28:36.000",
    "request_status": "Pending",
    "responsible_agency": "Department of Sanitation",
    "final_address": "2817 Broadway St",
    "address_councildis": "B",
    "status": "Assigned to Contractor",
    "contractor": "IV Waste",
    "rowid": "1142815",
    "final_x": "3667401.17165",
    "final_y": "531361.03533",
    "longitude": "-90.11259484991487",
    "latitude": "29.955479125441872",
    "geocoded_column": {
      "latitude": "29.955479125441872",
      "longitude": "-90.11259484991487"
    }
  },
  {
    "service_request": "2024-1142814",
    "request_type": "Parks & Parkways",
    "request_reason": "Request Tree Service (Right of Way/Public Property)",
    "date_created": "2024-10-21T15:27:22.000",
    "date_modified": "2024-10-21T15:27:23.000",
    "request_status": "Pending",
    "responsible_agency": "Department of Parks & Parkway",
    "final_address": "2333 N Galvez St",
    "address_councildis": "D",
    "status": "Pending",
    "rowid": "1142814",
    "final_x": "3685740.42722",
    "final_y": "540099.191755",
    "longitude": "-90.05437823562734",
    "latitude": "29.97895605071743",
    "geocoded_column": {
      "latitude": "29.97895605071743",
      "longitude": "-90.05437823562734"
    }
  },
  {
    "service_request": "2024-1142813",
    "request_type": "Trash/Recycling",
    "request_reason": "Repair Recycling Cart",
    "date_created": "2024-10-21T15:27:15.000",
    "date_modified": "2024-10-21T15:27:16.000",
    "request_status": "Pending",
    "responsible_agency": "Department of Sanitation",
    "final_address": "717 Second St",
    "address_councildis": "B",
    "status": "Pending",
    "rowid": "1142813",
    "final_x": "3678589.1099",
    "final_y": "520250.522872",
    "longitude": "-90.07765182784492",
    "latitude": "29.924596410169475",
    "geocoded_column": {
      "latitude": "29.924596410169475",
      "longitude": "-90.07765182784492"
    }
  },
  {
    "service_request": "2024-1142812",
    "request_type": "Trash/Recycling",
    "request_reason": "Request a Large Item Pick Up",
    "date_created": "2024-10-21T15:25:41.000",
    "date_modified": "2024-10-21T15:25:42.000",
    "request_status": "Pending",
    "responsible_agency": "Department of Sanitation",
    "final_address": "6458 Colbert St",
    "address_councildis": "A",
    "status": "Assigned to Contractor",
    "contractor": "IV Waste",
    "rowid": "1142812",
    "final_x": "3667623.46708",
    "final_y": "550658.996308",
    "longitude": "-90.11124300817106",
    "latitude": "30.008535477415492",
    "geocoded_column": {
      "latitude": "30.008535477415492",
      "longitude": "-90.11124300817106"
    }
  },
  {
    "service_request": "2024-1142811",
    "request_type": "Trash/Recycling",
    "request_reason": "Request a Large Item Pick Up",
    "date_created": "2024-10-21T15:25:32.000",
    "date_modified": "2024-10-21T15:25:34.000",
    "request_status": "Pending",
    "responsible_agency": "Department of Sanitation",
    "final_address": "7620 Avalon Way",
    "address_councildis": "E",
    "status": "Assigned to Contractor",
    "contractor": "Waste Pro",
    "rowid": "1142811",
    "final_x": "3708991.02968",
    "final_y": "564615.785825",
    "longitude": "-89.98003010819161",
    "latitude": "30.045633154708817",
    "geocoded_column": {
      "latitude": "30.045633154708817",
      "longitude": "-89.98003010819161"
    }
  },
  {
    "service_request": "2024-1142810",
    "request_type": "Mosquito, Termite & Rodent Control",
    "request_reason": "Rodent Complaint (Rats)",
    "date_created": "2024-10-21T15:24:59.000",
    "date_modified": "2024-10-21T15:25:01.000",
    "request_status": "Pending",
    "responsible_agency": "Mosquito, Termite & Rodent Control Board",
    "final_address": "1828 General Pershing St",
    "address_councildis": "B",
    "status": "Pending",
    "rowid": "1142810",
    "final_x": "3671062.1979",
    "final_y": "521858.341178",
    "longitude": "-90.10135723808631",
    "latitude": "29.929242055879268",
    "geocoded_column": {
      "latitude": "29.929242055879268",
      "longitude": "-90.10135723808631"
    }
  },
  {
    "service_request": "2024-1142809",
    "request_type": "Property Maintenance",
    "request_reason": "Property Maintenance",
    "date_created": "2024-10-21T15:21:02.000",
    "date_modified": "2024-10-21T15:21:02.000",
    "request_status": "Pending",
    "responsible_agency": "Department of Code Enforcement",
    "final_address": "1820 General Pershing St",
    "address_councildis": "B",
    "status": "Pending",
    "rowid": "1142809",
    "final_x": "3671099.31572",
    "final_y": "521816.01177",
    "longitude": "-90.10124150076255",
    "latitude": "29.92912456618847",
    "geocoded_column": {
      "latitude": "29.92912456618847",
      "longitude": "-90.10124150076255"
    }
  },
  {
    "service_request": "2024-1142808",
    "request_type": "Trash/Recycling",
    "request_reason": "Return Trash Cart",
    "date_created": "2024-10-21T15:19:54.000",
    "date_modified": "2024-10-21T15:19:55.000",
    "request_status": "Pending",
    "responsible_agency": "Department of Sanitation",
    "final_address": "47 Versailles Blvd",
    "address_councildis": "A",
    "status": "Assigned to Contractor",
    "contractor": "IV Waste",
    "rowid": "1142808",
    "final_x": "3667559.09505",
    "final_y": "529785.679297",
    "longitude": "-90.11214919803243",
    "latitude": "29.951142784001696",
    "geocoded_column": {
      "latitude": "29.951142784001696",
      "longitude": "-90.11214919803243"
    }
  },
  {
    "service_request": "2024-1142807",
    "request_type": "Abandoned Vehicles",
    "request_reason": "Abandoned/Junk Vehicles",
    "date_created": "2024-10-21T15:19:03.000",
    "date_modified": "2024-10-21T15:19:04.000",
    "request_status": "Pending",
    "responsible_agency": "Department of Public Works",
    "final_address": "1300 BLK Tennessee St",
    "address_councildis": "E",
    "status": "Pending",
    "rowid": "1142807",
    "final_x": "3695994.31434",
    "final_y": "535441.116569",
    "longitude": "-90.02216105347324",
    "latitude": "29.965829326710395",
    "geocoded_column": {
      "latitude": "29.965829326710395",
      "longitude": "-90.02216105347324"
    }
  },
  {
    "service_request": "2024-1142806",
    "request_type": "Drainage",
    "request_reason": "Drainage Manhole Cover Missing or Damaged",
    "date_created": "2024-10-21T15:18:08.000",
    "date_modified": "2024-10-21T15:18:09.000",
    "request_status": "Pending",
    "responsible_agency": "Department of Public Works",
    "final_address": "EUTERPE ST & RELIGIOUS ST & TCHOUPITOULAS ST",
    "address_councildis": "B",
    "status": "Pending",
    "rowid": "1142806",
    "final_x": "3682124.92",
    "final_y": "523750.54",
    "longitude": "-90.06636831592479",
    "latitude": "29.934113286117253",
    "geocoded_column": {
      "latitude": "29.934113286117253",
      "longitude": "-90.06636831592479"
    }
  },
  {
    "service_request": "2024-1142805",
    "request_type": "Trash/Recycling",
    "request_reason": "Request a Large Item Pick Up",
    "date_created": "2024-10-21T14:57:17.000",
    "date_modified": "2024-10-21T14:57:18.000",
    "request_status": "Pending",
    "responsible_agency": "Department of Sanitation",
    "final_address": "1715 N Dorgenois St",
    "address_councildis": "D",
    "status": "Assigned to Contractor",
    "contractor": "IV Waste",
    "rowid": "1142805",
    "final_x": "3680050.89263",
    "final_y": "540530.086091",
    "longitude": "-90.07233297986018",
    "latitude": "29.98031425041185",
    "geocoded_column": {
      "latitude": "29.98031425041185",
      "longitude": "-90.07233297986018"
    }
  },
  {
    "service_request": "2024-1142804",
    "request_type": "Trash/Recycling",
    "request_reason": "Missed Trash Pick-Up",
    "date_created": "2024-10-21T14:55:40.000",
    "date_modified": "2024-10-21T14:55:41.000",
    "request_status": "Pending",
    "responsible_agency": "Department of Sanitation",
    "final_address": "1515 Tricou St",
    "address_councildis": "E",
    "status": "Assigned to Contractor",
    "contractor": "Waste Pro",
    "rowid": "1142804",
    "final_x": "3700798.99325",
    "final_y": "534587.465989",
    "longitude": "-90.00701934214872",
    "latitude": "29.963330045185128",
    "geocoded_column": {
      "latitude": "29.963330045185128",
      "longitude": "-90.00701934214872"
    }
  },
  {
    "service_request": "2024-1142803",
    "request_type": "Traffic Signals",
    "request_reason": "Traffic Signal Malfunctioning or Damaged",
    "date_created": "2024-10-21T14:54:46.000",
    "date_modified": "2024-10-21T14:57:27.000",
    "request_status": "Pending",
    "responsible_agency": "Department of Public Works",
    "final_address": "FORSTALL ST & N CLAIBORNE AVE",
    "address_councildis": "E",
    "status": "Pending",
    "rowid": "1142803",
    "final_x": "3696772.1",
    "final_y": "536056.08",
    "longitude": "-90.01968258100904",
    "latitude": "29.967495761797704",
    "geocoded_column": {
      "latitude": "29.967495761797704",
      "longitude": "-90.01968258100904"
    }
  },
  {
    "service_request": "2024-1142802",
    "request_type": "Parks & Parkways",
    "request_reason": "Request Tree Service (Right of Way/Public Property)",
    "date_created": "2024-10-21T14:54:23.000",
    "date_modified": "2024-10-21T14:54:24.000",
    "request_status": "Pending",
    "responsible_agency": "Department of Parks & Parkway",
    "final_address": "1715 Valence St",
    "address_councildis": "B",
    "status": "Pending",
    "rowid": "1142802",
    "final_x": "3669741.76014",
    "final_y": "521250.864505",
    "longitude": "-90.1055461686181",
    "latitude": "29.92761066006341",
    "geocoded_column": {
      "latitude": "29.92761066006341",
      "longitude": "-90.1055461686181"
    }
  },
  {
    "service_request": "2024-1142801",
    "request_type": "Trash/Recycling",
    "request_reason": "Request a Large Item Pick Up",
    "date_created": "2024-10-21T14:52:54.000",
    "date_modified": "2024-10-21T14:52:55.000",
    "request_status": "Pending",
    "responsible_agency": "Department of Sanitation",
    "final_address": "2711 N Dorgenois St",
    "address_councildis": "D",
    "status": "Assigned to Contractor",
    "contractor": "IV Waste",
    "rowid": "1142801",
    "final_x": "3687260.49839",
    "final_y": "541699.01934",
    "longitude": "-90.04952066861114",
    "latitude": "29.983308270359824",
    "geocoded_column": {
      "latitude": "29.983308270359824",
      "longitude": "-90.04952066861114"
    }
  },
  {
    "service_request": "2024-1142800",
    "request_type": "Trash/Recycling",
    "request_reason": "Replace Trash Cart",
    "date_created": "2024-10-21T14:52:21.000",
    "date_modified": "2024-10-21T14:52:22.000",
    "request_status": "Pending",
    "responsible_agency": "Department of Sanitation",
    "final_address": "2134 St Nick Dr",
    "address_councildis": "C",
    "status": "Assigned to Contractor",
    "contractor": "Richards Disposal",
    "rowid": "1142800",
    "final_x": "3699994.91191",
    "final_y": "523149.902331",
    "longitude": "-90.00997566504245",
    "latitude": "29.931906337941886",
    "geocoded_column": {
      "latitude": "29.931906337941886",
      "longitude": "-90.00997566504245"
    }
  },
  {
    "service_request": "2024-1142799",
    "request_type": "Roads and Streets",
    "request_reason": "Abandoned Service Cut",
    "date_created": "2024-10-21T14:48:54.000",
    "date_modified": "2024-10-21T14:48:55.000",
    "request_status": "Pending",
    "responsible_agency": "Department of Public Works",
    "final_address": "ERATO ST & S DORGENOIS ST",
    "address_councildis": "B",
    "status": "Pending",
    "rowid": "1142799",
    "final_x": "3672698.7",
    "final_y": "530355.28",
    "longitude": "-90.09590142971246",
    "latitude": "29.952557382473103",
    "geocoded_column": {
      "latitude": "29.952557382473103",
      "longitude": "-90.09590142971246"
    }
  },
  {
    "service_request": "2024-1142798",
    "request_type": "Trash/Recycling",
    "request_reason": "Request a Large Item Pick Up",
    "date_created": "2024-10-21T14:48:07.000",
    "date_modified": "2024-10-21T14:48:08.000",
    "request_status": "Pending",
    "responsible_agency": "Department of Sanitation",
    "final_address": "7828 Lady Gray St",
    "address_councildis": "E",
    "status": "Assigned to Contractor",
    "contractor": "Waste Pro",
    "rowid": "1142798",
    "final_x": "3709398.87749",
    "final_y": "566133.504611",
    "longitude": "-89.97868441123539",
    "latitude": "30.049793019961196",
    "geocoded_column": {
      "latitude": "30.049793019961196",
      "longitude": "-89.97868441123539"
    }
  },
  {
    "service_request": "2024-1142797",
    "request_type": "Trash/Recycling",
    "request_reason": "Request a Large Item Pick Up",
    "date_created": "2024-10-21T14:44:11.000",
    "date_modified": "2024-10-21T14:44:12.000",
    "request_status": "Pending",
    "responsible_agency": "Department of Sanitation",
    "final_address": "4623 S Prieur St",
    "address_councildis": "B",
    "status": "Assigned to Contractor",
    "contractor": "IV Waste",
    "rowid": "1142797",
    "final_x": "3669312.64743",
    "final_y": "526848.243582",
    "longitude": "-90.10671162465505",
    "latitude": "29.943014289101228",
    "geocoded_column": {
      "latitude": "29.943014289101228",
      "longitude": "-90.10671162465505"
    }
  },
  {
    "service_request": "2024-1142796",
    "request_type": "Trash/Recycling",
    "request_reason": "Return Recycling Cart",
    "date_created": "2024-10-21T14:43:07.000",
    "date_modified": "2024-10-21T14:43:08.000",
    "request_status": "Pending",
    "responsible_agency": "Department of Sanitation",
    "final_address": "1437 Audubon St",
    "address_councildis": "A",
    "status": "Pending",
    "rowid": "1142796",
    "final_x": "3665010.1328",
    "final_y": "527132.702719",
    "longitude": "-90.12028626702897",
    "latitude": "29.943922404576615",
    "geocoded_column": {
      "latitude": "29.943922404576615",
      "longitude": "-90.12028626702897"
    }
  },
  {
    "service_request": "2024-1142795",
    "request_type": "Streetlights",
    "request_reason": "Streetlight Outage/Malfunction",
    "date_created": "2024-10-21T14:42:56.000",
    "date_modified": "2024-10-21T14:42:58.000",
    "request_status": "Pending",
    "responsible_agency": "Department of Public Works",
    "final_address": "FLORIDA AVE & TUPELO ST",
    "address_councildis": "E",
    "status": "Pending",
    "contractor": "Legacy Professional Services",
    "rowid": "1142795",
    "final_x": "3701750.0",
    "final_y": "539049.88",
    "longitude": "-90.0038526885194",
    "latitude": "29.975569766549825",
    "geocoded_column": {
      "latitude": "29.975569766549825",
      "longitude": "-90.0038526885194"
    }
  },
  {
    "service_request": "2024-1142794",
    "request_type": "Abandoned Vehicles",
    "request_reason": "Abandoned/Junk Vehicles",
    "date_created": "2024-10-21T14:41:41.000",
    "date_modified": "2024-10-21T14:43:00.000",
    "request_status": "Pending",
    "responsible_agency": "Department of Public Works",
    "final_address": "3200 BLK Laurel St",
    "address_councildis": "B",
    "status": "Pending",
    "rowid": "1142794",
    "final_x": "3675789.39084",
    "final_y": "519164.07268",
    "longitude": "-90.08652692273049",
    "latitude": "29.921693088353567",
    "geocoded_column": {
      "latitude": "29.921693088353567",
      "longitude": "-90.08652692273049"
    }
  },
  {
    "service_request": "2024-1142793",
    "request_type": "Trash/Recycling",
    "request_reason": "Request a Large Item Pick Up",
    "date_created": "2024-10-21T14:41:29.000",
    "date_modified": "2024-10-21T14:41:30.000",
    "request_status": "Pending",
    "responsible_agency": "Department of Sanitation",
    "final_address": "1527 Mandeville St",
    "address_councildis": "C",
    "status": "Assigned to Contractor",
    "contractor": "IV Waste",
    "rowid": "1142793",
    "final_x": "3685671.97007",
    "final_y": "538065.227209",
    "longitude": "-90.05466613618654",
    "latitude": "29.973365462342976",
    "geocoded_column": {
      "latitude": "29.973365462342976",
      "longitude": "-90.05466613618654"
    }
  },
  {
    "service_request": "2024-1142792",
    "request_type": "Abandoned Vehicles",
    "request_reason": "Abandoned/Junk Vehicles",
    "date_created": "2024-10-21T14:39:01.000",
    "date_modified": "2024-10-21T14:39:02.000",
    "request_status": "Pending",
    "responsible_agency": "Department of Public Works",
    "final_address": "1539 Mandeville St",
    "address_councildis": "C",
    "status": "Pending",
    "rowid": "1142792",
    "final_x": "3685665.37686",
    "final_y": "538176.157961",
    "longitude": "-90.05468304937095",
    "latitude": "29.973670685430438",
    "geocoded_column": {
      "latitude": "29.973670685430438",
      "longitude": "-90.05468304937095"
    }
  },
  {
    "service_request": "2024-1142791",
    "request_type": "Streetlights",
    "request_reason": "Streetlight Outage/Malfunction",
    "date_created": "2024-10-21T14:36:38.000",
    "date_modified": "2024-10-21T14:36:39.000",
    "request_status": "Pending",
    "responsible_agency": "Department of Public Works",
    "final_address": "5123 Basinview Dr",
    "address_councildis": "E",
    "status": "Pending",
    "contractor": "Legacy Professional Services",
    "rowid": "1142791",
    "final_x": "3698635.5688",
    "final_y": "556250.93737",
    "longitude": "-90.01306290464957",
    "latitude": "30.02296527846098",
    "geocoded_column": {
      "latitude": "30.02296527846098",
      "longitude": "-90.01306290464957"
    }
  },
  {
    "service_request": "2024-1142790",
    "request_type": "Parks & Parkways",
    "request_reason": "Request Tree Service (Right of Way/Public Property)",
    "date_created": "2024-10-21T14:34:39.000",
    "date_modified": "2024-10-21T14:34:40.000",
    "request_status": "Pending",
    "responsible_agency": "Department of Parks & Parkway",
    "final_address": "6953 Foch Rd",
    "address_councildis": "D",
    "status": "Pending",
    "rowid": "1142790",
    "final_x": "3696634.02416",
    "final_y": "556727.26217",
    "longitude": "-90.01937004448108",
    "latitude": "30.02433825172862",
    "geocoded_column": {
      "latitude": "30.02433825172862",
      "longitude": "-90.01937004448108"
    }
  },
  {
    "service_request": "2024-1142789",
    "request_type": "Trash/Recycling",
    "request_reason": "Repair Trash Cart",
    "date_created": "2024-10-21T14:33:52.000",
    "date_modified": "2024-10-21T14:33:54.000",
    "request_status": "Pending",
    "responsible_agency": "Department of Sanitation",
    "final_address": "3411 River Oaks Dr",
    "address_councildis": "C",
    "status": "Assigned to Contractor",
    "contractor": "Richards Disposal",
    "rowid": "1142789",
    "final_x": "3701357.44855",
    "final_y": "518593.297271",
    "longitude": "-90.00584096238529",
    "latitude": "29.919333906414387",
    "geocoded_column": {
      "latitude": "29.919333906414387",
      "longitude": "-90.00584096238529"
    }
  },
  {
    "service_request": "2024-1142788",
    "request_type": "Property Maintenance",
    "request_reason": "Property Maintenance",
    "date_created": "2024-10-21T14:33:44.000",
    "date_modified": "2024-10-21T14:45:25.000",
    "case_close_date": "2024-10-21T09:45:25.000",
    "request_status": "Closed",
    "responsible_agency": "Department of Code Enforcement",
    "final_address": "13626 Dwyer Blvd",
    "address_councildis": "E",
    "status": "Referred to Code Enforcement",
    "rowid": "1142788",
    "final_x": "3726612.3767",
    "final_y": "562112.468767",
    "longitude": "-89.92443606219479",
    "latitude": "30.038166052770492",
    "geocoded_column": {
      "latitude": "30.038166052770492",
      "longitude": "-89.92443606219479"
    }
  },
  {
    "service_request": "2024-1142787",
    "request_type": "Trash/Recycling",
    "request_reason": "Request a Large Item Pick Up",
    "date_created": "2024-10-21T14:29:04.000",
    "date_modified": "2024-10-21T14:30:45.000",
    "request_status": "Pending",
    "responsible_agency": "Department of Sanitation",
    "final_address": "1001 State St",
    "address_councildis": "A",
    "status": "Assigned to Contractor",
    "contractor": "IV Waste",
    "rowid": "1142787",
    "final_x": "3664988.90093",
    "final_y": "519878.57484",
    "longitude": "-90.12059570668087",
    "latitude": "29.923976474182123",
    "geocoded_column": {
      "latitude": "29.923976474182123",
      "longitude": "-90.12059570668087"
    }
  },
  {
    "service_request": "2024-1142786",
    "request_type": "Trash/Recycling",
    "request_reason": "Request a Large Item Pick Up",
    "date_created": "2024-10-21T14:25:42.000",
    "date_modified": "2024-10-21T14:25:43.000",
    "request_status": "Pending",
    "responsible_agency": "Department of Sanitation",
    "final_address": "6565 Dwyer Rd",
    "address_councildis": "E",
    "status": "Assigned to Contractor",
    "contractor": "Waste Pro",
    "rowid": "1142786",
    "final_x": "3698914.84848",
    "final_y": "555557.320281",
    "longitude": "-90.01220571822392",
    "latitude": "30.021049244867218",
    "geocoded_column": {
      "latitude": "30.021049244867218",
      "longitude": "-90.01220571822392"
    }
  },
  {
    "service_request": "2024-1142785",
    "request_type": "Trash/Recycling",
    "request_reason": "Replace Trash Cart",
    "date_created": "2024-10-21T14:23:30.000",
    "date_modified": "2024-10-21T14:23:31.000",
    "request_status": "Pending",
    "responsible_agency": "Department of Sanitation",
    "final_address": "1818 Franklin Ave",
    "address_councildis": "D",
    "status": "Assigned to Contractor",
    "contractor": "IV Waste",
    "rowid": "1142785",
    "final_x": "3687621.72643",
    "final_y": "539271.042954",
    "longitude": "-90.04846571826678",
    "latitude": "29.976621061059923",
    "geocoded_column": {
      "latitude": "29.976621061059923",
      "longitude": "-90.04846571826678"
    }
  },
  {
    "service_request": "2024-1142784",
    "request_type": "Trash/Recycling",
    "request_reason": "Request a Large Item Pick Up",
    "date_created": "2024-10-21T14:23:28.000",
    "date_modified": "2024-10-21T14:23:30.000",
    "request_status": "Pending",
    "responsible_agency": "Department of Sanitation",
    "final_address": "8419 Beechwood Ct",
    "address_councildis": "E",
    "status": "Assigned to Contractor",
    "contractor": "Waste Pro",
    "rowid": "1142784",
    "final_x": "3704155.51671",
    "final_y": "560668.513054",
    "longitude": "-89.99545826237454",
    "latitude": "30.03493585494704",
    "geocoded_column": {
      "latitude": "30.03493585494704",
      "longitude": "-89.99545826237454"
    }
  },
  {
    "service_request": "2024-1142783",
    "request_type": "Trash/Recycling",
    "request_reason": "Illegal Dumping",
    "date_created": "2024-10-21T14:21:48.000",
    "date_modified": "2024-10-21T14:21:48.000",
    "request_status": "Pending",
    "responsible_agency": "Department of Sanitation",
    "final_address": "TRICOU ST & FLORIDA AVE",
    "address_councildis": "E",
    "status": "Pending",
    "rowid": "1142783",
    "final_x": "3702447.4",
    "final_y": "538769.98",
    "longitude": "-90.0016603970043",
    "latitude": "29.974777875887675",
    "geocoded_column": {
      "latitude": "29.974777875887675",
      "longitude": "-90.0016603970043"
    }
  },
  {
    "service_request": "2024-1142782",
    "request_type": "Trash/Recycling",
    "request_reason": "Missed Trash Pick-Up",
    "date_created": "2024-10-21T14:20:30.000",
    "date_modified": "2024-10-21T14:22:36.000",
    "request_status": "Pending",
    "responsible_agency": "Department of Sanitation",
    "final_address": "6110 E Muirfield Cir",
    "address_councildis": "E",
    "status": "Assigned to Contractor",
    "contractor": "Waste Pro",
    "rowid": "1142782",
    "final_x": "3718728.67813",
    "final_y": "566486.388003",
    "longitude": "-89.949183294494",
    "latitude": "30.05045672117778",
    "geocoded_column": {
      "latitude": "30.05045672117778",
      "longitude": "-89.949183294494"
    }
  },
  {
    "service_request": "2024-1142781",
    "request_type": "Trash/Recycling",
    "request_reason": "Replace Recycling Cart",
    "date_created": "2024-10-21T14:17:12.000",
    "date_modified": "2024-10-21T14:17:13.000",
    "request_status": "Pending",
    "responsible_agency": "Department of Sanitation",
    "final_address": "3723 DHemecourt St",
    "address_councildis": "B",
    "status": "Pending",
    "rowid": "1142781",
    "final_x": "3671012.44155",
    "final_y": "535999.306951",
    "longitude": "-90.10103422299287",
    "latitude": "29.96812654604858",
    "geocoded_column": {
      "latitude": "29.96812654604858",
      "longitude": "-90.10103422299287"
    }
  },
  {
    "service_request": "2024-1142780",
    "request_type": "Streetlights",
    "request_reason": "Streetlight Outage/Malfunction",
    "date_created": "2024-10-21T14:17:07.000",
    "date_modified": "2024-10-21T14:18:09.000",
    "request_status": "Pending",
    "responsible_agency": "Department of Public Works",
    "final_address": "3181 Potomac St",
    "address_councildis": "C",
    "status": "Pending",
    "contractor": "Legacy Professional Services",
    "rowid": "1142780",
    "final_x": "3694332.21251",
    "final_y": "517999.183798",
    "longitude": "-90.02803735234588",
    "latitude": "29.91792221962188",
    "geocoded_column": {
      "latitude": "29.91792221962188",
      "longitude": "-90.02803735234588"
    }
  },
  {
    "service_request": "2024-1142779",
    "request_type": "General Services",
    "request_reason": "General Service Request",
    "date_created": "2024-10-21T14:13:50.000",
    "date_modified": "2024-10-21T14:20:51.000",
    "case_close_date": "2024-10-21T09:20:51.000",
    "request_status": "Closed",
    "responsible_agency": "Orleans Parish Communication District",
    "final_address": "3903 Camp St",
    "address_councildis": "B",
    "status": "Referred to External Agency",
    "rowid": "1142779",
    "final_x": "3672976.09889",
    "final_y": "519395.552311",
    "longitude": "-90.09539940022034",
    "latitude": "29.92241345628003",
    "geocoded_column": {
      "latitude": "29.92241345628003",
      "longitude": "-90.09539940022034"
    }
  },
  {
    "service_request": "2024-1142778",
    "request_type": "Traffic Signals",
    "request_reason": "Traffic Signal Malfunctioning or Damaged",
    "date_created": "2024-10-21T14:12:32.000",
    "date_modified": "2024-10-21T14:12:33.000",
    "request_status": "Pending",
    "responsible_agency": "Department of Public Works",
    "final_address": "CANAL ST & S BROAD ST & N BROAD ST",
    "address_councildis": "B",
    "status": "Pending",
    "rowid": "1142778",
    "final_x": "3675348.3",
    "final_y": "535171.68",
    "longitude": "-90.08736981491973",
    "latitude": "29.965721922519283",
    "geocoded_column": {
      "latitude": "29.965721922519283",
      "longitude": "-90.08736981491973"
    }
  },
  {
    "service_request": "2024-1142777",
    "request_type": "Roads and Streets",
    "request_reason": "Pothole",
    "date_created": "2024-10-21T14:10:25.000",
    "date_modified": "2024-10-21T14:10:54.000",
    "case_close_date": "2024-10-21T09:10:54.000",
    "request_status": "Closed",
    "responsible_agency": "Department of Public Works",
    "final_address": "1100 BLK S Telemachus St",
    "address_councildis": "B",
    "status": "Resolved",
    "rowid": "1142777",
    "final_x": "3669358.76",
    "final_y": "533042.151551",
    "longitude": "-90.10635663123861",
    "latitude": "29.960044149645572",
    "geocoded_column": {
      "latitude": "29.960044149645572",
      "longitude": "-90.10635663123861"
    }
  },
  {
    "service_request": "2024-1142776",
    "request_type": "Street and Traffic Signs",
    "request_reason": "Traffic or Parking Sign Damaged or Missing",
    "date_created": "2024-10-21T14:09:26.000",
    "date_modified": "2024-10-21T14:09:26.000",
    "request_status": "Pending",
    "responsible_agency": "Department of Public Works",
    "final_address": "6800 BLK Freret St",
    "address_councildis": "A",
    "status": "Pending",
    "rowid": "1142776",
    "final_x": "3664576.22757",
    "final_y": "525371.176079",
    "longitude": "-90.12171503957471",
    "latitude": "29.93909139352969",
    "geocoded_column": {
      "latitude": "29.93909139352969",
      "longitude": "-90.12171503957471"
    }
  },
  {
    "service_request": "2024-1142775",
    "request_type": "Trash/Recycling",
    "request_reason": "Request a Large Item Pick Up",
    "date_created": "2024-10-21T14:08:58.000",
    "date_modified": "2024-10-21T14:09:00.000",
    "request_status": "Pending",
    "responsible_agency": "Department of Sanitation",
    "final_address": "7100 W Laverne St",
    "address_councildis": "D",
    "status": "Assigned to Contractor",
    "contractor": "Waste Pro",
    "rowid": "1142775",
    "final_x": "3695801.63491",
    "final_y": "556648.60745",
    "longitude": "-90.02200307519941",
    "latitude": "30.024148200635857",
    "geocoded_column": {
      "latitude": "30.024148200635857",
      "longitude": "-90.02200307519941"
    }
  },
  {
    "service_request": "2024-1142774",
    "request_type": "Trash/Recycling",
    "request_reason": "Request a Large Item Pick Up",
    "date_created": "2024-10-21T14:06:07.000",
    "date_modified": "2024-10-21T14:06:08.000",
    "request_status": "Pending",
    "responsible_agency": "Department of Sanitation",
    "final_address": "4420 San Marco Rd",
    "address_councildis": "E",
    "status": "Assigned to Contractor",
    "contractor": "Waste Pro",
    "rowid": "1142774",
    "final_x": "3762399.14761",
    "final_y": "572841.416681",
    "longitude": "-89.81089327755419",
    "latitude": "30.066407325789843",
    "geocoded_column": {
      "latitude": "30.066407325789843",
      "longitude": "-89.81089327755419"
    }
  },
  {
    "service_request": "2024-1142773",
    "request_type": "Trash/Recycling",
    "request_reason": "Repair Trash Cart",
    "date_created": "2024-10-21T14:05:15.000",
    "date_modified": "2024-10-21T14:05:16.000",
    "request_status": "Pending",
    "responsible_agency": "Department of Sanitation",
    "final_address": "4430 San Marco Rd",
    "address_councildis": "E",
    "status": "Assigned to Contractor",
    "contractor": "Waste Pro",
    "rowid": "1142773",
    "final_x": "3762402.92784",
    "final_y": "572914.649065",
    "longitude": "-89.81087825215171",
    "latitude": "30.06660854294502",
    "geocoded_column": {
      "latitude": "30.06660854294502",
      "longitude": "-89.81087825215171"
    }
  },
  {
    "service_request": "2024-1142772",
    "request_type": "Trash/Recycling",
    "request_reason": "Missed Trash Pick-Up",
    "date_created": "2024-10-21T14:04:06.000",
    "date_modified": "2024-10-21T14:04:38.000",
    "request_status": "Pending",
    "responsible_agency": "Department of Sanitation",
    "final_address": "4430 San Marco Rd",
    "address_councildis": "E",
    "status": "Assigned to Contractor",
    "contractor": "Waste Pro",
    "rowid": "1142772",
    "final_x": "3762402.92784",
    "final_y": "572914.649065",
    "longitude": "-89.81087825215171",
    "latitude": "30.06660854294502",
    "geocoded_column": {
      "latitude": "30.06660854294502",
      "longitude": "-89.81087825215171"
    }
  },
  {
    "service_request": "2024-1142771",
    "request_type": "Trash/Recycling",
    "request_reason": "Request a Large Item Pick Up",
    "date_created": "2024-10-21T14:04:03.000",
    "date_modified": "2024-10-21T14:04:28.000",
    "request_status": "Pending",
    "responsible_agency": "Department of Sanitation",
    "final_address": "7900 Vanderkloot Ave",
    "address_councildis": "E",
    "status": "Assigned to Contractor",
    "contractor": "Waste Pro",
    "rowid": "1142771",
    "final_x": "3705408.94718",
    "final_y": "563870.539809",
    "longitude": "-89.99137875220627",
    "latitude": "30.04369986418594",
    "geocoded_column": {
      "latitude": "30.04369986418594",
      "longitude": "-89.99137875220627"
    }
  },
  {
    "service_request": "2024-1142770",
    "request_type": "Roads and Streets",
    "request_reason": "Pothole",
    "date_created": "2024-10-21T14:01:43.000",
    "date_modified": "2024-10-21T14:02:54.000",
    "case_close_date": "2024-10-21T09:02:54.000",
    "request_status": "Pending",
    "responsible_agency": "Department of Public Works",
    "final_address": "4900 BLK Clio St",
    "address_councildis": "B",
    "status": "Pending",
    "rowid": "1142770",
    "final_x": "3669207.53294",
    "final_y": "532936.094349",
    "longitude": "-90.10683775982868",
    "latitude": "29.95975697921906",
    "geocoded_column": {
      "latitude": "29.95975697921906",
      "longitude": "-90.10683775982868"
    }
  },
  {
    "service_request": "2024-1142769",
    "request_type": "Roads and Streets",
    "request_reason": "Curb Damage",
    "date_created": "2024-10-21T14:01:37.000",
    "date_modified": "2024-10-21T14:02:05.000",
    "request_status": "Pending",
    "responsible_agency": "Department of Public Works",
    "final_address": "S MIRO ST & CALHOUN ST",
    "address_councildis": "A",
    "status": "Pending",
    "rowid": "1142769",
    "final_x": "3667144.4",
    "final_y": "528172.58",
    "longitude": "-90.1135128254576",
    "latitude": "29.946719430851918",
    "geocoded_column": {
      "latitude": "29.946719430851918",
      "longitude": "-90.1135128254576"
    }
  },
  {
    "service_request": "2024-1142768",
    "request_type": "Streetlights",
    "request_reason": "Streetlight Outage/Malfunction",
    "date_created": "2024-10-21T14:01:26.000",
    "date_modified": "2024-10-21T14:01:57.000",
    "request_status": "Pending",
    "responsible_agency": "Department of Public Works",
    "final_address": "1812 Palmer Ave",
    "address_councildis": "A",
    "status": "Pending",
    "contractor": "Legacy Professional Services",
    "rowid": "1142768",
    "final_x": "3665497.5248",
    "final_y": "523805.729019",
    "longitude": "-90.11885876442678",
    "latitude": "29.934760094419577",
    "geocoded_column": {
      "latitude": "29.934760094419577",
      "longitude": "-90.11885876442678"
    }
  },
  {
    "service_request": "2024-1142767",
    "request_type": "Drainage",
    "request_reason": "Drainage Manhole Cover Missing or Damaged",
    "date_created": "2024-10-21T13:58:02.000",
    "date_modified": "2024-10-21T13:58:52.000",
    "request_status": "Pending",
    "responsible_agency": "Department of Public Works",
    "final_address": "1806 Palmer Ave",
    "address_councildis": "A",
    "status": "Pending",
    "rowid": "1142767",
    "final_x": "3665472.28493",
    "final_y": "523735.156603",
    "longitude": "-90.11894080787121",
    "latitude": "29.934566778288115",
    "geocoded_column": {
      "latitude": "29.934566778288115",
      "longitude": "-90.11894080787121"
    }
  },
  {
    "service_request": "2024-1142766",
    "request_type": "Trash/Recycling",
    "request_reason": "Request a Large Item Pick Up",
    "date_created": "2024-10-21T13:48:10.000",
    "date_modified": "2024-10-21T13:48:11.000",
    "request_status": "Pending",
    "responsible_agency": "Department of Sanitation",
    "final_address": "7531 Pebble Dr",
    "address_councildis": "E",
    "status": "Assigned to Contractor",
    "contractor": "Waste Pro",
    "rowid": "1142766",
    "final_x": "3715540.61656",
    "final_y": "568535.393061",
    "longitude": "-89.95918185160555",
    "latitude": "30.056196149312207",
    "geocoded_column": {
      "latitude": "30.056196149312207",
      "longitude": "-89.95918185160555"
    }
  },
  {
    "service_request": "2024-1142765",
    "request_type": "Drainage",
    "request_reason": "Catch Basin Clogged",
    "date_created": "2024-10-21T13:47:26.000",
    "date_modified": "2024-10-21T13:47:26.000",
    "request_status": "Pending",
    "responsible_agency": "Department of Public Works",
    "final_address": "2726 Esplanade Ave",
    "address_councildis": "A",
    "status": "Pending",
    "rowid": "1142765",
    "final_x": "3677491.75112",
    "final_y": "539345.054474",
    "longitude": "-90.08045676622199",
    "latitude": "29.977133013609713",
    "geocoded_column": {
      "latitude": "29.977133013609713",
      "longitude": "-90.08045676622199"
    }
  },
  {
    "service_request": "2024-1142764",
    "request_type": "Trash/Recycling",
    "request_reason": "Request a Large Item Pick Up",
    "date_created": "2024-10-21T13:46:51.000",
    "date_modified": "2024-10-21T13:47:21.000",
    "request_status": "Pending",
    "responsible_agency": "Department of Sanitation",
    "final_address": "7815 Leake Ave",
    "address_councildis": "A",
    "status": "Assigned to Contractor",
    "contractor": "IV Waste",
    "rowid": "1142764",
    "final_x": "3660631.99808",
    "final_y": "525453.954045",
    "longitude": "-90.13416478239003",
    "latitude": "29.939433096748854",
    "geocoded_column": {
      "latitude": "29.939433096748854",
      "longitude": "-90.13416478239003"
    }
  },
  {
    "service_request": "2024-1142763",
    "request_type": "Trash/Recycling",
    "request_reason": "Request a Large Item Pick Up",
    "date_created": "2024-10-21T13:44:41.000",
    "date_modified": "2024-10-21T13:45:18.000",
    "request_status": "Pending",
    "responsible_agency": "Department of Sanitation",
    "final_address": "4650 Bonita Dr",
    "address_councildis": "E",
    "status": "Assigned to Contractor",
    "contractor": "Waste Pro",
    "rowid": "1142763",
    "final_x": "3704480.65207",
    "final_y": "554727.502744",
    "longitude": "-89.99465013392593",
    "latitude": "30.018589941489612",
    "geocoded_column": {
      "latitude": "30.018589941489612",
      "longitude": "-89.99465013392593"
    }
  },
  {
    "service_request": "2024-1142762",
    "request_type": "Trash/Recycling",
    "request_reason": "Replace Recycling Cart",
    "date_created": "2024-10-21T13:42:20.000",
    "date_modified": "2024-10-21T13:42:20.000",
    "request_status": "Pending",
    "responsible_agency": "Department of Sanitation",
    "final_address": "4416 Painters St",
    "address_councildis": "D",
    "status": "Pending",
    "rowid": "1142762",
    "final_x": "3686254.20118",
    "final_y": "549057.717139",
    "longitude": "-90.05243925124354",
    "latitude": "30.003573016030437",
    "geocoded_column": {
      "latitude": "30.003573016030437",
      "longitude": "-90.05243925124354"
    }
  },
  {
    "service_request": "2024-1142761",
    "request_type": "Roads and Streets",
    "request_reason": "Push-up/Pavement Expansion",
    "date_created": "2024-10-21T13:40:00.000",
    "date_modified": "2024-10-21T13:41:21.000",
    "request_status": "Pending",
    "responsible_agency": "Department of Public Works",
    "final_address": "8000 Sandy Cove Dr",
    "address_councildis": "E",
    "status": "Pending",
    "rowid": "1142761",
    "final_x": "3714799.50232",
    "final_y": "570327.183975",
    "longitude": "-89.96145655337071",
    "latitude": "30.06114725299139",
    "geocoded_column": {
      "latitude": "30.06114725299139",
      "longitude": "-89.96145655337071"
    }
  },
  {
    "service_request": "2024-1142760",
    "request_type": "Trash/Recycling",
    "request_reason": "Illegal Dumping",
    "date_created": "2024-10-21T13:38:11.000",
    "date_modified": "2024-10-21T13:42:51.000",
    "request_status": "Pending",
    "responsible_agency": "Department of Sanitation",
    "final_address": "7500 BLK Avalon Way",
    "address_councildis": "E",
    "status": "Pending",
    "rowid": "1142760",
    "final_x": "3709170.66331",
    "final_y": "564331.854063",
    "longitude": "-89.9794729851561",
    "latitude": "30.04484662143618",
    "geocoded_column": {
      "latitude": "30.04484662143618",
      "longitude": "-89.9794729851561"
    }
  },
  {
    "service_request": "2024-1142759",
    "request_type": "Roads and Streets",
    "request_reason": "Debris in Driving Lanes",
    "date_created": "2024-10-21T13:36:49.000",
    "date_modified": "2024-10-21T13:37:29.000",
    "request_status": "Pending",
    "responsible_agency": "Department of Public Works",
    "final_address": "S HENNESSEY ST & PALMYRA ST",
    "address_councildis": "A",
    "status": "Pending",
    "rowid": "1142759",
    "final_x": "3669810.5",
    "final_y": "538314.88",
    "longitude": "-90.10475160537544",
    "latitude": "29.974529083062198",
    "geocoded_column": {
      "latitude": "29.974529083062198",
      "longitude": "-90.10475160537544"
    }
  },
  {
    "service_request": "2024-1142758",
    "request_type": "Trash/Recycling",
    "request_reason": "Illegal Dumping",
    "date_created": "2024-10-21T13:35:04.000",
    "date_modified": "2024-10-21T13:38:41.000",
    "request_status": "Pending",
    "responsible_agency": "Department of Sanitation",
    "final_address": "1804 Lamanche St",
    "address_councildis": "E",
    "status": "Pending",
    "rowid": "1142758",
    "final_x": "3699004.52919",
    "final_y": "536384.624839",
    "longitude": "-90.01262061013102",
    "latitude": "29.968328579510775",
    "geocoded_column": {
      "latitude": "29.968328579510775",
      "longitude": "-90.01262061013102"
    }
  },