[
  {
    "service_request": "2022-902455",
    "request_type": "Property Maintenance",
    "request_reason": "Property Maintenance",
    "date_created": "2022-07-22T01:52:44.000",
    "date_modified": "2022-07-22T01:52:44.000",
    "request_status": "Pending",
    "responsible_agency": "Department of Code Enforcement",
    "final_address": "5936 Dover Pl",
    "address_councildis": "C",
    "status": "Pending",
    "rowid": "902455",
    "final_x": "3705786.2147",
    "final_y": "519177.085879",
    "longitude": "-89.9918401216447",
    "latitude": "29.92079729789274",
    "geocoded_column": {
      "latitude": "29.92079729789274",
      "longitude": "-89.9918401216447"
    }
  },
  {
    "service_request": "2022-902454",
    "request_type": "Trash/Recycling",
    "request_reason": "Repair Trash Cart",
    "date_created": "2022-07-22T01:19:01.000",
    "date_modified": "2022-07-22T01:19:01.000",
    "request_status": "Pending",
    "responsible_agency": "Department of Sanitation",
    "final_address": "7321 Wayside Dr",
    "address_councildis": "E",
    "status": "Assigned to Contractor",
    "contractor": "Metro Disposal",
    "rowid": "902454",
    "final_x": "3717057.00664",
    "final_y": "568743.770277",
    "longitude": "-89.95438093247596",
    "latitude": "30.05671901077548",
    "geocoded_column": {
      "latitude": "30.05671901077548",
      "longitude": "-89.95438093247596"
    }
  },
  {
    "service_request": "2022-902453",
    "request_type": "Health Related Questions",
    "request_reason": "Noise Ordinance Complaint",
    "date_created": "2022-07-21T23:16:13.000",
    "date_modified": "2022-07-21T23:16:13.000",
    "request_status": "Pending",
    "responsible_agency": "Health Department",
    "final_address": "5723 Eads St. NOLA 70122",
    "status": "Pending",
    "rowid": "902453",
    "longitude": "0.0",
    "latitude": "0.0",
    "geocoded_column": {
      "latitude": "0.0",
      "longitude": "0.0"
    }
  },
  {
    "service_request": "2022-902452",
    "request_type": "Trash/Recycling",
    "request_reason": "Replace Trash Cart",
    "date_created": "2022-07-21T21:46:54.000",
    "date_modified": "2022-07-21T21:46:55.000",
    "request_status": "Pending",
    "responsible_agency": "Department of Sanitation",
    "final_address": "4432 Fields St",
    "address_councildis": "C",
    "status": "Assigned to Contractor",
    "contractor": "Richards Disposal",
    "rowid": "902452",
    "final_x": "3707598.54782",
    "final_y": "514570.444019",
    "longitude": "-89.9862904093771",
    "latitude": "29.908072162789903",
    "geocoded_column": {
      "latitude": "29.908072162789903",
      "longitude": "-89.9862904093771"
    }
  },
  {
    "service_request": "2022-902451",
    "request_type": "Roads/Drainage",
    "request_reason": "Debris in Roadway",
    "date_created": "2022-07-21T21:24:45.000",
    "date_modified": "2022-07-21T21:24:45.000",
    "request_status": "Pending",
    "responsible_agency": "Department of Public Works",
    "status": "Pending",
    "rowid": "902451",
    "longitude": "0.0",
    "latitude": "0.0",
    "geocoded_column": {
      "latitude": "0.0",
      "longitude": "0.0"
    }
  },
  {
    "service_request": "2022-902450",
    "request_type": "Trash/Recycling",
    "request_reason": "Replace Trash Cart",
    "date_created": "2022-07-21T20:55:02.000",
    "date_modified": "2022-07-21T20:55:03.000",
    "request_status": "Pending",
    "responsible_agency": "Department of Sanitation",
    "final_address": "1009 Marengo St",
    "address_councildis": "B",
    "status": "Assigned to Contractor",
    "contractor": "Richards Disposal",
    "rowid": "902450",
    "final_x": "3672166.29089",
    "final_y": "519384.302071",
    "longitude": "-90.09795602314999",
    "latitude": "29.92240655362659",
    "geocoded_column": {
      "latitude": "29.92240655362659",
      "longitude": "-90.09795602314999"
    }
  },
  {
    "service_request": "2022-902449",
    "request_type": "Trash/Recycling",
    "request_reason": "Request a Large Item Pick Up",
    "date_created": "2022-07-21T20:43:12.000",
    "date_modified": "2022-07-21T20:43:13.000",
    "request_status": "Pending",
    "responsible_agency": "Department of Sanitation",
    "final_address": "4623 Annunciation St, New Orleans, Louisiana, 70115",
    "address_councildis": "B",
    "status": "Assigned to Contractor",
    "contractor": "Richards Disposal",
    "rowid": "902449",
    "final_x": "3670201.34164",
    "final_y": "517692.369526",
    "longitude": "-90.10421587447257",
    "latitude": "29.91781238048853",
    "geocoded_column": {
      "latitude": "29.91781238048853",
      "longitude": "-90.10421587447257"
    }
  },
  {
    "service_request": "2022-902448",
    "request_type": "Roads/Drainage",
    "request_reason": "Damaged Sidewalk",
    "date_created": "2022-07-21T20:20:40.000",
    "date_modified": "2022-07-21T20:20:40.000",
    "request_status": "Pending",
    "responsible_agency": "Department of Public Works",
    "final_address": "5962 Patton St",
    "address_councildis": "A",
    "status": "Pending",
    "rowid": "902448",
    "final_x": "3664571.90612",
    "final_y": "518460.43295",
    "longitude": "-90.1219593421222",
    "latitude": "29.920089156530686",
    "geocoded_column": {
      "latitude": "29.920089156530686",
      "longitude": "-90.1219593421222"
    }
  },
  {
    "service_request": "2022-902447",
    "request_type": "Traffic Signals/Signs/Striping/Streetlights",
    "request_reason": "Street Light Outage/Malfunction",
    "date_created": "2022-07-21T20:09:00.000",
    "date_modified": "2022-07-21T20:09:00.000",
    "request_status": "Pending",
    "responsible_agency": "Department of Public Works",
    "final_address": "2400 Bedford Dr",
    "address_councildis": "C",
    "status": "Pending",
    "contractor": "Royal Engineering",
    "rowid": "902447",
    "final_x": "3705461.20427",
    "final_y": "522170.54361",
    "longitude": "-89.99275547427945",
    "latitude": "29.929038722393376",
    "geocoded_column": {
      "latitude": "29.929038722393376",
      "longitude": "-89.99275547427945"
    }
  },
  {
    "service_request": "2022-902446",
    "request_type": "Property Maintenance",
    "request_reason": "Property Maintenance",
    "date_created": "2022-07-21T19:59:08.000",
    "date_modified": "2022-07-21T19:59:08.000",
    "request_status": "Pending",
    "responsible_agency": "Department of Code Enforcement",
    "final_address": "2602 Flood St",
    "address_councildis": "E",
    "status": "Pending",
    "rowid": "902446",
    "final_x": "3699208.32842",
    "final_y": "539541.969674",
    "longitude": "-90.01186201332513",
    "latitude": "29.977003677639832",
    "geocoded_column": {
      "latitude": "29.977003677639832",
      "longitude": "-90.01186201332513"
    }
  },
  {
    "service_request": "2022-902445",
    "request_type": "Property Maintenance",
    "request_reason": "Property Maintenance",
    "date_created": "2022-07-21T19:58:05.000",
    "date_modified": "2022-07-21T19:58:05.000",
    "request_status": "Pending",
    "responsible_agency": "Department of Code Enforcement",
    "final_address": "2602 Flood St",
    "address_councildis": "E",
    "status": "Pending",
    "rowid": "902445",
    "final_x": "3699208.32842",
    "final_y": "539541.969674",
    "longitude": "-90.01186201332513",
    "latitude": "29.977003677639832",
    "geocoded_column": {
      "latitude": "29.977003677639832",
      "longitude": "-90.01186201332513"
    }
  },
  {
    "service_request": "2022-902444",
    "request_type": "Property Maintenance",
    "request_reason": "Property Maintenance",
    "date_created": "2022-07-21T19:56:35.000",
    "date_modified": "2022-07-21T19:56:35.000",
    "request_status": "Pending",
    "responsible_agency": "Department of Code Enforcement",
    "final_address": "5429 Law St",
    "address_councildis": "E",
    "status": "Pending",
    "rowid": "902444",
    "final_x": "3698977.69693",
    "final_y": "539568.418122",
    "longitude": "-90.01258945420898",
    "latitude": "29.977083712838866",
    "geocoded_column": {
      "latitude": "29.977083712838866",
      "longitude": "-90.01258945420898"
    }
  },
  {
    "service_request": "2022-902443",
    "request_type": "Property Maintenance",
    "request_reason": "Property Maintenance",
    "date_created": "2022-07-21T19:55:03.000",
    "date_modified": "2022-07-21T19:55:03.000",
    "request_status": "Pending",
    "responsible_agency": "Department of Code Enforcement",
    "final_address": "5433 Law St",
    "address_councildis": "E",
    "status": "Pending",
    "rowid": "902443",
    "final_x": "3699026.06992",
    "final_y": "539555.805706",
    "longitude": "-90.01243713681218",
    "latitude": "29.977047500064092",
    "geocoded_column": {
      "latitude": "29.977047500064092",
      "longitude": "-90.01243713681218"
    }
  },
  {
    "service_request": "2022-902442",
    "request_type": "Property Maintenance",
    "request_reason": "Property Maintenance",
    "date_created": "2022-07-21T19:53:57.000",
    "date_modified": "2022-07-21T19:53:57.000",
    "request_status": "Pending",
    "responsible_agency": "Department of Code Enforcement",
    "final_address": "5433 Law St",
    "address_councildis": "E",
    "status": "Pending",
    "rowid": "902442",
    "final_x": "3699026.06992",
    "final_y": "539555.805706",
    "longitude": "-90.01243713681218",
    "latitude": "29.977047500064092",
    "geocoded_column": {
      "latitude": "29.977047500064092",
      "longitude": "-90.01243713681218"
    }
  },
  {
    "service_request": "2022-902441",
    "request_type": "Property Maintenance",
    "request_reason": "Property Maintenance",
    "date_created": "2022-07-21T19:53:07.000",
    "date_modified": "2022-07-21T19:53:07.000",
    "request_status": "Pending",
    "responsible_agency": "Department of Code Enforcement",
    "final_address": "5439 Law St",
    "address_councildis": "E",
    "status": "Pending",
    "rowid": "902441",
    "final_x": "3699055.74135",
    "final_y": "539542.89569",
    "longitude": "-90.01234389552451",
    "latitude": "29.977011061664104",
    "geocoded_column": {
      "latitude": "29.977011061664104",
      "longitude": "-90.01234389552451"
    }
  },
  {
    "service_request": "2022-902440",
    "request_type": "Trash/Recycling",
    "request_reason": "Repair Trash Cart",
    "date_created": "2022-07-21T19:51:53.000",
    "date_modified": "2022-07-21T19:51:54.000",
    "request_status": "Pending",
    "responsible_agency": "Department of Sanitation",
    "status": "Assigned to Contractor",
    "rowid": "902440",
    "longitude": "0.0",
    "latitude": "0.0",
    "geocoded_column": {
      "latitude": "0.0",
      "longitude": "0.0"
    }
  },
  {
    "service_request": "2022-902439",
    "request_type": "Property Maintenance",
    "request_reason": "Property Maintenance",
    "date_created": "2022-07-21T19:51:35.000",
    "date_modified": "2022-07-21T19:51:35.000",
    "request_status": "Pending",
    "responsible_agency": "Department of Code Enforcement",
    "final_address": "5439 Law St",
    "address_councildis": "E",
    "status": "Pending",
    "rowid": "902439",
    "final_x": "3699055.74135",
    "final_y": "539542.89569",
    "longitude": "-90.01234389552451",
    "latitude": "29.977011061664104",
    "geocoded_column": {
      "latitude": "29.977011061664104",
      "longitude": "-90.01234389552451"
    }
  },
  {
    "service_request": "2022-902438",
    "request_type": "Health Related Questions",
    "request_reason": "Noise Ordinance Complaint",
    "date_created": "2022-07-21T19:47:46.000",
    "date_modified": "2022-07-21T19:47:46.000",
    "request_status": "Pending",
    "responsible_agency": "Health Department",
    "final_address": "316 Chartres St, New Orleans, Louisiana, 70130",
    "address_councildis": "C",
    "status": "Pending",
    "rowid": "902438",
    "final_x": "3682048.77532",
    "final_y": "531162.123394",
    "longitude": "-90.06634998337161",
    "latitude": "29.954494970034958",
    "geocoded_column": {
      "latitude": "29.954494970034958",
      "longitude": "-90.06634998337161"
    }
  },
  {
    "service_request": "2022-902437",
    "request_type": "Trash/Recycling",
    "request_reason": "Missed Trash Pick-Up",
    "date_created": "2022-07-21T19:40:16.000",
    "date_modified": "2022-07-21T19:40:17.000",
    "request_status": "Pending",
    "responsible_agency": "Department of Sanitation",
    "final_address": "4017 Camp St",
    "address_councildis": "B",
    "status": "Assigned to Contractor",
    "contractor": "Richards Disposal",
    "rowid": "902437",
    "final_x": "3672329.80276",
    "final_y": "519328.723063",
    "longitude": "-90.09744177389936",
    "latitude": "29.922248880712925",
    "geocoded_column": {
      "latitude": "29.922248880712925",
      "longitude": "-90.09744177389936"
    }
  },
  {
    "service_request": "2022-902436",
    "request_type": "Trash/Recycling",
    "request_reason": "Replace Trash Cart",
    "date_created": "2022-07-21T19:36:18.000",
    "date_modified": "2022-07-21T19:36:19.000",
    "request_status": "Pending",
    "responsible_agency": "Department of Sanitation",
    "final_address": "4017 Camp St",
    "address_councildis": "B",
    "status": "Assigned to Contractor",
    "contractor": "Richards Disposal",
    "rowid": "902436",
    "final_x": "3672329.80276",
    "final_y": "519328.723063",
    "longitude": "-90.09744177389936",
    "latitude": "29.922248880712925",
    "geocoded_column": {
      "latitude": "29.922248880712925",
      "longitude": "-90.09744177389936"
    }
  },
  {
    "service_request": "2022-902435",
    "request_type": "Abandoned Vehicles",
    "request_reason": "Abandoned/Junk Vehicles",
    "date_created": "2022-07-21T19:17:11.000",
    "date_modified": "2022-07-21T19:17:11.000",
    "request_status": "Pending",
    "responsible_agency": "Department of Public Works",
    "final_address": "923 Elysian Fields Ave",
    "address_councildis": "C",
    "status": "Pending",
    "rowid": "902435",
    "final_x": "3685131.75957",
    "final_y": "535777.128967",
    "longitude": "-90.05645275573457",
    "latitude": "29.967090552894422",
    "geocoded_column": {
      "latitude": "29.967090552894422",
      "longitude": "-90.05645275573457"
    }
  },
  {
    "service_request": "2022-902434",
    "request_type": "Property Maintenance",
    "request_reason": "Property Maintenance",
    "date_created": "2022-07-21T19:02:18.000",
    "date_modified": "2022-07-21T19:02:18.000",
    "request_status": "Pending",
    "responsible_agency": "Department of Code Enforcement",
    "final_address": "6880 Parc Brittany Blvd",
    "address_councildis": "E",
    "status": "Pending",
    "rowid": "902434",
    "final_x": "3702661.06884",
    "final_y": "557779.036635",
    "longitude": "-90.00028714562029",
    "latitude": "30.02703881139196",
    "geocoded_column": {
      "latitude": "30.02703881139196",
      "longitude": "-90.00028714562029"
    }
  },
  {
    "service_request": "2022-902433",
    "request_type": "Traffic Signals/Signs/Striping/Streetlights",
    "request_reason": "Street Light Outage/Malfunction",
    "date_created": "2022-07-21T18:56:37.000",
    "date_modified": "2022-07-21T18:56:38.000",
    "request_status": "Pending",
    "responsible_agency": "Department of Public Works",
    "final_address": "320 N Anthony St",
    "address_councildis": "A",
    "status": "Pending",
    "contractor": "Royal Engineering",
    "rowid": "902433",
    "final_x": "3669188.62631",
    "final_y": "541089.573644",
    "longitude": "-90.10662182250883",
    "latitude": "29.98217687245772",
    "geocoded_column": {
      "latitude": "29.98217687245772",
      "longitude": "-90.10662182250883"
    }
  },
  {
    "service_request": "2022-902432",
    "request_type": "Abandoned Vehicles",
    "request_reason": "Abandoned/Junk Vehicles",
    "date_created": "2022-07-21T18:48:10.000",
    "date_modified": "2022-07-21T18:48:10.000",
    "request_status": "Pending",
    "responsible_agency": "Department of Public Works",
    "final_address": "2613 Chippewa St",
    "address_councildis": "B",
    "status": "Pending",
    "rowid": "902432",
    "final_x": "3678267.31016",
    "final_y": "519889.789496",
    "longitude": "-90.07868010980728",
    "latitude": "29.92361420328351",
    "geocoded_column": {
      "latitude": "29.92361420328351",
      "longitude": "-90.07868010980728"
    }
  },
  {
    "service_request": "2022-902431",
    "request_type": "Trash/Recycling",
    "request_reason": "Request a Large Item Pick Up",
    "date_created": "2022-07-21T18:43:55.000",
    "date_modified": "2022-07-21T18:43:56.000",
    "request_status": "Pending",
    "responsible_agency": "Department of Sanitation",
    "final_address": "2930 Banks St",
    "address_councildis": "B",
    "status": "Assigned to Contractor",
    "contractor": "Richards Disposal",
    "rowid": "902431",
    "final_x": "3673634.63054",
    "final_y": "534802.977478",
    "longitude": "-90.09279413538277",
    "latitude": "29.964759240743557",
    "geocoded_column": {
      "latitude": "29.964759240743557",
      "longitude": "-90.09279413538277"
    }
  },
  {
    "service_request": "2022-902430",
    "request_type": "Traffic Signals/Signs/Striping/Streetlights",
    "request_reason": "Traffic Sign Missing/Damaged",
    "date_created": "2022-07-21T18:30:47.000",
    "date_modified": "2022-07-21T18:32:51.000",
    "request_status": "Pending",
    "responsible_agency": "Department of Public Works",
    "final_address": "New Orleans,LA",
    "address_councildis": "C",
    "rowid": "902430",
    "final_x": "3695671.1",
    "final_y": "526379.08",
    "longitude": "-90.02350887942234",
    "latitude": "29.940922066787923",
    "geocoded_column": {
      "latitude": "29.940922066787923",
      "longitude": "-90.02350887942234"
    }
  },
  {
    "service_request": "2022-902429",
    "request_type": "Trash/Recycling",
    "request_reason": "Replace Trash Cart",
    "date_created": "2022-07-21T18:25:22.000",
    "date_modified": "2022-07-21T18:25:22.000",
    "request_status": "Pending",
    "responsible_agency": "Department of Sanitation",
    "final_address": "8422 Pritchard Pl, New Orleans, Louisiana, 70118",
    "address_councildis": "A",
    "status": "Assigned to Contractor",
    "contractor": "Richards Disposal",
    "rowid": "902429",
    "final_x": "3665096.33261",
    "final_y": "533713.202181",
    "longitude": "-90.11979406962979",
    "latitude": "29.962014132016293",
    "geocoded_column": {
      "latitude": "29.962014132016293",
      "longitude": "-90.11979406962979"
    }
  },
  {
    "service_request": "2022-902428",
    "request_type": "Traffic Signals/Signs/Striping/Streetlights",
    "request_reason": "Street Light Outage/Malfunction",
    "date_created": "2022-07-21T18:17:48.000",
    "date_modified": "2022-07-21T18:17:49.000",
    "request_status": "Pending",
    "responsible_agency": "Department of Public Works",
    "final_address": "4352 Werner Dr",
    "address_councildis": "E",
    "status": "Pending",
    "contractor": "Royal Engineering",
    "rowid": "902428",
    "final_x": "3704888.70705",
    "final_y": "553251.350871",
    "longitude": "-89.99341537920262",
    "latitude": "30.01451797638024",
    "geocoded_column": {
      "latitude": "30.01451797638024",
      "longitude": "-89.99341537920262"
    }
  },
  {
    "service_request": "2022-902427",
    "request_type": "Property Maintenance",
    "request_reason": "Property Maintenance",
    "date_created": "2022-07-21T18:17:17.000",
    "date_modified": "2022-07-21T18:17:17.000",
    "request_status": "Pending",
    "responsible_agency": "Department of Code Enforcement",
    "final_address": "8127 Chef Menteur Hwy",
    "address_councildis": "E",
    "status": "Pending",
    "rowid": "902427",
    "final_x": "3705576.38782",
    "final_y": "553070.855447",
    "longitude": "-89.99124934330409",
    "latitude": "30.01399955395828",
    "geocoded_column": {
      "latitude": "30.01399955395828",
      "longitude": "-89.99124934330409"
    }
  },
  {
    "service_request": "2022-902426",
    "request_type": "Roads/Drainage",
    "request_reason": "Leaking Hydrant",
    "date_created": "2022-07-21T18:11:42.000",
    "date_modified": "2022-07-21T18:23:08.000",
    "request_status": "Pending",
    "responsible_agency": "Department of Public Works",
    "final_address": "New Orleans,LA",
    "address_councildis": "E",
    "rowid": "902426",
    "final_x": "3711053.61509",
    "final_y": "559620.834333",
    "longitude": "-89.97369870305306",
    "latitude": "30.03183189111467",
    "geocoded_column": {
      "latitude": "30.03183189111467",
      "longitude": "-89.97369870305306"
    }
  },
  {
    "service_request": "2022-902425",
    "request_type": "Roads/Drainage",
    "request_reason": "Pothole",
    "date_created": "2022-07-21T18:11:20.000",
    "date_modified": "2022-07-21T18:21:18.000",
    "request_status": "Pending",
    "responsible_agency": "Department of Public Works",
    "final_address": "New Orleans,LA",
    "address_councildis": "E",
    "rowid": "902425",
    "final_x": "3702502.5",
    "final_y": "556568.19",
    "longitude": "-90.00083269889926",
    "latitude": "30.023714521944257",
    "geocoded_column": {
      "latitude": "30.023714521944257",
      "longitude": "-90.00083269889926"
    }
  },
  {
    "service_request": "2022-902423",
    "request_type": "Trash/Recycling",
    "request_reason": "MIssed Recycling Pick-Up",
    "date_created": "2022-07-21T18:06:56.000",
    "date_modified": "2022-07-21T18:06:57.000",
    "request_status": "Pending",
    "responsible_agency": "Department of Sanitation",
    "final_address": "2205 Valmont St",
    "address_councildis": "B",
    "status": "Assigned to Contractor",
    "contractor": "Richards Disposal",
    "rowid": "902423",
    "final_x": "3668244.38061",
    "final_y": "523649.721275",
    "longitude": "-90.11019221378436",
    "latitude": "29.93425078360176",
    "geocoded_column": {
      "latitude": "29.93425078360176",
      "longitude": "-90.11019221378436"
    }
  },
  {
    "service_request": "2022-902422",
    "request_type": "Trash/Recycling",
    "request_reason": "Missed Trash Pick-Up",
    "date_created": "2022-07-21T17:59:24.000",
    "date_modified": "2022-07-21T17:59:25.000",
    "request_status": "Pending",
    "responsible_agency": "Department of Sanitation",
    "final_address": "7819 Willow St",
    "address_councildis": "A",
    "status": "Assigned to Contractor",
    "contractor": "Richards Disposal",
    "rowid": "902422",
    "final_x": "3663160.19021",
    "final_y": "528286.958976",
    "longitude": "-90.12608867394457",
    "latitude": "29.947149960746582",
    "geocoded_column": {
      "latitude": "29.947149960746582",
      "longitude": "-90.12608867394457"
    }
  },
  {
    "service_request": "2022-902421",
    "request_type": "Trash/Recycling",
    "request_reason": "Replace Trash Cart",
    "date_created": "2022-07-21T17:49:22.000",
    "date_modified": "2022-07-21T17:49:23.000",
    "request_status": "Pending",
    "responsible_agency": "Department of Sanitation",
    "final_address": "1843 W Homestead Dr",
    "address_councildis": "C",
    "status": "Assigned to Contractor",
    "contractor": "Richards Disposal",
    "rowid": "902421",
    "final_x": "3696862.07248",
    "final_y": "525056.259197",
    "longitude": "-90.01979666276912",
    "latitude": "29.937247279196416",
    "geocoded_column": {
      "latitude": "29.937247279196416",
      "longitude": "-90.01979666276912"
    }
  },
  {
    "service_request": "2022-902420",
    "request_type": "Trash/Recycling",
    "request_reason": "Request a Large Item Pick Up",
    "date_created": "2022-07-21T17:48:21.000",
    "date_modified": "2022-07-21T17:48:22.000",
    "request_status": "Pending",
    "responsible_agency": "Department of Sanitation",
    "final_address": "2120 Annunciation St",
    "address_councildis": "B",
    "status": "Assigned to Contractor",
    "contractor": "Richards Disposal",
    "rowid": "902420",
    "final_x": "3679717.10184",
    "final_y": "521325.479289",
    "longitude": "-90.07405384642104",
    "latitude": "29.92751815164053",
    "geocoded_column": {
      "latitude": "29.92751815164053",
      "longitude": "-90.07405384642104"
    }
  },
  {
    "service_request": "2022-902419",
    "request_type": "Trash/Recycling",
    "request_reason": "MIssed Recycling Pick-Up",
    "date_created": "2022-07-21T17:44:08.000",
    "date_modified": "2022-07-21T17:44:09.000",
    "request_status": "Pending",
    "responsible_agency": "Department of Sanitation",
    "final_address": "1525 Dufossat St",
    "address_councildis": "B",
    "status": "Assigned to Contractor",
    "contractor": "Richards Disposal",
    "rowid": "902419",
    "final_x": "3668161.69364",
    "final_y": "520678.110521",
    "longitude": "-90.11055336688219",
    "latitude": "29.926082227758133",
    "geocoded_column": {
      "latitude": "29.926082227758133",
      "longitude": "-90.11055336688219"
    }
  },
  {
    "service_request": "2022-902418",
    "request_type": "Property Maintenance",
    "request_reason": "Property Maintenance",
    "date_created": "2022-07-21T17:38:29.000",
    "date_modified": "2022-07-21T17:38:29.000",
    "request_status": "Pending",
    "responsible_agency": "Department of Code Enforcement",
    "final_address": "5501 Edenboro Rd",
    "address_councildis": "E",
    "status": "Pending",
    "rowid": "902418",
    "final_x": "3708222.78052",
    "final_y": "558086.456859",
    "longitude": "-89.98270137350146",
    "latitude": "30.027705012642564",
    "geocoded_column": {
      "latitude": "30.027705012642564",
      "longitude": "-89.98270137350146"
    }
  },
  {
    "service_request": "2022-902417",
    "request_type": "Trash/Recycling",
    "request_reason": "Missed Trash Pick-Up",
    "date_created": "2022-07-21T17:37:06.000",
    "date_modified": "2022-07-21T17:37:07.000",
    "request_status": "Pending",
    "responsible_agency": "Department of Sanitation",
    "final_address": "3411 Burgundy St",
    "address_councildis": "C",
    "status": "Assigned to Contractor",
    "contractor": "Metro Disposal",
    "rowid": "902417",
    "final_x": "3690094.85161",
    "final_y": "534920.566598",
    "longitude": "-90.04080984255931",
    "latitude": "29.96458229846882",
    "geocoded_column": {
      "latitude": "29.96458229846882",
      "longitude": "-90.04080984255931"
    }
  },
  {
    "service_request": "2022-902416",
    "request_type": "Trash/Recycling",
    "request_reason": "Missed Trash Pick-Up",
    "date_created": "2022-07-21T17:31:43.000",
    "date_modified": "2022-07-21T17:31:43.000",
    "request_status": "Pending",
    "responsible_agency": "Department of Sanitation",
    "final_address": "3139 N Tonti St",
    "address_councildis": "D",
    "status": "Assigned to Contractor",
    "contractor": "Metro Disposal",
    "rowid": "902416",
    "final_x": "3690502.10364",
    "final_y": "540537.982667",
    "longitude": "-90.03932344206156",
    "latitude": "29.980015570404852",
    "geocoded_column": {
      "latitude": "29.980015570404852",
      "longitude": "-90.03932344206156"
    }
  },
  {
    "service_request": "2022-902415",
    "request_type": "Trash/Recycling",
    "request_reason": "Missed Trash Pick-Up",
    "date_created": "2022-07-21T17:31:05.000",
    "date_modified": "2022-07-21T17:31:06.000",
    "request_status": "Pending",
    "responsible_agency": "Department of Sanitation",
    "final_address": "131 Millaudon St",
    "address_councildis": "A",
    "status": "Assigned to Contractor",
    "contractor": "Richards Disposal",
    "rowid": "902415",
    "final_x": "3660857.76448",
    "final_y": "523432.896763",
    "longitude": "-90.13351881742025",
    "latitude": "29.93386932754744",
    "geocoded_column": {
      "latitude": "29.93386932754744",
      "longitude": "-90.13351881742025"
    }
  },
  {
    "service_request": "2022-902414",
    "request_type": "Trash/Recycling",
    "request_reason": "Missed Trash Pick-Up",
    "date_created": "2022-07-21T17:27:12.000",
    "date_modified": "2022-07-21T17:27:13.000",
    "request_status": "Pending",
    "responsible_agency": "Department of Sanitation",
    "final_address": "7521 Plum St",
    "address_councildis": "A",
    "status": "Assigned to Contractor",
    "contractor": "Richards Disposal",
    "rowid": "902414",
    "final_x": "3663747.3737",
    "final_y": "527283.072383",
    "longitude": "-90.12426815192168",
    "latitude": "29.944372570832396",
    "geocoded_column": {
      "latitude": "29.944372570832396",
      "longitude": "-90.12426815192168"
    }
  },
  {
    "service_request": "2022-902413",
    "request_type": "Trash/Recycling",
    "request_reason": "Request a Large Item Pick Up",
    "date_created": "2022-07-21T17:26:50.000",
    "date_modified": "2022-07-21T17:26:51.000",
    "request_status": "Pending",
    "responsible_agency": "Department of Sanitation",
    "status": "Assigned to Contractor",
    "rowid": "902413",
    "longitude": "0.0",
    "latitude": "0.0",
    "geocoded_column": {
      "latitude": "0.0",
      "longitude": "0.0"
    }
  },
  {
    "service_request": "2022-902412",
    "request_type": "Roads/Drainage",
    "request_reason": "Catch Basin - Clogged",
    "date_created": "2022-07-21T17:25:57.000",
    "date_modified": "2022-07-21T17:25:57.000",
    "request_status": "Pending",
    "responsible_agency": "Department of Public Works",
    "final_address": "4720 Painters St",
    "address_councildis": "D",
    "status": "Pending",
    "rowid": "902412",
    "final_x": "3686067.82652",
    "final_y": "550561.422676",
    "longitude": "-90.05297495639581",
    "latitude": "30.0077133874292",
    "geocoded_column": {
      "latitude": "30.0077133874292",
      "longitude": "-90.05297495639581"
    }
  },
  {
    "service_request": "2022-902411",
    "request_type": "Roads/Drainage",
    "request_reason": "Street Subsidence (Sinking)",
    "date_created": "2022-07-21T17:23:57.000",
    "date_modified": "2022-07-21T17:23:57.000",
    "request_status": "Pending",
    "responsible_agency": "Department of Public Works",
    "final_address": "1725 Agriculture St",
    "address_councildis": "D",
    "status": "Pending",
    "rowid": "902411",
    "final_x": "3680896.84194",
    "final_y": "543052.433549",
    "longitude": "-90.06957324847234",
    "latitude": "29.98722419819798",
    "geocoded_column": {
      "latitude": "29.98722419819798",
      "longitude": "-90.06957324847234"
    }
  },
  {
    "service_request": "2022-902410",
    "request_type": "Traffic Signals/Signs/Striping/Streetlights",
    "request_reason": "Street Light Knocked Down/Leaning",
    "date_created": "2022-07-21T17:18:53.000",
    "date_modified": "2022-07-21T17:18:54.000",
    "request_status": "Pending",
    "responsible_agency": "Department of Public Works",
    "final_address": "2100 N Broad St",
    "address_councildis": "D",
    "status": "Pending",
    "contractor": "Royal Engineering",
    "rowid": "902410",
    "final_x": "3680833.6109",
    "final_y": "542300.569485",
    "longitude": "-90.0697991607571",
    "latitude": "29.98515875309434",
    "geocoded_column": {
      "latitude": "29.98515875309434",
      "longitude": "-90.0697991607571"
    }
  },
  {
    "service_request": "2022-902409",
    "request_type": "Traffic Signals/Signs/Striping/Streetlights",
    "request_reason": "Street Light Outage/Malfunction",
    "date_created": "2022-07-21T17:16:07.000",
    "date_modified": "2022-07-21T17:16:07.000",
    "request_status": "Pending",
    "responsible_agency": "Department of Public Works",
    "final_address": "329 Delaronde St",
    "address_councildis": "C",
    "status": "Pending",
    "contractor": "Royal Engineering",
    "rowid": "902409",
    "final_x": "3686486.22498",
    "final_y": "530896.104386",
    "longitude": "-90.0523476774128",
    "latitude": "29.953627848147956",
    "geocoded_column": {
      "latitude": "29.953627848147956",
      "longitude": "-90.0523476774128"
    }
  },
  {
    "service_request": "2022-902408",
    "request_type": "Traffic Signals/Signs/Striping/Streetlights",
    "request_reason": "Street Light Knocked Down/Leaning",
    "date_created": "2022-07-21T17:15:44.000",
    "date_modified": "2022-07-21T17:15:45.000",
    "request_status": "Pending",
    "responsible_agency": "Department of Public Works",
    "final_address": "4220 Franklin Ave",
    "address_councildis": "D",
    "status": "Pending",
    "contractor": "Royal Engineering",
    "rowid": "902408",
    "final_x": "3686893.15894",
    "final_y": "548590.648275",
    "longitude": "-90.05043720537138",
    "latitude": "30.002269090796855",
    "geocoded_column": {
      "latitude": "30.002269090796855",
      "longitude": "-90.05043720537138"
    }
  },
  {
    "service_request": "2022-902407",
    "request_type": "Traffic Signals/Signs/Striping/Streetlights",
    "request_reason": "Street Light Knocked Down/Leaning",
    "date_created": "2022-07-21T17:13:46.000",
    "date_modified": "2022-07-21T17:13:47.000",
    "request_status": "Pending",
    "responsible_agency": "Department of Public Works",
    "final_address": "3701 Gentilly Blvd",
    "address_councildis": "D",
    "status": "Pending",
    "contractor": "Royal Engineering",
    "rowid": "902407",
    "final_x": "3687029.89314",
    "final_y": "548966.128531",
    "longitude": "-90.04999196129354",
    "latitude": "30.00329731516087",
    "geocoded_column": {
      "latitude": "30.00329731516087",
      "longitude": "-90.04999196129354"
    }
  },
  {
    "service_request": "2022-902406",
    "request_type": "Traffic Signals/Signs/Striping/Streetlights",
    "request_reason": "Street Light Knocked Down/Leaning",
    "date_created": "2022-07-21T17:10:07.000",
    "date_modified": "2022-07-21T17:10:09.000",
    "request_status": "Pending",
    "responsible_agency": "Department of Public Works",
    "final_address": "3814 Gentilly Blvd",
    "address_councildis": "D",
    "status": "Pending",
    "contractor": "Royal Engineering",
    "rowid": "902406",
    "final_x": "3687909.52105",
    "final_y": "548698.636051",
    "longitude": "-90.04722257440586",
    "latitude": "30.002534689767273",
    "geocoded_column": {
      "latitude": "30.002534689767273",
      "longitude": "-90.04722257440586"
    }
  },
  {
    "service_request": "2022-902405",
    "request_type": "Roads/Drainage",
    "request_reason": "Leaking Hydrant",
    "date_created": "2022-07-21T17:08:45.000",
    "date_modified": "2022-07-21T17:08:46.000",
    "request_status": "Pending",
    "responsible_agency": "Department of Public Works",
    "final_address": "LAKE FOREST BLVD & READ BLVD",
    "address_councildis": "E",
    "status": "Pending",
    "rowid": "902405",
    "final_x": "3711213.6",
    "final_y": "559998.28",
    "longitude": "-89.97317898837136",
    "latitude": "30.03286449618675",
    "geocoded_column": {
      "latitude": "30.03286449618675",
      "longitude": "-89.97317898837136"
    }
  },
  {
    "service_request": "2022-902404",
    "request_type": "Traffic Signals/Signs/Striping/Streetlights",
    "request_reason": "Street Light Knocked Down/Leaning",
    "date_created": "2022-07-21T17:08:14.000",
    "date_modified": "2022-07-21T17:08:15.000",
    "request_status": "Pending",
    "responsible_agency": "Department of Public Works",
    "final_address": "3601 Gentilly Blvd",
    "address_councildis": "D",
    "status": "Pending",
    "contractor": "Royal Engineering",
    "rowid": "902404",
    "final_x": "3686104.67804",
    "final_y": "548962.157139",
    "longitude": "-90.05291499150836",
    "latitude": "30.00331485573645",
    "geocoded_column": {
      "latitude": "30.00331485573645",
      "longitude": "-90.05291499150836"
    }
  },
  {
    "service_request": "2022-902403",
    "request_type": "Traffic Signals/Signs/Striping/Streetlights",
    "request_reason": "Street Light Knocked Down/Leaning",
    "date_created": "2022-07-21T17:06:40.000",
    "date_modified": "2022-07-21T17:06:41.000",
    "request_status": "Pending",
    "responsible_agency": "Department of Public Works",
    "final_address": "3431 Gentilly Blvd",
    "address_councildis": "D",
    "status": "Pending",
    "contractor": "Royal Engineering",
    "rowid": "902403",
    "final_x": "3685074.12239",
    "final_y": "548602.544147",
    "longitude": "-90.05618333198295",
    "latitude": "30.00235767433236",
    "geocoded_column": {
      "latitude": "30.00235767433236",
      "longitude": "-90.05618333198295"
    }
  },
  {
    "service_request": "2022-902402",
    "request_type": "Traffic Signals/Signs/Striping/Streetlights",
    "request_reason": "Street Light Knocked Down/Leaning",
    "date_created": "2022-07-21T17:04:48.000",
    "date_modified": "2022-07-21T17:04:49.000",
    "request_status": "Pending",
    "responsible_agency": "Department of Public Works",
    "final_address": "3344 Gentilly Blvd",
    "address_councildis": "D",
    "status": "Pending",
    "contractor": "Royal Engineering",
    "rowid": "902402",
    "final_x": "3684971.10217",
    "final_y": "548241.23253",
    "longitude": "-90.05652150393814",
    "latitude": "30.00136735460419",
    "geocoded_column": {
      "latitude": "30.00136735460419",
      "longitude": "-90.05652150393814"
    }
  },
  {
    "service_request": "2022-902401",
    "request_type": "Trash/Recycling",
    "request_reason": "Replace Recycling Cart",
    "date_created": "2022-07-21T17:03:57.000",
    "date_modified": "2022-07-21T17:03:57.000",
    "request_status": "Pending",
    "responsible_agency": "Department of Sanitation",
    "final_address": "4105 Constance St",
    "address_councildis": "B",
    "status": "Pending",
    "rowid": "902401",
    "final_x": "3672126.1979",
    "final_y": "518554.467895",
    "longitude": "-90.0981108185089",
    "latitude": "29.9201259626302",
    "geocoded_column": {
      "latitude": "29.9201259626302",
      "longitude": "-90.0981108185089"
    }
  },
  {
    "service_request": "2022-902400",
    "request_type": "Traffic Signals/Signs/Striping/Streetlights",
    "request_reason": "Street Light Knocked Down/Leaning",
    "date_created": "2022-07-21T17:02:40.000",
    "date_modified": "2022-07-21T17:02:41.000",
    "request_status": "Pending",
    "responsible_agency": "Department of Public Works",
    "final_address": "3254 Gentilly Blvd",
    "address_councildis": "D",
    "status": "Pending",
    "contractor": "Royal Engineering",
    "rowid": "902400",
    "final_x": "3684568.82684",
    "final_y": "547877.05717",
    "longitude": "-90.05780513337791",
    "latitude": "30.000378322744837",
    "geocoded_column": {
      "latitude": "30.000378322744837",
      "longitude": "-90.05780513337791"
    }
  },
  {
    "service_request": "2022-902399",
    "request_type": "Traffic Signals/Signs/Striping/Streetlights",
    "request_reason": "Street Light Knocked Down/Leaning",
    "date_created": "2022-07-21T16:59:40.000",
    "date_modified": "2022-07-21T16:59:40.000",
    "request_status": "Pending",
    "responsible_agency": "Department of Public Works",
    "final_address": "3223 Gentilly Blvd",
    "address_councildis": "D",
    "status": "Pending",
    "contractor": "Royal Engineering",
    "rowid": "902399",
    "final_x": "3684266.65269",
    "final_y": "547890.18869",
    "longitude": "-90.05875925694326",
    "latitude": "30.000423675346116",
    "geocoded_column": {
      "latitude": "30.000423675346116",
      "longitude": "-90.05875925694326"
    }
  },
  {
    "service_request": "2022-902398",
    "request_type": "Trash/Recycling",
    "request_reason": "Missed Trash Pick-Up",
    "date_created": "2022-07-21T16:58:04.000",
    "date_modified": "2022-07-21T16:58:05.000",
    "request_status": "Pending",
    "responsible_agency": "Department of Sanitation",
    "final_address": "1016 Martinique Aly",
    "address_councildis": "C",
    "status": "Assigned to Contractor",
    "contractor": "Metro Disposal",
    "rowid": "902398",
    "final_x": "3689313.16495",
    "final_y": "535601.312774",
    "longitude": "-90.04325414110532",
    "latitude": "29.966478334507368",
    "geocoded_column": {
      "latitude": "29.966478334507368",
      "longitude": "-90.04325414110532"
    }
  },
  {
    "service_request": "2022-902397",
    "request_type": "Property Maintenance",
    "request_reason": "Property Maintenance",
    "date_created": "2022-07-21T16:57:13.000",
    "date_modified": "2022-07-21T16:57:13.000",
    "request_status": "Pending",
    "responsible_agency": "Department of Code Enforcement",
    "final_address": "1128 Egania St",
    "address_councildis": "E",
    "status": "Pending",
    "rowid": "902397",
    "final_x": "3696838.04567",
    "final_y": "534363.887429",
    "longitude": "-90.01953559728621",
    "latitude": "29.962840755497357",
    "geocoded_column": {
      "latitude": "29.962840755497357",
      "longitude": "-90.01953559728621"
    }
  },
  {
    "service_request": "2022-902396",
    "request_type": "Roads/Drainage",
    "request_reason": "Pothole",
    "date_created": "2022-07-21T16:55:08.000",
    "date_modified": "2022-07-21T16:55:08.000",
    "request_status": "Pending",
    "responsible_agency": "Department of Public Works",
    "final_address": "4418 Painters St",
    "address_councildis": "D",
    "status": "Pending",
    "rowid": "902396",
    "final_x": "3686239.45794",
    "final_y": "549064.289875",
    "longitude": "-90.0524855953164",
    "latitude": "30.003591541830534",
    "geocoded_column": {
      "latitude": "30.003591541830534",
      "longitude": "-90.0524855953164"
    }
  },
  {
    "service_request": "2022-902395",
    "request_type": "Trash/Recycling",
    "request_reason": "Missed Trash Pick-Up",
    "date_created": "2022-07-21T16:54:49.000",
    "date_modified": "2022-07-21T16:54:50.000",
    "request_status": "Pending",
    "responsible_agency": "Department of Sanitation",
    "final_address": "1020 Pauline St",
    "address_councildis": "C",
    "status": "Assigned to Contractor",
    "contractor": "Metro Disposal",
    "rowid": "902395",
    "final_x": "3691117.51459",
    "final_y": "535195.48679",
    "longitude": "-90.03757054119713",
    "latitude": "29.965306473488177",
    "geocoded_column": {
      "latitude": "29.965306473488177",
      "longitude": "-90.03757054119713"
    }
  },
  {
    "service_request": "2022-902394",
    "request_type": "Property Maintenance",
    "request_reason": "Property Maintenance",
    "date_created": "2022-07-21T16:52:50.000",
    "date_modified": "2022-07-21T16:52:50.000",
    "request_status": "Pending",
    "responsible_agency": "Department of Code Enforcement",
    "final_address": "1130 Lizardi St",
    "address_councildis": "E",
    "status": "Pending",
    "rowid": "902394",
    "final_x": "3696574.76087",
    "final_y": "534420.793093",
    "longitude": "-90.02036495349465",
    "latitude": "29.963005523834752",
    "geocoded_column": {
      "latitude": "29.963005523834752",
      "longitude": "-90.02036495349465"
    }
  },
  {
    "service_request": "2022-902393",
    "request_type": "Property Maintenance",
    "request_reason": "Property Maintenance",
    "date_created": "2022-07-21T16:50:08.000",
    "date_modified": "2022-07-21T16:50:08.000",
    "request_status": "Pending",
    "responsible_agency": "Department of Code Enforcement",
    "final_address": "1218 Forstall St",
    "address_councildis": "E",
    "status": "Pending",
    "rowid": "902393",
    "final_x": "3696359.72151",
    "final_y": "534733.164486",
    "longitude": "-90.02103272055022",
    "latitude": "29.963871207842754",
    "geocoded_column": {
      "latitude": "29.963871207842754",
      "longitude": "-90.02103272055022"
    }
  },
  {
    "service_request": "2022-902392",
    "request_type": "Roads/Drainage",
    "request_reason": "Damaged Sidewalk",
    "date_created": "2022-07-21T16:47:23.000",
    "date_modified": "2022-07-21T16:47:23.000",
    "request_status": "Pending",
    "responsible_agency": "Department of Public Works",
    "final_address": "1208 Forstall St",
    "address_councildis": "E",
    "status": "Pending",
    "rowid": "902392",
    "final_x": "3696336.43127",
    "final_y": "534655.955846",
    "longitude": "-90.0211090607347",
    "latitude": "29.963659644900027",
    "geocoded_column": {
      "latitude": "29.963659644900027",
      "longitude": "-90.0211090607347"
    }
  },
  {
    "service_request": "2022-902391",
    "request_type": "Property Maintenance",
    "request_reason": "Property Maintenance",
    "date_created": "2022-07-21T16:42:16.000",
    "date_modified": "2022-07-21T16:42:17.000",
    "request_status": "Pending",
    "responsible_agency": "Department of Code Enforcement",
    "final_address": "2216 Onzaga St",
    "address_councildis": "D",
    "status": "Pending",
    "rowid": "902391",
    "final_x": "3680549.33563",
    "final_y": "539420.02849",
    "longitude": "-90.07079731644988",
    "latitude": "29.977246885382666",
    "geocoded_column": {
      "latitude": "29.977246885382666",
      "longitude": "-90.07079731644988"
    }
  },
  {
    "service_request": "2022-902390",
    "request_type": "Trash/Recycling",
    "request_reason": "Missed Trash Pick-Up",
    "date_created": "2022-07-21T16:41:46.000",
    "date_modified": "2022-07-21T16:41:47.000",
    "request_status": "Pending",
    "responsible_agency": "Department of Sanitation",
    "final_address": "4105 Constance St",
    "address_councildis": "B",
    "status": "Assigned to Contractor",
    "contractor": "Richards Disposal",
    "rowid": "902390",
    "final_x": "3672126.1979",
    "final_y": "518554.467895",
    "longitude": "-90.0981108185089",
    "latitude": "29.9201259626302",
    "geocoded_column": {
      "latitude": "29.9201259626302",
      "longitude": "-90.0981108185089"
    }
  },
  {
    "service_request": "2022-902389",
    "request_type": "Traffic Signals/Signs/Striping/Streetlights",
    "request_reason": "Street Light Outage/Malfunction",
    "date_created": "2022-07-21T16:41:20.000",
    "date_modified": "2022-07-21T16:41:21.000",
    "request_status": "Pending",
    "responsible_agency": "Department of Public Works",
    "final_address": "419 Seguin St",
    "address_councildis": "C",
    "status": "Pending",
    "contractor": "Royal Engineering",
    "rowid": "902389",
    "final_x": "3686268.87145",
    "final_y": "530105.985409",
    "longitude": "-90.05306186289025",
    "latitude": "29.951461970746035",
    "geocoded_column": {
      "latitude": "29.951461970746035",
      "longitude": "-90.05306186289025"
    }
  },
  {
    "service_request": "2022-902388",
    "request_type": "Traffic Signals/Signs/Striping/Streetlights",
    "request_reason": "Street Light Outage/Malfunction",
    "date_created": "2022-07-21T16:40:00.000",
    "date_modified": "2022-07-21T16:40:00.000",
    "request_status": "Pending",
    "responsible_agency": "Department of Public Works",
    "final_address": "419 Seguin St",
    "address_councildis": "C",
    "status": "Pending",
    "contractor": "Royal Engineering",
    "rowid": "902388",
    "final_x": "3686268.87145",
    "final_y": "530105.985409",
    "longitude": "-90.05306186289025",
    "latitude": "29.951461970746035",
    "geocoded_column": {
      "latitude": "29.951461970746035",
      "longitude": "-90.05306186289025"
    }
  },
  {
    "service_request": "2022-902387",
    "request_type": "Traffic Signals/Signs/Striping/Streetlights",
    "request_reason": "Street Light Outage/Malfunction",
    "date_created": "2022-07-21T16:38:03.000",
    "date_modified": "2022-07-21T16:38:03.000",
    "request_status": "Pending",
    "responsible_agency": "Department of Public Works",
    "final_address": "PRENTISS AVE & MAJESTIC OAKS DR",
    "address_councildis": "D",
    "status": "Pending",
    "contractor": "Royal Engineering",
    "rowid": "902387",
    "final_x": "3697718.8",
    "final_y": "554529.98",
    "longitude": "-90.01602218805417",
    "latitude": "30.018262312360037",
    "geocoded_column": {
      "latitude": "30.018262312360037",
      "longitude": "-90.01602218805417"
    }
  },
  {
    "service_request": "2022-902386",
    "request_type": "Traffic Signals/Signs/Striping/Streetlights",
    "request_reason": "Street Light Outage/Malfunction",
    "date_created": "2022-07-21T16:37:41.000",
    "date_modified": "2022-07-21T16:37:41.000",
    "request_status": "Pending",
    "responsible_agency": "Department of Public Works",
    "final_address": "1209 Patterson St",
    "address_councildis": "C",
    "status": "Pending",
    "contractor": "Royal Engineering",
    "rowid": "902386",
    "final_x": "3689388.983",
    "final_y": "531216.204994",
    "longitude": "-90.04317063253121",
    "latitude": "29.954418465264524",
    "geocoded_column": {
      "latitude": "29.954418465264524",
      "longitude": "-90.04317063253121"
    }
  },
  {
    "service_request": "2022-902385",
    "request_type": "Traffic Signals/Signs/Striping/Streetlights",
    "request_reason": "Street Light Outage/Malfunction",
    "date_created": "2022-07-21T16:37:02.000",
    "date_modified": "2022-07-21T16:37:03.000",
    "request_status": "Pending",
    "responsible_agency": "Department of Public Works",
    "final_address": "6300 BLK Prentiss Ave",
    "address_councildis": "D",
    "status": "Pending",
    "contractor": "Royal Engineering",
    "rowid": "902385",
    "final_x": "3697634.48002",
    "final_y": "554519.307744",
    "longitude": "-90.01628899381723",
    "latitude": "30.018235632869057",
    "geocoded_column": {
      "latitude": "30.018235632869057",
      "longitude": "-90.01628899381723"
    }
  },
  {
    "service_request": "2022-902384",
    "request_type": "Traffic Signals/Signs/Striping/Streetlights",
    "request_reason": "Street Light Outage/Malfunction",
    "date_created": "2022-07-21T16:35:41.000",
    "date_modified": "2022-07-21T16:35:41.000",
    "request_status": "Pending",
    "responsible_agency": "Department of Public Works",
    "final_address": "600 Seguin St",
    "address_councildis": "C",
    "status": "Pending",
    "contractor": "Royal Engineering",
    "rowid": "902384",
    "final_x": "3686736.8319",
    "final_y": "529622.623937",
    "longitude": "-90.05160134763385",
    "latitude": "29.95011850662509",
    "geocoded_column": {
      "latitude": "29.95011850662509",
      "longitude": "-90.05160134763385"
    }
  },
  {
    "service_request": "2022-902383",
    "request_type": "Law Enforcement Services",
    "request_reason": "Off Duty Officer for Hire",
    "date_created": "2022-07-21T16:34:56.000",
    "date_modified": "2022-07-21T16:34:56.000",
    "request_status": "Pending",
    "responsible_agency": "Office of Police Secondary Employment",
    "status": "Pending",
    "rowid": "902383",
    "longitude": "0.0",
    "latitude": "0.0",
    "geocoded_column": {
      "latitude": "0.0",
      "longitude": "0.0"
    }
  },
  {
    "service_request": "2022-902382",
    "request_type": "Traffic Signals/Signs/Striping/Streetlights",
    "request_reason": "Street Light Outage/Malfunction",
    "date_created": "2022-07-21T16:32:58.000",
    "date_modified": "2022-07-21T16:32:59.000",
    "request_status": "Pending",
    "responsible_agency": "Department of Public Works",
    "final_address": "347 Verret St",
    "address_councildis": "C",
    "status": "Pending",
    "contractor": "Royal Engineering",
    "rowid": "902382",
    "final_x": "3686881.45263",
    "final_y": "530358.980354",
    "longitude": "-90.05111869574561",
    "latitude": "29.95213878599684",
    "geocoded_column": {
      "latitude": "29.95213878599684",
      "longitude": "-90.05111869574561"
    }
  },
  {
    "service_request": "2022-902381",
    "request_type": "Roads/Drainage",
    "request_reason": "Street Subsidence (Sinking)",
    "date_created": "2022-07-21T16:31:40.000",
    "date_modified": "2022-07-21T16:31:40.000",
    "request_status": "Pending",
    "responsible_agency": "Department of Public Works",
    "final_address": "1928 Felicity St",
    "address_councildis": "B",
    "status": "Pending",
    "rowid": "902381",
    "final_x": "3677347.61429",
    "final_y": "525658.221245",
    "longitude": "-90.0813843021799",
    "latitude": "29.93950316410586",
    "geocoded_column": {
      "latitude": "29.93950316410586",
      "longitude": "-90.0813843021799"
    }
  },
  {
    "service_request": "2022-902380",
    "request_type": "Roads/Drainage",
    "request_reason": "Catch Basin - Clogged",
    "date_created": "2022-07-21T16:30:57.000",
    "date_modified": "2022-07-21T16:30:57.000",
    "request_status": "Pending",
    "responsible_agency": "Department of Public Works",
    "final_address": "7926 Spruce St",
    "address_councildis": "A",
    "status": "Pending",
    "rowid": "902380",
    "final_x": "3664231.25434",
    "final_y": "530046.140161",
    "longitude": "-90.12264821955154",
    "latitude": "29.9519560689391",
    "geocoded_column": {
      "latitude": "29.9519560689391",
      "longitude": "-90.12264821955154"
    }
  },
  {
    "service_request": "2022-902379",
    "request_type": "Roads/Drainage",
    "request_reason": "Catch Basin - Broken/Damage",
    "date_created": "2022-07-21T16:30:17.000",
    "date_modified": "2022-07-21T16:30:18.000",
    "request_status": "Pending",
    "responsible_agency": "Department of Public Works",
    "final_address": "ROYAL ST & CHARBONNET ST",
    "address_councildis": "E",
    "status": "Pending",
    "rowid": "902379",
    "final_x": "3698231.7",
    "final_y": "532122.88",
    "longitude": "-90.01521604872252",
    "latitude": "29.95663476930962",
    "geocoded_column": {
      "latitude": "29.95663476930962",
      "longitude": "-90.01521604872252"
    }
  },
  {
    "service_request": "2022-902378",
    "request_type": "Traffic Signals/Signs/Striping/Streetlights",
    "request_reason": "Street Light Outage/Malfunction",
    "date_created": "2022-07-21T16:29:57.000",
    "date_modified": "2022-07-21T16:29:58.000",
    "request_status": "Pending",
    "responsible_agency": "Department of Public Works",
    "final_address": "513 Patterson St",
    "address_councildis": "C",
    "status": "Pending",
    "contractor": "Royal Engineering",
    "rowid": "902378",
    "final_x": "3686918.26486",
    "final_y": "531379.175554",
    "longitude": "-90.05096640901736",
    "latitude": "29.95494284024043",
    "geocoded_column": {
      "latitude": "29.95494284024043",
      "longitude": "-90.05096640901736"
    }
  },
  {
    "service_request": "2022-902377",
    "request_type": "Abandoned Vehicles",
    "request_reason": "Abandoned/Junk Vehicles",
    "date_created": "2022-07-21T16:29:17.000",
    "date_modified": "2022-07-21T16:30:01.000",
    "request_status": "Pending",
    "responsible_agency": "Department of Public Works",
    "final_address": "6100 Elysian Fields Ave",
    "address_councildis": "D",
    "status": "Pending",
    "rowid": "902377",
    "final_x": "3683321.98268",
    "final_y": "555378.780569",
    "longitude": "-90.06148093888659",
    "latitude": "30.0210434435086",
    "geocoded_column": {
      "latitude": "30.0210434435086",
      "longitude": "-90.06148093888659"
    }
  },
  {
    "service_request": "2022-902376",
    "request_type": "Trash/Recycling",
    "request_reason": "Missed Trash Pick-Up",
    "date_created": "2022-07-21T16:28:15.000",
    "date_modified": "2022-07-21T16:28:16.000",
    "request_status": "Pending",
    "responsible_agency": "Department of Sanitation",
    "final_address": "3415 Burgundy St",
    "address_councildis": "C",
    "status": "Assigned to Contractor",
    "contractor": "Metro Disposal",
    "rowid": "902376",
    "final_x": "3690124.04009",
    "final_y": "534911.371142",
    "longitude": "-90.04071799534822",
    "latitude": "29.964556108825622",
    "geocoded_column": {
      "latitude": "29.964556108825622",
      "longitude": "-90.04071799534822"
    }
  },
  {
    "service_request": "2022-902375",
    "request_type": "Traffic Signals/Signs/Striping/Streetlights",
    "request_reason": "Street Light Outage/Malfunction",
    "date_created": "2022-07-21T16:27:58.000",
    "date_modified": "2022-07-21T16:27:59.000",
    "request_status": "Pending",
    "responsible_agency": "Department of Public Works",
    "final_address": "400 Verret St",
    "address_councildis": "C",
    "status": "Pending",
    "contractor": "Royal Engineering",
    "rowid": "902375",
    "final_x": "3687000.61046",
    "final_y": "530246.246401",
    "longitude": "-90.05074643619821",
    "latitude": "29.951825139296933",
    "geocoded_column": {
      "latitude": "29.951825139296933",
      "longitude": "-90.05074643619821"
    }
  },
  {
    "service_request": "2022-902374",
    "request_type": "Roads/Drainage",
    "request_reason": "Catch Basin - Clogged",
    "date_created": "2022-07-21T16:27:44.000",
    "date_modified": "2022-07-21T16:27:45.000",
    "request_status": "Pending",
    "responsible_agency": "Department of Public Works",
    "final_address": "4559 Shalimar Dr",
    "address_councildis": "D",
    "status": "Pending",
    "rowid": "902374",
    "final_x": "3697295.61162",
    "final_y": "553364.302551",
    "longitude": "-90.01740159634141",
    "latitude": "30.015070510167206",
    "geocoded_column": {
      "latitude": "30.015070510167206",
      "longitude": "-90.01740159634141"
    }
  },
  {
    "service_request": "2022-902373",
    "request_type": "Mayor's Request",
    "request_reason": "Requests to the Mayor",
    "date_created": "2022-07-21T16:27:44.000",
    "date_modified": "2022-07-21T16:27:44.000",
    "request_status": "Pending",
    "responsible_agency": "Executive Office of the Mayor",
    "status": "Pending",
    "rowid": "902373",
    "longitude": "0.0",
    "latitude": "0.0",
    "geocoded_column": {
      "latitude": "0.0",
      "longitude": "0.0"
    }
  },
  {
    "service_request": "2022-902372",
    "request_type": "Roads/Drainage",
    "request_reason": "Catch Basin - Clogged",
    "date_created": "2022-07-21T16:26:30.000",
    "date_modified": "2022-07-21T16:26:30.000",
    "request_status": "Pending",
    "responsible_agency": "Department of Public Works",
    "final_address": "5902 General Haig St",
    "address_councildis": "A",
    "status": "Pending",
    "rowid": "902372",
    "final_x": "3670407.97882",
    "final_y": "546500.165905",
    "longitude": "-90.1025869507144",
    "latitude": "29.997018192071504",
    "geocoded_column": {
      "latitude": "29.997018192071504",
      "longitude": "-90.1025869507144"
    }
  },
  {
    "service_request": "2022-902371",
    "request_type": "Abandoned Vehicles",
    "request_reason": "Abandoned/Junk Vehicles",
    "date_created": "2022-07-21T16:23:13.000",
    "date_modified": "2022-07-21T16:23:13.000",
    "request_status": "Pending",
    "responsible_agency": "Department of Public Works",
    "final_address": "5928 General Haig St",
    "address_councildis": "A",
    "status": "Pending",
    "rowid": "902371",
    "final_x": "3670435.13147",
    "final_y": "546685.038481",
    "longitude": "-90.10249490325195",
    "latitude": "29.997525725609407",
    "geocoded_column": {
      "latitude": "29.997525725609407",
      "longitude": "-90.10249490325195"
    }
  },
  {
    "service_request": "2022-902370",
    "request_type": "Mayor's Request",
    "request_reason": "Requests to the Mayor",
    "date_created": "2022-07-21T16:21:48.000",
    "date_modified": "2022-07-21T16:21:48.000",
    "request_status": "Pending",
    "responsible_agency": "Executive Office of the Mayor",
    "final_address": "200 Carondelet St",
    "address_councildis": "B",
    "status": "Pending",
    "rowid": "902370",
    "final_x": "3680618.51733",
    "final_y": "530414.539586",
    "longitude": "-90.07089218374696",
    "latitude": "29.952482774541487",
    "geocoded_column": {
      "latitude": "29.952482774541487",
      "longitude": "-90.07089218374696"
    }
  },
  {
    "service_request": "2022-902369",
    "request_type": "Parks & Parkways",
    "request_reason": "Request Tree Service (Right of Way/Public Property)",
    "date_created": "2022-07-21T16:19:57.000",
    "date_modified": "2022-07-21T16:19:58.000",
    "request_status": "Pending",
    "responsible_agency": "Department of Parks & Parkway",
    "final_address": "6223 Carlisle Ct",
    "address_councildis": "C",
    "status": "Pending",
    "rowid": "902369",
    "final_x": "3707102.66385",
    "final_y": "516427.508853",
    "longitude": "-89.98778664832496",
    "latitude": "29.91319447084021",
    "geocoded_column": {
      "latitude": "29.91319447084021",
      "longitude": "-89.98778664832496"
    }
  },
  {
    "service_request": "2022-902368",
    "request_type": "Roads/Drainage",
    "request_reason": "Leaking Hydrant",
    "date_created": "2022-07-21T16:17:02.000",
    "date_modified": "2022-07-21T16:17:03.000",
    "request_status": "Pending",
    "responsible_agency": "Department of Public Works",
    "final_address": "BERKLEY DR & PITTARI PL",
    "address_councildis": "C",
    "status": "Pending",
    "rowid": "902368",
    "final_x": "3709627.4",
    "final_y": "517923.78",
    "longitude": "-89.97976210619183",
    "latitude": "29.917226932103006",
    "geocoded_column": {
      "latitude": "29.917226932103006",
      "longitude": "-89.97976210619183"
    }
  },
  {
    "service_request": "2022-902367",
    "request_type": "Trash/Recycling",
    "request_reason": "Missed Trash Pick-Up",
    "date_created": "2022-07-21T16:14:30.000",
    "date_modified": "2022-07-21T16:14:32.000",
    "request_status": "Pending",
    "responsible_agency": "Department of Sanitation",
    "final_address": "8951 Curran Rd",
    "address_councildis": "E",
    "status": "Assigned to Contractor",
    "contractor": "Metro Disposal",
    "rowid": "902367",
    "final_x": "3705235.09867",
    "final_y": "563176.413536",
    "longitude": "-89.9919538653174",
    "latitude": "30.041796889120896",
    "geocoded_column": {
      "latitude": "30.041796889120896",
      "longitude": "-89.9919538653174"
    }
  },
  {
    "service_request": "2022-902366",
    "request_type": "Traffic Signals/Signs/Striping/Streetlights",
    "request_reason": "Additional signage",
    "date_created": "2022-07-21T16:13:23.000",
    "date_modified": "2022-07-21T16:13:23.000",
    "request_status": "Pending",
    "responsible_agency": "Department of Public Works",
    "final_address": "200 Carondelet St",
    "address_councildis": "B",
    "status": "Pending",
    "rowid": "902366",
    "final_x": "3680618.51733",
    "final_y": "530414.539586",
    "longitude": "-90.07089218374696",
    "latitude": "29.952482774541487",
    "geocoded_column": {
      "latitude": "29.952482774541487",
      "longitude": "-90.07089218374696"
    }
  },
  {
    "service_request": "2022-902364",
    "request_type": "Roads/Drainage",
    "request_reason": "Catch Basin - Clogged",
    "date_created": "2022-07-21T16:09:05.000",
    "date_modified": "2022-07-21T16:09:05.000",
    "request_status": "Pending",
    "responsible_agency": "Department of Public Works",
    "final_address": "CLEMATIS AVE & SAGE ST",
    "address_councildis": "D",
    "status": "Pending",
    "rowid": "902364",
    "final_x": "3686743.6",
    "final_y": "545440.88",
    "longitude": "-90.0510210351429",
    "latitude": "29.99361296699666",
    "geocoded_column": {
      "latitude": "29.99361296699666",
      "longitude": "-90.0510210351429"
    }
  },
  {
    "service_request": "2022-902365",
    "request_type": "Trash/Recycling",
    "request_reason": "Start Trash Service",
    "date_created": "2022-07-21T16:09:05.000",
    "date_modified": "2022-07-21T16:09:06.000",
    "request_status": "Pending",
    "responsible_agency": "Department of Sanitation",
    "final_address": "727 Louisiana Ave",
    "address_councildis": "B",
    "status": "Assigned to Contractor",
    "contractor": "Richards Disposal",
    "rowid": "902365",
    "final_x": "3675704.24853",
    "final_y": "518445.761462",
    "longitude": "-90.08682034686362",
    "latitude": "29.91972051055626",
    "geocoded_column": {
      "latitude": "29.91972051055626",
      "longitude": "-90.08682034686362"
    }
  },
  {
    "service_request": "2022-902363",
    "request_type": "Roads/Drainage",
    "request_reason": "Catch Basin - Clogged",
    "date_created": "2022-07-21T16:08:54.000",
    "date_modified": "2022-07-21T16:08:54.000",
    "request_status": "Pending",
    "responsible_agency": "Department of Public Works",
    "final_address": "CLEMATIS AVE & SAGE ST",
    "address_councildis": "D",
    "status": "Pending",
    "rowid": "902363",
    "final_x": "3686743.6",
    "final_y": "545440.88",
    "longitude": "-90.0510210351429",
    "latitude": "29.99361296699666",
    "geocoded_column": {
      "latitude": "29.99361296699666",
      "longitude": "-90.0510210351429"
    }
  },
  {
    "service_request": "2022-902362",
    "request_type": "Roads/Drainage",
    "request_reason": "Catch Basin - Clogged",
    "date_created": "2022-07-21T16:08:41.000",
    "date_modified": "2022-07-21T16:08:41.000",
    "request_status": "Pending",
    "responsible_agency": "Department of Public Works",
    "final_address": "CLEMATIS AVE & SAGE ST",
    "address_councildis": "D",
    "status": "Pending",
    "rowid": "902362",
    "final_x": "3686743.6",
    "final_y": "545440.88",
    "longitude": "-90.0510210351429",
    "latitude": "29.99361296699666",
    "geocoded_column": {
      "latitude": "29.99361296699666",
      "longitude": "-90.0510210351429"
    }
  },
  {
    "service_request": "2022-902361",
    "request_type": "Roads/Drainage",
    "request_reason": "Catch Basin - Clogged",
    "date_created": "2022-07-21T16:08:28.000",
    "date_modified": "2022-07-21T16:08:30.000",
    "request_status": "Pending",
    "responsible_agency": "Department of Public Works",
    "final_address": "CLEMATIS AVE & SAGE ST",
    "address_councildis": "D",
    "status": "Pending",
    "rowid": "902361",
    "final_x": "3686743.6",
    "final_y": "545440.88",
    "longitude": "-90.0510210351429",
    "latitude": "29.99361296699666",
    "geocoded_column": {
      "latitude": "29.99361296699666",
      "longitude": "-90.0510210351429"
    }
  },
  {
    "service_request": "2022-902360",
    "request_type": "Trash/Recycling",
    "request_reason": "Order Trash Cart",
    "date_created": "2022-07-21T16:08:07.000",
    "date_modified": "2022-07-21T16:08:08.000",
    "request_status": "Pending",
    "responsible_agency": "Department of Sanitation",
    "final_address": "727 Louisiana Ave",
    "address_councildis": "B",
    "status": "Assigned to Contractor",
    "contractor": "Richards Disposal",
    "rowid": "902360",
    "final_x": "3675704.24853",
    "final_y": "518445.761462",
    "longitude": "-90.08682034686362",
    "latitude": "29.91972051055626",
    "geocoded_column": {
      "latitude": "29.91972051055626",
      "longitude": "-90.08682034686362"
    }
  },
  {
    "service_request": "2022-902359",
    "request_type": "Property Maintenance",
    "request_reason": "Property Maintenance",
    "date_created": "2022-07-21T16:02:00.000",
    "date_modified": "2022-07-21T16:02:01.000",
    "request_status": "Pending",
    "responsible_agency": "Department of Code Enforcement",
    "final_address": "3523 Piedmont Dr",
    "address_councildis": "D",
    "status": "Pending",
    "rowid": "902359",
    "final_x": "3686297.45532",
    "final_y": "545748.210512",
    "longitude": "-90.0524194821249",
    "latitude": "29.994471736644083",
    "geocoded_column": {
      "latitude": "29.994471736644083",
      "longitude": "-90.0524194821249"
    }
  },
  {
    "service_request": "2022-902357",
    "request_type": "Trash/Recycling",
    "request_reason": "Missed Trash Pick-Up",
    "date_created": "2022-07-21T15:58:14.000",
    "date_modified": "2022-07-21T15:58:15.000",
    "request_status": "Pending",
    "responsible_agency": "Department of Sanitation",
    "final_address": "3417 Burgundy St",
    "address_councildis": "C",
    "status": "Assigned to Contractor",
    "contractor": "Metro Disposal",
    "rowid": "902357",
    "final_x": "3690145.53526",
    "final_y": "534907.460294",
    "longitude": "-90.04065025473537",
    "latitude": "29.96454468859235",
    "geocoded_column": {
      "latitude": "29.96454468859235",
      "longitude": "-90.04065025473537"
    }
  },
  {
    "service_request": "2022-902355",
    "request_type": "Trash/Recycling",
    "request_reason": "Request a Large Item Pick Up",
    "date_created": "2022-07-21T15:54:15.000",
    "date_modified": "2022-07-21T15:55:05.000",
    "request_status": "Pending",
    "responsible_agency": "Department of Sanitation",
    "final_address": "3059 Dumaine St",
    "address_councildis": "A",
    "status": "Assigned to Contractor",
    "contractor": "Richards Disposal",
    "rowid": "902355",
    "final_x": "3675769.23931",
    "final_y": "538616.800201",
    "longitude": "-90.08592206292198",
    "latitude": "29.975182238750538",
    "geocoded_column": {
      "latitude": "29.975182238750538",
      "longitude": "-90.08592206292198"
    }
  },
  {
    "service_request": "2022-902354",
    "request_type": "Trash/Recycling",
    "request_reason": "Request a Large Item Pick Up",
    "date_created": "2022-07-21T15:52:54.000",
    "date_modified": "2022-07-21T15:52:54.000",
    "request_status": "Pending",
    "responsible_agency": "Department of Sanitation",
    "final_address": "5827 S Johnson St",
    "address_councildis": "A",
    "status": "Assigned to Contractor",
    "contractor": "Richards Disposal",
    "rowid": "902354",
    "final_x": "3667545.75143",
    "final_y": "527278.983935",
    "longitude": "-90.11227567537583",
    "latitude": "29.94425057657456",
    "geocoded_column": {
      "latitude": "29.94425057657456",
      "longitude": "-90.11227567537583"
    }
  },
  {
    "service_request": "2022-902352",
    "request_type": "Trash/Recycling",
    "request_reason": "MIssed Recycling Pick-Up",
    "date_created": "2022-07-21T15:46:04.000",
    "date_modified": "2022-07-21T15:46:06.000",
    "request_status": "Pending",
    "responsible_agency": "Department of Sanitation",
    "final_address": "1730 Valmont St",
    "address_councildis": "B",
    "status": "Assigned to Contractor",
    "contractor": "Richards Disposal",
    "rowid": "902352",
    "final_x": "3667904.09703",
    "final_y": "522075.378874",
    "longitude": "-90.111319487331",
    "latitude": "29.92993182799879",
    "geocoded_column": {
      "latitude": "29.92993182799879",
      "longitude": "-90.111319487331"
    }
  },
  {
    "service_request": "2022-902351",
    "request_type": "Trash/Recycling",
    "request_reason": "Order Recycling Cart",
    "date_created": "2022-07-21T15:46:01.000",
    "date_modified": "2022-07-21T15:46:01.000",
    "request_status": "Pending",
    "responsible_agency": "Department of Sanitation",
    "final_address": "9118 Apple St",
    "address_councildis": "A",
    "status": "Pending",
    "rowid": "902351",
    "final_x": "3662610.09984",
    "final_y": "534557.668229",
    "longitude": "-90.12761718838134",
    "latitude": "29.964408305703383",
    "geocoded_column": {
      "latitude": "29.964408305703383",
      "longitude": "-90.12761718838134"
    }
  },
  {
    "service_request": "2022-902350",
    "request_type": "Traffic Signals/Signs/Striping/Streetlights",
    "request_reason": "Street Light Outage/Malfunction",
    "date_created": "2022-07-21T15:42:41.000",
    "date_modified": "2022-07-21T15:42:42.000",
    "request_status": "Pending",
    "responsible_agency": "Department of Public Works",
    "final_address": "2627 Lapeyrouse St",
    "address_councildis": "D",
    "status": "Pending",
    "contractor": "Royal Engineering",
    "rowid": "902350",
    "final_x": "3678929.61486",
    "final_y": "540337.295691",
    "longitude": "-90.07588113459094",
    "latitude": "29.979818025857323",
    "geocoded_column": {
      "latitude": "29.979818025857323",
      "longitude": "-90.07588113459094"
    }
  },
  {
    "service_request": "2022-902349",
    "request_type": "Trash/Recycling",
    "request_reason": "Request a Large Item Pick Up",
    "date_created": "2022-07-21T15:39:04.000",
    "date_modified": "2022-07-21T15:39:04.000",
    "request_status": "Pending",
    "responsible_agency": "Department of Sanitation",
    "final_address": "1240 Shirley Dr",
    "address_councildis": "C",
    "status": "Assigned to Contractor",
    "contractor": "Richards Disposal",
    "rowid": "902349",
    "final_x": "3693193.23299",
    "final_y": "526403.909886",
    "longitude": "-90.03133102428556",
    "latitude": "29.941067991557034",
    "geocoded_column": {
      "latitude": "29.941067991557034",
      "longitude": "-90.03133102428556"
    }
  },
  {
    "service_request": "2022-902348",
    "request_type": "Trash/Recycling",
    "request_reason": "Missed Trash Pick-Up",
    "date_created": "2022-07-21T15:36:20.000",
    "date_modified": "2022-07-21T15:36:21.000",
    "request_status": "Pending",
    "responsible_agency": "Department of Sanitation",
    "final_address": "4506 St Claude Ave",
    "address_councildis": "C",
    "status": "Assigned to Contractor",
    "contractor": "Metro Disposal",
    "rowid": "902348",
    "final_x": "3693370.41769",
    "final_y": "534863.163846",
    "longitude": "-90.03046794882333",
    "latitude": "29.964322458050418",
    "geocoded_column": {
      "latitude": "29.964322458050418",
      "longitude": "-90.03046794882333"
    }
  },
  {
    "service_request": "2022-902347",
    "request_type": "Property Maintenance",
    "request_reason": "Property Maintenance",
    "date_created": "2022-07-21T15:34:30.000",
    "date_modified": "2022-07-21T15:34:30.000",
    "request_status": "Pending",
    "responsible_agency": "Department of Code Enforcement",
    "final_address": "2336 St Louis St",
    "address_councildis": "B",
    "status": "Pending",
    "rowid": "902347",
    "final_x": "3677327.59138",
    "final_y": "535418.875782",
    "longitude": "-90.08111075032375",
    "latitude": "29.966342299208335",
    "geocoded_column": {
      "latitude": "29.966342299208335",
      "longitude": "-90.08111075032375"
    }
  },
  {
    "service_request": "2022-902346",
    "request_type": "Trash/Recycling",
    "request_reason": "Missed Trash Pick-Up",
    "date_created": "2022-07-21T15:25:32.000",
    "date_modified": "2022-07-21T15:25:33.000",
    "request_status": "Pending",
    "responsible_agency": "Department of Sanitation",
    "final_address": "315 N Gayoso St, New Orleans, Louisiana, 70119",
    "address_councildis": "B",
    "status": "Assigned to Contractor",
    "contractor": "Richards Disposal",
    "rowid": "902346",
    "final_x": "3674888.76616",
    "final_y": "536657.762567",
    "longitude": "-90.08877003455646",
    "latitude": "29.969821878452027",
    "geocoded_column": {
      "latitude": "29.969821878452027",
      "longitude": "-90.08877003455646"
    }
  },
  {
    "service_request": "2022-902345",
    "request_type": "Trash/Recycling",
    "request_reason": "Missed Trash Pick-Up",
    "date_created": "2022-07-21T15:25:05.000",
    "date_modified": "2022-07-21T15:25:06.000",
    "request_status": "Pending",
    "responsible_agency": "Department of Sanitation",
    "final_address": "7822 Walmsley Ave, New Orleans, Louisiana, 70125",
    "address_councildis": "A",
    "status": "Assigned to Contractor",
    "contractor": "Richards Disposal",
    "rowid": "902345",
    "final_x": "3666523.77069",
    "final_y": "531928.444483",
    "longitude": "-90.1153463313273",
    "latitude": "29.957064988424477",
    "geocoded_column": {
      "latitude": "29.957064988424477",
      "longitude": "-90.1153463313273"
    }
  },
  {
    "service_request": "2022-902344",
    "request_type": "Property Maintenance",
    "request_reason": "Property Maintenance",
    "date_created": "2022-07-21T15:25:03.000",
    "date_modified": "2022-07-21T15:25:04.000",
    "request_status": "Pending",
    "responsible_agency": "Department of Code Enforcement",
    "final_address": "13646 Explorers Ave",
    "address_councildis": "E",
    "status": "Pending",
    "rowid": "902344",
    "final_x": "3726148.04979",
    "final_y": "569090.887782",
    "longitude": "-89.92563249874719",
    "latitude": "30.057369481223486",
    "geocoded_column": {
      "latitude": "30.057369481223486",
      "longitude": "-89.92563249874719"
    }
  },
  {
    "service_request": "2022-902343",
    "request_type": "Taxi Issues",
    "request_reason": "Drug Test Inquiry",
    "date_created": "2022-07-21T15:24:06.000",
    "date_modified": "2022-07-21T15:24:06.000",
    "request_status": "Pending",
    "responsible_agency": "Ground Transportation Bureau",
    "status": "Pending",
    "rowid": "902343",
    "longitude": "0.0",
    "latitude": "0.0",
    "geocoded_column": {
      "latitude": "0.0",
      "longitude": "0.0"
    }
  },
  {
    "service_request": "2022-902342",
    "request_type": "Trash/Recycling",
    "request_reason": "Request a Large Item Pick Up",
    "date_created": "2022-07-21T15:19:25.000",
    "date_modified": "2022-07-21T15:19:25.000",
    "request_status": "Pending",
    "responsible_agency": "Department of Sanitation",
    "final_address": "3323 Banks St",
    "address_councildis": "B",
    "status": "Assigned to Contractor",
    "contractor": "Richards Disposal",
    "rowid": "902342",
    "final_x": "3672711.37358",
    "final_y": "535667.985542",
    "longitude": "-90.09568021954335",
    "latitude": "29.96716517460636",
    "geocoded_column": {
      "latitude": "29.96716517460636",
      "longitude": "-90.09568021954335"
    }
  },
  {
    "service_request": "2022-902341",
    "request_type": "Trash/Recycling",
    "request_reason": "Request a Large Item Pick Up",
    "date_created": "2022-07-21T15:18:06.000",
    "date_modified": "2022-07-21T15:18:07.000",
    "request_status": "Pending",
    "responsible_agency": "Department of Sanitation",
    "final_address": "3305 Banks St",
    "address_councildis": "B",
    "status": "Assigned to Contractor",
    "contractor": "Richards Disposal",
    "rowid": "902341",
    "final_x": "3672824.12987",
    "final_y": "535570.82471",
    "longitude": "-90.0953274486141",
    "latitude": "29.966894665677692",
    "geocoded_column": {
      "latitude": "29.966894665677692",
      "longitude": "-90.0953274486141"
    }
  },
  {
    "service_request": "2022-902340",
    "request_type": "Trash/Recycling",
    "request_reason": "Request a Large Item Pick Up",
    "date_created": "2022-07-21T15:16:45.000",
    "date_modified": "2022-07-21T15:16:45.000",
    "request_status": "Pending",
    "responsible_agency": "Department of Sanitation",
    "final_address": "2334 Jackson Ave",
    "address_councildis": "B",
    "status": "Assigned to Contractor",
    "contractor": "Richards Disposal",
    "rowid": "902340",
    "final_x": "3675576.74715",
    "final_y": "526227.281342",
    "longitude": "-90.0869556307181",
    "latitude": "29.941120975795776",
    "geocoded_column": {
      "latitude": "29.941120975795776",
      "longitude": "-90.0869556307181"
    }
  },
  {
    "service_request": "2022-902339",
    "request_type": "Traffic Signals/Signs/Striping/Streetlights",
    "request_reason": "Street Light Outage/Malfunction",
    "date_created": "2022-07-21T15:16:11.000",
    "date_modified": "2022-07-21T15:16:12.000",
    "request_status": "Pending",
    "responsible_agency": "Department of Public Works",
    "final_address": "330 Carondelet St",
    "address_councildis": "B",
    "status": "Pending",
    "contractor": "Royal Engineering",
    "rowid": "902339",
    "final_x": "3680490.83061",
    "final_y": "529959.555713",
    "longitude": "-90.07131118307936",
    "latitude": "29.95123558976461",
    "geocoded_column": {
      "latitude": "29.95123558976461",
      "longitude": "-90.07131118307936"
    }
  },
  {
    "service_request": "2022-902338",
    "request_type": "Trash/Recycling",
    "request_reason": "Request a Large Item Pick Up",
    "date_created": "2022-07-21T15:15:55.000",
    "date_modified": "2022-07-21T15:15:56.000",
    "request_status": "Pending",
    "responsible_agency": "Department of Sanitation",
    "final_address": "4520 Eve St",
    "address_councildis": "B",
    "status": "Assigned to Contractor",
    "contractor": "Richards Disposal",
    "rowid": "902338",
    "final_x": "3669620.52346",
    "final_y": "531132.324098",
    "longitude": "-90.10559465522043",
    "latitude": "29.954785044569643",
    "geocoded_column": {
      "latitude": "29.954785044569643",
      "longitude": "-90.10559465522043"
    }
  },
  {
    "service_request": "2022-902337",
    "request_type": "Trash/Recycling",
    "request_reason": "Order Trash Cart",
    "date_created": "2022-07-21T15:14:42.000",
    "date_modified": "2022-07-21T15:14:42.000",
    "request_status": "Pending",
    "responsible_agency": "Department of Sanitation",
    "final_address": "3141 Maurepas St, New Orleans, Louisiana, 70119",
    "address_councildis": "A",
    "status": "Assigned to Contractor",
    "contractor": "Metro Disposal",
    "rowid": "902337",
    "final_x": "3676274.06696",
    "final_y": "540818.490251",
    "longitude": "-90.08425188272341",
    "latitude": "29.981221008635142",
    "geocoded_column": {
      "latitude": "29.981221008635142",
      "longitude": "-90.08425188272341"
    }
  },
  {
    "service_request": "2022-902336",
    "request_type": "Abandoned Vehicles",
    "request_reason": "Abandoned/Junk Vehicles",
    "date_created": "2022-07-21T15:12:52.000",
    "date_modified": "2022-07-21T15:13:38.000",
    "request_status": "Pending",
    "responsible_agency": "Department of Public Works",
    "final_address": "926 Vallette St",
    "address_councildis": "C",
    "status": "Pending",
    "rowid": "902336",
    "final_x": "3687510.46754",
    "final_y": "528110.262271",
    "longitude": "-90.04921213777698",
    "latitude": "29.945936210368405",
    "geocoded_column": {
      "latitude": "29.945936210368405",
      "longitude": "-90.04921213777698"
    }
  },
  {
    "service_request": "2022-902335",
    "request_type": "Trash/Recycling",
    "request_reason": "Order Trash Cart",
    "date_created": "2022-07-21T15:11:17.000",
    "date_modified": "2022-07-21T15:11:18.000",
    "request_status": "Pending",
    "responsible_agency": "Department of Sanitation",
    "final_address": "3717 General Pershing St",
    "address_councildis": "B",
    "status": "Assigned to Contractor",
    "contractor": "Richards Disposal",
    "rowid": "902335",
    "final_x": "3670549.01319",
    "final_y": "528369.24352",
    "longitude": "-90.10275653191385",
    "latitude": "29.94716009235243",
    "geocoded_column": {
      "latitude": "29.94716009235243",
      "longitude": "-90.10275653191385"
    }
  },
  {
    "service_request": "2022-902334",
    "request_type": "Trash/Recycling",
    "request_reason": "Repair Trash Cart",
    "date_created": "2022-07-21T15:11:13.000",
    "date_modified": "2022-07-21T15:11:14.000",
    "request_status": "Pending",
    "responsible_agency": "Department of Sanitation",
    "final_address": "1922 Cadiz St",
    "address_councildis": "B",
    "status": "Assigned to Contractor",
    "contractor": "Richards Disposal",
    "rowid": "902334",
    "final_x": "3669890.17799",
    "final_y": "522049.797498",
    "longitude": "-90.10505061311466",
    "latitude": "29.92980309679333",
    "geocoded_column": {
      "latitude": "29.92980309679333",
      "longitude": "-90.10505061311466"
    }
  },
  {
    "service_request": "2022-902333",
    "request_type": "Roads/Drainage",
    "request_reason": "Catch Basin - Clogged",
    "date_created": "2022-07-21T15:11:09.000",
    "date_modified": "2022-07-21T15:11:09.000",
    "request_status": "Pending",
    "responsible_agency": "Department of Public Works",
    "final_address": "3633 Desaix Blvd",
    "address_councildis": "D",
    "status": "Pending",
    "rowid": "902333",
    "final_x": "3675546.89403",
    "final_y": "543791.565838",
    "longitude": "-90.08644644338648",
    "latitude": "29.98941771421679",
    "geocoded_column": {
      "latitude": "29.98941771421679",
      "longitude": "-90.08644644338648"
    }
  },
  {
    "service_request": "2022-902332",
    "request_type": "Abandoned Vehicles",
    "request_reason": "Abandoned/Junk Vehicles",
    "date_created": "2022-07-21T15:09:14.000",
    "date_modified": "2022-07-21T15:11:42.000",
    "request_status": "Pending",
    "responsible_agency": "Department of Public Works",
    "final_address": "920 Vallette St",
    "address_councildis": "C",
    "status": "Pending",
    "rowid": "902332",
    "final_x": "3687512.65097",
    "final_y": "528156.678272",
    "longitude": "-90.04920360159124",
    "latitude": "29.946063771281814",
    "geocoded_column": {
      "latitude": "29.946063771281814",
      "longitude": "-90.04920360159124"
    }
  },
  {
    "service_request": "2022-902331",
    "request_type": "Abandoned Vehicles",
    "request_reason": "Abandoned/Junk Vehicles",
    "date_created": "2022-07-21T15:05:47.000",
    "date_modified": "2022-07-21T15:06:44.000",
    "request_status": "Pending",
    "responsible_agency": "Department of Public Works",
    "final_address": "910 Vallette St",
    "address_councildis": "C",
    "status": "Pending",
    "rowid": "902331",
    "final_x": "3687515.0205",
    "final_y": "528241.243392",
    "longitude": "-90.04919312792511",
    "latitude": "29.946296223539758",
    "geocoded_column": {
      "latitude": "29.946296223539758",
      "longitude": "-90.04919312792511"
    }
  },
  {
    "service_request": "2022-902330",
    "request_type": "Property Maintenance",
    "request_reason": "Property Maintenance",
    "date_created": "2022-07-21T15:01:09.000",
    "date_modified": "2022-07-21T15:01:09.000",
    "request_status": "Pending",
    "responsible_agency": "Department of Code Enforcement",
    "final_address": "10703 Pressburg St",
    "address_councildis": "E",
    "status": "Pending",
    "rowid": "902330",
    "final_x": "3714897.60767",
    "final_y": "557393.959067",
    "longitude": "-89.96163584502749",
    "latitude": "30.02558289518457",
    "geocoded_column": {
      "latitude": "30.02558289518457",
      "longitude": "-89.96163584502749"
    }
  },
  {
    "service_request": "2022-902329",
    "request_type": "Trash/Recycling",
    "request_reason": "Repair Trash Cart",
    "date_created": "2022-07-21T14:59:51.000",
    "date_modified": "2022-07-21T14:59:52.000",
    "request_status": "Pending",
    "responsible_agency": "Department of Sanitation",
    "final_address": "2820 Donner Dr",
    "address_councildis": "C",
    "status": "Assigned to Contractor",
    "contractor": "Richards Disposal",
    "rowid": "902329",
    "final_x": "3692592.23107",
    "final_y": "519446.840887",
    "longitude": "-90.03347766027451",
    "latitude": "29.921957178159698",
    "geocoded_column": {
      "latitude": "29.921957178159698",
      "longitude": "-90.03347766027451"
    }
  },
  {
    "service_request": "2022-902328",
    "request_type": "Trash/Recycling",
    "request_reason": "Request a Large Item Pick Up",
    "date_created": "2022-07-21T14:58:53.000",
    "date_modified": "2022-07-21T14:58:54.000",
    "request_status": "Pending",
    "responsible_agency": "Department of Sanitation",
    "final_address": "207 River Oaks Dr",
    "address_councildis": "C",
    "status": "Assigned to Contractor",
    "contractor": "Richards Disposal",
    "rowid": "902328",
    "final_x": "3701542.86692",
    "final_y": "523224.971067",
    "longitude": "-90.00508622249473",
    "latitude": "29.932063502452092",
    "geocoded_column": {
      "latitude": "29.932063502452092",
      "longitude": "-90.00508622249473"
    }
  },
  {
    "service_request": "2022-902327",
    "request_type": "Trash/Recycling",
    "request_reason": "Start Trash Service",
    "date_created": "2022-07-21T14:58:49.000",
    "date_modified": "2022-07-21T14:58:50.000",
    "request_status": "Pending",
    "responsible_agency": "Department of Sanitation",
    "final_address": "3728 Pauger St",
    "address_councildis": "D",
    "status": "Assigned to Contractor",
    "contractor": "Metro Disposal",
    "rowid": "902327",
    "final_x": "3683182.59727",
    "final_y": "543860.188942",
    "longitude": "-90.06232506834152",
    "latitude": "29.989375723730358",
    "geocoded_column": {
      "latitude": "29.989375723730358",
      "longitude": "-90.06232506834152"
    }
  },
  {
    "service_request": "2022-902326",
    "request_type": "Trash/Recycling",
    "request_reason": "Request a Large Item Pick Up",
    "date_created": "2022-07-21T14:57:39.000",
    "date_modified": "2022-07-21T14:57:40.000",
    "request_status": "Pending",
    "responsible_agency": "Department of Sanitation",
    "final_address": "202 River Oaks Dr",
    "address_councildis": "C",
    "status": "Assigned to Contractor",
    "contractor": "Richards Disposal",
    "rowid": "902326",
    "final_x": "3701643.91985",
    "final_y": "523274.555899",
    "longitude": "-90.0047653958975",
    "latitude": "29.932196622170288",
    "geocoded_column": {
      "latitude": "29.932196622170288",
      "longitude": "-90.0047653958975"
    }
  },
  {
    "service_request": "2022-902325",
    "request_type": "Trash/Recycling",
    "request_reason": "Missed Trash Pick-Up",
    "date_created": "2022-07-21T14:56:17.000",
    "date_modified": "2022-07-21T14:56:18.000",
    "request_status": "Pending",
    "responsible_agency": "Department of Sanitation",
    "final_address": "3816 Dauphine St, New Orleans, Louisiana, 70117",
    "address_councildis": "C",
    "status": "Assigned to Contractor",
    "contractor": "Metro Disposal",
    "rowid": "902325",
    "final_x": "3691057.7087",
    "final_y": "534245.316997",
    "longitude": "-90.03779333054244",
    "latitude": "29.962695699042015",
    "geocoded_column": {
      "latitude": "29.962695699042015",
      "longitude": "-90.03779333054244"
    }
  },
  {
    "service_request": "2022-902324",
    "request_type": "Traffic Signals/Signs/Striping/Streetlights",
    "request_reason": "Street Light Outage/Malfunction",
    "date_created": "2022-07-21T14:55:26.000",
    "date_modified": "2022-07-21T14:55:27.000",
    "request_status": "Pending",
    "responsible_agency": "Department of Public Works",
    "final_address": "S DUPRE ST & WALMSLEY AVE",
    "address_councildis": "B",
    "status": "Pending",
    "contractor": "Royal Engineering",
    "rowid": "902324",
    "final_x": "3670410.6",
    "final_y": "529565.78",
    "longitude": "-90.10315299563355",
    "latitude": "29.950454262569657",
    "geocoded_column": {
      "latitude": "29.950454262569657",
      "longitude": "-90.10315299563355"
    }
  },
  {
    "service_request": "2022-902323",
    "request_type": "Roads/Drainage",
    "request_reason": "Street Flooding / Drainage",
    "date_created": "2022-07-21T14:48:32.000",
    "date_modified": "2022-07-21T14:48:32.000",
    "request_status": "Pending",
    "responsible_agency": "Department of Public Works",
    "final_address": "4800 Chef Menteur Hwy",
    "address_councildis": "D",
    "status": "Pending",
    "rowid": "902323",
    "final_x": "3692396.98787",
    "final_y": "549969.769492",
    "longitude": "-90.03300057458283",
    "latitude": "30.005890581540747",
    "geocoded_column": {
      "latitude": "30.005890581540747",
      "longitude": "-90.03300057458283"
    }
  },
  {
    "service_request": "2022-902322",
    "request_type": "Trash/Recycling",
    "request_reason": "Request a Large Item Pick Up",
    "date_created": "2022-07-21T14:48:22.000",
    "date_modified": "2022-07-21T14:48:22.000",
    "request_status": "Pending",
    "responsible_agency": "Department of Sanitation",
    "final_address": "8132 Belfast St",
    "address_councildis": "A",
    "status": "Assigned to Contractor",
    "contractor": "Richards Disposal",
    "rowid": "902322",
    "final_x": "3665347.42253",
    "final_y": "532468.002948",
    "longitude": "-90.11904283353189",
    "latitude": "29.958582927730088",
    "geocoded_column": {
      "latitude": "29.958582927730088",
      "longitude": "-90.11904283353189"
    }
  },
  {
    "service_request": "2022-902321",
    "request_type": "Trash/Recycling",
    "request_reason": "Repair Trash Cart",
    "date_created": "2022-07-21T14:46:24.000",
    "date_modified": "2022-07-21T14:46:25.000",
    "case_close_date": "2022-03-27T19:00:00.000",
    "request_status": "Pending",
    "responsible_agency": "Department of Sanitation",
    "final_address": "9002 Morrison Rd",
    "address_councildis": "E",
    "status": "Assigned to Contractor",
    "contractor": "Metro Disposal",
    "rowid": "902321",
    "final_x": "3706070.47409",
    "final_y": "561946.712415",
    "longitude": "-89.98935937270201",
    "latitude": "30.038388781772927",
    "geocoded_column": {
      "latitude": "30.038388781772927",
      "longitude": "-89.98935937270201"
    }
  },
  {
    "service_request": "2022-902320",
    "request_type": "Abandoned Vehicles",
    "request_reason": "Abandoned/Junk Vehicles",
    "date_created": "2022-07-21T14:46:13.000",
    "date_modified": "2022-07-21T14:46:13.000",
    "request_status": "Pending",
    "responsible_agency": "Department of Public Works",
    "final_address": "8539 Belfast St",
    "address_councildis": "A",
    "status": "Pending",
    "rowid": "902320",
    "final_x": "3664339.69466",
    "final_y": "533544.493957",
    "longitude": "-90.12218905761084",
    "latitude": "29.96157225216318",
    "geocoded_column": {
      "latitude": "29.96157225216318",
      "longitude": "-90.12218905761084"
    }
  },
  {
    "service_request": "2022-902319",
    "request_type": "Trash/Recycling",
    "request_reason": "Request a Large Item Pick Up",
    "date_created": "2022-07-21T14:41:50.000",
    "date_modified": "2022-07-21T14:41:50.000",
    "request_status": "Pending",
    "responsible_agency": "Department of Sanitation",
    "final_address": "6013 Pasteur Blvd, New Orleans, Louisiana, 70122",
    "address_councildis": "D",
    "status": "Assigned to Contractor",
    "contractor": "Metro Disposal",
    "rowid": "902319",
    "final_x": "3682860.11432",
    "final_y": "554939.329368",
    "longitude": "-90.06295570433441",
    "latitude": "30.019849202172026",
    "geocoded_column": {
      "latitude": "30.019849202172026",
      "longitude": "-90.06295570433441"
    }
  },
  {
    "service_request": "2022-902318",
    "request_type": "Trash/Recycling",
    "request_reason": "Missed Trash Pick-Up",
    "date_created": "2022-07-21T14:41:15.000",
    "date_modified": "2022-07-21T14:41:17.000",
    "request_status": "Pending",
    "responsible_agency": "Department of Sanitation",
    "final_address": "3005 Dauphine St, New Orleans, Louisiana, 70117",
    "address_councildis": "C",
    "status": "Assigned to Contractor",
    "contractor": "Metro Disposal",
    "rowid": "902318",
    "final_x": "3688208.94243",
    "final_y": "535011.52871",
    "longitude": "-90.0467621651806",
    "latitude": "29.964890772124892",
    "geocoded_column": {
      "latitude": "29.964890772124892",
      "longitude": "-90.0467621651806"
    }
  },
  {
    "service_request": "2022-902316",
    "request_type": "Trash/Recycling",
    "request_reason": "Missed Trash Pick-Up",
    "date_created": "2022-07-21T14:38:18.000",
    "date_modified": "2022-07-21T14:38:18.000",
    "request_status": "Pending",
    "responsible_agency": "Department of Sanitation",
    "final_address": "8010 Sycamore St",
    "address_councildis": "A",
    "status": "Assigned to Contractor",
    "contractor": "Richards Disposal",
    "rowid": "902316",
    "final_x": "3664524.04948",
    "final_y": "530744.189954",
    "longitude": "-90.12170039997766",
    "latitude": "29.953866969816186",
    "geocoded_column": {
      "latitude": "29.953866969816186",
      "longitude": "-90.12170039997766"
    }
  },
  {
    "service_request": "2022-902315",
    "request_type": "Trash/Recycling",
    "request_reason": "Missed Trash Pick-Up",
    "date_created": "2022-07-21T14:34:20.000",
    "date_modified": "2022-07-21T14:34:22.000",
    "request_status": "Pending",
    "responsible_agency": "Department of Sanitation",
    "final_address": "8000 Sycamore St",
    "address_councildis": "A",
    "status": "Assigned to Contractor",
    "contractor": "Richards Disposal",
    "rowid": "902315",
    "final_x": "3664607.50567",
    "final_y": "530664.58669",
    "longitude": "-90.12143953698366",
    "latitude": "29.95364565988401",
    "geocoded_column": {
      "latitude": "29.95364565988401",
      "longitude": "-90.12143953698366"
    }
  },
  {
    "service_request": "2022-902314",
    "request_type": "Trash/Recycling",
    "request_reason": "Return Recycling Cart",
    "date_created": "2022-07-21T14:29:13.000",
    "date_modified": "2022-07-21T14:29:13.000",
    "request_status": "Pending",
    "responsible_agency": "Department of Sanitation",
    "final_address": "42 Eugenie Ct",
    "address_councildis": "C",
    "status": "Pending",
    "rowid": "902314",
    "final_x": "3700360.49104",
    "final_y": "511426.262704",
    "longitude": "-90.00924925214744",
    "latitude": "29.89965870863002",
    "geocoded_column": {
      "latitude": "29.89965870863002",
      "longitude": "-90.00924925214744"
    }
  },
  {
    "service_request": "2022-902313",
    "request_type": "Abandoned Vehicles",
    "request_reason": "Abandoned/Junk Vehicles",
    "date_created": "2022-07-21T14:24:09.000",
    "date_modified": "2022-07-21T21:35:40.000",
    "request_status": "Pending",
    "responsible_agency": "Department of Public Works",
    "status": "Inspected",
    "rowid": "902313",
    "longitude": "0.0",
    "latitude": "0.0",
    "geocoded_column": {
      "latitude": "0.0",
      "longitude": "0.0"
    }
  },
  {
    "service_request": "2022-902312",
    "request_type": "Abandoned Vehicles",
    "request_reason": "Abandoned/Junk Vehicles",
    "date_created": "2022-07-21T14:20:59.000",
    "date_modified": "2022-07-21T21:27:25.000",
    "request_status": "Pending",
    "responsible_agency": "Department of Public Works",
    "status": "Inspected",
    "rowid": "902312",
    "longitude": "0.0",
    "latitude": "0.0",
    "geocoded_column": {
      "latitude": "0.0",
      "longitude": "0.0"
    }
  },
  {
    "service_request": "2022-902311",
    "request_type": "Abandoned Vehicles",
    "request_reason": "Abandoned/Junk Vehicles",
    "date_created": "2022-07-21T14:18:32.000",
    "date_modified": "2022-07-21T21:11:15.000",
    "request_status": "Pending",
    "responsible_agency": "Department of Public Works",
    "status": "Inspected",
    "rowid": "902311",
    "longitude": "0.0",
    "latitude": "0.0",
    "geocoded_column": {
      "latitude": "0.0",
      "longitude": "0.0"
    }
  },
  {
    "service_request": "2022-902310",
    "request_type": "Tax and Revenue",
    "request_reason": "General Tax Question",
    "date_created": "2022-07-21T14:18:17.000",
    "date_modified": "2022-07-21T15:22:42.000",
    "request_status": "Pending",
    "responsible_agency": "Bureau of Revenue",
    "final_address": "New Orleans,LA",
    "rowid": "902310",
    "longitude": "0.0",
    "latitude": "0.0",
    "geocoded_column": {
      "latitude": "0.0",
      "longitude": "0.0"
    }
  },