[
  {
    "service_request": "2022-881768",
    "request_type": "Trash/Recycling",
    "request_reason": "Request a Large Item Pick Up",
    "date_created": "2022-05-10T22:05:02.000",
    "date_modified": "2022-05-10T22:05:03.000",
    "request_status": "Pending",
    "responsible_agency": "Department of Sanitation",
    "final_address": "1817 Sophie Wright Pl",
    "address_councildis": "B",
    "status": "Assigned to Contractor",
    "contractor": "Richards Disposal",
    "rowid": "881768",
    "final_x": "3679595.90351",
    "final_y": "523161.011003",
    "longitude": "-90.07437277626974",
    "latitude": "29.932568923703876",
    "geocoded_column": {
      "latitude": "29.932568923703876",
      "longitude": "-90.07437277626974"
    }
  },
  {
    "service_request": "2022-881767",
    "request_type": "Trash/Recycling",
    "request_reason": "Missed Trash Pick-Up",
    "date_created": "2022-05-10T21:50:37.000",
    "date_modified": "2022-05-10T21:50:38.000",
    "request_status": "Pending",
    "responsible_agency": "Department of Sanitation",
    "final_address": "1525 Dufossat St",
    "address_councildis": "B",
    "status": "Assigned to Contractor",
    "contractor": "Richards Disposal",
    "rowid": "881767",
    "final_x": "3668161.69364",
    "final_y": "520678.110521",
    "longitude": "-90.11055336688219",
    "latitude": "29.926082227758133",
    "geocoded_column": {
      "latitude": "29.926082227758133",
      "longitude": "-90.11055336688219"
    }
  },
  {
    "service_request": "2022-881766",
    "request_type": "Property Maintenance",
    "request_reason": "Property Maintenance",
    "date_created": "2022-05-10T21:28:12.000",
    "date_modified": "2022-05-10T21:28:12.000",
    "request_status": "Pending",
    "responsible_agency": "Department of Code Enforcement",
    "final_address": "1228 Gallier St",
    "address_councildis": "C",
    "status": "Pending",
    "rowid": "881766",
    "final_x": "3690574.97276",
    "final_y": "536246.590471",
    "longitude": "-90.03924636760223",
    "latitude": "29.968213498292172",
    "geocoded_column": {
      "latitude": "29.968213498292172",
      "longitude": "-90.03924636760223"
    }
  },
  {
    "service_request": "2022-881765",
    "request_type": "Traffic Signals/Signs/Striping/Streetlights",
    "request_reason": "Street Light Outage/Malfunction",
    "date_created": "2022-05-10T21:18:20.000",
    "date_modified": "2022-05-10T21:18:21.000",
    "request_status": "Pending",
    "responsible_agency": "Department of Public Works",
    "final_address": "4633 Palmyra St",
    "address_councildis": "A",
    "status": "Pending",
    "contractor": "Royal Engineering",
    "rowid": "881765",
    "final_x": "3668725.27226",
    "final_y": "539192.89761",
    "longitude": "-90.10814937809323",
    "latitude": "29.97697528621415",
    "geocoded_column": {
      "latitude": "29.97697528621415",
      "longitude": "-90.10814937809323"
    }
  },
  {
    "service_request": "2022-881764",
    "request_type": "Trash/Recycling",
    "request_reason": "Missed Trash Pick-Up",
    "date_created": "2022-05-10T21:16:26.000",
    "date_modified": "2022-05-10T21:16:27.000",
    "request_status": "Pending",
    "responsible_agency": "Department of Sanitation",
    "final_address": "4600 BLK Constance St",
    "address_councildis": "B",
    "status": "Assigned to Contractor",
    "contractor": "Richards Disposal",
    "rowid": "881764",
    "final_x": "3670165.28365",
    "final_y": "518323.058942",
    "longitude": "-90.10430833733331",
    "latitude": "29.91954764044729",
    "geocoded_column": {
      "latitude": "29.91954764044729",
      "longitude": "-90.10430833733331"
    }
  },
  {
    "service_request": "2022-881763",
    "request_type": "Trash/Recycling",
    "request_reason": "Missed Trash Pick-Up",
    "date_created": "2022-05-10T21:11:31.000",
    "date_modified": "2022-05-10T21:11:32.000",
    "request_status": "Pending",
    "responsible_agency": "Department of Sanitation",
    "final_address": "441 S Bernadotte St",
    "address_councildis": "A",
    "status": "Assigned to Contractor",
    "contractor": "Richards Disposal",
    "rowid": "881763",
    "final_x": "3667831.74157",
    "final_y": "538846.950281",
    "longitude": "-90.11098309893528",
    "latitude": "29.97605028738086",
    "geocoded_column": {
      "latitude": "29.97605028738086",
      "longitude": "-90.11098309893528"
    }
  },
  {
    "service_request": "2022-881762",
    "request_type": "Trash/Recycling",
    "request_reason": "Missed Trash Pick-Up",
    "date_created": "2022-05-10T21:10:44.000",
    "date_modified": "2022-05-10T21:10:44.000",
    "request_status": "Pending",
    "responsible_agency": "Department of Sanitation",
    "final_address": "4913 Constance St",
    "address_councildis": "B",
    "status": "Assigned to Contractor",
    "contractor": "Richards Disposal",
    "rowid": "881762",
    "final_x": "3668860.43828",
    "final_y": "518246.404982",
    "longitude": "-90.1084296847542",
    "latitude": "29.919375285515766",
    "geocoded_column": {
      "latitude": "29.919375285515766",
      "longitude": "-90.1084296847542"
    }
  },
  {
    "service_request": "2022-881761",
    "request_type": "Roads/Drainage",
    "request_reason": "Pothole",
    "date_created": "2022-05-10T20:50:13.000",
    "date_modified": "2022-05-10T20:50:13.000",
    "request_status": "Pending",
    "responsible_agency": "Department of Public Works",
    "final_address": "835 Julia St",
    "address_councildis": "B",
    "status": "Pending",
    "rowid": "881761",
    "final_x": "3679723.8436",
    "final_y": "528227.776256",
    "longitude": "-90.07379305504593",
    "latitude": "29.946496982187416",
    "geocoded_column": {
      "latitude": "29.946496982187416",
      "longitude": "-90.07379305504593"
    }
  },
  {
    "service_request": "2022-881760",
    "request_type": "Trash/Recycling",
    "request_reason": "Missed Trash Pick-Up",
    "date_created": "2022-05-10T20:37:44.000",
    "date_modified": "2022-05-10T20:37:44.000",
    "request_status": "Pending",
    "responsible_agency": "Department of Sanitation",
    "final_address": "1421 General Pershing St",
    "address_councildis": "B",
    "status": "Assigned to Contractor",
    "contractor": "Richards Disposal",
    "rowid": "881760",
    "final_x": "3671361.78433",
    "final_y": "520550.771576",
    "longitude": "-90.10045591150714",
    "latitude": "29.925637797976027",
    "geocoded_column": {
      "latitude": "29.925637797976027",
      "longitude": "-90.10045591150714"
    }
  },
  {
    "service_request": "2022-881758",
    "request_type": "Traffic Signals/Signs/Striping/Streetlights",
    "request_reason": "Street Light Outage/Malfunction",
    "date_created": "2022-05-10T20:25:59.000",
    "date_modified": "2022-05-10T20:26:00.000",
    "request_status": "Pending",
    "responsible_agency": "Department of Public Works",
    "final_address": "2831 Laurel St",
    "address_councildis": "B",
    "status": "Pending",
    "contractor": "Royal Engineering",
    "rowid": "881758",
    "final_x": "3677213.09275",
    "final_y": "520091.851896",
    "longitude": "-90.08200092205563",
    "latitude": "29.92420150766007",
    "geocoded_column": {
      "latitude": "29.92420150766007",
      "longitude": "-90.08200092205563"
    }
  },
  {
    "service_request": "2022-881757",
    "request_type": "Trash/Recycling",
    "request_reason": "Missed Trash Pick-Up",
    "date_created": "2022-05-10T20:25:45.000",
    "date_modified": "2022-05-10T20:25:46.000",
    "request_status": "Pending",
    "responsible_agency": "Department of Sanitation",
    "final_address": "5024 S Johnson St",
    "address_councildis": "B",
    "status": "Assigned to Contractor",
    "contractor": "Richards Disposal",
    "rowid": "881757",
    "final_x": "3668684.41345",
    "final_y": "526921.92371",
    "longitude": "-90.10869263324884",
    "latitude": "29.943235362838085",
    "geocoded_column": {
      "latitude": "29.943235362838085",
      "longitude": "-90.10869263324884"
    }
  },
  {
    "service_request": "2022-881756",
    "request_type": "Trash/Recycling",
    "request_reason": "Missed Trash Pick-Up",
    "date_created": "2022-05-10T19:44:39.000",
    "date_modified": "2022-05-10T19:44:40.000",
    "request_status": "Pending",
    "responsible_agency": "Department of Sanitation",
    "final_address": "5200 Atlanta St",
    "address_councildis": "B",
    "status": "Assigned to Contractor",
    "contractor": "Richards Disposal",
    "rowid": "881756",
    "final_x": "3667983.80449",
    "final_y": "520661.062009",
    "longitude": "-90.11111548717626",
    "latitude": "29.92604056837358",
    "geocoded_column": {
      "latitude": "29.92604056837358",
      "longitude": "-90.11111548717626"
    }
  },
  {
    "service_request": "2022-881755",
    "request_type": "Trash/Recycling",
    "request_reason": "Missed Trash Pick-Up",
    "date_created": "2022-05-10T19:43:49.000",
    "date_modified": "2022-05-10T19:43:50.000",
    "request_status": "Pending",
    "responsible_agency": "Department of Sanitation",
    "final_address": "1930 Foucher St",
    "address_councildis": "B",
    "status": "Assigned to Contractor",
    "contractor": "Richards Disposal",
    "rowid": "881755",
    "final_x": "3672974.67355",
    "final_y": "522540.367354",
    "longitude": "-90.09529664300699",
    "latitude": "29.93106072938339",
    "geocoded_column": {
      "latitude": "29.93106072938339",
      "longitude": "-90.09529664300699"
    }
  },
  {
    "service_request": "2022-881754",
    "request_type": "Trash/Recycling",
    "request_reason": "Missed Trash Pick-Up",
    "date_created": "2022-05-10T19:43:44.000",
    "date_modified": "2022-05-10T19:43:45.000",
    "request_status": "Pending",
    "responsible_agency": "Department of Sanitation",
    "final_address": "1414 General Pershing St, New Orleans, Louisiana, 70115",
    "address_councildis": "B",
    "status": "Assigned to Contractor",
    "contractor": "Richards Disposal",
    "rowid": "881754",
    "final_x": "3671261.24686",
    "final_y": "520437.260472",
    "longitude": "-90.10077713281079",
    "latitude": "29.925328652764673",
    "geocoded_column": {
      "latitude": "29.925328652764673",
      "longitude": "-90.10077713281079"
    }
  },
  {
    "service_request": "2022-881753",
    "request_type": "Trash/Recycling",
    "request_reason": "Order Recycling Cart",
    "date_created": "2022-05-10T19:40:59.000",
    "date_modified": "2022-05-10T19:40:59.000",
    "request_status": "Pending",
    "responsible_agency": "Department of Sanitation",
    "final_address": "11241 S Idlewood Ct",
    "address_councildis": "E",
    "status": "Pending",
    "rowid": "881753",
    "final_x": "3716598.85631",
    "final_y": "559694.242333",
    "longitude": "-89.95617284381291",
    "latitude": "30.03185164577297",
    "geocoded_column": {
      "latitude": "30.03185164577297",
      "longitude": "-89.95617284381291"
    }
  },
  {
    "service_request": "2022-881752",
    "request_type": "Trash/Recycling",
    "request_reason": "Replace Trash Cart",
    "date_created": "2022-05-10T19:39:34.000",
    "date_modified": "2022-05-10T19:39:35.000",
    "request_status": "Pending",
    "responsible_agency": "Department of Sanitation",
    "final_address": "11241 S Idlewood Ct",
    "address_councildis": "E",
    "status": "Assigned to Contractor",
    "contractor": "Metro Disposal",
    "rowid": "881752",
    "final_x": "3716598.85631",
    "final_y": "559694.242333",
    "longitude": "-89.95617284381291",
    "latitude": "30.03185164577297",
    "geocoded_column": {
      "latitude": "30.03185164577297",
      "longitude": "-89.95617284381291"
    }
  },
  {
    "service_request": "2022-881751",
    "request_type": "Trash/Recycling",
    "request_reason": "Request a Large Item Pick Up",
    "date_created": "2022-05-10T19:31:01.000",
    "date_modified": "2022-05-10T19:31:01.000",
    "request_status": "Pending",
    "responsible_agency": "Department of Sanitation",
    "final_address": "4116 Coliseum St",
    "address_councildis": "B",
    "status": "Assigned to Contractor",
    "contractor": "Richards Disposal",
    "rowid": "881751",
    "final_x": "3671891.89972",
    "final_y": "519881.202616",
    "longitude": "-90.09880526720416",
    "latitude": "29.923781003111383",
    "geocoded_column": {
      "latitude": "29.923781003111383",
      "longitude": "-90.09880526720416"
    }
  },
  {
    "service_request": "2022-881750",
    "request_type": "Trash/Recycling",
    "request_reason": "Missed Trash Pick-Up",
    "date_created": "2022-05-10T19:30:01.000",
    "date_modified": "2022-05-10T19:30:01.000",
    "request_status": "Pending",
    "responsible_agency": "Department of Sanitation",
    "final_address": "4116 Coliseum St",
    "address_councildis": "B",
    "status": "Assigned to Contractor",
    "contractor": "Richards Disposal",
    "rowid": "881750",
    "final_x": "3671891.89972",
    "final_y": "519881.202616",
    "longitude": "-90.09880526720416",
    "latitude": "29.923781003111383",
    "geocoded_column": {
      "latitude": "29.923781003111383",
      "longitude": "-90.09880526720416"
    }
  },
  {
    "service_request": "2022-881749",
    "request_type": "Trash/Recycling",
    "request_reason": "Missed Trash Pick-Up",
    "date_created": "2022-05-10T19:29:17.000",
    "date_modified": "2022-05-10T19:29:17.000",
    "request_status": "Pending",
    "responsible_agency": "Department of Sanitation",
    "final_address": "1023 Dufossat St",
    "address_councildis": "B",
    "status": "Assigned to Contractor",
    "contractor": "Richards Disposal",
    "rowid": "881749",
    "final_x": "3668147.42925",
    "final_y": "519194.491511",
    "longitude": "-90.11064837000087",
    "latitude": "29.92200316354626",
    "geocoded_column": {
      "latitude": "29.92200316354626",
      "longitude": "-90.11064837000087"
    }
  },
  {
    "service_request": "2022-881748",
    "request_type": "Trash/Recycling",
    "request_reason": "Missed Trash Pick-Up",
    "date_created": "2022-05-10T19:26:59.000",
    "date_modified": "2022-05-10T19:27:00.000",
    "request_status": "Pending",
    "responsible_agency": "Department of Sanitation",
    "final_address": "1027 Lyons St",
    "address_councildis": "B",
    "status": "Assigned to Contractor",
    "contractor": "Richards Disposal",
    "rowid": "881748",
    "final_x": "3669266.73025",
    "final_y": "519209.667831",
    "longitude": "-90.10711468312647",
    "latitude": "29.922012004960877",
    "geocoded_column": {
      "latitude": "29.922012004960877",
      "longitude": "-90.10711468312647"
    }
  },
  {
    "service_request": "2022-881747",
    "request_type": "Trash/Recycling",
    "request_reason": "Missed Trash Pick-Up",
    "date_created": "2022-05-10T19:22:14.000",
    "date_modified": "2022-05-10T19:22:15.000",
    "request_status": "Pending",
    "responsible_agency": "Department of Sanitation",
    "final_address": "1301 General Taylor St",
    "address_councildis": "B",
    "status": "Assigned to Contractor",
    "contractor": "Richards Disposal",
    "rowid": "881747",
    "final_x": "3672844.37032",
    "final_y": "520291.135864",
    "longitude": "-90.09578468200387",
    "latitude": "29.924879936904606",
    "geocoded_column": {
      "latitude": "29.924879936904606",
      "longitude": "-90.09578468200387"
    }
  },
  {
    "service_request": "2022-881746",
    "request_type": "Trash/Recycling",
    "request_reason": "Missed Trash Pick-Up",
    "date_created": "2022-05-10T19:18:45.000",
    "date_modified": "2022-05-10T19:18:46.000",
    "request_status": "Pending",
    "responsible_agency": "Department of Sanitation",
    "final_address": "5252 Annunciation St",
    "address_councildis": "B",
    "status": "Assigned to Contractor",
    "contractor": "Richards Disposal",
    "rowid": "881746",
    "final_x": "3667535.18861",
    "final_y": "517534.757814",
    "longitude": "-90.11263677711774",
    "latitude": "29.91745736721848",
    "geocoded_column": {
      "latitude": "29.91745736721848",
      "longitude": "-90.11263677711774"
    }
  },
  {
    "service_request": "2022-881745",
    "request_type": "Trash/Recycling",
    "request_reason": "Missed Trash Pick-Up",
    "date_created": "2022-05-10T19:18:29.000",
    "date_modified": "2022-05-10T19:18:30.000",
    "request_status": "Pending",
    "responsible_agency": "Department of Sanitation",
    "final_address": "413 Constantinople St",
    "address_councildis": "B",
    "status": "Assigned to Contractor",
    "contractor": "Richards Disposal",
    "rowid": "881745",
    "final_x": "3672691.84276",
    "final_y": "517475.15071",
    "longitude": "-90.09636212350053",
    "latitude": "29.917141405070293",
    "geocoded_column": {
      "latitude": "29.917141405070293",
      "longitude": "-90.09636212350053"
    }
  },
  {
    "service_request": "2022-881744",
    "request_type": "Trash/Recycling",
    "request_reason": "MIssed Recycling Pick-Up",
    "date_created": "2022-05-10T19:04:41.000",
    "date_modified": "2022-05-10T19:04:41.000",
    "request_status": "Pending",
    "responsible_agency": "Department of Sanitation",
    "final_address": "1028 Constantinople St",
    "address_councildis": "B",
    "status": "Assigned to Contractor",
    "contractor": "Richards Disposal",
    "rowid": "881744",
    "final_x": "3672414.91598",
    "final_y": "519535.825079",
    "longitude": "-90.09716605325552",
    "latitude": "29.922815820570698",
    "geocoded_column": {
      "latitude": "29.922815820570698",
      "longitude": "-90.09716605325552"
    }
  },
  {
    "service_request": "2022-881743",
    "request_type": "Trash/Recycling",
    "request_reason": "Missed Trash Pick-Up",
    "date_created": "2022-05-10T19:04:26.000",
    "date_modified": "2022-05-10T19:04:27.000",
    "request_status": "Pending",
    "responsible_agency": "Department of Sanitation",
    "final_address": "1028 Constantinople St",
    "address_councildis": "B",
    "status": "Assigned to Contractor",
    "contractor": "Richards Disposal",
    "rowid": "881743",
    "final_x": "3672414.91598",
    "final_y": "519535.825079",
    "longitude": "-90.09716605325552",
    "latitude": "29.922815820570698",
    "geocoded_column": {
      "latitude": "29.922815820570698",
      "longitude": "-90.09716605325552"
    }
  },
  {
    "service_request": "2022-881742",
    "request_type": "Trash/Recycling",
    "request_reason": "Replace Trash Cart",
    "date_created": "2022-05-10T19:03:11.000",
    "date_modified": "2022-05-10T19:03:11.000",
    "request_status": "Pending",
    "responsible_agency": "Department of Sanitation",
    "final_address": "2204 Monterrey St",
    "address_councildis": "D",
    "status": "Assigned to Contractor",
    "contractor": "Metro Disposal",
    "rowid": "881742",
    "final_x": "3684305.70319",
    "final_y": "546935.199249",
    "longitude": "-90.05866945465047",
    "latitude": "29.997796602739697",
    "geocoded_column": {
      "latitude": "29.997796602739697",
      "longitude": "-90.05866945465047"
    }
  },
  {
    "service_request": "2022-881741",
    "request_type": "Trash/Recycling",
    "request_reason": "Request a Large Item Pick Up",
    "date_created": "2022-05-10T19:01:17.000",
    "date_modified": "2022-05-10T19:01:18.000",
    "request_status": "Pending",
    "responsible_agency": "Department of Sanitation",
    "final_address": "4060 S Inwood Ave",
    "address_councildis": "C",
    "status": "Assigned to Contractor",
    "contractor": "Richards Disposal",
    "rowid": "881741",
    "final_x": "3705019.04804",
    "final_y": "512920.390705",
    "longitude": "-89.99449245612362",
    "latitude": "29.9036182097055",
    "geocoded_column": {
      "latitude": "29.9036182097055",
      "longitude": "-89.99449245612362"
    }
  },
  {
    "service_request": "2022-881740",
    "request_type": "Trash/Recycling",
    "request_reason": "Missed Trash Pick-Up",
    "date_created": "2022-05-10T18:52:44.000",
    "date_modified": "2022-05-10T18:52:44.000",
    "request_status": "Pending",
    "responsible_agency": "Department of Sanitation",
    "final_address": "700 Block of Jefferson Ave, New Orleans, Louisiana, 70115",
    "status": "Assigned to Contractor",
    "rowid": "881740",
    "longitude": "0.0",
    "latitude": "0.0",
    "geocoded_column": {
      "latitude": "0.0",
      "longitude": "0.0"
    }
  },
  {
    "service_request": "2022-881739",
    "request_type": "Trash/Recycling",
    "request_reason": "Missed Trash Pick-Up",
    "date_created": "2022-05-10T18:50:42.000",
    "date_modified": "2022-05-10T18:50:42.000",
    "request_status": "Pending",
    "responsible_agency": "Department of Sanitation",
    "final_address": "4919 S Derbigny St",
    "address_councildis": "B",
    "status": "Assigned to Contractor",
    "contractor": "Richards Disposal",
    "rowid": "881739",
    "final_x": "3669090.45639",
    "final_y": "526377.695486",
    "longitude": "-90.10742903276821",
    "latitude": "29.94172697261908",
    "geocoded_column": {
      "latitude": "29.94172697261908",
      "longitude": "-90.10742903276821"
    }
  },
  {
    "service_request": "2022-881738",
    "request_type": "Abandoned Vehicles",
    "request_reason": "Abandoned/Junk Vehicles",
    "date_created": "2022-05-10T18:43:01.000",
    "date_modified": "2022-05-10T18:43:01.000",
    "request_status": "Pending",
    "responsible_agency": "Department of Public Works",
    "final_address": "1722 St Philip St",
    "address_councildis": "D",
    "status": "Pending",
    "rowid": "881738",
    "final_x": "3680197.9917",
    "final_y": "535628.266374",
    "longitude": "-90.0720387984453",
    "latitude": "29.966831485594362",
    "geocoded_column": {
      "latitude": "29.966831485594362",
      "longitude": "-90.0720387984453"
    }
  },
  {
    "service_request": "2022-881736",
    "request_type": "Property Maintenance",
    "request_reason": "Property Maintenance",
    "date_created": "2022-05-10T18:42:35.000",
    "date_modified": "2022-05-10T18:42:35.000",
    "request_status": "Pending",
    "responsible_agency": "Department of Code Enforcement",
    "final_address": "2520 Danneel St",
    "address_councildis": "B",
    "status": "Pending",
    "rowid": "881736",
    "final_x": "3675763.18587",
    "final_y": "524114.345084",
    "longitude": "-90.08643960106882",
    "latitude": "29.93530551618305",
    "geocoded_column": {
      "latitude": "29.93530551618305",
      "longitude": "-90.08643960106882"
    }
  },
  {
    "service_request": "2022-881735",
    "request_type": "Trash/Recycling",
    "request_reason": "Request a Large Item Pick Up",
    "date_created": "2022-05-10T18:38:44.000",
    "date_modified": "2022-05-10T18:38:44.000",
    "request_status": "Pending",
    "responsible_agency": "Department of Sanitation",
    "final_address": "624 Thayer St",
    "address_councildis": "C",
    "status": "Assigned to Contractor",
    "contractor": "Richards Disposal",
    "rowid": "881735",
    "final_x": "3689544.00841",
    "final_y": "529181.755008",
    "longitude": "-90.04275347938423",
    "latitude": "29.94881962798825",
    "geocoded_column": {
      "latitude": "29.94881962798825",
      "longitude": "-90.04275347938423"
    }
  },
  {
    "service_request": "2022-881734",
    "request_type": "Trash/Recycling",
    "request_reason": "Request a Large Item Pick Up",
    "date_created": "2022-05-10T18:38:29.000",
    "date_modified": "2022-05-10T18:38:29.000",
    "request_status": "Pending",
    "responsible_agency": "Department of Sanitation",
    "final_address": "200 N Olympia St",
    "address_councildis": "A",
    "status": "Assigned to Contractor",
    "contractor": "Richards Disposal",
    "rowid": "881734",
    "final_x": "3669763.12263",
    "final_y": "540021.849547",
    "longitude": "-90.10484343617743",
    "latitude": "29.979224069423523",
    "geocoded_column": {
      "latitude": "29.979224069423523",
      "longitude": "-90.10484343617743"
    }
  },
  {
    "service_request": "2022-881733",
    "request_type": "Roads/Drainage",
    "request_reason": "Damaged Sidewalk",
    "date_created": "2022-05-10T18:27:07.000",
    "date_modified": "2022-05-10T18:27:07.000",
    "request_status": "Pending",
    "responsible_agency": "Department of Public Works",
    "final_address": "800 Canal St",
    "address_councildis": "B",
    "status": "Pending",
    "rowid": "881733",
    "final_x": "3680798.96482",
    "final_y": "530830.025986",
    "longitude": "-90.07030795216937",
    "latitude": "29.953619754055183",
    "geocoded_column": {
      "latitude": "29.953619754055183",
      "longitude": "-90.07030795216937"
    }
  },
  {
    "service_request": "2022-881732",
    "request_type": "Trash/Recycling",
    "request_reason": "Missed Trash Pick-Up",
    "date_created": "2022-05-10T18:20:38.000",
    "date_modified": "2022-05-10T18:20:39.000",
    "request_status": "Pending",
    "responsible_agency": "Department of Sanitation",
    "final_address": "3701 Rue Delphine",
    "address_councildis": "C",
    "status": "Assigned to Contractor",
    "contractor": "Richards Disposal",
    "rowid": "881732",
    "final_x": "3702968.60919",
    "final_y": "516994.103413",
    "longitude": "-90.00081407990876",
    "latitude": "29.914885249383005",
    "geocoded_column": {
      "latitude": "29.914885249383005",
      "longitude": "-90.00081407990876"
    }
  },
  {
    "service_request": "2022-881731",
    "request_type": "Trash/Recycling",
    "request_reason": "Missed Trash Pick-Up",
    "date_created": "2022-05-10T18:07:59.000",
    "date_modified": "2022-05-10T18:08:00.000",
    "request_status": "Pending",
    "responsible_agency": "Department of Sanitation",
    "final_address": "1800 BLK Delachaise St",
    "address_councildis": "B",
    "status": "Assigned to Contractor",
    "contractor": "Richards Disposal",
    "rowid": "881731",
    "final_x": "3673470.25407",
    "final_y": "522234.606893",
    "longitude": "-90.09374260075045",
    "latitude": "29.930205254337945",
    "geocoded_column": {
      "latitude": "29.930205254337945",
      "longitude": "-90.09374260075045"
    }
  },
  {
    "service_request": "2022-881730",
    "request_type": "Trash/Recycling",
    "request_reason": "Missed Trash Pick-Up",
    "date_created": "2022-05-10T17:58:59.000",
    "date_modified": "2022-05-10T17:58:59.000",
    "request_status": "Pending",
    "responsible_agency": "Department of Sanitation",
    "final_address": "2540 Palmyra St",
    "address_councildis": "B",
    "status": "Assigned to Contractor",
    "contractor": "Richards Disposal",
    "rowid": "881730",
    "final_x": "3675347.49729",
    "final_y": "534023.596549",
    "longitude": "-90.08741177263461",
    "latitude": "29.96256510429831",
    "geocoded_column": {
      "latitude": "29.96256510429831",
      "longitude": "-90.08741177263461"
    }
  },
  {
    "service_request": "2022-881729",
    "request_type": "Property Maintenance",
    "request_reason": "Property Maintenance",
    "date_created": "2022-05-10T17:42:18.000",
    "date_modified": "2022-05-10T17:42:18.000",
    "request_status": "Pending",
    "responsible_agency": "Department of Code Enforcement",
    "final_address": "4537 Mark Twain Dr",
    "address_councildis": "D",
    "status": "Pending",
    "rowid": "881729",
    "final_x": "3691559.28899",
    "final_y": "550963.099221",
    "longitude": "-90.03561151114029",
    "latitude": "30.008647984865522",
    "geocoded_column": {
      "latitude": "30.008647984865522",
      "longitude": "-90.03561151114029"
    }
  },
  {
    "service_request": "2022-881728",
    "request_type": "Property Maintenance",
    "request_reason": "Property Maintenance",
    "date_created": "2022-05-10T17:38:20.000",
    "date_modified": "2022-05-10T17:38:20.000",
    "request_status": "Pending",
    "responsible_agency": "Department of Code Enforcement",
    "final_address": "4567 Mark Twain Dr",
    "address_councildis": "D",
    "status": "Pending",
    "rowid": "881728",
    "final_x": "3691503.7519",
    "final_y": "551156.173781",
    "longitude": "-90.0357800625817",
    "latitude": "30.009180597980034",
    "geocoded_column": {
      "latitude": "30.009180597980034",
      "longitude": "-90.0357800625817"
    }
  },
  {
    "service_request": "2022-881727",
    "request_type": "Abandoned Vehicles",
    "request_reason": "Abandoned/Junk Vehicles",
    "date_created": "2022-05-10T17:35:03.000",
    "date_modified": "2022-05-10T17:35:03.000",
    "request_status": "Pending",
    "responsible_agency": "Department of Public Works",
    "final_address": "914 Piety St",
    "address_councildis": "C",
    "status": "Pending",
    "rowid": "881727",
    "final_x": "3689639.37078",
    "final_y": "535140.106374",
    "longitude": "-90.042240401619",
    "latitude": "29.965200075658636",
    "geocoded_column": {
      "latitude": "29.965200075658636",
      "longitude": "-90.042240401619"
    }
  },
  {
    "service_request": "2022-881725",
    "request_type": "Trash/Recycling",
    "request_reason": "Request a Large Item Pick Up",
    "date_created": "2022-05-10T17:25:46.000",
    "date_modified": "2022-05-10T17:25:47.000",
    "request_status": "Pending",
    "responsible_agency": "Department of Sanitation",
    "final_address": "4000 S Post Oak Ave",
    "address_councildis": "C",
    "status": "Assigned to Contractor",
    "contractor": "Richards Disposal",
    "rowid": "881725",
    "final_x": "3704722.0227",
    "final_y": "513421.93253",
    "longitude": "-89.99541137840194",
    "latitude": "29.905006818467946",
    "geocoded_column": {
      "latitude": "29.905006818467946",
      "longitude": "-89.99541137840194"
    }
  },
  {
    "service_request": "2022-881723",
    "request_type": "Trash/Recycling",
    "request_reason": "Request a Large Item Pick Up",
    "date_created": "2022-05-10T17:19:04.000",
    "date_modified": "2022-05-10T17:19:05.000",
    "request_status": "Pending",
    "responsible_agency": "Department of Sanitation",
    "final_address": "253 Pine St",
    "address_councildis": "A",
    "status": "Assigned to Contractor",
    "contractor": "Richards Disposal",
    "rowid": "881723",
    "final_x": "3661493.77888",
    "final_y": "522988.368251",
    "longitude": "-90.13152565661873",
    "latitude": "29.932628686486552",
    "geocoded_column": {
      "latitude": "29.932628686486552",
      "longitude": "-90.13152565661873"
    }
  },
  {
    "service_request": "2022-881722",
    "request_type": "Abandoned Vehicles",
    "request_reason": "Abandoned/Junk Vehicles",
    "date_created": "2022-05-10T17:15:53.000",
    "date_modified": "2022-05-10T17:15:53.000",
    "request_status": "Pending",
    "responsible_agency": "Department of Public Works",
    "final_address": "930 Poydras St",
    "address_councildis": "B",
    "status": "Pending",
    "rowid": "881722",
    "final_x": "3679659.53346",
    "final_y": "529542.218497",
    "longitude": "-90.0739504909318",
    "latitude": "29.950113201883553",
    "geocoded_column": {
      "latitude": "29.950113201883553",
      "longitude": "-90.0739504909318"
    }
  },
  {
    "service_request": "2022-881721",
    "request_type": "Trash/Recycling",
    "request_reason": "Illegal Dumping",
    "date_created": "2022-05-10T17:12:42.000",
    "date_modified": "2022-05-10T17:12:42.000",
    "request_status": "Pending",
    "responsible_agency": "Department of Sanitation",
    "final_address": "3220 Jefferson Ave",
    "address_councildis": "A",
    "status": "Pending",
    "rowid": "881721",
    "final_x": "3668527.68449",
    "final_y": "527120.929855",
    "longitude": "-90.10918075509997",
    "latitude": "29.943787170252556",
    "geocoded_column": {
      "latitude": "29.943787170252556",
      "longitude": "-90.10918075509997"
    }
  },
  {
    "service_request": "2022-881720",
    "request_type": "Abandoned Vehicles",
    "request_reason": "Abandoned/Junk Vehicles",
    "date_created": "2022-05-10T17:06:20.000",
    "date_modified": "2022-05-10T17:06:20.000",
    "request_status": "Pending",
    "responsible_agency": "Department of Public Works",
    "final_address": "12900 Jeanne Ct",
    "address_councildis": "E",
    "status": "Pending",
    "rowid": "881720",
    "final_x": "3716563.27647",
    "final_y": "567890.087588",
    "longitude": "-89.95597395455535",
    "latitude": "30.054388063640225",
    "geocoded_column": {
      "latitude": "30.054388063640225",
      "longitude": "-89.95597395455535"
    }
  },
  {
    "service_request": "2022-881719",
    "request_type": "Property Maintenance",
    "request_reason": "Property Maintenance",
    "date_created": "2022-05-10T17:04:58.000",
    "date_modified": "2022-05-10T17:04:58.000",
    "request_status": "Pending",
    "responsible_agency": "Department of Code Enforcement",
    "final_address": "7409 Dogwood Dr",
    "address_councildis": "E",
    "status": "Pending",
    "rowid": "881719",
    "final_x": "3701590.96471",
    "final_y": "560435.921886",
    "longitude": "-90.00357111898242",
    "latitude": "30.034378403825855",
    "geocoded_column": {
      "latitude": "30.034378403825855",
      "longitude": "-90.00357111898242"
    }
  },
  {
    "service_request": "2022-881718",
    "request_type": "Trash/Recycling",
    "request_reason": "Request a Large Item Pick Up",
    "date_created": "2022-05-10T17:00:08.000",
    "date_modified": "2022-05-10T17:00:09.000",
    "request_status": "Pending",
    "responsible_agency": "Department of Sanitation",
    "final_address": "524 Washington Ave",
    "address_councildis": "B",
    "status": "Assigned to Contractor",
    "contractor": "Richards Disposal",
    "rowid": "881718",
    "final_x": "3678061.82178",
    "final_y": "519219.996727",
    "longitude": "-90.07935189941102",
    "latitude": "29.921778675480546",
    "geocoded_column": {
      "latitude": "29.921778675480546",
      "longitude": "-90.07935189941102"
    }
  },
  {
    "service_request": "2022-881717",
    "request_type": "Abandoned Vehicles",
    "request_reason": "Abandoned/Junk Vehicles",
    "date_created": "2022-05-10T16:59:52.000",
    "date_modified": "2022-05-10T16:59:52.000",
    "request_status": "Pending",
    "responsible_agency": "Department of Public Works",
    "final_address": "12541 N Lake Carmel Dr",
    "address_councildis": "E",
    "status": "Pending",
    "rowid": "881717",
    "final_x": "3715766.7324",
    "final_y": "568026.879461",
    "longitude": "-89.95848643184752",
    "latitude": "30.054790488149774",
    "geocoded_column": {
      "latitude": "30.054790488149774",
      "longitude": "-89.95848643184752"
    }
  },
  {
    "service_request": "2022-881716",
    "request_type": "Trash/Recycling",
    "request_reason": "Return Recycling Cart",
    "date_created": "2022-05-10T16:56:46.000",
    "date_modified": "2022-05-10T16:56:50.000",
    "request_status": "Pending",
    "responsible_agency": "Department of Sanitation",
    "final_address": "32 Grand Canyon Dr",
    "address_councildis": "C",
    "status": "Pending",
    "rowid": "881716",
    "final_x": "3699730.90122",
    "final_y": "516972.439669",
    "longitude": "-90.0110341612115",
    "latitude": "29.9149288148293",
    "geocoded_column": {
      "latitude": "29.9149288148293",
      "longitude": "-90.0110341612115"
    }
  },
  {
    "service_request": "2022-881715",
    "request_type": "Trash/Recycling",
    "request_reason": "Missed Trash Pick-Up",
    "date_created": "2022-05-10T16:55:32.000",
    "date_modified": "2022-05-10T16:55:32.000",
    "request_status": "Pending",
    "responsible_agency": "Department of Sanitation",
    "final_address": "4300 BLK Coliseum St",
    "address_councildis": "B",
    "status": "Assigned to Contractor",
    "contractor": "Richards Disposal",
    "rowid": "881715",
    "final_x": "3671171.73078",
    "final_y": "519844.933195",
    "longitude": "-90.10107981563857",
    "latitude": "29.923702589131413",
    "geocoded_column": {
      "latitude": "29.923702589131413",
      "longitude": "-90.10107981563857"
    }
  },
  {
    "service_request": "2022-881714",
    "request_type": "Trash/Recycling",
    "request_reason": "Missed Trash Pick-Up",
    "date_created": "2022-05-10T16:54:24.000",
    "date_modified": "2022-05-10T16:54:25.000",
    "request_status": "Pending",
    "responsible_agency": "Department of Sanitation",
    "final_address": "5351 Tchoupitoulas St",
    "address_councildis": "B",
    "status": "Assigned to Contractor",
    "contractor": "Richards Disposal",
    "rowid": "881714",
    "final_x": "3666843.49517",
    "final_y": "517212.276725",
    "longitude": "-90.11483089618059",
    "latitude": "29.916590888881792",
    "geocoded_column": {
      "latitude": "29.916590888881792",
      "longitude": "-90.11483089618059"
    }
  },
  {
    "service_request": "2022-881713",
    "request_type": "Abandoned Vehicles",
    "request_reason": "Abandoned/Junk Vehicles",
    "date_created": "2022-05-10T16:53:10.000",
    "date_modified": "2022-05-10T16:53:10.000",
    "request_status": "Pending",
    "responsible_agency": "Department of Public Works",
    "final_address": "12540 N Lake Carmel Dr",
    "address_councildis": "E",
    "status": "Pending",
    "rowid": "881713",
    "final_x": "3715844.74936",
    "final_y": "567899.210341",
    "longitude": "-89.9582446825664",
    "latitude": "30.05443687644844",
    "geocoded_column": {
      "latitude": "30.05443687644844",
      "longitude": "-89.9582446825664"
    }
  },
  {
    "service_request": "2022-881712",
    "request_type": "Trash/Recycling",
    "request_reason": "Missed Trash Pick-Up",
    "date_created": "2022-05-10T16:52:50.000",
    "date_modified": "2022-05-10T16:52:50.000",
    "request_status": "Pending",
    "responsible_agency": "Department of Sanitation",
    "final_address": "5225 Pitt St",
    "address_councildis": "B",
    "status": "Assigned to Contractor",
    "contractor": "Richards Disposal",
    "rowid": "881712",
    "final_x": "3667874.71041",
    "final_y": "520497.486328",
    "longitude": "-90.11146537273761",
    "latitude": "29.925593986319026",
    "geocoded_column": {
      "latitude": "29.925593986319026",
      "longitude": "-90.11146537273761"
    }
  },
  {
    "service_request": "2022-881711",
    "request_type": "Trash/Recycling",
    "request_reason": "Missed Trash Pick-Up",
    "date_created": "2022-05-10T16:51:21.000",
    "date_modified": "2022-05-10T16:51:21.000",
    "request_status": "Pending",
    "responsible_agency": "Department of Sanitation",
    "final_address": "1509 Valmont St",
    "address_councildis": "B",
    "status": "Assigned to Contractor",
    "contractor": "Richards Disposal",
    "rowid": "881711",
    "final_x": "3667781.74388",
    "final_y": "520516.710776",
    "longitude": "-90.11175819366206",
    "latitude": "29.9256495730252",
    "geocoded_column": {
      "latitude": "29.9256495730252",
      "longitude": "-90.11175819366206"
    }
  },
  {
    "service_request": "2022-881710",
    "request_type": "Trash/Recycling",
    "request_reason": "Replace Trash Cart",
    "date_created": "2022-05-10T16:50:52.000",
    "date_modified": "2022-05-10T16:50:53.000",
    "request_status": "Pending",
    "responsible_agency": "Department of Sanitation",
    "final_address": "334 Audubon Blvd, New Orleans, Louisiana, 70125",
    "address_councildis": "A",
    "status": "Assigned to Contractor",
    "contractor": "Richards Disposal",
    "rowid": "881710",
    "final_x": "3667209.91597",
    "final_y": "530156.565633",
    "longitude": "-90.11323926603018",
    "latitude": "29.952172828530394",
    "geocoded_column": {
      "latitude": "29.952172828530394",
      "longitude": "-90.11323926603018"
    }
  },
  {
    "service_request": "2022-881709",
    "request_type": "Roads/Drainage",
    "request_reason": "Street Subsidence (Sinking)",
    "date_created": "2022-05-10T16:49:12.000",
    "date_modified": "2022-05-10T16:49:12.000",
    "request_status": "Pending",
    "responsible_agency": "Department of Public Works",
    "final_address": "5901 Vicksburg St",
    "address_councildis": "A",
    "status": "Pending",
    "rowid": "881709",
    "final_x": "3668905.13236",
    "final_y": "546646.605649",
    "longitude": "-90.1073294389687",
    "latitude": "29.99746515018091",
    "geocoded_column": {
      "latitude": "29.99746515018091",
      "longitude": "-90.1073294389687"
    }
  },
  {
    "service_request": "2022-881708",
    "request_type": "Trash/Recycling",
    "request_reason": "Replace Trash Cart",
    "date_created": "2022-05-10T16:48:34.000",
    "date_modified": "2022-05-10T16:48:35.000",
    "request_status": "Pending",
    "responsible_agency": "Department of Sanitation",
    "final_address": "334 Audubon Blvd",
    "address_councildis": "A",
    "status": "Assigned to Contractor",
    "contractor": "Richards Disposal",
    "rowid": "881708",
    "final_x": "3667209.91597",
    "final_y": "530156.565633",
    "longitude": "-90.11323926603018",
    "latitude": "29.952172828530394",
    "geocoded_column": {
      "latitude": "29.952172828530394",
      "longitude": "-90.11323926603018"
    }
  },
  {
    "service_request": "2022-881707",
    "request_type": "Roads/Drainage",
    "request_reason": "Road Shoulder Repair",
    "date_created": "2022-05-10T16:47:58.000",
    "date_modified": "2022-05-10T16:47:58.000",
    "request_status": "Pending",
    "responsible_agency": "Department of Public Works",
    "final_address": "1119 Fern St",
    "address_councildis": "A",
    "status": "Pending",
    "rowid": "881707",
    "final_x": "3662438.17479",
    "final_y": "527681.157183",
    "longitude": "-90.12838847342192",
    "latitude": "29.945505096891736",
    "geocoded_column": {
      "latitude": "29.945505096891736",
      "longitude": "-90.12838847342192"
    }
  },
  {
    "service_request": "2022-881706",
    "request_type": "Trash/Recycling",
    "request_reason": "Request a Large Item Pick Up",
    "date_created": "2022-05-10T16:46:37.000",
    "date_modified": "2022-05-10T16:46:38.000",
    "request_status": "Pending",
    "responsible_agency": "Department of Sanitation",
    "final_address": "2431 Barracks St",
    "address_councildis": "D",
    "status": "Assigned to Contractor",
    "contractor": "Richards Disposal",
    "rowid": "881706",
    "final_x": "3678921.69717",
    "final_y": "538081.443657",
    "longitude": "-90.07598432462275",
    "latitude": "29.973615450517595",
    "geocoded_column": {
      "latitude": "29.973615450517595",
      "longitude": "-90.07598432462275"
    }
  },
  {
    "service_request": "2022-881705",
    "request_type": "Trash/Recycling",
    "request_reason": "Dead Animal Pick Up",
    "date_created": "2022-05-10T16:43:49.000",
    "date_modified": "2022-05-10T16:43:50.000",
    "request_status": "Pending",
    "responsible_agency": "Department of Sanitation",
    "final_address": "EARHART BLVD & S GALVEZ ST",
    "address_councildis": "B",
    "status": "Assigned to Contractor",
    "contractor": "Richards Disposal",
    "rowid": "881705",
    "final_x": "3674396.9",
    "final_y": "530089.28",
    "longitude": "-90.09054838543794",
    "latitude": "29.951775434186747",
    "geocoded_column": {
      "latitude": "29.951775434186747",
      "longitude": "-90.09054838543794"
    }
  },
  {
    "service_request": "2022-881704",
    "request_type": "Trash/Recycling",
    "request_reason": "Repair Trash Cart",
    "date_created": "2022-05-10T16:40:22.000",
    "date_modified": "2022-05-10T16:40:22.000",
    "request_status": "Pending",
    "responsible_agency": "Department of Sanitation",
    "final_address": "3405 Wall Blvd",
    "address_councildis": "C",
    "status": "Assigned to Contractor",
    "contractor": "Richards Disposal",
    "rowid": "881704",
    "final_x": "3695685.88138",
    "final_y": "523790.772923",
    "longitude": "-90.02355562097532",
    "latitude": "29.933804648992957",
    "geocoded_column": {
      "latitude": "29.933804648992957",
      "longitude": "-90.02355562097532"
    }
  },
  {
    "service_request": "2022-881703",
    "request_type": "Trash/Recycling",
    "request_reason": "Start Trash Service",
    "date_created": "2022-05-10T16:39:59.000",
    "date_modified": "2022-05-10T16:40:00.000",
    "request_status": "Pending",
    "responsible_agency": "Department of Sanitation",
    "final_address": "4855 Tulip St",
    "address_councildis": "E",
    "status": "Assigned to Contractor",
    "contractor": "Metro Disposal",
    "rowid": "881703",
    "final_x": "3702071.31972",
    "final_y": "554944.942488",
    "longitude": "-90.00225471567587",
    "latitude": "30.01926499458578",
    "geocoded_column": {
      "latitude": "30.01926499458578",
      "longitude": "-90.00225471567587"
    }
  },
  {
    "service_request": "2022-881702",
    "request_type": "Trash/Recycling",
    "request_reason": "Illegal Dumping",
    "date_created": "2022-05-10T16:38:40.000",
    "date_modified": "2022-05-10T16:38:40.000",
    "request_status": "Pending",
    "responsible_agency": "Department of Sanitation",
    "final_address": "FRANCE RD & HAYNE BLVD",
    "address_councildis": "D",
    "status": "Pending",
    "rowid": "881702",
    "final_x": "3690868.34",
    "final_y": "558794.79",
    "longitude": "-90.03751462024054",
    "latitude": "30.03020370998618",
    "geocoded_column": {
      "latitude": "30.03020370998618",
      "longitude": "-90.03751462024054"
    }
  },
  {
    "service_request": "2022-881700",
    "request_type": "Trash/Recycling",
    "request_reason": "Repair Recycling Cart",
    "date_created": "2022-05-10T16:34:43.000",
    "date_modified": "2022-05-10T16:34:43.000",
    "request_status": "Pending",
    "responsible_agency": "Department of Sanitation",
    "final_address": "2513 Congress St",
    "address_councildis": "D",
    "status": "Pending",
    "rowid": "881700",
    "final_x": "3692100.13923",
    "final_y": "540945.871371",
    "longitude": "-90.03426159542407",
    "latitude": "29.981087399225988",
    "geocoded_column": {
      "latitude": "29.981087399225988",
      "longitude": "-90.03426159542407"
    }
  },
  {
    "service_request": "2022-881699",
    "request_type": "Trash/Recycling",
    "request_reason": "Request a Large Item Pick Up",
    "date_created": "2022-05-10T16:34:11.000",
    "date_modified": "2022-05-10T16:34:11.000",
    "request_status": "Pending",
    "responsible_agency": "Department of Sanitation",
    "final_address": "303 40Th St",
    "address_councildis": "A",
    "status": "Assigned to Contractor",
    "contractor": "Metro Disposal",
    "rowid": "881699",
    "final_x": "3665375.08672",
    "final_y": "553402.288023",
    "longitude": "-90.11825448169635",
    "latitude": "30.016144317026455",
    "geocoded_column": {
      "latitude": "30.016144317026455",
      "longitude": "-90.11825448169635"
    }
  },
  {
    "service_request": "2022-881698",
    "request_type": "Trash/Recycling",
    "request_reason": "Missed Trash Pick-Up",
    "date_created": "2022-05-10T16:34:04.000",
    "date_modified": "2022-05-10T16:34:05.000",
    "request_status": "Pending",
    "responsible_agency": "Department of Sanitation",
    "final_address": "2219 Valmont St",
    "address_councildis": "B",
    "status": "Assigned to Contractor",
    "contractor": "Richards Disposal",
    "rowid": "881698",
    "final_x": "3668249.61895",
    "final_y": "523748.550651",
    "longitude": "-90.11017234590805",
    "latitude": "29.934522378977416",
    "geocoded_column": {
      "latitude": "29.934522378977416",
      "longitude": "-90.11017234590805"
    }
  },
  {
    "service_request": "2022-881697",
    "request_type": "Property Maintenance",
    "request_reason": "Property Maintenance",
    "date_created": "2022-05-10T16:31:27.000",
    "date_modified": "2022-05-10T16:31:28.000",
    "request_status": "Pending",
    "responsible_agency": "Department of Code Enforcement",
    "final_address": "2505 St Roch Ave",
    "address_councildis": "D",
    "status": "Pending",
    "rowid": "881697",
    "final_x": "3686156.80758",
    "final_y": "541655.120716",
    "longitude": "-90.05300824017753",
    "latitude": "29.98322152035061",
    "geocoded_column": {
      "latitude": "29.98322152035061",
      "longitude": "-90.05300824017753"
    }
  },
  {
    "service_request": "2022-881695",
    "request_type": "Trash/Recycling",
    "request_reason": "Start Trash Service",
    "date_created": "2022-05-10T16:27:06.000",
    "date_modified": "2022-05-10T16:27:07.000",
    "request_status": "Pending",
    "responsible_agency": "Department of Sanitation",
    "final_address": "303 40Th St",
    "address_councildis": "A",
    "status": "Assigned to Contractor",
    "contractor": "Metro Disposal",
    "rowid": "881695",
    "final_x": "3665375.08672",
    "final_y": "553402.288023",
    "longitude": "-90.11825448169635",
    "latitude": "30.016144317026455",
    "geocoded_column": {
      "latitude": "30.016144317026455",
      "longitude": "-90.11825448169635"
    }
  },
  {
    "service_request": "2022-881696",
    "request_type": "Trash/Recycling",
    "request_reason": "Request a Large Item Pick Up",
    "date_created": "2022-05-10T16:27:06.000",
    "date_modified": "2022-05-10T16:27:07.000",
    "request_status": "Pending",
    "responsible_agency": "Department of Sanitation",
    "final_address": "2546 Dumaine St",
    "address_councildis": "D",
    "status": "Assigned to Contractor",
    "contractor": "Richards Disposal",
    "rowid": "881696",
    "final_x": "3677637.75342",
    "final_y": "537106.053896",
    "longitude": "-90.08007298761224",
    "latitude": "29.97097213989023",
    "geocoded_column": {
      "latitude": "29.97097213989023",
      "longitude": "-90.08007298761224"
    }
  },
  {
    "service_request": "2022-881694",
    "request_type": "Trash/Recycling",
    "request_reason": "Order Recycling Cart",
    "date_created": "2022-05-10T16:26:16.000",
    "date_modified": "2022-05-10T16:26:16.000",
    "request_status": "Pending",
    "responsible_agency": "Department of Sanitation",
    "final_address": "101 28th St, New Orleans, Louisiana, 70124",
    "address_councildis": "A",
    "status": "Pending",
    "rowid": "881694",
    "final_x": "3666168.93025",
    "final_y": "550227.056468",
    "longitude": "-90.11585287149754",
    "latitude": "30.007390368901522",
    "geocoded_column": {
      "latitude": "30.007390368901522",
      "longitude": "-90.11585287149754"
    }
  },
  {
    "service_request": "2022-881693",
    "request_type": "Trash/Recycling",
    "request_reason": "Request a Large Item Pick Up",
    "date_created": "2022-05-10T16:26:02.000",
    "date_modified": "2022-05-10T16:26:03.000",
    "request_status": "Pending",
    "responsible_agency": "Department of Sanitation",
    "final_address": "2235 St Andrew St",
    "address_councildis": "B",
    "status": "Assigned to Contractor",
    "contractor": "Richards Disposal",
    "rowid": "881693",
    "final_x": "3676612.06907",
    "final_y": "526191.338558",
    "longitude": "-90.08368816276854",
    "latitude": "29.94099113864826",
    "geocoded_column": {
      "latitude": "29.94099113864826",
      "longitude": "-90.08368816276854"
    }
  },
  {
    "service_request": "2022-881690",
    "request_type": "Parks & Parkways",
    "request_reason": "Request Tree Service (Right of Way/Public Property)",
    "date_created": "2022-05-10T16:25:44.000",
    "date_modified": "2022-05-10T16:25:45.000",
    "request_status": "Pending",
    "responsible_agency": "Department of Parks & Parkway",
    "final_address": "3614 Laurel St",
    "address_councildis": "B",
    "status": "Pending",
    "rowid": "881690",
    "final_x": "3674342.65352",
    "final_y": "518508.908087",
    "longitude": "-90.09111607827293",
    "latitude": "29.919934802215128",
    "geocoded_column": {
      "latitude": "29.919934802215128",
      "longitude": "-90.09111607827293"
    }
  },
  {
    "service_request": "2022-881689",
    "request_type": "Trash/Recycling",
    "request_reason": "Replace Trash Cart",
    "date_created": "2022-05-10T16:24:45.000",
    "date_modified": "2022-05-10T16:24:46.000",
    "request_status": "Pending",
    "responsible_agency": "Department of Sanitation",
    "final_address": "5406 Milne St",
    "address_councildis": "A",
    "status": "Assigned to Contractor",
    "contractor": "Metro Disposal",
    "rowid": "881689",
    "final_x": "3666575.22522",
    "final_y": "543532.88891",
    "longitude": "-90.11479417190758",
    "latitude": "29.988971834173128",
    "geocoded_column": {
      "latitude": "29.988971834173128",
      "longitude": "-90.11479417190758"
    }
  },
  {
    "service_request": "2022-881688",
    "request_type": "Trash/Recycling",
    "request_reason": "Request a Large Item Pick Up",
    "date_created": "2022-05-10T16:24:29.000",
    "date_modified": "2022-05-10T16:24:30.000",
    "request_status": "Pending",
    "responsible_agency": "Department of Sanitation",
    "final_address": "2221 St Andrew St",
    "address_councildis": "B",
    "status": "Assigned to Contractor",
    "contractor": "Richards Disposal",
    "rowid": "881688",
    "final_x": "3676687.80053",
    "final_y": "526101.662718",
    "longitude": "-90.08345215295915",
    "latitude": "29.940742288413517",
    "geocoded_column": {
      "latitude": "29.940742288413517",
      "longitude": "-90.08345215295915"
    }
  },
  {
    "service_request": "2022-881687",
    "request_type": "Trash/Recycling",
    "request_reason": "Illegal Dumping",
    "date_created": "2022-05-10T16:22:28.000",
    "date_modified": "2022-05-10T16:22:28.000",
    "request_status": "Pending",
    "responsible_agency": "Department of Sanitation",
    "final_address": "403 Napoleon Ave",
    "address_councildis": "B",
    "status": "Pending",
    "rowid": "881687",
    "final_x": "3671402.661",
    "final_y": "517326.026549",
    "longitude": "-90.1004364054817",
    "latitude": "29.916769565525975",
    "geocoded_column": {
      "latitude": "29.916769565525975",
      "longitude": "-90.1004364054817"
    }
  },
  {
    "service_request": "2022-881686",
    "request_type": "Trash/Recycling",
    "request_reason": "Replace Trash Cart",
    "date_created": "2022-05-10T16:20:27.000",
    "date_modified": "2022-05-10T16:20:28.000",
    "request_status": "Pending",
    "responsible_agency": "Department of Sanitation",
    "final_address": "922 Solomon Pl",
    "address_councildis": "A",
    "status": "Assigned to Contractor",
    "contractor": "Richards Disposal",
    "rowid": "881686",
    "final_x": "3672557.80801",
    "final_y": "541278.410188",
    "longitude": "-90.09597385283074",
    "latitude": "29.982596498876926",
    "geocoded_column": {
      "latitude": "29.982596498876926",
      "longitude": "-90.09597385283074"
    }
  },
  {
    "service_request": "2022-881685",
    "request_type": "Trash/Recycling",
    "request_reason": "Missed Trash Pick-Up",
    "date_created": "2022-05-10T16:19:24.000",
    "date_modified": "2022-05-10T16:19:25.000",
    "request_status": "Pending",
    "responsible_agency": "Department of Sanitation",
    "final_address": "474 Pine St",
    "address_councildis": "A",
    "status": "Assigned to Contractor",
    "contractor": "Richards Disposal",
    "rowid": "881685",
    "final_x": "3662271.71021",
    "final_y": "524353.757756",
    "longitude": "-90.12902447629864",
    "latitude": "29.936360618508427",
    "geocoded_column": {
      "latitude": "29.936360618508427",
      "longitude": "-90.12902447629864"
    }
  },
  {
    "service_request": "2022-881684",
    "request_type": "Trash/Recycling",
    "request_reason": "Missed Trash Pick-Up",
    "date_created": "2022-05-10T16:16:02.000",
    "date_modified": "2022-05-10T16:16:03.000",
    "request_status": "Pending",
    "responsible_agency": "Department of Sanitation",
    "final_address": "4307 Fontainebleau Dr",
    "address_councildis": "B",
    "status": "Assigned to Contractor",
    "contractor": "Richards Disposal",
    "rowid": "881684",
    "final_x": "3669458.8185",
    "final_y": "529478.959553",
    "longitude": "-90.10616117173423",
    "latitude": "29.950243597562995",
    "geocoded_column": {
      "latitude": "29.950243597562995",
      "longitude": "-90.10616117173423"
    }
  },
  {
    "service_request": "2022-881682",
    "request_type": "Trash/Recycling",
    "request_reason": "Request a Large Item Pick Up",
    "date_created": "2022-05-10T16:11:54.000",
    "date_modified": "2022-05-10T16:11:54.000",
    "request_status": "Pending",
    "responsible_agency": "Department of Sanitation",
    "final_address": "1401 Tupelo St",
    "address_councildis": "E",
    "status": "Assigned to Contractor",
    "contractor": "Metro Disposal",
    "rowid": "881682",
    "final_x": "3699960.01847",
    "final_y": "534380.650437",
    "longitude": "-90.00967625780346",
    "latitude": "29.962788052076455",
    "geocoded_column": {
      "latitude": "29.962788052076455",
      "longitude": "-90.00967625780346"
    }
  },
  {
    "service_request": "2022-881681",
    "request_type": "Traffic Signals/Signs/Striping/Streetlights",
    "request_reason": "Street Name Sign Damaged or Missing",
    "date_created": "2022-05-10T16:10:15.000",
    "date_modified": "2022-05-10T16:25:10.000",
    "request_status": "Pending",
    "responsible_agency": "Department of Public Works",
    "final_address": "Corner of Common & Tchoupitoulas",
    "address_councildis": "B",
    "rowid": "881681",
    "final_x": "3682076.0",
    "final_y": "529761.18",
    "longitude": "-90.06631293313308",
    "latitude": "29.95064202208633",
    "geocoded_column": {
      "latitude": "29.95064202208633",
      "longitude": "-90.06631293313308"
    }
  },
  {
    "service_request": "2022-881680",
    "request_type": "Trash/Recycling",
    "request_reason": "Request a Large Item Pick Up",
    "date_created": "2022-05-10T16:03:14.000",
    "date_modified": "2022-05-10T16:03:15.000",
    "request_status": "Pending",
    "responsible_agency": "Department of Sanitation",
    "final_address": "6010 Brighton Pl",
    "address_councildis": "C",
    "status": "Assigned to Contractor",
    "contractor": "Richards Disposal",
    "rowid": "881680",
    "final_x": "3706164.49687",
    "final_y": "520150.501304",
    "longitude": "-89.99061006233049",
    "latitude": "29.92346166855914",
    "geocoded_column": {
      "latitude": "29.92346166855914",
      "longitude": "-89.99061006233049"
    }
  },
  {
    "service_request": "2022-881679",
    "request_type": "Parks & Parkways",
    "request_reason": "Request Tree Service (Right of Way/Public Property)",
    "date_created": "2022-05-10T16:01:28.000",
    "date_modified": "2022-05-10T16:01:28.000",
    "request_status": "Pending",
    "responsible_agency": "Department of Parks & Parkway",
    "final_address": "1620 Charlton Dr",
    "address_councildis": "D",
    "status": "Pending",
    "rowid": "881679",
    "final_x": "3680027.43707",
    "final_y": "550675.290196",
    "longitude": "-90.07205435198303",
    "latitude": "30.008210686461382",
    "geocoded_column": {
      "latitude": "30.008210686461382",
      "longitude": "-90.07205435198303"
    }
  },
  {
    "service_request": "2022-881678",
    "request_type": "Safety & Permits",
    "request_reason": "Licenses & Permits",
    "date_created": "2022-05-10T15:59:45.000",
    "date_modified": "2022-05-10T15:59:45.000",
    "request_status": "Pending",
    "responsible_agency": "Safety and Permits",
    "final_address": "76 Camellia Trce",
    "address_councildis": "C",
    "status": "Pending",
    "rowid": "881678",
    "final_x": "3697158.56586",
    "final_y": "523247.302843",
    "longitude": "-90.01892613110144",
    "latitude": "29.93226392365916",
    "geocoded_column": {
      "latitude": "29.93226392365916",
      "longitude": "-90.01892613110144"
    }
  },
  {
    "service_request": "2022-881677",
    "request_type": "Trash/Recycling",
    "request_reason": "Missed Trash Pick-Up",
    "date_created": "2022-05-10T15:53:01.000",
    "date_modified": "2022-05-10T15:53:02.000",
    "request_status": "Pending",
    "responsible_agency": "Department of Sanitation",
    "final_address": "1102 Robert St",
    "address_councildis": "B",
    "status": "Assigned to Contractor",
    "contractor": "Richards Disposal",
    "rowid": "881677",
    "final_x": "3668626.42612",
    "final_y": "519378.467511",
    "longitude": "-90.10913016852628",
    "latitude": "29.922494976519797",
    "geocoded_column": {
      "latitude": "29.922494976519797",
      "longitude": "-90.10913016852628"
    }
  },
  {
    "service_request": "2022-881676",
    "request_type": "Trash/Recycling",
    "request_reason": "Request a Large Item Pick Up",
    "date_created": "2022-05-10T15:51:53.000",
    "date_modified": "2022-05-10T15:51:54.000",
    "request_status": "Pending",
    "responsible_agency": "Department of Sanitation",
    "final_address": "1643 Josephine St",
    "address_councildis": "B",
    "status": "Assigned to Contractor",
    "contractor": "Richards Disposal",
    "rowid": "881676",
    "final_x": "3677727.88078",
    "final_y": "524249.059196",
    "longitude": "-90.08023240309207",
    "latitude": "29.93561700255386",
    "geocoded_column": {
      "latitude": "29.93561700255386",
      "longitude": "-90.08023240309207"
    }
  },
  {
    "service_request": "2022-881675",
    "request_type": "Safety & Permits",
    "request_reason": "Licenses & Permits",
    "date_created": "2022-05-10T15:46:41.000",
    "date_modified": "2022-05-10T15:46:41.000",
    "request_status": "Pending",
    "responsible_agency": "Safety and Permits",
    "final_address": "1931 Foucher St",
    "address_councildis": "B",
    "status": "Pending",
    "rowid": "881675",
    "final_x": "3673083.1723",
    "final_y": "522576.52825",
    "longitude": "-90.09495289251487",
    "latitude": "29.931156936313137",
    "geocoded_column": {
      "latitude": "29.931156936313137",
      "longitude": "-90.09495289251487"
    }
  },
  {
    "service_request": "2022-881674",
    "request_type": "Safety & Permits",
    "request_reason": "Licenses & Permits",
    "date_created": "2022-05-10T15:45:58.000",
    "date_modified": "2022-05-10T15:45:58.000",
    "request_status": "Pending",
    "responsible_agency": "Safety and Permits",
    "final_address": "6922 Bellaire Dr",
    "address_councildis": "A",
    "status": "Pending",
    "rowid": "881674",
    "final_x": "3664594.18112",
    "final_y": "553901.504983",
    "longitude": "-90.1207051181125",
    "latitude": "30.01753973524416",
    "geocoded_column": {
      "latitude": "30.01753973524416",
      "longitude": "-90.1207051181125"
    }
  },
  {
    "service_request": "2022-881672",
    "request_type": "Property Maintenance",
    "request_reason": "Property Maintenance",
    "date_created": "2022-05-10T15:41:01.000",
    "date_modified": "2022-05-10T15:41:01.000",
    "request_status": "Pending",
    "responsible_agency": "Department of Code Enforcement",
    "final_address": "1900 Elysian Fields Ave",
    "address_councildis": "D",
    "status": "Pending",
    "rowid": "881672",
    "final_x": "3684656.88277",
    "final_y": "539277.366794",
    "longitude": "-90.05782937124671",
    "latitude": "29.976729530541988",
    "geocoded_column": {
      "latitude": "29.976729530541988",
      "longitude": "-90.05782937124671"
    }
  },
  {
    "service_request": "2022-881671",
    "request_type": "Trash/Recycling",
    "request_reason": "Order Recycling Cart",
    "date_created": "2022-05-10T15:40:42.000",
    "date_modified": "2022-05-10T15:40:42.000",
    "request_status": "Pending",
    "responsible_agency": "Department of Sanitation",
    "final_address": "2630 Laurel St",
    "address_councildis": "B",
    "status": "Pending",
    "rowid": "881671",
    "final_x": "3677771.5435",
    "final_y": "520384.197112",
    "longitude": "-90.08022799551577",
    "latitude": "29.92498858102312",
    "geocoded_column": {
      "latitude": "29.92498858102312",
      "longitude": "-90.08022799551577"
    }
  },
  {
    "service_request": "2022-881668",
    "request_type": "Abandoned Vehicles",
    "request_reason": "Abandoned/Junk Vehicles",
    "date_created": "2022-05-10T15:37:25.000",
    "date_modified": "2022-05-10T15:37:25.000",
    "request_status": "Pending",
    "responsible_agency": "Department of Public Works",
    "final_address": "2057 N Prieur St",
    "address_councildis": "D",
    "status": "Pending",
    "rowid": "881668",
    "final_x": "3684129.26287",
    "final_y": "539242.736778",
    "longitude": "-90.05949697285834",
    "latitude": "29.976650448968094",
    "geocoded_column": {
      "latitude": "29.976650448968094",
      "longitude": "-90.05949697285834"
    }
  },
  {
    "service_request": "2022-881667",
    "request_type": "Abandoned Vehicles",
    "request_reason": "Abandoned/Junk Vehicles",
    "date_created": "2022-05-10T15:33:18.000",
    "date_modified": "2022-05-10T15:33:18.000",
    "request_status": "Pending",
    "responsible_agency": "Department of Public Works",
    "final_address": "1829 N Prieur St",
    "address_councildis": "D",
    "status": "Pending",
    "rowid": "881667",
    "final_x": "3682818.51951",
    "final_y": "539134.019786",
    "longitude": "-90.06364050614599",
    "latitude": "29.976391516857372",
    "geocoded_column": {
      "latitude": "29.976391516857372",
      "longitude": "-90.06364050614599"
    }
  },
  {
    "service_request": "2022-881666",
    "request_type": "Trash/Recycling",
    "request_reason": "Missed Trash Pick-Up",
    "date_created": "2022-05-10T15:32:08.000",
    "date_modified": "2022-05-10T15:32:09.000",
    "request_status": "Pending",
    "responsible_agency": "Department of Sanitation",
    "final_address": "4200 BLK Freret St",
    "address_councildis": "B",
    "status": "Assigned to Contractor",
    "contractor": "Richards Disposal",
    "rowid": "881666",
    "final_x": "3671105.1525",
    "final_y": "524101.001126",
    "longitude": "-90.10114550668419",
    "latitude": "29.93540737897443",
    "geocoded_column": {
      "latitude": "29.93540737897443",
      "longitude": "-90.10114550668419"
    }
  },
  {
    "service_request": "2022-881665",
    "request_type": "Abandoned Vehicles",
    "request_reason": "Abandoned/Junk Vehicles",
    "date_created": "2022-05-10T15:30:56.000",
    "date_modified": "2022-05-10T15:30:56.000",
    "request_status": "Pending",
    "responsible_agency": "Department of Public Works",
    "final_address": "1826 Old Prieur St",
    "address_councildis": "D",
    "status": "Pending",
    "rowid": "881665",
    "final_x": "3682164.43989",
    "final_y": "539470.275274",
    "longitude": "-90.06569453592269",
    "latitude": "29.977336015103862",
    "geocoded_column": {
      "latitude": "29.977336015103862",
      "longitude": "-90.06569453592269"
    }
  },
  {
    "service_request": "2022-881664",
    "request_type": "Abandoned Vehicles",
    "request_reason": "Abandoned/Junk Vehicles",
    "date_created": "2022-05-10T15:30:23.000",
    "date_modified": "2022-05-10T15:30:23.000",
    "request_status": "Pending",
    "responsible_agency": "Department of Public Works",
    "final_address": "129 S Rendon St",
    "address_councildis": "B",
    "status": "Pending",
    "rowid": "881664",
    "final_x": "3673364.87988",
    "final_y": "536286.719879",
    "longitude": "-90.09359529612341",
    "latitude": "29.96884706019691",
    "geocoded_column": {
      "latitude": "29.96884706019691",
      "longitude": "-90.09359529612341"
    }
  },
  {
    "service_request": "2022-881663",
    "request_type": "Trash/Recycling",
    "request_reason": "Repair Trash Cart",
    "date_created": "2022-05-10T15:30:05.000",
    "date_modified": "2022-05-10T15:30:05.000",
    "request_status": "Pending",
    "responsible_agency": "Department of Sanitation",
    "final_address": "209 S Solomon St",
    "address_councildis": "A",
    "status": "Assigned to Contractor",
    "contractor": "Richards Disposal",
    "rowid": "881663",
    "final_x": "3670246.41537",
    "final_y": "538341.315913",
    "longitude": "-90.10337397913925",
    "latitude": "29.974588914001718",
    "geocoded_column": {
      "latitude": "29.974588914001718",
      "longitude": "-90.10337397913925"
    }
  },
  {
    "service_request": "2022-881662",
    "request_type": "Roads/Drainage",
    "request_reason": "Catch Basin - Clogged",
    "date_created": "2022-05-10T15:29:25.000",
    "date_modified": "2022-05-10T15:29:26.000",
    "request_status": "Pending",
    "responsible_agency": "Department of Public Works",
    "final_address": "1214 Calhoun St",
    "address_councildis": "A",
    "status": "Pending",
    "rowid": "881662",
    "final_x": "3663983.79335",
    "final_y": "521109.235833",
    "longitude": "-90.1237274772356",
    "latitude": "29.927389618342133",
    "geocoded_column": {
      "latitude": "29.927389618342133",
      "longitude": "-90.1237274772356"
    }
  },
  {
    "service_request": "2022-881661",
    "request_type": "Property Maintenance",
    "request_reason": "Property Maintenance",
    "date_created": "2022-05-10T15:28:47.000",
    "date_modified": "2022-05-10T15:28:47.000",
    "request_status": "Pending",
    "responsible_agency": "Department of Code Enforcement",
    "final_address": "1823 N Prieur St",
    "address_councildis": "D",
    "status": "Pending",
    "rowid": "881661",
    "final_x": "3682738.81903",
    "final_y": "539125.794698",
    "longitude": "-90.06389251179219",
    "latitude": "29.976371328851627",
    "geocoded_column": {
      "latitude": "29.976371328851627",
      "longitude": "-90.06389251179219"
    }
  },
  {
    "service_request": "2022-881660",
    "request_type": "Trash/Recycling",
    "request_reason": "Replace Trash Cart",
    "date_created": "2022-05-10T15:28:27.000",
    "date_modified": "2022-05-10T15:28:28.000",
    "request_status": "Pending",
    "responsible_agency": "Department of Sanitation",
    "final_address": "209 S Solomon St",
    "address_councildis": "A",
    "status": "Assigned to Contractor",
    "contractor": "Richards Disposal",
    "rowid": "881660",
    "final_x": "3670246.41537",
    "final_y": "538341.315913",
    "longitude": "-90.10337397913925",
    "latitude": "29.974588914001718",
    "geocoded_column": {
      "latitude": "29.974588914001718",
      "longitude": "-90.10337397913925"
    }
  },
  {
    "service_request": "2022-881659",
    "request_type": "Trash/Recycling",
    "request_reason": "Missed Trash Pick-Up",
    "date_created": "2022-05-10T15:26:47.000",
    "date_modified": "2022-05-10T15:26:48.000",
    "request_status": "Pending",
    "responsible_agency": "Department of Sanitation",
    "final_address": "2615 St Peter St",
    "address_councildis": "D",
    "status": "Assigned to Contractor",
    "contractor": "Richards Disposal",
    "rowid": "881659",
    "final_x": "3677005.11822",
    "final_y": "536647.969991",
    "longitude": "-90.08208673063699",
    "latitude": "29.96973157632129",
    "geocoded_column": {
      "latitude": "29.96973157632129",
      "longitude": "-90.08208673063699"
    }
  },
  {
    "service_request": "2022-881658",
    "request_type": "Abandoned Vehicles",
    "request_reason": "Abandoned/Junk Vehicles",
    "date_created": "2022-05-10T15:25:33.000",
    "date_modified": "2022-05-10T15:28:32.000",
    "request_status": "Pending",
    "responsible_agency": "Department of Public Works",
    "final_address": "1524 Murl St",
    "address_councildis": "C",
    "status": "Pending",
    "rowid": "881658",
    "final_x": "3695437.72656",
    "final_y": "525662.093373",
    "longitude": "-90.02427153843121",
    "latitude": "29.93895793425666",
    "geocoded_column": {
      "latitude": "29.93895793425666",
      "longitude": "-90.02427153843121"
    }
  },
  {
    "service_request": "2022-881657",
    "request_type": "Property Maintenance",
    "request_reason": "Property Maintenance",
    "date_created": "2022-05-10T15:22:58.000",
    "date_modified": "2022-05-10T15:22:58.000",
    "request_status": "Pending",
    "responsible_agency": "Department of Code Enforcement",
    "final_address": "MARIGNY ST & MEXICO ST",
    "address_councildis": "D",
    "status": "Pending",
    "rowid": "881657",
    "final_x": "3683822.5",
    "final_y": "556174.48",
    "longitude": "-90.0598715068219",
    "latitude": "30.0232160383869",
    "geocoded_column": {
      "latitude": "30.0232160383869",
      "longitude": "-90.0598715068219"
    }
  },
  {
    "service_request": "2022-881656",
    "request_type": "Trash/Recycling",
    "request_reason": "Missed Trash Pick-Up",
    "date_created": "2022-05-10T15:20:02.000",
    "date_modified": "2022-05-10T15:20:02.000",
    "request_status": "Pending",
    "responsible_agency": "Department of Sanitation",
    "final_address": "425 Manassas Pl",
    "address_councildis": "B",
    "status": "Assigned to Contractor",
    "contractor": "Richards Disposal",
    "rowid": "881656",
    "final_x": "3674713.45288",
    "final_y": "533781.670725",
    "longitude": "-90.08942229466605",
    "latitude": "29.961918831168433",
    "geocoded_column": {
      "latitude": "29.961918831168433",
      "longitude": "-90.08942229466605"
    }
  },
  {
    "service_request": "2022-881655",
    "request_type": "Trash/Recycling",
    "request_reason": "Return Trash Cart",
    "date_created": "2022-05-10T15:19:45.000",
    "date_modified": "2022-05-10T15:19:46.000",
    "request_status": "Pending",
    "responsible_agency": "Department of Sanitation",
    "final_address": "1721 Nashville Ave",
    "address_councildis": "A",
    "status": "Assigned to Contractor",
    "contractor": "Richards Disposal",
    "rowid": "881655",
    "final_x": "3666512.55802",
    "final_y": "522764.596346",
    "longitude": "-90.11568923685391",
    "latitude": "29.93186769024428",
    "geocoded_column": {
      "latitude": "29.93186769024428",
      "longitude": "-90.11568923685391"
    }
  },
  {
    "service_request": "2022-881654",
    "request_type": "Trash/Recycling",
    "request_reason": "Request a Large Item Pick Up",
    "date_created": "2022-05-10T15:18:40.000",
    "date_modified": "2022-05-10T15:18:45.000",
    "request_status": "Pending",
    "responsible_agency": "Department of Sanitation",
    "final_address": "1623 Desire St",
    "address_councildis": "D",
    "status": "Assigned to Contractor",
    "contractor": "Metro Disposal",
    "rowid": "881654",
    "final_x": "3690739.87779",
    "final_y": "537778.3106",
    "longitude": "-90.03867093746261",
    "latitude": "29.972420066454873",
    "geocoded_column": {
      "latitude": "29.972420066454873",
      "longitude": "-90.03867093746261"
    }
  },
  {
    "service_request": "2022-881653",
    "request_type": "Traffic Signals/Signs/Striping/Streetlights",
    "request_reason": "Street Light Outage/Malfunction",
    "date_created": "2022-05-10T15:13:51.000",
    "date_modified": "2022-05-10T15:13:51.000",
    "request_status": "Pending",
    "responsible_agency": "Department of Public Works",
    "final_address": "801 Josephine St",
    "address_councildis": "B",
    "status": "Pending",
    "contractor": "Royal Engineering",
    "rowid": "881653",
    "final_x": "3679867.20443",
    "final_y": "521550.579705",
    "longitude": "-90.07357219708757",
    "latitude": "29.92813256728624",
    "geocoded_column": {
      "latitude": "29.92813256728624",
      "longitude": "-90.07357219708757"
    }
  },
  {
    "service_request": "2022-881652",
    "request_type": "Roads/Drainage",
    "request_reason": "Catch Basin - Clogged",
    "date_created": "2022-05-10T15:13:49.000",
    "date_modified": "2022-05-10T15:13:49.000",
    "request_status": "Pending",
    "responsible_agency": "Department of Public Works",
    "final_address": "1214 Calhoun St",
    "address_councildis": "A",
    "status": "Pending",
    "rowid": "881652",
    "final_x": "3663983.79335",
    "final_y": "521109.235833",
    "longitude": "-90.1237274772356",
    "latitude": "29.927389618342133",
    "geocoded_column": {
      "latitude": "29.927389618342133",
      "longitude": "-90.1237274772356"
    }
  },
  {
    "service_request": "2022-881651",
    "request_type": "Trash/Recycling",
    "request_reason": "Missed Trash Pick-Up",
    "date_created": "2022-05-10T15:10:27.000",
    "date_modified": "2022-05-10T15:10:28.000",
    "request_status": "Pending",
    "responsible_agency": "Department of Sanitation",
    "final_address": "600 Second St",
    "address_councildis": "B",
    "status": "Assigned to Contractor",
    "contractor": "Richards Disposal",
    "rowid": "881651",
    "final_x": "3678777.40654",
    "final_y": "519804.023544",
    "longitude": "-90.07707289152579",
    "latitude": "29.923363006987003",
    "geocoded_column": {
      "latitude": "29.923363006987003",
      "longitude": "-90.07707289152579"
    }
  },
  {
    "service_request": "2022-881650",
    "request_type": "Abandoned Vehicles",
    "request_reason": "Abandoned/Junk Vehicles",
    "date_created": "2022-05-10T15:08:57.000",
    "date_modified": "2022-05-10T15:08:57.000",
    "request_status": "Pending",
    "responsible_agency": "Department of Public Works",
    "final_address": "7900 Arcadia Ln",
    "address_councildis": "E",
    "status": "Pending",
    "rowid": "881650",
    "final_x": "3711861.32158",
    "final_y": "567786.174052",
    "longitude": "-89.97083951470594",
    "latitude": "30.054256913138698",
    "geocoded_column": {
      "latitude": "30.054256913138698",
      "longitude": "-89.97083951470594"
    }
  },
  {
    "service_request": "2022-881649",
    "request_type": "Trash/Recycling",
    "request_reason": "Order Trash Cart",
    "date_created": "2022-05-10T15:06:46.000",
    "date_modified": "2022-05-10T15:06:46.000",
    "request_status": "Pending",
    "responsible_agency": "Department of Sanitation",
    "final_address": "3312 Delachaise St",
    "address_councildis": "B",
    "status": "Assigned to Contractor",
    "contractor": "Richards Disposal",
    "rowid": "881649",
    "final_x": "3671491.30875",
    "final_y": "527181.970175",
    "longitude": "-90.09982169839247",
    "latitude": "29.943867619204372",
    "geocoded_column": {
      "latitude": "29.943867619204372",
      "longitude": "-90.09982169839247"
    }
  },
  {
    "service_request": "2022-881648",
    "request_type": "Trash/Recycling",
    "request_reason": "Repair Trash Cart",
    "date_created": "2022-05-10T15:06:08.000",
    "date_modified": "2022-05-10T15:06:09.000",
    "request_status": "Pending",
    "responsible_agency": "Department of Sanitation",
    "final_address": "1925 Sixth St",
    "address_councildis": "B",
    "status": "Assigned to Contractor",
    "contractor": "Richards Disposal",
    "rowid": "881648",
    "final_x": "3674806.41198",
    "final_y": "523357.345723",
    "longitude": "-90.08948608397438",
    "latitude": "29.933252608028283",
    "geocoded_column": {
      "latitude": "29.933252608028283",
      "longitude": "-90.08948608397438"
    }
  },
  {
    "service_request": "2022-881647",
    "request_type": "Abandoned Vehicles",
    "request_reason": "Abandoned/Junk Vehicles",
    "date_created": "2022-05-10T15:04:29.000",
    "date_modified": "2022-05-10T16:24:30.000",
    "case_close_date": "2022-05-10T11:24:30.000",
    "request_status": "Closed",
    "responsible_agency": "Department of Public Works",
    "final_address": "1212 N Gayoso St",
    "address_councildis": "A",
    "status": "Duplicate Request",
    "rowid": "881647",
    "final_x": "3676763.55048",
    "final_y": "539421.960906",
    "longitude": "-90.08275401098841",
    "latitude": "29.977366353180507",
    "geocoded_column": {
      "latitude": "29.977366353180507",
      "longitude": "-90.08275401098841"
    }
  },
  {
    "service_request": "2022-881646",
    "request_type": "Trash/Recycling",
    "request_reason": "Missed Trash Pick-Up",
    "date_created": "2022-05-10T15:01:49.000",
    "date_modified": "2022-05-10T15:01:50.000",
    "request_status": "Pending",
    "responsible_agency": "Department of Sanitation",
    "final_address": "1023 N Rocheblave St",
    "address_councildis": "D",
    "status": "Assigned to Contractor",
    "contractor": "Richards Disposal",
    "rowid": "881646",
    "final_x": "3678276.80117",
    "final_y": "537375.66516",
    "longitude": "-90.07804546341599",
    "latitude": "29.97169424411098",
    "geocoded_column": {
      "latitude": "29.97169424411098",
      "longitude": "-90.07804546341599"
    }
  },
  {
    "service_request": "2022-881645",
    "request_type": "Trash/Recycling",
    "request_reason": "Request a Large Item Pick Up",
    "date_created": "2022-05-10T15:00:06.000",
    "date_modified": "2022-05-10T15:00:06.000",
    "request_status": "Pending",
    "responsible_agency": "Department of Sanitation",
    "final_address": "1023 N Rocheblave St",
    "address_councildis": "D",
    "status": "Assigned to Contractor",
    "contractor": "Richards Disposal",
    "rowid": "881645",
    "final_x": "3678276.80117",
    "final_y": "537375.66516",
    "longitude": "-90.07804546341599",
    "latitude": "29.97169424411098",
    "geocoded_column": {
      "latitude": "29.97169424411098",
      "longitude": "-90.07804546341599"
    }
  },
  {
    "service_request": "2022-881644",
    "request_type": "Trash/Recycling",
    "request_reason": "Order Recycling Cart",
    "date_created": "2022-05-10T15:00:05.000",
    "date_modified": "2022-05-10T15:00:05.000",
    "request_status": "Pending",
    "responsible_agency": "Department of Sanitation",
    "final_address": "5518 Pratt Dr",
    "address_councildis": "D",
    "status": "Pending",
    "rowid": "881644",
    "final_x": "3680259.31778",
    "final_y": "552784.249174",
    "longitude": "-90.07124838154178",
    "latitude": "30.01400254277045",
    "geocoded_column": {
      "latitude": "30.01400254277045",
      "longitude": "-90.07124838154178"
    }
  },
  {
    "service_request": "2022-881643",
    "request_type": "Trash/Recycling",
    "request_reason": "Order Trash Cart",
    "date_created": "2022-05-10T14:59:34.000",
    "date_modified": "2022-05-10T14:59:35.000",
    "request_status": "Pending",
    "responsible_agency": "Department of Sanitation",
    "final_address": "5518 Pratt Dr",
    "address_councildis": "D",
    "status": "Assigned to Contractor",
    "contractor": "Metro Disposal",
    "rowid": "881643",
    "final_x": "3680259.31778",
    "final_y": "552784.249174",
    "longitude": "-90.07124838154178",
    "latitude": "30.01400254277045",
    "geocoded_column": {
      "latitude": "30.01400254277045",
      "longitude": "-90.07124838154178"
    }
  },
  {
    "service_request": "2022-881642",
    "request_type": "Trash/Recycling",
    "request_reason": "Order Trash Cart",
    "date_created": "2022-05-10T14:58:26.000",
    "date_modified": "2022-05-10T14:58:27.000",
    "request_status": "Pending",
    "responsible_agency": "Department of Sanitation",
    "final_address": "New Orleans,LA",
    "status": "Assigned to Contractor",
    "rowid": "881642",
    "longitude": "0.0",
    "latitude": "0.0",
    "geocoded_column": {
      "latitude": "0.0",
      "longitude": "0.0"
    }
  },
  {
    "service_request": "2022-881641",
    "request_type": "Roads/Drainage",
    "request_reason": "Street Flooding / Drainage",
    "date_created": "2022-05-10T14:49:49.000",
    "date_modified": "2022-05-10T14:49:49.000",
    "request_status": "Pending",
    "responsible_agency": "Department of Public Works",
    "final_address": "1130 Baronne St",
    "address_councildis": "B",
    "status": "Pending",
    "rowid": "881641",
    "final_x": "3679037.1165",
    "final_y": "526912.273726",
    "longitude": "-90.07600687284125",
    "latitude": "29.94290052675274",
    "geocoded_column": {
      "latitude": "29.94290052675274",
      "longitude": "-90.07600687284125"
    }
  },
  {
    "service_request": "2022-881640",
    "request_type": "Trash/Recycling",
    "request_reason": "Request a Large Item Pick Up",
    "date_created": "2022-05-10T14:49:26.000",
    "date_modified": "2022-05-10T14:49:27.000",
    "request_status": "Pending",
    "responsible_agency": "Department of Sanitation",
    "final_address": "1316 Joliet St, New Orleans, Louisiana, 70118",
    "address_councildis": "A",
    "status": "Assigned to Contractor",
    "contractor": "Richards Disposal",
    "rowid": "881640",
    "final_x": "3661219.72493",
    "final_y": "529742.253377",
    "longitude": "-90.13216731692994",
    "latitude": "29.951207627496068",
    "geocoded_column": {
      "latitude": "29.951207627496068",
      "longitude": "-90.13216731692994"
    }
  },
  {
    "service_request": "2022-881637",
    "request_type": "Parks & Parkways",
    "request_reason": "Request Tree Service (Right of Way/Public Property)",
    "date_created": "2022-05-10T14:49:14.000",
    "date_modified": "2022-05-10T15:39:02.000",
    "case_close_date": "2022-05-10T10:39:02.000",
    "request_status": "Closed",
    "responsible_agency": "Department of Parks & Parkway",
    "final_address": "636 S Lopez St",
    "address_councildis": "B",
    "status": "Duplicate Request",
    "rowid": "881637",
    "final_x": "3672478.6107",
    "final_y": "534328.883013",
    "longitude": "-90.09646093702555",
    "latitude": "29.963490002784503",
    "geocoded_column": {
      "latitude": "29.963490002784503",
      "longitude": "-90.09646093702555"
    }
  },
  {
    "service_request": "2022-881636",
    "request_type": "Trash/Recycling",
    "request_reason": "Missed Trash Pick-Up",
    "date_created": "2022-05-10T14:39:52.000",
    "date_modified": "2022-05-10T14:39:53.000",
    "request_status": "Pending",
    "responsible_agency": "Department of Sanitation",
    "final_address": "300 BLK S dOrgenois St",
    "address_councildis": "B",
    "status": "Assigned to Contractor",
    "contractor": "Richards Disposal",
    "rowid": "881636",
    "final_x": "3675207.9504",
    "final_y": "533966.352787",
    "longitude": "-90.08785440808023",
    "latitude": "29.96241187468826",
    "geocoded_column": {
      "latitude": "29.96241187468826",
      "longitude": "-90.08785440808023"
    }
  },
  {
    "service_request": "2022-881635",
    "request_type": "Abandoned Vehicles",
    "request_reason": "Abandoned/Junk Vehicles",
    "date_created": "2022-05-10T14:38:14.000",
    "date_modified": "2022-05-10T14:38:14.000",
    "request_status": "Pending",
    "responsible_agency": "Department of Public Works",
    "final_address": "2400 Robert St",
    "address_councildis": "B",
    "status": "Pending",
    "rowid": "881635",
    "final_x": "3668741.92078",
    "final_y": "524322.249852",
    "longitude": "-90.10859879719165",
    "latitude": "29.936085408296353",
    "geocoded_column": {
      "latitude": "29.936085408296353",
      "longitude": "-90.10859879719165"
    }
  },
  {
    "service_request": "2022-881634",
    "request_type": "Roads/Drainage",
    "request_reason": "Accessibility Ramps, Curbs and Sidewalk Repair",
    "date_created": "2022-05-10T14:37:26.000",
    "date_modified": "2022-05-10T14:37:26.000",
    "request_status": "Pending",
    "responsible_agency": "Department of Public Works",
    "final_address": "6102 S Claiborne Ave",
    "address_councildis": "A",
    "status": "Pending",
    "rowid": "881634",
    "final_x": "3667175.16455",
    "final_y": "527236.407807",
    "longitude": "-90.11344715876439",
    "latitude": "29.944144359594677",
    "geocoded_column": {
      "latitude": "29.944144359594677",
      "longitude": "-90.11344715876439"
    }
  },
  {
    "service_request": "2022-881633",
    "request_type": "Parks & Parkways",
    "request_reason": "Request Tree Service (Right of Way/Public Property)",
    "date_created": "2022-05-10T14:37:20.000",
    "date_modified": "2022-05-10T14:37:20.000",
    "request_status": "Pending",
    "responsible_agency": "Department of Parks & Parkway",
    "final_address": "3904 General Meyer Ave",
    "address_councildis": "C",
    "status": "Pending",
    "rowid": "881633",
    "final_x": "3698599.4849",
    "final_y": "525052.321021",
    "longitude": "-90.01431171906243",
    "latitude": "29.937181571541625",
    "geocoded_column": {
      "latitude": "29.937181571541625",
      "longitude": "-90.01431171906243"
    }
  },
  {
    "service_request": "2022-881632",
    "request_type": "Trash/Recycling",
    "request_reason": "Replace Trash Cart",
    "date_created": "2022-05-10T14:36:42.000",
    "date_modified": "2022-05-10T14:36:43.000",
    "request_status": "Pending",
    "responsible_agency": "Department of Sanitation",
    "final_address": "1810 Upperline St, New Orleans, Louisiana, 70115",
    "address_councildis": "B",
    "status": "Assigned to Contractor",
    "contractor": "Richards Disposal",
    "rowid": "881632",
    "final_x": "3669003.69108",
    "final_y": "521533.328249",
    "longitude": "-90.1078665446591",
    "latitude": "29.928409070640566",
    "geocoded_column": {
      "latitude": "29.928409070640566",
      "longitude": "-90.1078665446591"
    }
  },
  {
    "service_request": "2022-881631",
    "request_type": "Property Maintenance",
    "request_reason": "Property Maintenance",
    "date_created": "2022-05-10T14:35:14.000",
    "date_modified": "2022-05-10T14:35:14.000",
    "request_status": "Pending",
    "responsible_agency": "Department of Code Enforcement",
    "final_address": "2909 Live Oak St",
    "address_councildis": "A",
    "status": "Pending",
    "rowid": "881631",
    "final_x": "3662806.76365",
    "final_y": "536045.368263",
    "longitude": "-90.12694667347687",
    "latitude": "29.968493301125964",
    "geocoded_column": {
      "latitude": "29.968493301125964",
      "longitude": "-90.12694667347687"
    }
  },
  {
    "service_request": "2022-881630",
    "request_type": "Trash/Recycling",
    "request_reason": "Missed Trash Pick-Up",
    "date_created": "2022-05-10T14:32:33.000",
    "date_modified": "2022-05-10T14:32:34.000",
    "request_status": "Pending",
    "responsible_agency": "Department of Sanitation",
    "final_address": "717 Antonine St",
    "address_councildis": "B",
    "status": "Assigned to Contractor",
    "contractor": "Richards Disposal",
    "rowid": "881630",
    "final_x": "3674352.20654",
    "final_y": "517952.924406",
    "longitude": "-90.09110494997314",
    "latitude": "29.918405740116842",
    "geocoded_column": {
      "latitude": "29.918405740116842",
      "longitude": "-90.09110494997314"
    }
  },
  {
    "service_request": "2022-881629",
    "request_type": "Traffic Signals/Signs/Striping/Streetlights",
    "request_reason": "Traffic Sign Missing/Damaged",
    "date_created": "2022-05-10T14:29:35.000",
    "date_modified": "2022-05-10T14:29:35.000",
    "request_status": "Pending",
    "responsible_agency": "Department of Public Works",
    "final_address": "3840 General Meyer Ave",
    "address_councildis": "C",
    "status": "Pending",
    "rowid": "881629",
    "final_x": "3698427.33098",
    "final_y": "525138.004477",
    "longitude": "-90.0148521035325",
    "latitude": "29.937422619310258",
    "geocoded_column": {
      "latitude": "29.937422619310258",
      "longitude": "-90.0148521035325"
    }
  },
  {
    "service_request": "2022-881627",
    "request_type": "Trash/Recycling",
    "request_reason": "Repair Trash Cart",
    "date_created": "2022-05-10T14:23:32.000",
    "date_modified": "2022-05-10T14:23:32.000",
    "request_status": "Pending",
    "responsible_agency": "Department of Sanitation",
    "final_address": "3808 General Pershing St",
    "address_councildis": "B",
    "status": "Assigned to Contractor",
    "contractor": "Richards Disposal",
    "rowid": "881627",
    "final_x": "3670433.08334",
    "final_y": "528605.518016",
    "longitude": "-90.10311455758828",
    "latitude": "29.94781319288695",
    "geocoded_column": {
      "latitude": "29.94781319288695",
      "longitude": "-90.10311455758828"
    }
  },
  {
    "service_request": "2022-881626",
    "request_type": "Trash/Recycling",
    "request_reason": "Repair Trash Cart",
    "date_created": "2022-05-10T14:21:05.000",
    "date_modified": "2022-05-10T14:21:06.000",
    "request_status": "Pending",
    "responsible_agency": "Department of Sanitation",
    "final_address": "1014 Pleasant St",
    "address_councildis": "B",
    "status": "Assigned to Contractor",
    "contractor": "Richards Disposal",
    "rowid": "881626",
    "final_x": "3675617.98721",
    "final_y": "519628.026552",
    "longitude": "-90.08705204221721",
    "latitude": "29.922973939352993",
    "geocoded_column": {
      "latitude": "29.922973939352993",
      "longitude": "-90.08705204221721"
    }
  },
  {
    "service_request": "2022-881625",
    "request_type": "Trash/Recycling",
    "request_reason": "Order Trash Cart",
    "date_created": "2022-05-10T14:15:58.000",
    "date_modified": "2022-05-10T14:15:59.000",
    "request_status": "Pending",
    "responsible_agency": "Department of Sanitation",
    "final_address": "4106 Constance St",
    "address_councildis": "B",
    "status": "Assigned to Contractor",
    "contractor": "Richards Disposal",
    "rowid": "881625",
    "final_x": "3672111.88551",
    "final_y": "518478.017654",
    "longitude": "-90.09815859727682",
    "latitude": "29.919916173033847",
    "geocoded_column": {
      "latitude": "29.919916173033847",
      "longitude": "-90.09815859727682"
    }
  },
  {
    "service_request": "2022-881624",
    "request_type": "Traffic Signals/Signs/Striping/Streetlights",
    "request_reason": "Street Light Outage/Malfunction",
    "date_created": "2022-05-10T14:14:52.000",
    "date_modified": "2022-05-10T14:14:53.000",
    "request_status": "Pending",
    "responsible_agency": "Department of Public Works",
    "final_address": "PRENTISS AVE & PASTEUR BLVD",
    "address_councildis": "D",
    "status": "Pending",
    "contractor": "Royal Engineering",
    "rowid": "881624",
    "final_x": "3682817.6",
    "final_y": "553774.98",
    "longitude": "-90.06313081830882",
    "latitude": "30.016648963412653",
    "geocoded_column": {
      "latitude": "30.016648963412653",
      "longitude": "-90.06313081830882"
    }
  },
  {
    "service_request": "2022-881623",
    "request_type": "Trash/Recycling",
    "request_reason": "Missed Trash Pick-Up",
    "date_created": "2022-05-10T14:11:55.000",
    "date_modified": "2022-05-10T14:11:56.000",
    "request_status": "Pending",
    "responsible_agency": "Department of Sanitation",
    "final_address": "529 S Galvez St",
    "address_councildis": "B",
    "status": "Assigned to Contractor",
    "contractor": "Richards Disposal",
    "rowid": "881623",
    "final_x": "3675596.2468",
    "final_y": "532254.590467",
    "longitude": "-90.086687032129",
    "latitude": "29.957693492371817",
    "geocoded_column": {
      "latitude": "29.957693492371817",
      "longitude": "-90.086687032129"
    }
  },
  {
    "service_request": "2022-881622",
    "request_type": "Abandoned Vehicles",
    "request_reason": "Abandoned/Junk Vehicles",
    "date_created": "2022-05-10T14:10:56.000",
    "date_modified": "2022-05-10T14:10:56.000",
    "request_status": "Pending",
    "responsible_agency": "Department of Public Works",
    "final_address": "2544 Dumaine St",
    "address_councildis": "D",
    "status": "Pending",
    "rowid": "881622",
    "final_x": "3677652.67042",
    "final_y": "537080.595336",
    "longitude": "-90.08002675719123",
    "latitude": "29.9709016889274",
    "geocoded_column": {
      "latitude": "29.9709016889274",
      "longitude": "-90.08002675719123"
    }
  },
  {
    "service_request": "2022-881621",
    "request_type": "Parks & Parkways",
    "request_reason": "Request Tree Service (Right of Way/Public Property)",
    "date_created": "2022-05-10T14:10:29.000",
    "date_modified": "2022-05-10T14:10:30.000",
    "request_status": "Pending",
    "responsible_agency": "Department of Parks & Parkway",
    "final_address": "872 Harrison Ave",
    "address_councildis": "A",
    "status": "Pending",
    "rowid": "881621",
    "final_x": "3669866.17498",
    "final_y": "549061.923987",
    "longitude": "-90.10421168247095",
    "latitude": "30.004078126803535",
    "geocoded_column": {
      "latitude": "30.004078126803535",
      "longitude": "-90.10421168247095"
    }
  },
  {
    "service_request": "2022-881620",
    "request_type": "Trash/Recycling",
    "request_reason": "MIssed Recycling Pick-Up",
    "date_created": "2022-05-10T14:05:45.000",
    "date_modified": "2022-05-10T14:05:46.000",
    "request_status": "Pending",
    "responsible_agency": "Department of Sanitation",
    "final_address": "2633 Palmyra St",
    "address_councildis": "B",
    "status": "Assigned to Contractor",
    "contractor": "Richards Disposal",
    "rowid": "881620",
    "final_x": "3675121.48245",
    "final_y": "534329.817797",
    "longitude": "-90.08811498881833",
    "latitude": "29.963413865143103",
    "geocoded_column": {
      "latitude": "29.963413865143103",
      "longitude": "-90.08811498881833"
    }
  },
  {
    "service_request": "2022-881619",
    "request_type": "Trash/Recycling",
    "request_reason": "Repair Trash Cart",
    "date_created": "2022-05-10T14:03:39.000",
    "date_modified": "2022-05-10T14:03:40.000",
    "request_status": "Pending",
    "responsible_agency": "Department of Sanitation",
    "final_address": "655 S Gayoso St",
    "address_councildis": "B",
    "status": "Assigned to Contractor",
    "contractor": "Richards Disposal",
    "rowid": "881619",
    "final_x": "3672805.157",
    "final_y": "534004.401157",
    "longitude": "-90.09544080679144",
    "latitude": "29.962588090022418",
    "geocoded_column": {
      "latitude": "29.962588090022418",
      "longitude": "-90.09544080679144"
    }
  },
  {
    "service_request": "2022-881618",
    "request_type": "Trash/Recycling",
    "request_reason": "Missed Trash Pick-Up",
    "date_created": "2022-05-10T14:03:20.000",
    "date_modified": "2022-05-10T14:03:21.000",
    "request_status": "Pending",
    "responsible_agency": "Department of Sanitation",
    "final_address": "2633 Palmyra St",
    "address_councildis": "B",
    "status": "Assigned to Contractor",
    "contractor": "Richards Disposal",
    "rowid": "881618",
    "final_x": "3675121.48245",
    "final_y": "534329.817797",
    "longitude": "-90.08811498881833",
    "latitude": "29.963413865143103",
    "geocoded_column": {
      "latitude": "29.963413865143103",
      "longitude": "-90.08811498881833"
    }
  },
  {
    "service_request": "2022-881617",
    "request_type": "Parks & Parkways",
    "request_reason": "Request Tree Service (Right of Way/Public Property)",
    "date_created": "2022-05-10T14:03:18.000",
    "date_modified": "2022-05-10T14:03:18.000",
    "request_status": "Pending",
    "responsible_agency": "Department of Parks & Parkway",
    "final_address": "6325 Colbert St",
    "address_councildis": "A",
    "status": "Pending",
    "rowid": "881617",
    "final_x": "3667713.87783",
    "final_y": "549626.244947",
    "longitude": "-90.11099217710209",
    "latitude": "30.00569311951355",
    "geocoded_column": {
      "latitude": "30.00569311951355",
      "longitude": "-90.11099217710209"
    }
  },