[
  {
    "service_request": "2024-1149236",
    "request_type": "Trash/Recycling",
    "request_reason": "Request a Large Item Pick Up",
    "date_created": "2024-11-17T21:54:47.000",
    "date_modified": "2024-11-17T21:54:48.000",
    "request_status": "Pending",
    "responsible_agency": "Department of Sanitation",
    "final_address": "806 Opelousas Ave",
    "address_councildis": "C",
    "status": "Assigned to Contractor",
    "contractor": "Richards Disposal",
    "rowid": "1149236",
    "final_x": "3687901.85539",
    "final_y": "529190.67392",
    "longitude": "-90.0479381307274",
    "latitude": "29.94889490713998",
    "geocoded_column": {
      "latitude": "29.94889490713998",
      "longitude": "-90.0479381307274"
    }
  },
  {
    "service_request": "2024-1149235",
    "request_type": "Trash/Recycling",
    "request_reason": "Request a Large Item Pick Up",
    "date_created": "2024-11-17T21:52:34.000",
    "date_modified": "2024-11-17T21:52:35.000",
    "request_status": "Pending",
    "responsible_agency": "Department of Sanitation",
    "final_address": "1710 Pace Blvd",
    "address_councildis": "C",
    "status": "Assigned to Contractor",
    "contractor": "Richards Disposal",
    "rowid": "1149235",
    "final_x": "3694427.99722",
    "final_y": "524484.875836",
    "longitude": "-90.02750171235266",
    "latitude": "29.93575267059061",
    "geocoded_column": {
      "latitude": "29.93575267059061",
      "longitude": "-90.02750171235266"
    }
  },
  {
    "service_request": "2024-1149234",
    "request_type": "Trash/Recycling",
    "request_reason": "Request a Large Item Pick Up",
    "date_created": "2024-11-17T21:49:02.000",
    "date_modified": "2024-11-17T21:49:03.000",
    "request_status": "Pending",
    "responsible_agency": "Department of Sanitation",
    "final_address": "1710 Pace Blvd",
    "address_councildis": "C",
    "status": "Assigned to Contractor",
    "contractor": "Richards Disposal",
    "rowid": "1149234",
    "final_x": "3694427.99722",
    "final_y": "524484.875836",
    "longitude": "-90.02750171235266",
    "latitude": "29.93575267059061",
    "geocoded_column": {
      "latitude": "29.93575267059061",
      "longitude": "-90.02750171235266"
    }
  },
  {
    "service_request": "2024-1149233",
    "request_type": "Drainage",
    "request_reason": "Catch Basin Clogged",
    "date_created": "2024-11-17T21:44:21.000",
    "date_modified": "2024-11-17T21:44:21.000",
    "request_status": "Pending",
    "responsible_agency": "Department of Public Works",
    "final_address": "1303 Nashville Ave",
    "address_councildis": "A",
    "status": "Pending",
    "rowid": "1149233",
    "final_x": "3665972.52423",
    "final_y": "520700.024505",
    "longitude": "-90.11746323191913",
    "latitude": "29.926206539775098",
    "geocoded_column": {
      "latitude": "29.926206539775098",
      "longitude": "-90.11746323191913"
    }
  },
  {
    "service_request": "2024-1149232",
    "request_type": "Streetlights",
    "request_reason": "Streetlight Outage/Malfunction",
    "date_created": "2024-11-17T21:32:32.000",
    "date_modified": "2024-11-17T21:32:34.000",
    "request_status": "Pending",
    "responsible_agency": "Department of Public Works",
    "final_address": "900 BLK Frenchmen St",
    "address_councildis": "C",
    "status": "Pending",
    "contractor": "Legacy Professional Services",
    "rowid": "1149232",
    "final_x": "3684634.10543",
    "final_y": "535729.350573",
    "longitude": "-90.05802602762881",
    "latitude": "29.966974418146773",
    "geocoded_column": {
      "latitude": "29.966974418146773",
      "longitude": "-90.05802602762881"
    }
  },
  {
    "service_request": "2024-1149231",
    "request_type": "Parks & Parkways",
    "request_reason": "Request Tree Service (Right of Way/Public Property)",
    "date_created": "2024-11-17T21:31:03.000",
    "date_modified": "2024-11-17T21:31:03.000",
    "request_status": "Pending",
    "responsible_agency": "Department of Parks & Parkway",
    "final_address": "607 Nashville Ave",
    "address_councildis": "A",
    "status": "Pending",
    "rowid": "1149231",
    "final_x": "3665480.83444",
    "final_y": "518379.070454",
    "longitude": "-90.11909300153518",
    "latitude": "29.91983898182436",
    "geocoded_column": {
      "latitude": "29.91983898182436",
      "longitude": "-90.11909300153518"
    }
  },
  {
    "service_request": "2024-1149230",
    "request_type": "Trash/Recycling",
    "request_reason": "Request a Large Item Pick Up",
    "date_created": "2024-11-17T21:05:59.000",
    "date_modified": "2024-11-17T21:06:00.000",
    "request_status": "Pending",
    "responsible_agency": "Department of Sanitation",
    "final_address": "4827 Magazine St",
    "address_councildis": "B",
    "status": "Assigned to Contractor",
    "contractor": "IV Waste",
    "rowid": "1149230",
    "final_x": "3669358.245",
    "final_y": "518665.206583",
    "longitude": "-90.1068442045927",
    "latitude": "29.920512215631273",
    "geocoded_column": {
      "latitude": "29.920512215631273",
      "longitude": "-90.1068442045927"
    }
  },
  {
    "service_request": "2024-1149229",
    "request_type": "Trash/Recycling",
    "request_reason": "Order Recycling Cart",
    "date_created": "2024-11-17T19:55:12.000",
    "date_modified": "2024-11-17T19:55:12.000",
    "request_status": "Pending",
    "responsible_agency": "Department of Sanitation",
    "final_address": "2436 Broadway St",
    "address_councildis": "A",
    "status": "Pending",
    "rowid": "1149229",
    "final_x": "3666717.75373",
    "final_y": "530409.630914",
    "longitude": "-90.11478479352043",
    "latitude": "29.95288307621406",
    "geocoded_column": {
      "latitude": "29.95288307621406",
      "longitude": "-90.11478479352043"
    }
  },
  {
    "service_request": "2024-1149228",
    "request_type": "Trash/Recycling",
    "request_reason": "Order Trash Cart",
    "date_created": "2024-11-17T19:33:04.000",
    "date_modified": "2024-11-17T19:33:05.000",
    "request_status": "Pending",
    "responsible_agency": "Department of Sanitation",
    "final_address": "2436 Broadway St",
    "address_councildis": "A",
    "status": "Assigned to Contractor",
    "contractor": "IV Waste",
    "rowid": "1149228",
    "final_x": "3666717.75373",
    "final_y": "530409.630914",
    "longitude": "-90.11478479352043",
    "latitude": "29.95288307621406",
    "geocoded_column": {
      "latitude": "29.95288307621406",
      "longitude": "-90.11478479352043"
    }
  },
  {
    "service_request": "2024-1149227",
    "request_type": "Trash/Recycling",
    "request_reason": "Order Recycling Cart",
    "date_created": "2024-11-17T19:32:11.000",
    "date_modified": "2024-11-17T19:32:11.000",
    "request_status": "Pending",
    "responsible_agency": "Department of Sanitation",
    "final_address": "2436 Broadway St",
    "address_councildis": "A",
    "status": "Pending",
    "rowid": "1149227",
    "final_x": "3666717.75373",
    "final_y": "530409.630914",
    "longitude": "-90.11478479352043",
    "latitude": "29.95288307621406",
    "geocoded_column": {
      "latitude": "29.95288307621406",
      "longitude": "-90.11478479352043"
    }
  },
  {
    "service_request": "2024-1149226",
    "request_type": "Trash/Recycling",
    "request_reason": "Order Trash Cart",
    "date_created": "2024-11-17T19:15:32.000",
    "date_modified": "2024-11-17T19:15:33.000",
    "request_status": "Pending",
    "responsible_agency": "Department of Sanitation",
    "final_address": "4834 Francis Dr",
    "address_councildis": "D",
    "status": "Assigned to Contractor",
    "contractor": "Waste Pro",
    "rowid": "1149226",
    "final_x": "3698146.94186",
    "final_y": "554844.351512",
    "longitude": "-90.01465799614867",
    "latitude": "30.019113173845792",
    "geocoded_column": {
      "latitude": "30.019113173845792",
      "longitude": "-90.01465799614867"
    }
  },
  {
    "service_request": "2024-1149225",
    "request_type": "Property Maintenance",
    "request_reason": "Property Maintenance",
    "date_created": "2024-11-17T18:44:51.000",
    "date_modified": "2024-11-17T18:44:51.000",
    "request_status": "Pending",
    "responsible_agency": "Department of Code Enforcement",
    "final_address": "9561 Stroelitz St",
    "address_councildis": "A",
    "status": "Pending",
    "rowid": "1149225",
    "final_x": "3663980.13037",
    "final_y": "538639.264777",
    "longitude": "-90.12315458828228",
    "latitude": "29.975591636872146",
    "geocoded_column": {
      "latitude": "29.975591636872146",
      "longitude": "-90.12315458828228"
    }
  },
  {
    "service_request": "2024-1149224",
    "request_type": "Streetlights",
    "request_reason": "New Streetlight Request",
    "date_created": "2024-11-17T17:25:51.000",
    "date_modified": "2024-11-17T17:25:52.000",
    "request_status": "Pending",
    "responsible_agency": "Department of Public Works",
    "final_address": "1726 Urquhart St",
    "address_councildis": "C",
    "status": "Pending",
    "contractor": "Legacy Professional Services",
    "rowid": "1149224",
    "final_x": "3683333.77564",
    "final_y": "536856.576008",
    "longitude": "-90.06209297442491",
    "latitude": "29.970113628813557",
    "geocoded_column": {
      "latitude": "29.970113628813557",
      "longitude": "-90.06209297442491"
    }
  },
  {
    "service_request": "2024-1149223",
    "request_type": "Streetlights",
    "request_reason": "New Streetlight Request",
    "date_created": "2024-11-17T17:22:45.000",
    "date_modified": "2024-11-17T17:22:46.000",
    "request_status": "Pending",
    "responsible_agency": "Department of Public Works",
    "final_address": "1501 Frenchmen St",
    "address_councildis": "C",
    "status": "Pending",
    "contractor": "Legacy Professional Services",
    "rowid": "1149223",
    "final_x": "3684505.26716",
    "final_y": "537783.824392",
    "longitude": "-90.05836070653619",
    "latitude": "29.972627450139615",
    "geocoded_column": {
      "latitude": "29.972627450139615",
      "longitude": "-90.05836070653619"
    }
  },
  {
    "service_request": "2024-1149222",
    "request_type": "Streetlights",
    "request_reason": "New Streetlight Request",
    "date_created": "2024-11-17T17:18:24.000",
    "date_modified": "2024-11-17T17:18:25.000",
    "request_status": "Pending",
    "responsible_agency": "Department of Public Works",
    "final_address": "2023 N Robertson St",
    "address_councildis": "C",
    "status": "Pending",
    "contractor": "Legacy Professional Services",
    "rowid": "1149222",
    "final_x": "3684313.46729",
    "final_y": "537762.008008",
    "longitude": "-90.05896721078686",
    "latitude": "29.972573329461067",
    "geocoded_column": {
      "latitude": "29.972573329461067",
      "longitude": "-90.05896721078686"
    }
  },
  {
    "service_request": "2024-1149221",
    "request_type": "Trash/Recycling",
    "request_reason": "Request a Large Item Pick Up",
    "date_created": "2024-11-17T17:15:40.000",
    "date_modified": "2024-11-17T17:15:40.000",
    "request_status": "Pending",
    "responsible_agency": "Department of Sanitation",
    "final_address": "5725 General Diaz St",
    "address_councildis": "A",
    "status": "Assigned to Contractor",
    "contractor": "IV Waste",
    "rowid": "1149221",
    "final_x": "3669398.32666",
    "final_y": "545538.721616",
    "longitude": "-90.10580894181041",
    "latitude": "29.99440433255263",
    "geocoded_column": {
      "latitude": "29.99440433255263",
      "longitude": "-90.10580894181041"
    }
  },
  {
    "service_request": "2024-1149220",
    "request_type": "Streetlights",
    "request_reason": "New Streetlight Request",
    "date_created": "2024-11-17T17:15:21.000",
    "date_modified": "2024-11-17T17:15:22.000",
    "request_status": "Pending",
    "responsible_agency": "Department of Public Works",
    "final_address": "1925 N Robertson St",
    "address_councildis": "C",
    "status": "Pending",
    "contractor": "Legacy Professional Services",
    "rowid": "1149220",
    "final_x": "3683975.13698",
    "final_y": "537733.206856",
    "longitude": "-90.0600367281412",
    "latitude": "29.97250447837015",
    "geocoded_column": {
      "latitude": "29.97250447837015",
      "longitude": "-90.0600367281412"
    }
  },
  {
    "service_request": "2024-1149219",
    "request_type": "Streetlights",
    "request_reason": "New Streetlight Request",
    "date_created": "2024-11-17T17:12:29.000",
    "date_modified": "2024-11-17T17:12:30.000",
    "request_status": "Pending",
    "responsible_agency": "Department of Public Works",
    "final_address": "1811 N Robertson St",
    "address_councildis": "C",
    "status": "Pending",
    "contractor": "Legacy Professional Services",
    "rowid": "1149219",
    "final_x": "3683509.39823",
    "final_y": "537733.624392",
    "longitude": "-90.06150759753184",
    "latitude": "29.972519848920914",
    "geocoded_column": {
      "latitude": "29.972519848920914",
      "longitude": "-90.06150759753184"
    }
  },
  {
    "service_request": "2024-1149218",
    "request_type": "Streetlights",
    "request_reason": "New Streetlight Request",
    "date_created": "2024-11-17T17:09:24.000",
    "date_modified": "2024-11-17T17:09:25.000",
    "request_status": "Pending",
    "responsible_agency": "Department of Public Works",
    "final_address": "1715 N Robertson St",
    "address_councildis": "C",
    "status": "Pending",
    "contractor": "Legacy Professional Services",
    "rowid": "1149218",
    "final_x": "3683157.15746",
    "final_y": "537663.098184",
    "longitude": "-90.06262250554904",
    "latitude": "29.972336671943353",
    "geocoded_column": {
      "latitude": "29.972336671943353",
      "longitude": "-90.06262250554904"
    }
  },
  {
    "service_request": "2024-1149217",
    "request_type": "Streetlights",
    "request_reason": "New Streetlight Request",
    "date_created": "2024-11-17T17:06:28.000",
    "date_modified": "2024-11-17T17:06:29.000",
    "request_status": "Pending",
    "responsible_agency": "Department of Public Works",
    "final_address": "1659 N Robertson St",
    "address_councildis": "C",
    "status": "Pending",
    "contractor": "Legacy Professional Services",
    "rowid": "1149217",
    "final_x": "3682796.33372",
    "final_y": "537634.973576",
    "longitude": "-90.06376303218303",
    "latitude": "29.972270336704714",
    "geocoded_column": {
      "latitude": "29.972270336704714",
      "longitude": "-90.06376303218303"
    }
  },
  {
    "service_request": "2024-1149216",
    "request_type": "Streetlights",
    "request_reason": "New Streetlight Request",
    "date_created": "2024-11-17T17:03:27.000",
    "date_modified": "2024-11-17T17:03:28.000",
    "request_status": "Pending",
    "responsible_agency": "Department of Public Works",
    "final_address": "1627 N Robertson St",
    "address_councildis": "C",
    "status": "Pending",
    "contractor": "Legacy Professional Services",
    "rowid": "1149216",
    "final_x": "3682568.63157",
    "final_y": "537659.582536",
    "longitude": "-90.06448129309173",
    "latitude": "29.9723449379526",
    "geocoded_column": {
      "latitude": "29.9723449379526",
      "longitude": "-90.06448129309173"
    }
  },
  {
    "service_request": "2024-1149215",
    "request_type": "Streetlights",
    "request_reason": "New Streetlight Request",
    "date_created": "2024-11-17T16:59:48.000",
    "date_modified": "2024-11-17T16:59:49.000",
    "request_status": "Pending",
    "responsible_agency": "Department of Public Works",
    "final_address": "1430 Frenchmen St",
    "address_councildis": "C",
    "status": "Pending",
    "contractor": "Legacy Professional Services",
    "rowid": "1149215",
    "final_x": "3684444.74767",
    "final_y": "537639.175944",
    "longitude": "-90.05855692010226",
    "latitude": "29.97223156874311",
    "geocoded_column": {
      "latitude": "29.97223156874311",
      "longitude": "-90.05855692010226"
    }
  },
  {
    "service_request": "2024-1149214",
    "request_type": "Streetlights",
    "request_reason": "New Streetlight Request",
    "date_created": "2024-11-17T16:57:05.000",
    "date_modified": "2024-11-17T16:57:06.000",
    "request_status": "Pending",
    "responsible_agency": "Department of Public Works",
    "final_address": "1410 Frenchmen St",
    "address_councildis": "C",
    "status": "Pending",
    "contractor": "Legacy Professional Services",
    "rowid": "1149214",
    "final_x": "3684455.49871",
    "final_y": "537485.583496",
    "longitude": "-90.05852836320472",
    "latitude": "29.971808914077947",
    "geocoded_column": {
      "latitude": "29.971808914077947",
      "longitude": "-90.05852836320472"
    }
  },
  {
    "service_request": "2024-1149213",
    "request_type": "Streetlights",
    "request_reason": "New Streetlight Request",
    "date_created": "2024-11-17T16:54:07.000",
    "date_modified": "2024-11-17T16:54:08.000",
    "request_status": "Pending",
    "responsible_agency": "Department of Public Works",
    "final_address": "1332 Frenchmen St",
    "address_councildis": "C",
    "status": "Pending",
    "contractor": "Legacy Professional Services",
    "rowid": "1149213",
    "final_x": "3684482.44757",
    "final_y": "537276.071176",
    "longitude": "-90.05845061651819",
    "latitude": "29.971232003646026",
    "geocoded_column": {
      "latitude": "29.971232003646026",
      "longitude": "-90.05845061651819"
    }
  },
  {
    "service_request": "2024-1149212",
    "request_type": "General Services",
    "request_reason": "General Service Request",
    "date_created": "2024-11-17T16:52:54.000",
    "date_modified": "2024-11-17T16:52:54.000",
    "request_status": "Pending",
    "responsible_agency": "Orleans Parish Communication District",
    "final_address": "2033 Audubon St",
    "address_councildis": "A",
    "status": "Pending",
    "rowid": "1149212",
    "final_x": "3666172.75265",
    "final_y": "528867.358592",
    "longitude": "-90.11655738525846",
    "latitude": "29.948658253477237",
    "geocoded_column": {
      "latitude": "29.948658253477237",
      "longitude": "-90.11655738525846"
    }
  },
  {
    "service_request": "2024-1149211",
    "request_type": "Streetlights",
    "request_reason": "New Streetlight Request",
    "date_created": "2024-11-17T16:51:38.000",
    "date_modified": "2024-11-17T16:51:39.000",
    "request_status": "Pending",
    "responsible_agency": "Department of Public Works",
    "final_address": "1308 Frenchmen St",
    "address_councildis": "C",
    "status": "Pending",
    "contractor": "Legacy Professional Services",
    "rowid": "1149211",
    "final_x": "3684498.25986",
    "final_y": "537104.446664",
    "longitude": "-90.05840670995482",
    "latitude": "29.970759612144455",
    "geocoded_column": {
      "latitude": "29.970759612144455",
      "longitude": "-90.05840670995482"
    }
  },
  {
    "service_request": "2024-1149210",
    "request_type": "Streetlights",
    "request_reason": "New Streetlight Request",
    "date_created": "2024-11-17T16:42:15.000",
    "date_modified": "2024-11-17T16:42:16.000",
    "request_status": "Pending",
    "responsible_agency": "Department of Public Works",
    "final_address": "1416 Touro St",
    "address_councildis": "C",
    "status": "Pending",
    "contractor": "Legacy Professional Services",
    "rowid": "1149210",
    "final_x": "3684097.23029",
    "final_y": "537485.544456",
    "longitude": "-90.05965983050538",
    "latitude": "29.971819761761367",
    "geocoded_column": {
      "latitude": "29.971819761761367",
      "longitude": "-90.05965983050538"
    }
  },
  {
    "service_request": "2024-1149209",
    "request_type": "Streetlights",
    "request_reason": "New Streetlight Request",
    "date_created": "2024-11-17T16:39:43.000",
    "date_modified": "2024-11-17T16:39:44.000",
    "request_status": "Pending",
    "responsible_agency": "Department of Public Works",
    "final_address": "1330 Touro St",
    "address_councildis": "C",
    "status": "Pending",
    "contractor": "Legacy Professional Services",
    "rowid": "1149209",
    "final_x": "3684121.34274",
    "final_y": "537233.963016",
    "longitude": "-90.0595925119297",
    "latitude": "29.971127263230947",
    "geocoded_column": {
      "latitude": "29.971127263230947",
      "longitude": "-90.0595925119297"
    }
  },
  {
    "service_request": "2024-1149208",
    "request_type": "Streetlights",
    "request_reason": "New Streetlight Request",
    "date_created": "2024-11-17T16:36:26.000",
    "date_modified": "2024-11-17T16:36:27.000",
    "request_status": "Pending",
    "responsible_agency": "Department of Public Works",
    "final_address": "1310 Touro St",
    "address_councildis": "C",
    "status": "Pending",
    "contractor": "Legacy Professional Services",
    "rowid": "1149208",
    "final_x": "3684134.16469",
    "final_y": "537079.62932",
    "longitude": "-90.05955743680934",
    "latitude": "29.970702507248582",
    "geocoded_column": {
      "latitude": "29.970702507248582",
      "longitude": "-90.05955743680934"
    }
  },
  {
    "service_request": "2024-1149207",
    "request_type": "Abandoned Vehicles",
    "request_reason": "Abandoned/Junk Vehicles",
    "date_created": "2024-11-17T16:35:06.000",
    "date_modified": "2024-11-17T16:35:06.000",
    "request_status": "Pending",
    "responsible_agency": "Department of Public Works",
    "final_address": "8117 Apple St",
    "address_councildis": "A",
    "status": "Pending",
    "rowid": "1149207",
    "final_x": "3665287.91181",
    "final_y": "532221.242947",
    "longitude": "-90.1192390097369",
    "latitude": "29.95790615234316",
    "geocoded_column": {
      "latitude": "29.95790615234316",
      "longitude": "-90.1192390097369"
    }
  },
  {
    "service_request": "2024-1149206",
    "request_type": "Abandoned Vehicles",
    "request_reason": "Abandoned/Junk Vehicles",
    "date_created": "2024-11-17T16:34:32.000",
    "date_modified": "2024-11-17T16:34:32.000",
    "request_status": "Pending",
    "responsible_agency": "Department of Public Works",
    "final_address": "2721 S Robertson St",
    "address_councildis": "B",
    "status": "Pending",
    "rowid": "1149206",
    "final_x": "3674019.70868",
    "final_y": "525659.015165",
    "longitude": "-90.09189093523239",
    "latitude": "29.939604907804025",
    "geocoded_column": {
      "latitude": "29.939604907804025",
      "longitude": "-90.09189093523239"
    }
  },
  {
    "service_request": "2024-1149205",
    "request_type": "Streetlights",
    "request_reason": "New Streetlight Request",
    "date_created": "2024-11-17T16:34:09.000",
    "date_modified": "2024-11-17T16:34:10.000",
    "request_status": "Pending",
    "responsible_agency": "Department of Public Works",
    "final_address": "1305 Touro St",
    "address_councildis": "C",
    "status": "Pending",
    "contractor": "Legacy Professional Services",
    "rowid": "1149205",
    "final_x": "3684194.66505",
    "final_y": "537031.847752",
    "longitude": "-90.0593680473653",
    "latitude": "29.970569275099283",
    "geocoded_column": {
      "latitude": "29.970569275099283",
      "longitude": "-90.0593680473653"
    }
  },
  {
    "service_request": "2024-1149204",
    "request_type": "Trash/Recycling",
    "request_reason": "Repair Trash Cart",
    "date_created": "2024-11-17T16:32:37.000",
    "date_modified": "2024-11-17T16:32:37.000",
    "request_status": "Pending",
    "responsible_agency": "Department of Sanitation",
    "final_address": "1210 Valmont St",
    "address_councildis": "B",
    "status": "Assigned to Contractor",
    "contractor": "IV Waste",
    "rowid": "1149204",
    "final_x": "3667598.10452",
    "final_y": "519810.39564",
    "longitude": "-90.11236164744905",
    "latitude": "29.923712811731768",
    "geocoded_column": {
      "latitude": "29.923712811731768",
      "longitude": "-90.11236164744905"
    }
  },
  {
    "service_request": "2024-1149203",
    "request_type": "Streetlights",
    "request_reason": "New Streetlight Request",
    "date_created": "2024-11-17T16:30:34.000",
    "date_modified": "2024-11-17T16:30:35.000",
    "request_status": "Pending",
    "responsible_agency": "Department of Public Works",
    "final_address": "1210 Touro St",
    "address_councildis": "C",
    "status": "Pending",
    "contractor": "Legacy Professional Services",
    "rowid": "1149203",
    "final_x": "3684161.72879",
    "final_y": "536716.073927",
    "longitude": "-90.05948315036675",
    "latitude": "29.969702013517775",
    "geocoded_column": {
      "latitude": "29.969702013517775",
      "longitude": "-90.05948315036675"
    }
  },
  {
    "service_request": "2024-1149202",
    "request_type": "Drainage",
    "request_reason": "Street Flooding",
    "date_created": "2024-11-17T16:29:15.000",
    "date_modified": "2024-11-17T16:29:15.000",
    "request_status": "Pending",
    "responsible_agency": "Department of Public Works",
    "final_address": "2738 State St",
    "address_councildis": "A",
    "status": "Pending",
    "rowid": "1149202",
    "final_x": "3667063.38049",
    "final_y": "526717.340158",
    "longitude": "-90.11381753589285",
    "latitude": "29.942720362888387",
    "geocoded_column": {
      "latitude": "29.942720362888387",
      "longitude": "-90.11381753589285"
    }
  },
  {
    "service_request": "2024-1149201",
    "request_type": "Streetlights",
    "request_reason": "New Streetlight Request",
    "date_created": "2024-11-17T16:26:35.000",
    "date_modified": "2024-11-17T16:26:36.000",
    "request_status": "Pending",
    "responsible_agency": "Department of Public Works",
    "final_address": "2032 Pauger St",
    "address_councildis": "C",
    "status": "Pending",
    "contractor": "Legacy Professional Services",
    "rowid": "1149201",
    "final_x": "3683759.77826",
    "final_y": "537214.967112",
    "longitude": "-90.06073504591508",
    "latitude": "29.971086077626957",
    "geocoded_column": {
      "latitude": "29.971086077626957",
      "longitude": "-90.06073504591508"
    }
  },
  {
    "service_request": "2024-1149200",
    "request_type": "Streetlights",
    "request_reason": "New Streetlight Request",
    "date_created": "2024-11-17T16:24:02.000",
    "date_modified": "2024-11-17T16:24:03.000",
    "request_status": "Pending",
    "responsible_agency": "Department of Public Works",
    "final_address": "2006 Pauger St",
    "address_councildis": "C",
    "status": "Pending",
    "contractor": "Legacy Professional Services",
    "rowid": "1149200",
    "final_x": "3683744.50639",
    "final_y": "537017.386888",
    "longitude": "-90.06079020627139",
    "latitude": "29.970543266927216",
    "geocoded_column": {
      "latitude": "29.970543266927216",
      "longitude": "-90.06079020627139"
    }
  },
  {
    "service_request": "2024-1149199",
    "request_type": "Streetlights",
    "request_reason": "New Streetlight Request",
    "date_created": "2024-11-17T16:21:20.000",
    "date_modified": "2024-11-17T16:21:21.000",
    "request_status": "Pending",
    "responsible_agency": "Department of Public Works",
    "final_address": "1928 Pauger St",
    "address_councildis": "C",
    "status": "Pending",
    "contractor": "Legacy Professional Services",
    "rowid": "1149199",
    "final_x": "3683800.84892",
    "final_y": "536818.7058",
    "longitude": "-90.06061923960077",
    "latitude": "29.96999524217774",
    "geocoded_column": {
      "latitude": "29.96999524217774",
      "longitude": "-90.06061923960077"
    }
  },
  {
    "service_request": "2024-1149198",
    "request_type": "Trash/Recycling",
    "request_reason": "Request a Large Item Pick Up",
    "date_created": "2024-11-17T16:18:51.000",
    "date_modified": "2024-11-17T16:18:52.000",
    "request_status": "Pending",
    "responsible_agency": "Department of Sanitation",
    "final_address": "7678 Forum Blvd",
    "address_councildis": "E",
    "status": "Assigned to Contractor",
    "contractor": "Waste Pro",
    "rowid": "1149198",
    "final_x": "3719784.03941",
    "final_y": "573247.472297",
    "longitude": "-89.9455889058327",
    "latitude": "30.069011786231687",
    "geocoded_column": {
      "latitude": "30.069011786231687",
      "longitude": "-89.9455889058327"
    }
  },
  {
    "service_request": "2024-1149197",
    "request_type": "Streetlights",
    "request_reason": "New Streetlight Request",
    "date_created": "2024-11-17T16:17:09.000",
    "date_modified": "2024-11-17T16:17:10.000",
    "request_status": "Pending",
    "responsible_agency": "Department of Public Works",
    "final_address": "1832 Pauger St",
    "address_councildis": "C",
    "status": "Pending",
    "contractor": "Legacy Professional Services",
    "rowid": "1149197",
    "final_x": "3683823.58639",
    "final_y": "536482.228423",
    "longitude": "-90.06055923596472",
    "latitude": "29.96906935153086",
    "geocoded_column": {
      "latitude": "29.96906935153086",
      "longitude": "-90.06055923596472"
    }
  },
  {
    "service_request": "2024-1149196",
    "request_type": "Parks & Parkways",
    "request_reason": "Request Tree Service (Right of Way/Public Property)",
    "date_created": "2024-11-17T15:32:40.000",
    "date_modified": "2024-11-17T15:32:40.000",
    "request_status": "Pending",
    "responsible_agency": "Department of Parks & Parkway",
    "final_address": "5976 General Haig St",
    "address_councildis": "A",
    "status": "Pending",
    "rowid": "1149196",
    "final_x": "3670457.72833",
    "final_y": "547035.942417",
    "longitude": "-90.10241161220961",
    "latitude": "29.998489922220998",
    "geocoded_column": {
      "latitude": "29.998489922220998",
      "longitude": "-90.10241161220961"
    }
  },
  {
    "service_request": "2024-1149195",
    "request_type": "Trash/Recycling",
    "request_reason": "Replace Trash Cart",
    "date_created": "2024-11-17T15:25:27.000",
    "date_modified": "2024-11-17T15:25:28.000",
    "request_status": "Pending",
    "responsible_agency": "Department of Sanitation",
    "final_address": "2300 Bristol Pl",
    "address_councildis": "C",
    "status": "Assigned to Contractor",
    "contractor": "Richards Disposal",
    "rowid": "1149195",
    "final_x": "3702686.35281",
    "final_y": "522508.838714",
    "longitude": "-90.0015026569236",
    "latitude": "29.93005789097889",
    "geocoded_column": {
      "latitude": "29.93005789097889",
      "longitude": "-90.0015026569236"
    }
  },
  {
    "service_request": "2024-1149194",
    "request_type": "Streetlights",
    "request_reason": "New Streetlight Request",
    "date_created": "2024-11-17T15:25:04.000",
    "date_modified": "2024-11-17T15:25:05.000",
    "request_status": "Pending",
    "responsible_agency": "Department of Public Works",
    "final_address": "2123 N Villere St",
    "address_councildis": "C",
    "status": "Pending",
    "contractor": "Legacy Professional Services",
    "rowid": "1149194",
    "final_x": "3684712.78837",
    "final_y": "537424.038984",
    "longitude": "-90.05771796745086",
    "latitude": "29.971631814762965",
    "geocoded_column": {
      "latitude": "29.971631814762965",
      "longitude": "-90.05771796745086"
    }
  },
  {
    "service_request": "2024-1149193",
    "request_type": "Streetlights",
    "request_reason": "New Streetlight Request",
    "date_created": "2024-11-17T15:21:26.000",
    "date_modified": "2024-11-17T15:21:27.000",
    "request_status": "Pending",
    "responsible_agency": "Department of Public Works",
    "final_address": "2113 N Villere St",
    "address_councildis": "C",
    "status": "Pending",
    "contractor": "Legacy Professional Services",
    "rowid": "1149193",
    "final_x": "3684591.51874",
    "final_y": "537408.974856",
    "longitude": "-90.05810148404119",
    "latitude": "29.971594105248368",
    "geocoded_column": {
      "latitude": "29.971594105248368",
      "longitude": "-90.05810148404119"
    }
  },
  {
    "service_request": "2024-1149192",
    "request_type": "Trash/Recycling",
    "request_reason": "MIssed Recycling Pick-Up",
    "date_created": "2024-11-17T15:21:13.000",
    "date_modified": "2024-11-17T15:21:14.000",
    "request_status": "Pending",
    "responsible_agency": "Department of Sanitation",
    "final_address": "5067 Debore Cir",
    "address_councildis": "D",
    "status": "Assigned to Contractor",
    "contractor": "IV Waste",
    "rowid": "1149192",
    "final_x": "3692123.76214",
    "final_y": "553204.538711",
    "longitude": "-90.03374784963881",
    "latitude": "30.014793521593422",
    "geocoded_column": {
      "latitude": "30.014793521593422",
      "longitude": "-90.03374784963881"
    }
  },
  {
    "service_request": "2024-1149191",
    "request_type": "Streetlights",
    "request_reason": "New Streetlight Request",
    "date_created": "2024-11-17T15:18:21.000",
    "date_modified": "2024-11-17T15:18:22.000",
    "request_status": "Pending",
    "responsible_agency": "Department of Public Works",
    "final_address": "2031 N Villere St",
    "address_councildis": "C",
    "status": "Pending",
    "contractor": "Legacy Professional Services",
    "rowid": "1149191",
    "final_x": "3684413.06108",
    "final_y": "537397.461576",
    "longitude": "-90.05866548357788",
    "latitude": "29.971567907604374",
    "geocoded_column": {
      "latitude": "29.971567907604374",
      "longitude": "-90.05866548357788"
    }
  },
  {
    "service_request": "2024-1149190",
    "request_type": "Property Maintenance",
    "request_reason": "Property Maintenance",
    "date_created": "2024-11-17T15:16:28.000",
    "date_modified": "2024-11-17T15:16:28.000",
    "request_status": "Pending",
    "responsible_agency": "Department of Code Enforcement",
    "final_address": "1800 Lauradale Dr",
    "address_councildis": "C",
    "status": "Pending",
    "rowid": "1149190",
    "final_x": "3692785.41725",
    "final_y": "524655.26182",
    "longitude": "-90.0326812349807",
    "latitude": "29.936272543501655",
    "geocoded_column": {
      "latitude": "29.936272543501655",
      "longitude": "-90.0326812349807"
    }
  },
  {
    "service_request": "2024-1149189",
    "request_type": "Streetlights",
    "request_reason": "New Streetlight Request",
    "date_created": "2024-11-17T15:15:09.000",
    "date_modified": "2024-11-17T15:15:10.000",
    "request_status": "Pending",
    "responsible_agency": "Department of Public Works",
    "final_address": "2015 N Villere St",
    "address_councildis": "C",
    "status": "Pending",
    "contractor": "Legacy Professional Services",
    "rowid": "1149189",
    "final_x": "3684266.66498",
    "final_y": "537387.33076",
    "longitude": "-90.0591281792812",
    "latitude": "29.971544528534608",
    "geocoded_column": {
      "latitude": "29.971544528534608",
      "longitude": "-90.0591281792812"
    }
  },
  {
    "service_request": "2024-1149188",
    "request_type": "Streetlights",
    "request_reason": "New Streetlight Request",
    "date_created": "2024-11-17T15:11:43.000",
    "date_modified": "2024-11-17T15:11:44.000",
    "request_status": "Pending",
    "responsible_agency": "Department of Public Works",
    "final_address": "1933 N Villere St",
    "address_councildis": "C",
    "status": "Pending",
    "contractor": "Legacy Professional Services",
    "rowid": "1149188",
    "final_x": "3684019.03253",
    "final_y": "537367.330568",
    "longitude": "-90.05991093997267",
    "latitude": "29.971497104464426",
    "geocoded_column": {
      "latitude": "29.971497104464426",
      "longitude": "-90.05991093997267"
    }
  },
  {
    "service_request": "2024-1149187",
    "request_type": "Streetlights",
    "request_reason": "New Streetlight Request",
    "date_created": "2024-11-17T15:08:37.000",
    "date_modified": "2024-11-17T15:08:38.000",
    "request_status": "Pending",
    "responsible_agency": "Department of Public Works",
    "final_address": "1913 N Villere St",
    "address_councildis": "C",
    "status": "Pending",
    "contractor": "Legacy Professional Services",
    "rowid": "1149187",
    "final_x": "3683903.93359",
    "final_y": "537356.831304",
    "longitude": "-90.06027480713871",
    "latitude": "29.97147175184002",
    "geocoded_column": {
      "latitude": "29.97147175184002",
      "longitude": "-90.06027480713871"
    }
  },
  {
    "service_request": "2024-1149186",
    "request_type": "Streetlights",
    "request_reason": "New Streetlight Request",
    "date_created": "2024-11-17T15:04:57.000",
    "date_modified": "2024-11-17T15:04:58.000",
    "request_status": "Pending",
    "responsible_agency": "Department of Public Works",
    "final_address": "1821 N Villere St",
    "address_councildis": "C",
    "status": "Pending",
    "contractor": "Legacy Professional Services",
    "rowid": "1149186",
    "final_x": "3683598.38793",
    "final_y": "537405.146952",
    "longitude": "-90.06123806948737",
    "latitude": "29.971613933796043",
    "geocoded_column": {
      "latitude": "29.971613933796043",
      "longitude": "-90.06123806948737"
    }
  },
  {
    "service_request": "2024-1149185",
    "request_type": "Streetlights",
    "request_reason": "New Streetlight Request",
    "date_created": "2024-11-17T15:01:16.000",
    "date_modified": "2024-11-17T15:01:17.000",
    "request_status": "Pending",
    "responsible_agency": "Department of Public Works",
    "final_address": "1401 St Anthony St",
    "address_councildis": "C",
    "status": "Pending",
    "contractor": "Legacy Professional Services",
    "rowid": "1149185",
    "final_x": "3683493.62069",
    "final_y": "537329.782472",
    "longitude": "-90.06157158139705",
    "latitude": "29.97140990536473",
    "geocoded_column": {
      "latitude": "29.97140990536473",
      "longitude": "-90.06157158139705"
    }
  },
  {
    "service_request": "2024-1149184",
    "request_type": "Streetlights",
    "request_reason": "New Streetlight Request",
    "date_created": "2024-11-17T14:57:09.000",
    "date_modified": "2024-11-17T14:57:10.000",
    "request_status": "Pending",
    "responsible_agency": "Department of Public Works",
    "final_address": "1729 N Villere St",
    "address_councildis": "C",
    "status": "Pending",
    "contractor": "Legacy Professional Services",
    "rowid": "1149184",
    "final_x": "3683295.71669",
    "final_y": "537308.38612",
    "longitude": "-90.06219733947242",
    "latitude": "29.9713571110199",
    "geocoded_column": {
      "latitude": "29.9713571110199",
      "longitude": "-90.06219733947242"
    }
  },
  {
    "service_request": "2024-1149183",
    "request_type": "Roads and Streets",
    "request_reason": "Pothole",
    "date_created": "2024-11-17T14:56:24.000",
    "date_modified": "2024-11-17T14:56:24.000",
    "request_status": "Pending",
    "responsible_agency": "Department of Public Works",
    "final_address": "600 First St",
    "address_councildis": "B",
    "status": "Pending",
    "rowid": "1149183",
    "final_x": "3679030.64898",
    "final_y": "519985.956024",
    "longitude": "-90.07626720005887",
    "latitude": "29.923855625335953",
    "geocoded_column": {
      "latitude": "29.923855625335953",
      "longitude": "-90.07626720005887"
    }
  },
  {
    "service_request": "2024-1149182",
    "request_type": "Trash/Recycling",
    "request_reason": "Request a Large Item Pick Up",
    "date_created": "2024-11-17T14:55:04.000",
    "date_modified": "2024-11-17T14:55:06.000",
    "request_status": "Pending",
    "responsible_agency": "Department of Sanitation",
    "final_address": "144 18Th St",
    "address_councildis": "A",
    "status": "Assigned to Contractor",
    "contractor": "IV Waste",
    "rowid": "1149182",
    "final_x": "3665737.09485",
    "final_y": "548648.305747",
    "longitude": "-90.11727010110681",
    "latitude": "30.003061960300787",
    "geocoded_column": {
      "latitude": "30.003061960300787",
      "longitude": "-90.11727010110681"
    }
  },
  {
    "service_request": "2024-1149181",
    "request_type": "Utility Poles",
    "request_reason": "Utility Pole Leaning",
    "date_created": "2024-11-17T14:54:50.000",
    "date_modified": "2024-11-17T14:54:55.000",
    "request_status": "Pending",
    "responsible_agency": "Utility Company Collective",
    "final_address": "2600 Peniston St",
    "address_councildis": "B",
    "status": "Pending",
    "rowid": "1149181",
    "final_x": "3671998.31943",
    "final_y": "524609.143932",
    "longitude": "-90.09830847794787",
    "latitude": "29.93677816698696",
    "geocoded_column": {
      "latitude": "29.93677816698696",
      "longitude": "-90.09830847794787"
    }
  },
  {
    "service_request": "2024-1149180",
    "request_type": "Streetlights",
    "request_reason": "New Streetlight Request",
    "date_created": "2024-11-17T14:53:42.000",
    "date_modified": "2024-11-17T14:53:43.000",
    "request_status": "Pending",
    "responsible_agency": "Department of Public Works",
    "final_address": "1401 Annette St",
    "address_councildis": "C",
    "status": "Pending",
    "contractor": "Legacy Professional Services",
    "rowid": "1149180",
    "final_x": "3683113.41269",
    "final_y": "537301.79124",
    "longitude": "-90.0627733116262",
    "latitude": "29.971344536991484",
    "geocoded_column": {
      "latitude": "29.971344536991484",
      "longitude": "-90.0627733116262"
    }
  },
  {
    "service_request": "2024-1149179",
    "request_type": "Trash/Recycling",
    "request_reason": "Request a Large Item Pick Up",
    "date_created": "2024-11-17T14:50:43.000",
    "date_modified": "2024-11-17T14:50:44.000",
    "request_status": "Pending",
    "responsible_agency": "Department of Sanitation",
    "final_address": "6120 Story St",
    "address_councildis": "A",
    "status": "Assigned to Contractor",
    "contractor": "IV Waste",
    "rowid": "1149179",
    "final_x": "3666816.73722",
    "final_y": "526365.780478",
    "longitude": "-90.11460805531601",
    "latitude": "29.9417609026127",
    "geocoded_column": {
      "latitude": "29.9417609026127",
      "longitude": "-90.11460805531601"
    }
  },
  {
    "service_request": "2024-1149178",
    "request_type": "Streetlights",
    "request_reason": "New Streetlight Request",
    "date_created": "2024-11-17T14:50:06.000",
    "date_modified": "2024-11-17T14:50:07.000",
    "request_status": "Pending",
    "responsible_agency": "Department of Public Works",
    "final_address": "1651 N Villere St",
    "address_councildis": "C",
    "status": "Pending",
    "contractor": "Legacy Professional Services",
    "rowid": "1149178",
    "final_x": "3682919.5446",
    "final_y": "537300.09012",
    "longitude": "-90.06338563332952",
    "latitude": "29.971345769004568",
    "geocoded_column": {
      "latitude": "29.971345769004568",
      "longitude": "-90.06338563332952"
    }
  },
  {
    "service_request": "2024-1149177",
    "request_type": "Streetlights",
    "request_reason": "New Streetlight Request",
    "date_created": "2024-11-17T14:46:09.000",
    "date_modified": "2024-11-17T14:46:11.000",
    "request_status": "Pending",
    "responsible_agency": "Department of Public Works",
    "final_address": "1410 St Anthony St",
    "address_councildis": "C",
    "status": "Pending",
    "contractor": "Legacy Professional Services",
    "rowid": "1149177",
    "final_x": "3683386.66677",
    "final_y": "537407.322504",
    "longitude": "-90.06190663957707",
    "latitude": "29.971626377168008",
    "geocoded_column": {
      "latitude": "29.971626377168008",
      "longitude": "-90.06190663957707"
    }
  },
  {
    "service_request": "2024-1149176",
    "request_type": "Streetlights",
    "request_reason": "New Streetlight Request",
    "date_created": "2024-11-17T14:43:37.000",
    "date_modified": "2024-11-17T14:43:38.000",
    "request_status": "Pending",
    "responsible_agency": "Department of Public Works",
    "final_address": "1382 St Anthony St",
    "address_councildis": "C",
    "status": "Pending",
    "contractor": "Legacy Professional Services",
    "rowid": "1149176",
    "final_x": "3683401.61141",
    "final_y": "537240.15956",
    "longitude": "-90.06186530027834",
    "latitude": "29.97116628108415",
    "geocoded_column": {
      "latitude": "29.97116628108415",
      "longitude": "-90.06186530027834"
    }
  },
  {
    "service_request": "2024-1149175",
    "request_type": "Streetlights",
    "request_reason": "New Streetlight Request",
    "date_created": "2024-11-17T14:39:07.000",
    "date_modified": "2024-11-17T14:39:08.000",
    "request_status": "Pending",
    "responsible_agency": "Department of Public Works",
    "final_address": "1356 St Anthony St",
    "address_councildis": "C",
    "status": "Pending",
    "contractor": "Legacy Professional Services",
    "rowid": "1149175",
    "final_x": "3683416.08482",
    "final_y": "537042.028424",
    "longitude": "-90.06182653483347",
    "latitude": "29.970621047540853",
    "geocoded_column": {
      "latitude": "29.970621047540853",
      "longitude": "-90.06182653483347"
    }
  },
  {
    "service_request": "2024-1149174",
    "request_type": "Streetlights",
    "request_reason": "New Streetlight Request",
    "date_created": "2024-11-17T14:36:46.000",
    "date_modified": "2024-11-17T14:36:47.000",
    "request_status": "Pending",
    "responsible_agency": "Department of Public Works",
    "final_address": "1330 St Anthony St",
    "address_councildis": "C",
    "status": "Pending",
    "contractor": "Legacy Professional Services",
    "rowid": "1149174",
    "final_x": "3683380.5574",
    "final_y": "536812.696072",
    "longitude": "-90.06194677062696",
    "latitude": "29.969991546990173",
    "geocoded_column": {
      "latitude": "29.969991546990173",
      "longitude": "-90.06194677062696"
    }
  },
  {
    "service_request": "2024-1149173",
    "request_type": "Streetlights",
    "request_reason": "New Streetlight Request",
    "date_created": "2024-11-17T14:28:46.000",
    "date_modified": "2024-11-17T14:28:47.000",
    "request_status": "Pending",
    "responsible_agency": "Department of Public Works",
    "final_address": "1223 St Anthony St",
    "address_councildis": "C",
    "status": "Pending",
    "contractor": "Legacy Professional Services",
    "rowid": "1149173",
    "final_x": "3683536.16245",
    "final_y": "536374.909063",
    "longitude": "-90.06147070150425",
    "latitude": "29.968783035960602",
    "geocoded_column": {
      "latitude": "29.968783035960602",
      "longitude": "-90.06147070150425"
    }
  },
  {
    "service_request": "2024-1149172",
    "request_type": "Roads and Streets",
    "request_reason": "Sidewalk Damaged or Missing",
    "date_created": "2024-11-17T14:27:08.000",
    "date_modified": "2024-11-17T14:27:08.000",
    "request_status": "Pending",
    "responsible_agency": "Department of Public Works",
    "final_address": "1200 BLK Governor Nicholls St",
    "address_councildis": "C",
    "status": "Pending",
    "rowid": "1149172",
    "final_x": "3682052.81827",
    "final_y": "535194.767653",
    "longitude": "-90.066196402816",
    "latitude": "29.965583242490776",
    "geocoded_column": {
      "latitude": "29.965583242490776",
      "longitude": "-90.066196402816"
    }
  },
  {
    "service_request": "2024-1149171",
    "request_type": "Streetlights",
    "request_reason": "New Streetlight Request",
    "date_created": "2024-11-17T14:26:12.000",
    "date_modified": "2024-11-17T14:26:13.000",
    "request_status": "Pending",
    "responsible_agency": "Department of Public Works",
    "final_address": "1232 St Anthony St",
    "address_councildis": "C",
    "status": "Pending",
    "contractor": "Legacy Professional Services",
    "rowid": "1149171",
    "final_x": "3683465.65333",
    "final_y": "536447.341639",
    "longitude": "-90.0616908346696",
    "latitude": "29.968984352286782",
    "geocoded_column": {
      "latitude": "29.968984352286782",
      "longitude": "-90.0616908346696"
    }
  },
  {
    "service_request": "2024-1149170",
    "request_type": "Drainage",
    "request_reason": "Catch Basin Clogged",
    "date_created": "2024-11-17T14:25:18.000",
    "date_modified": "2024-11-17T14:25:18.000",
    "request_status": "Pending",
    "responsible_agency": "Department of Public Works",
    "final_address": "1551 Chippewa St",
    "address_councildis": "B",
    "status": "Pending",
    "rowid": "1149170",
    "final_x": "3681147.498",
    "final_y": "523118.835707",
    "longitude": "-90.06947599636001",
    "latitude": "29.932405988765613",
    "geocoded_column": {
      "latitude": "29.932405988765613",
      "longitude": "-90.06947599636001"
    }
  },
  {
    "service_request": "2024-1149168",
    "request_type": "Drainage",
    "request_reason": "Catch Basin Clogged",
    "date_created": "2024-11-17T14:23:48.000",
    "date_modified": "2024-11-17T14:23:48.000",
    "request_status": "Pending",
    "responsible_agency": "Department of Public Works",
    "final_address": "1567 Annunciation St",
    "address_councildis": "B",
    "status": "Pending",
    "rowid": "1149168",
    "final_x": "3680795.23202",
    "final_y": "523042.570235",
    "longitude": "-90.07059072090433",
    "latitude": "29.932206962961608",
    "geocoded_column": {
      "latitude": "29.932206962961608",
      "longitude": "-90.07059072090433"
    }
  },
  {
    "service_request": "2024-1149169",
    "request_type": "Property Maintenance",
    "request_reason": "Property Maintenance",
    "date_created": "2024-11-17T14:23:48.000",
    "date_modified": "2024-11-17T14:23:48.000",
    "request_status": "Pending",
    "responsible_agency": "Department of Code Enforcement",
    "final_address": "917 Eighth St",
    "address_councildis": "B",
    "status": "Pending",
    "rowid": "1149169",
    "final_x": "3676471.02849",
    "final_y": "519752.87372",
    "longitude": "-90.08435502466122",
    "latitude": "29.92329168924974",
    "geocoded_column": {
      "latitude": "29.92329168924974",
      "longitude": "-90.08435502466122"
    }
  },
  {
    "service_request": "2024-1149167",
    "request_type": "Streetlights",
    "request_reason": "New Streetlight Request",
    "date_created": "2024-11-17T14:22:15.000",
    "date_modified": "2024-11-17T14:22:16.000",
    "request_status": "Pending",
    "responsible_agency": "Department of Public Works",
    "final_address": "2124 Urquhart St",
    "address_councildis": "C",
    "status": "Pending",
    "contractor": "Legacy Professional Services",
    "rowid": "1149167",
    "final_x": "3684741.0253",
    "final_y": "536993.045704",
    "longitude": "-90.05764394500626",
    "latitude": "29.970445868786307",
    "geocoded_column": {
      "latitude": "29.970445868786307",
      "longitude": "-90.05764394500626"
    }
  },
  {
    "service_request": "2024-1149166",
    "request_type": "Abandoned Vehicles",
    "request_reason": "Abandoned/Junk Vehicles",
    "date_created": "2024-11-17T14:21:26.000",
    "date_modified": "2024-11-17T14:21:26.000",
    "request_status": "Pending",
    "responsible_agency": "Department of Public Works",
    "final_address": "2419 New York St",
    "address_councildis": "D",
    "status": "Pending",
    "rowid": "1149166",
    "final_x": "3685059.25321",
    "final_y": "556741.161818",
    "longitude": "-90.05594367904865",
    "latitude": "30.02473635184179",
    "geocoded_column": {
      "latitude": "30.02473635184179",
      "longitude": "-90.05594367904865"
    }
  },
  {
    "service_request": "2024-1149165",
    "request_type": "Streetlights",
    "request_reason": "New Streetlight Request",
    "date_created": "2024-11-17T14:19:09.000",
    "date_modified": "2024-11-17T14:19:10.000",
    "request_status": "Pending",
    "responsible_agency": "Department of Public Works",
    "final_address": "2112 Urquhart St",
    "address_councildis": "C",
    "status": "Pending",
    "contractor": "Legacy Professional Services",
    "rowid": "1149165",
    "final_x": "3684665.77084",
    "final_y": "536988.161416",
    "longitude": "-90.05788177839952",
    "latitude": "29.970434742205924",
    "geocoded_column": {
      "latitude": "29.970434742205924",
      "longitude": "-90.05788177839952"
    }
  },
  {
    "service_request": "2024-1149164",
    "request_type": "Streetlights",
    "request_reason": "New Streetlight Request",
    "date_created": "2024-11-17T14:16:13.000",
    "date_modified": "2024-11-17T14:16:14.000",
    "request_status": "Pending",
    "responsible_agency": "Department of Public Works",
    "final_address": "2026 Urquhart St",
    "address_councildis": "C",
    "status": "Pending",
    "contractor": "Legacy Professional Services",
    "rowid": "1149164",
    "final_x": "3684403.69801",
    "final_y": "536965.532232",
    "longitude": "-90.05871022758721",
    "latitude": "29.9703805384212",
    "geocoded_column": {
      "latitude": "29.9703805384212",
      "longitude": "-90.05871022758721"
    }
  },
  {
    "service_request": "2024-1149163",
    "request_type": "Streetlights",
    "request_reason": "New Streetlight Request",
    "date_created": "2024-11-17T14:13:36.000",
    "date_modified": "2024-11-17T14:13:36.000",
    "request_status": "Pending",
    "responsible_agency": "Department of Public Works",
    "final_address": "2016 Urquhart St",
    "address_councildis": "C",
    "status": "Pending",
    "contractor": "Legacy Professional Services",
    "rowid": "1149163",
    "final_x": "3684306.78972",
    "final_y": "536959.213768",
    "longitude": "-90.05901649616068",
    "latitude": "29.970366128610745",
    "geocoded_column": {
      "latitude": "29.970366128610745",
      "longitude": "-90.05901649616068"
    }
  },
  {
    "service_request": "2024-1149162",
    "request_type": "Streetlights",
    "request_reason": "New Streetlight Request",
    "date_created": "2024-11-17T14:10:21.000",
    "date_modified": "2024-11-17T14:10:22.000",
    "request_status": "Pending",
    "responsible_agency": "Department of Public Works",
    "final_address": "1926 Urquhart St",
    "address_councildis": "C",
    "status": "Pending",
    "contractor": "Legacy Professional Services",
    "rowid": "1149162",
    "final_x": "3684038.01794",
    "final_y": "536912.200072",
    "longitude": "-90.05986695600674",
    "latitude": "29.970245073451686",
    "geocoded_column": {
      "latitude": "29.970245073451686",
      "longitude": "-90.05986695600674"
    }
  },
  {
    "service_request": "2024-1149161",
    "request_type": "Abandoned Vehicles",
    "request_reason": "Abandoned/Junk Vehicles",
    "date_created": "2024-11-17T14:08:49.000",
    "date_modified": "2024-11-17T14:08:49.000",
    "request_status": "Pending",
    "responsible_agency": "Department of Public Works",
    "final_address": "3426 Danneel St",
    "address_councildis": "B",
    "status": "Pending",
    "rowid": "1149161",
    "final_x": "3673406.90158",
    "final_y": "522737.739834",
    "longitude": "-90.09392541466678",
    "latitude": "29.931590591669096",
    "geocoded_column": {
      "latitude": "29.931590591669096",
      "longitude": "-90.09392541466678"
    }
  },
  {
    "service_request": "2024-1149160",
    "request_type": "Streetlights",
    "request_reason": "New Streetlight Request",
    "date_created": "2024-11-17T14:06:47.000",
    "date_modified": "2024-11-17T14:06:48.000",
    "request_status": "Pending",
    "responsible_agency": "Department of Public Works",
    "final_address": "1341 St Anthony St",
    "address_councildis": "C",
    "status": "Pending",
    "contractor": "Legacy Professional Services",
    "rowid": "1149160",
    "final_x": "3683492.00905",
    "final_y": "536886.484744",
    "longitude": "-90.06159220941791",
    "latitude": "29.97019103949591",
    "geocoded_column": {
      "latitude": "29.97019103949591",
      "longitude": "-90.06159220941791"
    }
  },
  {
    "service_request": "2024-1149159",
    "request_type": "Trash/Recycling",
    "request_reason": "Request a Large Item Pick Up",
    "date_created": "2024-11-17T14:05:39.000",
    "date_modified": "2024-11-17T14:05:40.000",
    "request_status": "Pending",
    "responsible_agency": "Department of Sanitation",
    "final_address": "3725 Silver Maple Ct",
    "address_councildis": "C",
    "status": "Assigned to Contractor",
    "contractor": "Richards Disposal",
    "rowid": "1149159",
    "final_x": "3703302.47665",
    "final_y": "512826.713457",
    "longitude": "-89.9999133540069",
    "latitude": "29.903415667760257",
    "geocoded_column": {
      "latitude": "29.903415667760257",
      "longitude": "-89.9999133540069"
    }
  },
  {
    "service_request": "2024-1149158",
    "request_type": "Trash/Recycling",
    "request_reason": "Request a Large Item Pick Up",
    "date_created": "2024-11-17T13:51:13.000",
    "date_modified": "2024-11-17T13:51:14.000",
    "request_status": "Pending",
    "responsible_agency": "Department of Sanitation",
    "final_address": "4601 Murano Rd",
    "address_councildis": "E",
    "status": "Assigned to Contractor",
    "contractor": "Waste Pro",
    "rowid": "1149158",
    "final_x": "3761457.84086",
    "final_y": "573989.479402",
    "longitude": "-89.81382068365772",
    "latitude": "30.06959832373683",
    "geocoded_column": {
      "latitude": "30.06959832373683",
      "longitude": "-89.81382068365772"
    }
  },
  {
    "service_request": "2024-1149157",
    "request_type": "Roads and Streets",
    "request_reason": "Pothole",
    "date_created": "2024-11-17T13:47:02.000",
    "date_modified": "2024-11-17T13:47:02.000",
    "request_status": "Pending",
    "responsible_agency": "Department of Public Works",
    "final_address": "4301 Chef Menteur Hwy",
    "address_councildis": "D",
    "status": "Pending",
    "rowid": "1149157",
    "final_x": "3690442.7951",
    "final_y": "549667.029588",
    "longitude": "-90.03918511016305",
    "latitude": "30.00511899115759",
    "geocoded_column": {
      "latitude": "30.00511899115759",
      "longitude": "-90.03918511016305"
    }
  },
  {
    "service_request": "2024-1149156",
    "request_type": "Streetlights",
    "request_reason": "New Streetlight Request",
    "date_created": "2024-11-17T13:37:52.000",
    "date_modified": "2024-11-17T13:37:53.000",
    "request_status": "Pending",
    "responsible_agency": "Department of Public Works",
    "final_address": "1614 Urquhart St",
    "address_councildis": "C",
    "status": "Pending",
    "contractor": "Legacy Professional Services",
    "rowid": "1149156",
    "final_x": "3682859.3302",
    "final_y": "536839.6018",
    "longitude": "-90.06359191411705",
    "latitude": "29.970081420403805",
    "geocoded_column": {
      "latitude": "29.970081420403805",
      "longitude": "-90.06359191411705"
    }
  },
  {
    "service_request": "2024-1149155",
    "request_type": "Streetlights",
    "request_reason": "New Streetlight Request",
    "date_created": "2024-11-17T13:34:11.000",
    "date_modified": "2024-11-17T13:34:12.000",
    "request_status": "Pending",
    "responsible_agency": "Department of Public Works",
    "final_address": "1432 Annette St",
    "address_councildis": "C",
    "status": "Pending",
    "contractor": "Legacy Professional Services",
    "rowid": "1149155",
    "final_x": "3682952.76508",
    "final_y": "537517.173832",
    "longitude": "-90.06327311943123",
    "latitude": "29.97194166154462",
    "geocoded_column": {
      "latitude": "29.97194166154462",
      "longitude": "-90.06327311943123"
    }
  },
  {
    "service_request": "2024-1149154",
    "request_type": "Streetlights",
    "request_reason": "New Streetlight Request",
    "date_created": "2024-11-17T13:31:03.000",
    "date_modified": "2024-11-17T13:31:04.000",
    "request_status": "Pending",
    "responsible_agency": "Department of Public Works",
    "final_address": "1416 Annette St",
    "address_councildis": "C",
    "status": "Pending",
    "contractor": "Legacy Professional Services",
    "rowid": "1149154",
    "final_x": "3683008.90581",
    "final_y": "537391.18836",
    "longitude": "-90.06310022897166",
    "latitude": "29.971593534030074",
    "geocoded_column": {
      "latitude": "29.971593534030074",
      "longitude": "-90.06310022897166"
    }
  },
  {
    "service_request": "2024-1149153",
    "request_type": "Streetlights",
    "request_reason": "New Streetlight Request",
    "date_created": "2024-11-17T13:27:57.000",
    "date_modified": "2024-11-17T13:27:58.000",
    "request_status": "Pending",
    "responsible_agency": "Department of Public Works",
    "final_address": "1372 Annette St",
    "address_councildis": "C",
    "status": "Pending",
    "contractor": "Legacy Professional Services",
    "rowid": "1149153",
    "final_x": "3683026.31317",
    "final_y": "537147.708168",
    "longitude": "-90.0630537785396",
    "latitude": "29.970923517254196",
    "geocoded_column": {
      "latitude": "29.970923517254196",
      "longitude": "-90.0630537785396"
    }
  },
  {
    "service_request": "2024-1149152",
    "request_type": "Streetlights",
    "request_reason": "New Streetlight Request",
    "date_created": "2024-11-17T13:24:00.000",
    "date_modified": "2024-11-17T13:24:01.000",
    "request_status": "Pending",
    "responsible_agency": "Department of Public Works",
    "final_address": "1358 Annette St",
    "address_councildis": "C",
    "status": "Pending",
    "contractor": "Legacy Professional Services",
    "rowid": "1149152",
    "final_x": "3683032.23311",
    "final_y": "537015.21332",
    "longitude": "-90.06303972146308",
    "latitude": "29.970559021848963",
    "geocoded_column": {
      "latitude": "29.970559021848963",
      "longitude": "-90.06303972146308"
    }
  },
  {
    "service_request": "2024-1149151",
    "request_type": "Streetlights",
    "request_reason": "New Streetlight Request",
    "date_created": "2024-11-17T13:19:44.000",
    "date_modified": "2024-11-17T13:19:45.000",
    "request_status": "Pending",
    "responsible_agency": "Department of Public Works",
    "final_address": "1325 Annette St",
    "address_councildis": "C",
    "status": "Pending",
    "contractor": "Legacy Professional Services",
    "rowid": "1149151",
    "final_x": "3683139.42428",
    "final_y": "536731.416711",
    "longitude": "-90.06271113830682",
    "latitude": "29.969775411467463",
    "geocoded_column": {
      "latitude": "29.969775411467463",
      "longitude": "-90.06271113830682"
    }
  },
  {
    "service_request": "2024-1149150",
    "request_type": "Trash/Recycling",
    "request_reason": "Request a Large Item Pick Up",
    "date_created": "2024-11-17T13:13:20.000",
    "date_modified": "2024-11-17T13:13:21.000",
    "request_status": "Pending",
    "responsible_agency": "Department of Sanitation",
    "final_address": "202 N Anthony St",
    "address_councildis": "A",
    "status": "Assigned to Contractor",
    "contractor": "IV Waste",
    "rowid": "1149150",
    "final_x": "3668874.25486",
    "final_y": "540627.678219",
    "longitude": "-90.10763036860494",
    "latitude": "29.98091606706808",
    "geocoded_column": {
      "latitude": "29.98091606706808",
      "longitude": "-90.10763036860494"
    }
  },
  {
    "service_request": "2024-1149149",
    "request_type": "Abandoned Vehicles",
    "request_reason": "Abandoned/Junk Vehicles",
    "date_created": "2024-11-17T13:08:25.000",
    "date_modified": "2024-11-17T13:08:25.000",
    "request_status": "Pending",
    "responsible_agency": "Department of Public Works",
    "final_address": "3302 Delachaise St",
    "address_councildis": "B",
    "status": "Pending",
    "rowid": "1149149",
    "final_x": "3671513.87265",
    "final_y": "527104.508479",
    "longitude": "-90.099753090808",
    "latitude": "29.94365395690041",
    "geocoded_column": {
      "latitude": "29.94365395690041",
      "longitude": "-90.099753090808"
    }
  },
  {
    "service_request": "2024-1149148",
    "request_type": "Trash/Recycling",
    "request_reason": "Order Recycling Cart",
    "date_created": "2024-11-17T13:06:13.000",
    "date_modified": "2024-11-17T13:06:13.000",
    "request_status": "Pending",
    "responsible_agency": "Department of Sanitation",
    "final_address": "825 N Villere St",
    "address_councildis": "C",
    "status": "Pending",
    "rowid": "1149148",
    "final_x": "3680641.94197",
    "final_y": "534667.848902",
    "longitude": "-90.0706702269292",
    "latitude": "29.964177221676287",
    "geocoded_column": {
      "latitude": "29.964177221676287",
      "longitude": "-90.0706702269292"
    }
  },
  {
    "service_request": "2024-1149147",
    "request_type": "Trash/Recycling",
    "request_reason": "Request a Large Item Pick Up",
    "date_created": "2024-11-17T13:05:13.000",
    "date_modified": "2024-11-17T13:05:14.000",
    "request_status": "Pending",
    "responsible_agency": "Department of Sanitation",
    "final_address": "5438 N Prieur St",
    "address_councildis": "E",
    "status": "Assigned to Contractor",
    "contractor": "Waste Pro",
    "rowid": "1149147",
    "final_x": "3698340.99421",
    "final_y": "536837.69332",
    "longitude": "-90.01469960594203",
    "latitude": "29.96959536797665",
    "geocoded_column": {
      "latitude": "29.96959536797665",
      "longitude": "-90.01469960594203"
    }
  },
  {
    "service_request": "2024-1149146",
    "request_type": "Trash/Recycling",
    "request_reason": "Order Trash Cart",
    "date_created": "2024-11-17T12:59:28.000",
    "date_modified": "2024-11-17T12:59:29.000",
    "request_status": "Pending",
    "responsible_agency": "Department of Sanitation",
    "final_address": "825 N Villere St",
    "address_councildis": "C",
    "status": "Assigned to Contractor",
    "contractor": "IV Waste",
    "rowid": "1149146",
    "final_x": "3680641.94197",
    "final_y": "534667.848902",
    "longitude": "-90.0706702269292",
    "latitude": "29.964177221676287",
    "geocoded_column": {
      "latitude": "29.964177221676287",
      "longitude": "-90.0706702269292"
    }
  },
  {
    "service_request": "2024-1149145",
    "request_type": "Property Maintenance",
    "request_reason": "Property Maintenance",
    "date_created": "2024-11-17T12:59:05.000",
    "date_modified": "2024-11-17T12:59:05.000",
    "request_status": "Pending",
    "responsible_agency": "Department of Code Enforcement",
    "final_address": "6173 Canal Blvd",
    "address_councildis": "A",
    "status": "Pending",
    "rowid": "1149145",
    "final_x": "3668736.96385",
    "final_y": "548519.97461",
    "longitude": "-90.10779738441249",
    "latitude": "30.00262121222569",
    "geocoded_column": {
      "latitude": "30.00262121222569",
      "longitude": "-90.10779738441249"
    }
  },
  {
    "service_request": "2024-1149144",
    "request_type": "Trash/Recycling",
    "request_reason": "Start Trash Service",
    "date_created": "2024-11-17T12:54:38.000",
    "date_modified": "2024-11-17T12:54:39.000",
    "request_status": "Pending",
    "responsible_agency": "Department of Sanitation",
    "final_address": "825 N Villere St",
    "address_councildis": "C",
    "status": "Assigned to Contractor",
    "contractor": "IV Waste",
    "rowid": "1149144",
    "final_x": "3680641.94197",
    "final_y": "534667.848902",
    "longitude": "-90.0706702269292",
    "latitude": "29.964177221676287",
    "geocoded_column": {
      "latitude": "29.964177221676287",
      "longitude": "-90.0706702269292"
    }
  },
  {
    "service_request": "2024-1149143",
    "request_type": "Drainage",
    "request_reason": "Catch Basin Clogged",
    "date_created": "2024-11-17T12:40:59.000",
    "date_modified": "2024-11-17T12:40:59.000",
    "request_status": "Pending",
    "responsible_agency": "Department of Public Works",
    "final_address": "4724 N Claiborne Ave",
    "address_councildis": "E",
    "status": "Pending",
    "rowid": "1149143",
    "final_x": "3695311.72618",
    "final_y": "536207.261767",
    "longitude": "-90.02428899292256",
    "latitude": "29.967957413105488",
    "geocoded_column": {
      "latitude": "29.967957413105488",
      "longitude": "-90.02428899292256"
    }
  },
  {
    "service_request": "2024-1149142",
    "request_type": "Property Maintenance",
    "request_reason": "Property Maintenance",
    "date_created": "2024-11-17T12:38:00.000",
    "date_modified": "2024-11-17T12:38:00.000",
    "request_status": "Pending",
    "responsible_agency": "Department of Code Enforcement",
    "final_address": "1405 Arts St",
    "address_councildis": "C",
    "status": "Pending",
    "rowid": "1149142",
    "final_x": "3687146.95196",
    "final_y": "537643.741064",
    "longitude": "-90.05002276008075",
    "latitude": "29.97216118248314",
    "geocoded_column": {
      "latitude": "29.97216118248314",
      "longitude": "-90.05002276008075"
    }
  },
  {
    "service_request": "2024-1149141",
    "request_type": "Trash/Recycling",
    "request_reason": "Request a Large Item Pick Up",
    "date_created": "2024-11-17T12:36:50.000",
    "date_modified": "2024-11-17T12:36:52.000",
    "request_status": "Pending",
    "responsible_agency": "Department of Sanitation",
    "final_address": "133 N Rendon St",
    "address_councildis": "B",
    "status": "Assigned to Contractor",
    "contractor": "IV Waste",
    "rowid": "1149141",
    "final_x": "3673721.94772",
    "final_y": "536777.355784",
    "longitude": "-90.0924508719436",
    "latitude": "29.970185515515027",
    "geocoded_column": {
      "latitude": "29.970185515515027",
      "longitude": "-90.0924508719436"
    }
  },
  {
    "service_request": "2024-1149140",
    "request_type": "Property Maintenance",
    "request_reason": "Property Maintenance",
    "date_created": "2024-11-17T11:56:43.000",
    "date_modified": "2024-11-17T11:56:43.000",
    "request_status": "Pending",
    "responsible_agency": "Department of Code Enforcement",
    "final_address": "2619 N Robertson St",
    "address_councildis": "C",
    "status": "Pending",
    "rowid": "1149140",
    "final_x": "3687673.08041",
    "final_y": "537945.471049",
    "longitude": "-90.04835047644077",
    "latitude": "29.972974621230847",
    "geocoded_column": {
      "latitude": "29.972974621230847",
      "longitude": "-90.04835047644077"
    }
  },
  {
    "service_request": "2024-1149139",
    "request_type": "Property Maintenance",
    "request_reason": "Property Maintenance",
    "date_created": "2024-11-17T11:53:57.000",
    "date_modified": "2024-11-17T11:53:57.000",
    "request_status": "Pending",
    "responsible_agency": "Department of Code Enforcement",
    "final_address": "1518 Port St",
    "address_councildis": "C",
    "status": "Pending",
    "rowid": "1149139",
    "final_x": "3687804.51535",
    "final_y": "538030.030985",
    "longitude": "-90.04793238478706",
    "latitude": "29.97320307783298",
    "geocoded_column": {
      "latitude": "29.97320307783298",
      "longitude": "-90.04793238478706"
    }
  },
  {
    "service_request": "2024-1149138",
    "request_type": "Streetlights",
    "request_reason": "Streetlight Outage/Malfunction",
    "date_created": "2024-11-17T11:33:28.000",
    "date_modified": "2024-11-17T11:33:29.000",
    "request_status": "Pending",
    "responsible_agency": "Department of Public Works",
    "final_address": "3500 BLK Hyman Ct",
    "address_councildis": "C",
    "status": "Pending",
    "contractor": "Legacy Professional Services",
    "rowid": "1149138",
    "final_x": "3700962.19318",
    "final_y": "518008.424401",
    "longitude": "-90.00710994372243",
    "latitude": "29.917738291400102",
    "geocoded_column": {
      "latitude": "29.917738291400102",
      "longitude": "-90.00710994372243"
    }
  },
  {
    "service_request": "2024-1149137",
    "request_type": "Streetlights",
    "request_reason": "Streetlight Outage/Malfunction",
    "date_created": "2024-11-17T11:32:47.000",
    "date_modified": "2024-11-17T11:32:48.000",
    "request_status": "Pending",
    "responsible_agency": "Department of Public Works",
    "final_address": "5548 Tullis Dr",
    "address_councildis": "C",
    "status": "Pending",
    "contractor": "Legacy Professional Services",
    "rowid": "1149137",
    "final_x": "3704524.26065",
    "final_y": "512244.990577",
    "longitude": "-89.99607886880972",
    "latitude": "29.90177697621373",
    "geocoded_column": {
      "latitude": "29.90177697621373",
      "longitude": "-89.99607886880972"
    }
  },
  {
    "service_request": "2024-1149136",
    "request_type": "Roads and Streets",
    "request_reason": "Pothole",
    "date_created": "2024-11-17T11:30:10.000",
    "date_modified": "2024-11-17T11:30:10.000",
    "request_status": "Pending",
    "responsible_agency": "Department of Public Works",
    "final_address": "2710 Clover St",
    "address_councildis": "D",
    "status": "Pending",
    "rowid": "1149136",
    "final_x": "3687950.98953",
    "final_y": "546614.243921",
    "longitude": "-90.04716548332134",
    "latitude": "29.996802086656253",
    "geocoded_column": {
      "latitude": "29.996802086656253",
      "longitude": "-90.04716548332134"
    }
  },
  {
    "service_request": "2024-1149135",
    "request_type": "Roads and Streets",
    "request_reason": "Pothole",
    "date_created": "2024-11-17T11:28:39.000",
    "date_modified": "2024-11-17T11:28:39.000",
    "request_status": "Pending",
    "responsible_agency": "Department of Public Works",
    "final_address": "2710 Clover St",
    "address_councildis": "D",
    "status": "Pending",
    "rowid": "1149135",
    "final_x": "3687950.98953",
    "final_y": "546614.243921",
    "longitude": "-90.04716548332134",
    "latitude": "29.996802086656253",
    "geocoded_column": {
      "latitude": "29.996802086656253",
      "longitude": "-90.04716548332134"
    }
  },
  {
    "service_request": "2024-1149134",
    "request_type": "Trash/Recycling",
    "request_reason": "Request a Large Item Pick Up",
    "date_created": "2024-11-17T11:09:27.000",
    "date_modified": "2024-11-17T11:09:29.000",
    "request_status": "Pending",
    "responsible_agency": "Department of Sanitation",
    "final_address": "3729 Pin Oak Ave",
    "address_councildis": "C",
    "status": "Assigned to Contractor",
    "contractor": "Richards Disposal",
    "rowid": "1149134",
    "final_x": "3704461.59262",
    "final_y": "514424.544947",
    "longitude": "-89.99619637498787",
    "latitude": "29.90777201953118",
    "geocoded_column": {
      "latitude": "29.90777201953118",
      "longitude": "-89.99619637498787"
    }
  },
  {
    "service_request": "2024-1149133",
    "request_type": "Streetlights",
    "request_reason": "Streetlight Outage/Malfunction",
    "date_created": "2024-11-17T10:47:32.000",
    "date_modified": "2024-11-17T10:47:33.000",
    "request_status": "Pending",
    "responsible_agency": "Department of Public Works",
    "final_address": "CHEF MENTEUR HWY & REYNES ST",
    "address_councildis": "E",
    "status": "Pending",
    "contractor": "Legacy Professional Services",
    "rowid": "1149133",
    "final_x": "3699446.6",
    "final_y": "551896.18",
    "longitude": "-90.01065907937286",
    "latitude": "30.01096562871649",
    "geocoded_column": {
      "latitude": "30.01096562871649",
      "longitude": "-90.01065907937286"
    }
  },
  {
    "service_request": "2024-1149132",
    "request_type": "Roads and Streets",
    "request_reason": "Street Subsidence (Sinking)",
    "date_created": "2024-11-17T10:37:34.000",
    "date_modified": "2024-11-17T10:37:34.000",
    "request_status": "Pending",
    "responsible_agency": "Department of Public Works",
    "final_address": "170 Walnut St",
    "address_councildis": "A",
    "status": "Pending",
    "rowid": "1149132",
    "final_x": "3660948.46688",
    "final_y": "520886.774841",
    "longitude": "-90.13331665292618",
    "latitude": "29.926865677310165",
    "geocoded_column": {
      "latitude": "29.926865677310165",
      "longitude": "-90.13331665292618"
    }
  },
  {
    "service_request": "2024-1149131",
    "request_type": "Streetlights",
    "request_reason": "New Streetlight Request",
    "date_created": "2024-11-17T10:10:05.000",
    "date_modified": "2024-11-17T10:10:06.000",
    "request_status": "Pending",
    "responsible_agency": "Department of Public Works",
    "final_address": "2123 Marais St",
    "address_councildis": "C",
    "status": "Pending",
    "contractor": "Legacy Professional Services",
    "rowid": "1149131",
    "final_x": "3684754.46217",
    "final_y": "536754.06228",
    "longitude": "-90.05760991279271",
    "latitude": "29.969788336076128",
    "geocoded_column": {
      "latitude": "29.969788336076128",
      "longitude": "-90.05760991279271"
    }
  },
  {
    "service_request": "2024-1149130",
    "request_type": "Trash/Recycling",
    "request_reason": "Request a Large Item Pick Up",
    "date_created": "2024-11-17T09:58:17.000",
    "date_modified": "2024-11-17T09:58:18.000",
    "request_status": "Pending",
    "responsible_agency": "Department of Sanitation",
    "final_address": "7510 Rochon Ave",
    "address_councildis": "E",
    "status": "Assigned to Contractor",
    "contractor": "Waste Pro",
    "rowid": "1149130",
    "final_x": "3718990.59365",
    "final_y": "571227.78596",
    "longitude": "-89.94817432494686",
    "latitude": "30.06348489481695",
    "geocoded_column": {
      "latitude": "30.06348489481695",
      "longitude": "-89.94817432494686"
    }
  },
  {
    "service_request": "2024-1149129",
    "request_type": "Roads and Streets",
    "request_reason": "Sidewalk Damaged or Missing",
    "date_created": "2024-11-17T09:49:07.000",
    "date_modified": "2024-11-17T09:49:07.000",
    "request_status": "Pending",
    "responsible_agency": "Department of Public Works",
    "final_address": "4000 BLK Cleveland Ave",
    "address_councildis": "A",
    "status": "Pending",
    "rowid": "1149129",
    "final_x": "3671043.55519",
    "final_y": "537851.783008",
    "longitude": "-90.10087304021258",
    "latitude": "29.973219312002655",
    "geocoded_column": {
      "latitude": "29.973219312002655",
      "longitude": "-90.10087304021258"
    }
  },
  {
    "service_request": "2024-1149128",
    "request_type": "Trash/Recycling",
    "request_reason": "Illegal Dumping",
    "date_created": "2024-11-17T09:26:40.000",
    "date_modified": "2024-11-17T09:26:40.000",
    "request_status": "Pending",
    "responsible_agency": "Department of Sanitation",
    "final_address": "2425 Law St",
    "address_councildis": "D",
    "status": "Pending",
    "rowid": "1149128",
    "final_x": "3685634.551",
    "final_y": "541966.329996",
    "longitude": "-90.05464682423352",
    "latitude": "29.984093271117256",
    "geocoded_column": {
      "latitude": "29.984093271117256",
      "longitude": "-90.05464682423352"
    }
  },
  {
    "service_request": "2024-1149127",
    "request_type": "Trash/Recycling",
    "request_reason": "Repair Trash Cart",
    "date_created": "2024-11-17T09:25:27.000",
    "date_modified": "2024-11-17T09:25:28.000",
    "request_status": "Pending",
    "responsible_agency": "Department of Sanitation",
    "final_address": "1432 Pleasant St",
    "address_councildis": "B",
    "status": "Assigned to Contractor",
    "contractor": "IV Waste",
    "rowid": "1149127",
    "final_x": "3674921.37691",
    "final_y": "521023.462585",
    "longitude": "-90.08920314595487",
    "latitude": "29.926831753868946",
    "geocoded_column": {
      "latitude": "29.926831753868946",
      "longitude": "-90.08920314595487"
    }
  },
  {
    "service_request": "2024-1149126",
    "request_type": "Mosquito, Termite & Rodent Control",
    "request_reason": "Non-Rodent Complaint (Mice, Possums, Snakes)",
    "date_created": "2024-11-17T09:03:43.000",
    "date_modified": "2024-11-17T09:03:43.000",
    "request_status": "Pending",
    "responsible_agency": "Mosquito, Termite & Rodent Control Board",
    "final_address": "11721 Morrison Rd",
    "address_councildis": "E",
    "status": "Pending",
    "rowid": "1149126",
    "final_x": "3713001.69502",
    "final_y": "566411.600227",
    "longitude": "-89.9672868938889",
    "latitude": "30.05044006152106",
    "geocoded_column": {
      "latitude": "30.05044006152106",
      "longitude": "-89.9672868938889"
    }
  },
  {
    "service_request": "2024-1149125",
    "request_type": "Trash/Recycling",
    "request_reason": "Request a Large Item Pick Up",
    "date_created": "2024-11-17T09:03:09.000",
    "date_modified": "2024-11-17T09:03:10.000",
    "request_status": "Pending",
    "responsible_agency": "Department of Sanitation",
    "final_address": "6017 Vicksburg St",
    "address_councildis": "A",
    "status": "Assigned to Contractor",
    "contractor": "IV Waste",
    "rowid": "1149125",
    "final_x": "3668971.71937",
    "final_y": "547364.304721",
    "longitude": "-90.10709482937533",
    "latitude": "29.99943661514308",
    "geocoded_column": {
      "latitude": "29.99943661514308",
      "longitude": "-90.10709482937533"
    }
  },
  {
    "service_request": "2024-1149124",
    "request_type": "Streetlights",
    "request_reason": "New Streetlight Request",
    "date_created": "2024-11-17T09:02:44.000",
    "date_modified": "2024-11-17T09:02:44.000",
    "request_status": "Pending",
    "responsible_agency": "Department of Public Works",
    "final_address": "2107 Marais St",
    "address_councildis": "C",
    "status": "Pending",
    "contractor": "Legacy Professional Services",
    "rowid": "1149124",
    "final_x": "3684636.19836",
    "final_y": "536697.759047",
    "longitude": "-90.05798537926665",
    "latitude": "29.969637141656836",
    "geocoded_column": {
      "latitude": "29.969637141656836",
      "longitude": "-90.05798537926665"
    }
  },
  {
    "service_request": "2024-1149123",
    "request_type": "Streetlights",
    "request_reason": "New Streetlight Request",
    "date_created": "2024-11-17T08:58:32.000",
    "date_modified": "2024-11-17T08:58:36.000",
    "request_status": "Pending",
    "responsible_agency": "Department of Public Works",
    "final_address": "2100 Marais St",
    "address_councildis": "C",
    "status": "Pending",
    "contractor": "Legacy Professional Services",
    "rowid": "1149123",
    "final_x": "3684601.41481",
    "final_y": "536606.945735",
    "longitude": "-90.05809842040551",
    "latitude": "29.969388501055338",
    "geocoded_column": {
      "latitude": "29.969388501055338",
      "longitude": "-90.05809842040551"
    }
  },
  {
    "service_request": "2024-1149122",
    "request_type": "Streetlights",
    "request_reason": "New Streetlight Request",
    "date_created": "2024-11-17T08:55:15.000",
    "date_modified": "2024-11-17T08:55:16.000",
    "request_status": "Pending",
    "responsible_agency": "Department of Public Works",
    "final_address": "2027 Marais St",
    "address_councildis": "C",
    "status": "Pending",
    "contractor": "Legacy Professional Services",
    "rowid": "1149122",
    "final_x": "3684436.97653",
    "final_y": "536655.550791",
    "longitude": "-90.05861602111564",
    "latitude": "29.969527179147164",
    "geocoded_column": {
      "latitude": "29.969527179147164",
      "longitude": "-90.05861602111564"
    }
  },
  {
    "service_request": "2024-1149121",
    "request_type": "Streetlights",
    "request_reason": "New Streetlight Request",
    "date_created": "2024-11-17T08:50:52.000",
    "date_modified": "2024-11-17T08:50:53.000",
    "request_status": "Pending",
    "responsible_agency": "Department of Public Works",
    "final_address": "2017 Marais St A",
    "address_councildis": "C",
    "status": "Pending",
    "contractor": "Legacy Professional Services",
    "rowid": "1149121",
    "final_x": "3684308.51119",
    "final_y": "536640.726215",
    "longitude": "-90.05902224547503",
    "latitude": "29.969490345732055",
    "geocoded_column": {
      "latitude": "29.969490345732055",
      "longitude": "-90.05902224547503"
    }
  },
  {
    "service_request": "2024-1149120",
    "request_type": "Streetlights",
    "request_reason": "Streetlight Outage/Malfunction",
    "date_created": "2024-11-17T08:47:32.000",
    "date_modified": "2024-11-17T08:47:33.000",
    "request_status": "Pending",
    "responsible_agency": "Department of Public Works",
    "final_address": "1837 Marais St",
    "address_councildis": "C",
    "status": "Pending",
    "contractor": "Legacy Professional Services",
    "rowid": "1149120",
    "final_x": "3683809.42921",
    "final_y": "536607.739591",
    "longitude": "-90.06059954257817",
    "latitude": "29.96941489615889",
    "geocoded_column": {
      "latitude": "29.96941489615889",
      "longitude": "-90.06059954257817"
    }
  },
  {
    "service_request": "2024-1149119",
    "request_type": "Abandoned Vehicles",
    "request_reason": "Abandoned/Junk Vehicles",
    "date_created": "2024-11-17T08:42:47.000",
    "date_modified": "2024-11-17T08:42:47.000",
    "request_status": "Pending",
    "responsible_agency": "Department of Public Works",
    "final_address": "6910 Pinebrook Dr",
    "address_councildis": "E",
    "status": "Pending",
    "rowid": "1149119",
    "final_x": "3719985.01913",
    "final_y": "569075.851686",
    "longitude": "-89.94511333933933",
    "latitude": "30.0575348835561",
    "geocoded_column": {
      "latitude": "30.0575348835561",
      "longitude": "-89.94511333933933"
    }
  },
  {
    "service_request": "2024-1149118",
    "request_type": "Streetlights",
    "request_reason": "New Streetlight Request",
    "date_created": "2024-11-17T08:42:01.000",
    "date_modified": "2024-11-17T08:42:02.000",
    "request_status": "Pending",
    "responsible_agency": "Department of Public Works",
    "final_address": "1909 Marais St",
    "address_councildis": "C",
    "status": "Pending",
    "contractor": "Legacy Professional Services",
    "rowid": "1149118",
    "final_x": "3683945.67484",
    "final_y": "536611.557255",
    "longitude": "-90.06016913458608",
    "latitude": "29.969421231548775",
    "geocoded_column": {
      "latitude": "29.969421231548775",
      "longitude": "-90.06016913458608"
    }
  },
  {
    "service_request": "2024-1149117",
    "request_type": "Streetlights",
    "request_reason": "New Streetlight Request",
    "date_created": "2024-11-17T08:35:20.000",
    "date_modified": "2024-11-17T08:35:21.000",
    "request_status": "Pending",
    "responsible_agency": "Department of Public Works",
    "final_address": "1811 Marais St",
    "address_councildis": "C",
    "status": "Pending",
    "contractor": "Legacy Professional Services",
    "rowid": "1149117",
    "final_x": "3683591.6237",
    "final_y": "536587.708871",
    "longitude": "-90.06128809122839",
    "latitude": "29.96936646894604",
    "geocoded_column": {
      "latitude": "29.96936646894604",
      "longitude": "-90.06128809122839"
    }
  },
  {
    "service_request": "2024-1149116",
    "request_type": "Streetlights",
    "request_reason": "New Streetlight Request",
    "date_created": "2024-11-17T08:28:14.000",
    "date_modified": "2024-11-17T08:28:15.000",
    "request_status": "Pending",
    "responsible_agency": "Department of Public Works",
    "final_address": "1200 St Anthony St",
    "address_councildis": "C",
    "status": "Pending",
    "contractor": "Legacy Professional Services",
    "rowid": "1149116",
    "final_x": "3683483.62159",
    "final_y": "536209.838087",
    "longitude": "-90.06164241409651",
    "latitude": "29.96833075134123",
    "geocoded_column": {
      "latitude": "29.96833075134123",
      "longitude": "-90.06164241409651"
    }
  },
  {
    "service_request": "2024-1149115",
    "request_type": "Streetlights",
    "request_reason": "New Streetlight Request",
    "date_created": "2024-11-17T08:23:47.000",
    "date_modified": "2024-11-17T08:23:48.000",
    "request_status": "Pending",
    "responsible_agency": "Department of Public Works",
    "final_address": "1731 Henriette Delille St",
    "address_councildis": "C",
    "status": "Pending",
    "contractor": "Legacy Professional Services",
    "rowid": "1149115",
    "final_x": "3683415.30466",
    "final_y": "536206.166791",
    "longitude": "-90.06185829048587",
    "latitude": "29.968322741168638",
    "geocoded_column": {
      "latitude": "29.968322741168638",
      "longitude": "-90.06185829048587"
    }
  },
  {
    "service_request": "2024-1149114",
    "request_type": "Streetlights",
    "request_reason": "New Streetlight Request",
    "date_created": "2024-11-17T08:20:04.000",
    "date_modified": "2024-11-17T08:20:06.000",
    "request_status": "Pending",
    "responsible_agency": "Department of Public Works",
    "final_address": "1727 Henriette Delille St",
    "address_councildis": "C",
    "status": "Pending",
    "contractor": "Legacy Professional Services",
    "rowid": "1149114",
    "final_x": "3683380.26133",
    "final_y": "536223.915271",
    "longitude": "-90.0619683368799",
    "latitude": "29.968372612528402",
    "geocoded_column": {
      "latitude": "29.968372612528402",
      "longitude": "-90.0619683368799"
    }
  },
  {
    "service_request": "2024-1149113",
    "request_type": "Streetlights",
    "request_reason": "New Streetlight Request",
    "date_created": "2024-11-17T08:16:29.000",
    "date_modified": "2024-11-17T08:16:30.000",
    "request_status": "Pending",
    "responsible_agency": "Department of Public Works",
    "final_address": "1701 Henriette Delille St",
    "address_councildis": "C",
    "status": "Pending",
    "contractor": "Legacy Professional Services",
    "rowid": "1149113",
    "final_x": "3683172.29423",
    "final_y": "536189.411975",
    "longitude": "-90.06262631441692",
    "latitude": "29.96828408356405",
    "geocoded_column": {
      "latitude": "29.96828408356405",
      "longitude": "-90.06262631441692"
    }
  },
  {
    "service_request": "2024-1149112",
    "request_type": "Graffiti Removal",
    "request_reason": "Graffiti Removal",
    "date_created": "2024-11-17T08:12:20.000",
    "date_modified": "2024-11-17T08:12:20.000",
    "request_status": "Pending",
    "responsible_agency": "Department of Code Enforcement",
    "final_address": "819 Conti St",
    "address_councildis": "C",
    "status": "Pending",
    "rowid": "1149112",
    "final_x": "3681515.88271",
    "final_y": "531981.671043",
    "longitude": "-90.06800407160405",
    "latitude": "29.956764639257862",
    "geocoded_column": {
      "latitude": "29.956764639257862",
      "longitude": "-90.06800407160405"
    }
  },
  {
    "service_request": "2024-1149111",
    "request_type": "Streetlights",
    "request_reason": "New Streetlight Request",
    "date_created": "2024-11-17T08:10:50.000",
    "date_modified": "2024-11-17T08:10:51.000",
    "request_status": "Pending",
    "responsible_agency": "Department of Public Works",
    "final_address": "1209 Annette St",
    "address_councildis": "C",
    "status": "Pending",
    "contractor": "Legacy Professional Services",
    "rowid": "1149111",
    "final_x": "3683169.46031",
    "final_y": "536257.085319",
    "longitude": "-90.06263289401691",
    "latitude": "29.968470248294057",
    "geocoded_column": {
      "latitude": "29.968470248294057",
      "longitude": "-90.06263289401691"
    }
  },
  {
    "service_request": "2024-1149110",
    "request_type": "Streetlights",
    "request_reason": "New Streetlight Request",
    "date_created": "2024-11-17T08:04:22.000",
    "date_modified": "2024-11-17T08:04:23.000",
    "request_status": "Pending",
    "responsible_agency": "Department of Public Works",
    "final_address": "1217 Annette St",
    "address_councildis": "C",
    "status": "Pending",
    "contractor": "Legacy Professional Services",
    "rowid": "1149110",
    "final_x": "3683166.92924",
    "final_y": "536298.788807",
    "longitude": "-90.06263942673225",
    "latitude": "29.968584995654837",
    "geocoded_column": {
      "latitude": "29.968584995654837",
      "longitude": "-90.06263942673225"
    }
  },
  {
    "service_request": "2024-1149109",
    "request_type": "Streetlights",
    "request_reason": "New Streetlight Request",
    "date_created": "2024-11-17T08:00:13.000",
    "date_modified": "2024-11-17T08:00:15.000",
    "request_status": "Pending",
    "responsible_agency": "Department of Public Works",
    "final_address": "1605 Marais St",
    "address_councildis": "C",
    "status": "Pending",
    "contractor": "Legacy Professional Services",
    "rowid": "1149109",
    "final_x": "3682956.62178",
    "final_y": "536536.282375",
    "longitude": "-90.06329527519792",
    "latitude": "29.969244432064723",
    "geocoded_column": {
      "latitude": "29.969244432064723",
      "longitude": "-90.06329527519792"
    }
  },
  {
    "service_request": "2024-1149108",
    "request_type": "Property Maintenance",
    "request_reason": "Property Maintenance",
    "date_created": "2024-11-17T07:58:32.000",
    "date_modified": "2024-11-17T07:58:32.000",
    "request_status": "Pending",
    "responsible_agency": "Department of Code Enforcement",
    "final_address": "9300 Dinkins St",
    "address_councildis": "E",
    "status": "Pending",
    "rowid": "1149108",
    "final_x": "3705839.73124",
    "final_y": "564018.609953",
    "longitude": "-89.9900118131281",
    "latitude": "30.04409311900977",
    "geocoded_column": {
      "latitude": "30.04409311900977",
      "longitude": "-89.9900118131281"
    }
  },
  {
    "service_request": "2024-1149107",
    "request_type": "Streetlights",
    "request_reason": "New Streetlight Request",
    "date_created": "2024-11-17T07:55:45.000",
    "date_modified": "2024-11-17T07:55:46.000",
    "request_status": "Pending",
    "responsible_agency": "Department of Public Works",
    "final_address": "1212 St Anthony St",
    "address_councildis": "C",
    "status": "Pending",
    "contractor": "Legacy Professional Services",
    "rowid": "1149107",
    "final_x": "3683468.54607",
    "final_y": "536286.062855",
    "longitude": "-90.06168735171357",
    "latitude": "29.968540803142254",
    "geocoded_column": {
      "latitude": "29.968540803142254",
      "longitude": "-90.06168735171357"
    }
  },
  {
    "service_request": "2024-1149106",
    "request_type": "Streetlights",
    "request_reason": "Streetlight Outage/Malfunction",
    "date_created": "2024-11-17T07:48:45.000",
    "date_modified": "2024-11-17T07:48:46.000",
    "request_status": "Pending",
    "responsible_agency": "Department of Public Works",
    "final_address": "1242 Frenchmen St",
    "address_councildis": "C",
    "status": "Pending",
    "contractor": "Legacy Professional Services",
    "rowid": "1149106",
    "final_x": "3684503.75113",
    "final_y": "536971.994888",
    "longitude": "-90.058394022151",
    "latitude": "29.97039524778264",
    "geocoded_column": {
      "latitude": "29.97039524778264",
      "longitude": "-90.058394022151"
    }
  },
  {
    "service_request": "2024-1149105",
    "request_type": "Streetlights",
    "request_reason": "Streetlight Outage/Malfunction",
    "date_created": "2024-11-17T07:41:05.000",
    "date_modified": "2024-11-17T07:41:06.000",
    "request_status": "Pending",
    "responsible_agency": "Department of Public Works",
    "final_address": "1218 St Anthony St",
    "address_councildis": "C",
    "status": "Pending",
    "contractor": "Legacy Professional Services",
    "rowid": "1149105",
    "final_x": "3683474.48821",
    "final_y": "536339.434631",
    "longitude": "-90.06166671555076",
    "latitude": "29.968687375739577",
    "geocoded_column": {
      "latitude": "29.968687375739577",
      "longitude": "-90.06166671555076"
    }
  },
  {
    "service_request": "2024-1149104",
    "request_type": "Streetlights",
    "request_reason": "Streetlight Outage/Malfunction",
    "date_created": "2024-11-17T07:34:54.000",
    "date_modified": "2024-11-17T07:34:55.000",
    "request_status": "Pending",
    "responsible_agency": "Department of Public Works",
    "final_address": "1709 Marais St",
    "address_councildis": "C",
    "status": "Pending",
    "contractor": "Legacy Professional Services",
    "rowid": "1149104",
    "final_x": "3683199.03132",
    "final_y": "536555.745607",
    "longitude": "-90.06252904692543",
    "latitude": "29.969290559099438",
    "geocoded_column": {
      "latitude": "29.969290559099438",
      "longitude": "-90.06252904692543"
    }
  },
  {
    "service_request": "2024-1149103",
    "request_type": "Streetlights",
    "request_reason": "Streetlight Outage/Malfunction",
    "date_created": "2024-11-17T07:31:17.000",
    "date_modified": "2024-11-17T07:31:18.000",
    "request_status": "Pending",
    "responsible_agency": "Department of Public Works",
    "final_address": "617 Ninth St",
    "address_councildis": "B",
    "status": "Pending",
    "contractor": "Legacy Professional Services",
    "rowid": "1149103",
    "final_x": "3676818.96693",
    "final_y": "518658.978999",
    "longitude": "-90.08329438415136",
    "latitude": "29.92027339890679",
    "geocoded_column": {
      "latitude": "29.92027339890679",
      "longitude": "-90.08329438415136"
    }
  },
  {
    "service_request": "2024-1149102",
    "request_type": "Safety & Permits",
    "request_reason": "Construction permit",
    "date_created": "2024-11-17T07:07:39.000",
    "date_modified": "2024-11-17T07:07:39.000",
    "request_status": "Pending",
    "responsible_agency": "Safety and Permits",
    "final_address": "1520 N Dorgenois St",
    "address_councildis": "D",
    "status": "Pending",
    "rowid": "1149102",
    "final_x": "3679254.22856",
    "final_y": "539347.315082",
    "longitude": "-90.07489021189157",
    "latitude": "29.97708612277162",
    "geocoded_column": {
      "latitude": "29.97708612277162",
      "longitude": "-90.07489021189157"
    }
  },
  {
    "service_request": "2024-1149101",
    "request_type": "Safety & Permits",
    "request_reason": "Licenses & Permits",
    "date_created": "2024-11-17T07:05:32.000",
    "date_modified": "2024-11-17T07:05:32.000",
    "request_status": "Pending",
    "responsible_agency": "Safety and Permits",
    "final_address": "1520 N Dorgenois St",
    "address_councildis": "D",
    "status": "Pending",
    "rowid": "1149101",
    "final_x": "3679254.22856",
    "final_y": "539347.315082",
    "longitude": "-90.07489021189157",
    "latitude": "29.97708612277162",
    "geocoded_column": {
      "latitude": "29.97708612277162",
      "longitude": "-90.07489021189157"
    }
  },
  {
    "service_request": "2024-1149100",
    "request_type": "General Services",
    "request_reason": "General Service Request",
    "date_created": "2024-11-17T05:50:18.000",
    "date_modified": "2024-11-17T05:50:18.000",
    "request_status": "Pending",
    "responsible_agency": "Orleans Parish Communication District",
    "final_address": "2630 Monroe St",
    "address_councildis": "A",
    "status": "Pending",
    "rowid": "1149100",
    "final_x": "3663905.65459",
    "final_y": "533728.415813",
    "longitude": "-90.12355355749231",
    "latitude": "29.962090584789443",
    "geocoded_column": {
      "latitude": "29.962090584789443",
      "longitude": "-90.12355355749231"
    }
  },